[
  {
    "service_request": "2024-1077743",
    "request_type": "Roads/Drainage",
    "request_reason": "Road Shoulder Repair",
    "date_created": "2024-03-21T23:00:19.000",
    "date_modified": "2024-03-21T23:00:19.000",
    "request_status": "Pending",
    "responsible_agency": "Department of Public Works",
    "final_address": "1300 BLK General Taylor St",
    "address_councildis": "B",
    "status": "Pending",
    "rowid": "1077743",
    "final_x": "3672786.50282",
    "final_y": "520381.696557",
    "longitude": "-90.09596426398673",
    "latitude": "29.925130668170585",
    "geocoded_column": {
      "latitude": "29.925130668170585",
      "longitude": "-90.09596426398673"
    }
  },
  {
    "service_request": "2024-1077742",
    "request_type": "Roads/Drainage",
    "request_reason": "Pothole",
    "date_created": "2024-03-21T22:41:41.000",
    "date_modified": "2024-03-21T22:41:41.000",
    "request_status": "Pending",
    "responsible_agency": "Department of Public Works",
    "final_address": "6216 Camp St",
    "address_councildis": "A",
    "status": "Pending",
    "rowid": "1077742",
    "final_x": "3663748.11187",
    "final_y": "519930.497272",
    "longitude": "-90.12451072353035",
    "latitude": "29.92415529590064",
    "geocoded_column": {
      "latitude": "29.92415529590064",
      "longitude": "-90.12451072353035"
    }
  },
  {
    "service_request": "2024-1077740",
    "request_type": "Roads/Drainage",
    "request_reason": "Street Subsidence (Sinking)",
    "date_created": "2024-03-21T22:32:34.000",
    "date_modified": "2024-03-21T22:32:34.000",
    "request_status": "Pending",
    "responsible_agency": "Department of Public Works",
    "final_address": "924 N Lopez St",
    "address_councildis": "A",
    "status": "Pending",
    "rowid": "1077740",
    "final_x": "3675858.10894",
    "final_y": "538787.355849",
    "longitude": "-90.08563552355177",
    "latitude": "29.97564854790228",
    "geocoded_column": {
      "latitude": "29.97564854790228",
      "longitude": "-90.08563552355177"
    }
  },
  {
    "service_request": "2024-1077739",
    "request_type": "Trash/Recycling",
    "request_reason": "Illegal Dumping",
    "date_created": "2024-03-21T22:21:02.000",
    "date_modified": "2024-03-21T22:21:02.000",
    "request_status": "Pending",
    "responsible_agency": "Department of Sanitation",
    "final_address": "2423 Alabo St",
    "address_councildis": "E",
    "status": "Pending",
    "rowid": "1077739",
    "final_x": "3700350.86506",
    "final_y": "538733.342025",
    "longitude": "-90.00828307333902",
    "latitude": "29.974743964790267",
    "geocoded_column": {
      "latitude": "29.974743964790267",
      "longitude": "-90.00828307333902"
    }
  },
  {
    "service_request": "2024-1077738",
    "request_type": "Roads/Drainage",
    "request_reason": "Pothole",
    "date_created": "2024-03-21T22:21:01.000",
    "date_modified": "2024-03-21T22:21:01.000",
    "request_status": "Pending",
    "responsible_agency": "Department of Public Works",
    "final_address": "6021 Coliseum St",
    "address_councildis": "A",
    "status": "Pending",
    "rowid": "1077738",
    "final_x": "3664837.14196",
    "final_y": "520295.634808",
    "longitude": "-90.12106082921962",
    "latitude": "29.925127673780054",
    "geocoded_column": {
      "latitude": "29.925127673780054",
      "longitude": "-90.12106082921962"
    }
  },
  {
    "service_request": "2024-1077737",
    "request_type": "Traffic Signals/Signs/Striping/Streetlights",
    "request_reason": "Street Light Outage/Malfunction",
    "date_created": "2024-03-21T22:16:34.000",
    "date_modified": "2024-03-21T22:16:34.000",
    "request_status": "Pending",
    "responsible_agency": "Department of Public Works",
    "final_address": "TOPAZ ST & GARNET ST",
    "address_councildis": "D",
    "status": "Assigned to Contractor",
    "contractor": "Legacy Professional Services",
    "rowid": "1077737",
    "final_x": "3667394.3",
    "final_y": "556384.58",
    "longitude": "-90.1117741795203",
    "latitude": "30.02428553354619",
    "geocoded_column": {
      "latitude": "30.02428553354619",
      "longitude": "-90.1117741795203"
    }
  },
  {
    "service_request": "2024-1077736",
    "request_type": "Roads/Drainage",
    "request_reason": "Pothole",
    "date_created": "2024-03-21T22:13:13.000",
    "date_modified": "2024-03-21T22:13:13.000",
    "request_status": "Pending",
    "responsible_agency": "Department of Public Works",
    "final_address": "4200 BLK Perrier St",
    "address_councildis": "B",
    "status": "Pending",
    "rowid": "1077736",
    "final_x": "3671500.64253",
    "final_y": "520125.882108",
    "longitude": "-90.1000320136845",
    "latitude": "29.924465378806524",
    "geocoded_column": {
      "latitude": "29.924465378806524",
      "longitude": "-90.1000320136845"
    }
  },
  {
    "service_request": "2024-1077735",
    "request_type": "Traffic Signals/Signs/Striping/Streetlights",
    "request_reason": "Street Light Outage/Malfunction",
    "date_created": "2024-03-21T22:11:49.000",
    "date_modified": "2024-03-21T22:11:49.000",
    "request_status": "Pending",
    "responsible_agency": "Department of Public Works",
    "final_address": "LAKESHORE DR & TOPAZ ST",
    "address_councildis": "D",
    "status": "Assigned to Contractor",
    "contractor": "Legacy Professional Services",
    "rowid": "1077735",
    "final_x": "3666891.7",
    "final_y": "556430.78",
    "longitude": "-90.11336075559657",
    "latitude": "30.024427290450582",
    "geocoded_column": {
      "latitude": "30.024427290450582",
      "longitude": "-90.11336075559657"
    }
  },
  {
    "service_request": "2024-1077734",
    "request_type": "Trash/Recycling",
    "request_reason": "Replace Recycling Cart",
    "date_created": "2024-03-21T22:08:21.000",
    "date_modified": "2024-03-21T22:08:21.000",
    "request_status": "Pending",
    "responsible_agency": "Department of Sanitation",
    "final_address": "821 Aline St",
    "address_councildis": "B",
    "status": "Pending",
    "rowid": "1077734",
    "final_x": "3674793.9019",
    "final_y": "518556.926007",
    "longitude": "-90.08969005898497",
    "latitude": "29.920053376894842",
    "geocoded_column": {
      "latitude": "29.920053376894842",
      "longitude": "-90.08969005898497"
    }
  },
  {
    "service_request": "2024-1077733",
    "request_type": "Roads/Drainage",
    "request_reason": "Pothole",
    "date_created": "2024-03-21T22:07:58.000",
    "date_modified": "2024-03-21T22:07:58.000",
    "request_status": "Pending",
    "responsible_agency": "Department of Public Works",
    "final_address": "6070 Chestnut St",
    "address_councildis": "A",
    "status": "Pending",
    "rowid": "1077733",
    "final_x": "3664412.78983",
    "final_y": "519991.592952",
    "longitude": "-90.12241052146828",
    "latitude": "29.92430399204139",
    "geocoded_column": {
      "latitude": "29.92430399204139",
      "longitude": "-90.12241052146828"
    }
  },
  {
    "service_request": "2024-1077732",
    "request_type": "Health Related Request",
    "request_reason": "Noise Ordinance Complaint",
    "date_created": "2024-03-21T21:40:44.000",
    "date_modified": "2024-03-21T21:40:44.000",
    "request_status": "Pending",
    "responsible_agency": "Health Department",
    "final_address": "600 BLK N Broad St",
    "address_councildis": "D",
    "status": "Pending",
    "rowid": "1077732",
    "final_x": "3676411.44045",
    "final_y": "536496.197136",
    "longitude": "-90.08396684646866",
    "latitude": "29.96933206503225",
    "geocoded_column": {
      "latitude": "29.96933206503225",
      "longitude": "-90.08396684646866"
    }
  },
  {
    "service_request": "2024-1077731",
    "request_type": "Trash/Recycling",
    "request_reason": "Replace Trash Cart",
    "date_created": "2024-03-21T21:18:03.000",
    "date_modified": "2024-03-21T21:18:04.000",
    "request_status": "Pending",
    "responsible_agency": "Department of Sanitation",
    "final_address": "1701 Nashville Ave",
    "address_councildis": "A",
    "status": "Assigned to Contractor",
    "contractor": "Richards Disposal",
    "rowid": "1077731",
    "final_x": "3666463.94631",
    "final_y": "522630.866682",
    "longitude": "-90.11584718505334",
    "latitude": "29.931501396510974",
    "geocoded_column": {
      "latitude": "29.931501396510974",
      "longitude": "-90.11584718505334"
    }
  },
  {
    "service_request": "2024-1077730",
    "request_type": "Traffic Signals/Signs/Striping/Streetlights",
    "request_reason": "Street Light Outage/Malfunction",
    "date_created": "2024-03-21T21:05:02.000",
    "date_modified": "2024-03-21T21:05:03.000",
    "request_status": "Pending",
    "responsible_agency": "Department of Public Works",
    "final_address": "11 N Lark St",
    "address_councildis": "D",
    "status": "Assigned to Contractor",
    "contractor": "Legacy Professional Services",
    "rowid": "1077730",
    "final_x": "3675168.38145",
    "final_y": "556415.86185",
    "longitude": "-90.08720839196646",
    "latitude": "30.02414137151268",
    "geocoded_column": {
      "latitude": "30.02414137151268",
      "longitude": "-90.08720839196646"
    }
  },
  {
    "service_request": "2024-1077729",
    "request_type": "Traffic Signals/Signs/Striping/Streetlights",
    "request_reason": "Street Light Outage/Malfunction",
    "date_created": "2024-03-21T20:40:34.000",
    "date_modified": "2024-03-21T20:40:34.000",
    "request_status": "Pending",
    "responsible_agency": "Department of Public Works",
    "final_address": "7270 Queensway Dr",
    "address_councildis": "E",
    "status": "Assigned to Contractor",
    "contractor": "Legacy Professional Services",
    "rowid": "1077729",
    "final_x": "3718426.70713",
    "final_y": "570365.178599",
    "longitude": "-89.94998970139565",
    "latitude": "30.061131815339984",
    "geocoded_column": {
      "latitude": "30.061131815339984",
      "longitude": "-89.94998970139565"
    }
  },
  {
    "service_request": "2024-1077728",
    "request_type": "Traffic Signals/Signs/Striping/Streetlights",
    "request_reason": "Street Light Outage/Malfunction",
    "date_created": "2024-03-21T20:32:03.000",
    "date_modified": "2024-03-21T20:32:03.000",
    "request_status": "Pending",
    "responsible_agency": "Department of Public Works",
    "final_address": "7270 Queensway Dr",
    "address_councildis": "E",
    "status": "Assigned to Contractor",
    "contractor": "Legacy Professional Services",
    "rowid": "1077728",
    "final_x": "3718426.70713",
    "final_y": "570365.178599",
    "longitude": "-89.94998970139565",
    "latitude": "30.061131815339984",
    "geocoded_column": {
      "latitude": "30.061131815339984",
      "longitude": "-89.94998970139565"
    }
  },
  {
    "service_request": "2024-1077727",
    "request_type": "Roads/Drainage",
    "request_reason": "Street Subsidence (Sinking)",
    "date_created": "2024-03-21T20:27:28.000",
    "date_modified": "2024-03-21T20:27:28.000",
    "request_status": "Pending",
    "responsible_agency": "Department of Public Works",
    "final_address": "2848 Annunciation St",
    "address_councildis": "B",
    "status": "Pending",
    "rowid": "1077727",
    "final_x": "3677341.64315",
    "final_y": "519644.9278",
    "longitude": "-90.08161054468029",
    "latitude": "29.922968750350993",
    "geocoded_column": {
      "latitude": "29.922968750350993",
      "longitude": "-90.08161054468029"
    }
  },
  {
    "service_request": "2024-1077726",
    "request_type": "Abandoned Vehicles",
    "request_reason": "Abandoned/Junk Vehicles",
    "date_created": "2024-03-21T20:25:31.000",
    "date_modified": "2024-03-21T20:25:31.000",
    "request_status": "Pending",
    "responsible_agency": "Department of Public Works",
    "final_address": "2611 Palmyra St",
    "address_councildis": "B",
    "status": "Pending",
    "rowid": "1077726",
    "final_x": "3675256.9691",
    "final_y": "534222.639941",
    "longitude": "-90.08769081566376",
    "latitude": "29.96311511292509",
    "geocoded_column": {
      "latitude": "29.96311511292509",
      "longitude": "-90.08769081566376"
    }
  },
  {
    "service_request": "2024-1077725",
    "request_type": "Utility Poles",
    "request_reason": "Utility Pole Leaning",
    "date_created": "2024-03-21T20:25:24.000",
    "date_modified": "2024-03-21T20:25:29.000",
    "request_status": "Pending",
    "responsible_agency": "Utility Company Collective",
    "final_address": "7836 Nelson St",
    "address_councildis": "A",
    "status": "Pending",
    "rowid": "1077725",
    "final_x": "3665705.8786",
    "final_y": "531260.180546",
    "longitude": "-90.1179513734152",
    "latitude": "29.95525136067576",
    "geocoded_column": {
      "latitude": "29.95525136067576",
      "longitude": "-90.1179513734152"
    }
  },
  {
    "service_request": "2024-1077723",
    "request_type": "Trash/Recycling",
    "request_reason": "Request a Large Item Pick Up",
    "date_created": "2024-03-21T20:19:07.000",
    "date_modified": "2024-03-21T20:19:08.000",
    "request_status": "Pending",
    "responsible_agency": "Department of Sanitation",
    "final_address": "722 Oak Ave, New Orleans, Louisiana, 70123",
    "status": "Assigned to Contractor",
    "rowid": "1077723",
    "longitude": "0.0",
    "latitude": "0.0",
    "geocoded_column": {
      "latitude": "0.0",
      "longitude": "0.0"
    }
  },
  {
    "service_request": "2024-1077722",
    "request_type": "Traffic Signals/Signs/Striping/Streetlights",
    "request_reason": "Street Light Outage/Malfunction",
    "date_created": "2024-03-21T19:58:56.000",
    "date_modified": "2024-03-21T19:58:57.000",
    "request_status": "Pending",
    "responsible_agency": "Department of Public Works",
    "final_address": "4777 Sherwood Dr",
    "address_councildis": "E",
    "status": "Assigned to Contractor",
    "contractor": "Legacy Professional Services",
    "rowid": "1077722",
    "final_x": "3718054.77657",
    "final_y": "557114.948378",
    "longitude": "-89.95167039002837",
    "latitude": "30.02471142799496",
    "geocoded_column": {
      "latitude": "30.02471142799496",
      "longitude": "-89.95167039002837"
    }
  },
  {
    "service_request": "2024-1077721",
    "request_type": "Trash/Recycling",
    "request_reason": "Replace Trash Cart",
    "date_created": "2024-03-21T19:49:06.000",
    "date_modified": "2024-03-21T19:49:07.000",
    "request_status": "Pending",
    "responsible_agency": "Department of Sanitation",
    "final_address": "3910 Laurel St",
    "address_councildis": "B",
    "status": "Assigned to Contractor",
    "contractor": "Richards Disposal",
    "rowid": "1077721",
    "final_x": "3673187.25716",
    "final_y": "518212.017782",
    "longitude": "-90.09477324065264",
    "latitude": "29.919152839840706",
    "geocoded_column": {
      "latitude": "29.919152839840706",
      "longitude": "-90.09477324065264"
    }
  },
  {
    "service_request": "2024-1077720",
    "request_type": "Trash/Recycling",
    "request_reason": "Request a Large Item Pick Up",
    "date_created": "2024-03-21T19:22:33.000",
    "date_modified": "2024-03-21T19:22:33.000",
    "request_status": "Pending",
    "responsible_agency": "Department of Sanitation",
    "final_address": "3108 Delachaise St",
    "address_councildis": "B",
    "status": "Assigned to Contractor",
    "contractor": "Richards Disposal",
    "rowid": "1077720",
    "final_x": "3671693.67963",
    "final_y": "526525.121918",
    "longitude": "-90.0992050934529",
    "latitude": "29.942055508949792",
    "geocoded_column": {
      "latitude": "29.942055508949792",
      "longitude": "-90.0992050934529"
    }
  },
  {
    "service_request": "2024-1077719",
    "request_type": "Trash/Recycling",
    "request_reason": "Order Recycling Cart",
    "date_created": "2024-03-21T19:02:26.000",
    "date_modified": "2024-03-21T19:02:26.000",
    "request_status": "Pending",
    "responsible_agency": "Department of Sanitation",
    "final_address": "5762 Pasteur Blvd",
    "address_councildis": "D",
    "status": "Pending",
    "rowid": "1077719",
    "final_x": "3682664.0054",
    "final_y": "554565.561688",
    "longitude": "-90.06358843151075",
    "latitude": "30.018827454831058",
    "geocoded_column": {
      "latitude": "30.018827454831058",
      "longitude": "-90.06358843151075"
    }
  },
  {
    "service_request": "2024-1077718",
    "request_type": "Trash/Recycling",
    "request_reason": "Repair Trash Cart",
    "date_created": "2024-03-21T18:49:43.000",
    "date_modified": "2024-03-21T18:49:44.000",
    "request_status": "Pending",
    "responsible_agency": "Department of Sanitation",
    "final_address": "6529 Wuerpel St",
    "address_councildis": "A",
    "status": "Assigned to Contractor",
    "contractor": "IV Waste",
    "rowid": "1077718",
    "final_x": "3667102.01857",
    "final_y": "551076.166421",
    "longitude": "-90.11287639831295",
    "latitude": "30.009697831427466",
    "geocoded_column": {
      "latitude": "30.009697831427466",
      "longitude": "-90.11287639831295"
    }
  },
  {
    "service_request": "2024-1077717",
    "request_type": "Traffic Signals/Signs/Striping/Streetlights",
    "request_reason": "Striping/Road Surface Markings",
    "date_created": "2024-03-21T18:00:09.000",
    "date_modified": "2024-03-21T18:00:09.000",
    "request_status": "Pending",
    "responsible_agency": "Department of Public Works",
    "final_address": "8100 Breakwater Dr",
    "address_councildis": "A",
    "status": "Pending",
    "rowid": "1077717",
    "final_x": "3665794.42996",
    "final_y": "557857.547035",
    "longitude": "-90.1167800824065",
    "latitude": "30.028382469882164",
    "geocoded_column": {
      "latitude": "30.028382469882164",
      "longitude": "-90.1167800824065"
    }
  },
  {
    "service_request": "2024-1077716",
    "request_type": "Trash/Recycling",
    "request_reason": "Replace Recycling Cart",
    "date_created": "2024-03-21T17:58:22.000",
    "date_modified": "2024-03-21T17:58:22.000",
    "request_status": "Pending",
    "responsible_agency": "Department of Sanitation",
    "final_address": "1825 Martin Luther King Jr Blvd, New Orleans, Louisiana, 70113",
    "status": "Pending",
    "rowid": "1077716",
    "longitude": "0.0",
    "latitude": "0.0",
    "geocoded_column": {
      "latitude": "0.0",
      "longitude": "0.0"
    }
  },
  {
    "service_request": "2024-1077715",
    "request_type": "Traffic Signals/Signs/Striping/Streetlights",
    "request_reason": "Traffic Signal Malfunctioning/Damaged",
    "date_created": "2024-03-21T17:45:44.000",
    "date_modified": "2024-03-21T17:45:44.000",
    "request_status": "Pending",
    "responsible_agency": "Department of Public Works",
    "final_address": "LOUISIANA AVE & ST CHARLES AVE",
    "address_councildis": "B",
    "status": "Pending",
    "rowid": "1077715",
    "final_x": "3674182.9",
    "final_y": "521553.38",
    "longitude": "-90.0915161948047",
    "latitude": "29.92831088265581",
    "geocoded_column": {
      "latitude": "29.92831088265581",
      "longitude": "-90.0915161948047"
    }
  },
  {
    "service_request": "2024-1077714",
    "request_type": "Trash/Recycling",
    "request_reason": "Repair Trash Cart",
    "date_created": "2024-03-21T17:34:39.000",
    "date_modified": "2024-03-21T17:34:40.000",
    "request_status": "Pending",
    "responsible_agency": "Department of Sanitation",
    "final_address": "2610 St Philip St",
    "address_councildis": "D",
    "status": "Assigned to Contractor",
    "contractor": "Richards Disposal",
    "rowid": "1077714",
    "final_x": "3677723.6491",
    "final_y": "537559.304584",
    "longitude": "-90.0797860580372",
    "latitude": "29.97221584064073",
    "geocoded_column": {
      "latitude": "29.97221584064073",
      "longitude": "-90.0797860580372"
    }
  },
  {
    "service_request": "2024-1077713",
    "request_type": "Trash/Recycling",
    "request_reason": "Request a Large Item Pick Up",
    "date_created": "2024-03-21T17:33:00.000",
    "date_modified": "2024-03-21T17:33:01.000",
    "request_status": "Pending",
    "responsible_agency": "Department of Sanitation",
    "final_address": "2117 Fern St",
    "address_councildis": "A",
    "status": "Assigned to Contractor",
    "contractor": "Richards Disposal",
    "rowid": "1077713",
    "final_x": "3664805.97024",
    "final_y": "530289.203585",
    "longitude": "-90.12082540895344",
    "latitude": "29.952607704966137",
    "geocoded_column": {
      "latitude": "29.952607704966137",
      "longitude": "-90.12082540895344"
    }
  },
  {
    "service_request": "2024-1077712",
    "request_type": "Trash/Recycling",
    "request_reason": "Illegal Dumping",
    "date_created": "2024-03-21T17:17:15.000",
    "date_modified": "2024-03-21T17:17:15.000",
    "request_status": "Pending",
    "responsible_agency": "Department of Sanitation",
    "final_address": "1221 S Saratoga St",
    "address_councildis": "B",
    "status": "Pending",
    "rowid": "1077712",
    "final_x": "3677944.39541",
    "final_y": "527266.642751",
    "longitude": "-90.07944461514658",
    "latitude": "29.943907848428648",
    "geocoded_column": {
      "latitude": "29.943907848428648",
      "longitude": "-90.07944461514658"
    }
  },
  {
    "service_request": "2024-1077708",
    "request_type": "Roads/Drainage",
    "request_reason": "Damaged Sidewalk",
    "date_created": "2024-03-21T17:02:54.000",
    "date_modified": "2024-03-21T17:02:54.000",
    "request_status": "Pending",
    "responsible_agency": "Department of Public Works",
    "final_address": "1117 Short St",
    "address_councildis": "A",
    "status": "Pending",
    "rowid": "1077708",
    "final_x": "3662198.14202",
    "final_y": "527901.153087",
    "longitude": "-90.1291390386886",
    "latitude": "29.946116953679937",
    "geocoded_column": {
      "latitude": "29.946116953679937",
      "longitude": "-90.1291390386886"
    }
  },
  {
    "service_request": "2024-1077707",
    "request_type": "Abandoned Vehicles",
    "request_reason": "Abandoned/Junk Vehicles",
    "date_created": "2024-03-21T16:56:47.000",
    "date_modified": "2024-03-21T16:56:47.000",
    "request_status": "Pending",
    "responsible_agency": "Department of Public Works",
    "final_address": "6985 Queensway Dr",
    "address_councildis": "E",
    "status": "Pending",
    "rowid": "1077707",
    "final_x": "3719429.62015",
    "final_y": "569188.02999",
    "longitude": "-89.94686457143582",
    "latitude": "30.05786181716063",
    "geocoded_column": {
      "latitude": "30.05786181716063",
      "longitude": "-89.94686457143582"
    }
  },
  {
    "service_request": "2024-1077706",
    "request_type": "Trash/Recycling",
    "request_reason": "Replace Recycling Cart",
    "date_created": "2024-03-21T16:54:04.000",
    "date_modified": "2024-03-21T16:54:04.000",
    "request_status": "Pending",
    "responsible_agency": "Department of Sanitation",
    "final_address": "438 Audubon Blvd",
    "address_councildis": "B",
    "status": "Pending",
    "rowid": "1077706",
    "final_x": "3667448.83239",
    "final_y": "530593.17485",
    "longitude": "-90.11247018775092",
    "latitude": "29.953366364044836",
    "geocoded_column": {
      "latitude": "29.953366364044836",
      "longitude": "-90.11247018775092"
    }
  },
  {
    "service_request": "2024-1077705",
    "request_type": "Abandoned Vehicles",
    "request_reason": "Abandoned/Junk Vehicles",
    "date_created": "2024-03-21T16:52:35.000",
    "date_modified": "2024-03-21T16:52:35.000",
    "request_status": "Pending",
    "responsible_agency": "Department of Public Works",
    "final_address": "6940 Queensway Dr",
    "address_councildis": "E",
    "status": "Pending",
    "rowid": "1077705",
    "final_x": "3719509.9205",
    "final_y": "568944.646309",
    "longitude": "-89.94662006497596",
    "latitude": "30.057189941411607",
    "geocoded_column": {
      "latitude": "30.057189941411607",
      "longitude": "-89.94662006497596"
    }
  },
  {
    "service_request": "2024-1077704",
    "request_type": "Abandoned Vehicles",
    "request_reason": "Abandoned/Junk Vehicles",
    "date_created": "2024-03-21T16:52:00.000",
    "date_modified": "2024-03-21T16:52:00.000",
    "request_status": "Pending",
    "responsible_agency": "Department of Public Works",
    "final_address": "1100 BLK Short St",
    "address_councildis": "A",
    "status": "Pending",
    "rowid": "1077704",
    "final_x": "3662177.89805",
    "final_y": "527938.0384",
    "longitude": "-90.12920173232813",
    "latitude": "29.946218961470933",
    "geocoded_column": {
      "latitude": "29.946218961470933",
      "longitude": "-90.12920173232813"
    }
  },
  {
    "service_request": "2024-1077703",
    "request_type": "Trash/Recycling",
    "request_reason": "Request a Large Item Pick Up",
    "date_created": "2024-03-21T16:51:01.000",
    "date_modified": "2024-03-21T16:51:02.000",
    "request_status": "Pending",
    "responsible_agency": "Department of Sanitation",
    "final_address": "NEW",
    "address_councildis": "B",
    "status": "Assigned to Contractor",
    "contractor": "Richards Disposal",
    "rowid": "1077703",
    "final_x": "3672187.92769",
    "final_y": "534175.720965",
    "longitude": "-90.09738410181727",
    "latitude": "29.963077482958436",
    "geocoded_column": {
      "latitude": "29.963077482958436",
      "longitude": "-90.09738410181727"
    }
  },
  {
    "service_request": "2024-1077702",
    "request_type": "Trash/Recycling",
    "request_reason": "Replace Trash Cart",
    "date_created": "2024-03-21T16:50:30.000",
    "date_modified": "2024-03-21T16:50:31.000",
    "request_status": "Pending",
    "responsible_agency": "Department of Sanitation",
    "final_address": "1543 Calhoun St",
    "address_councildis": "A",
    "status": "Assigned to Contractor",
    "contractor": "Richards Disposal",
    "rowid": "1077702",
    "final_x": "3664724.60768",
    "final_y": "522587.654714",
    "longitude": "-90.12133953643816",
    "latitude": "29.931433279260016",
    "geocoded_column": {
      "latitude": "29.931433279260016",
      "longitude": "-90.12133953643816"
    }
  },
  {
    "service_request": "2024-1077701",
    "request_type": "Abandoned Vehicles",
    "request_reason": "Abandoned/Junk Vehicles",
    "date_created": "2024-03-21T16:49:17.000",
    "date_modified": "2024-03-21T16:49:17.000",
    "request_status": "Pending",
    "responsible_agency": "Department of Public Works",
    "final_address": "14110 Kingswood Dr",
    "address_councildis": "E",
    "status": "Pending",
    "rowid": "1077701",
    "final_x": "3719841.50118",
    "final_y": "568792.335653",
    "longitude": "-89.94557782885735",
    "latitude": "30.056760112564028",
    "geocoded_column": {
      "latitude": "30.056760112564028",
      "longitude": "-89.94557782885735"
    }
  },
  {
    "service_request": "2024-1077700",
    "request_type": "Abandoned Vehicles",
    "request_reason": "Abandoned/Junk Vehicles",
    "date_created": "2024-03-21T16:45:31.000",
    "date_modified": "2024-03-21T16:45:31.000",
    "request_status": "Pending",
    "responsible_agency": "Department of Public Works",
    "final_address": "14110 Kingswood Dr",
    "address_councildis": "E",
    "status": "Pending",
    "rowid": "1077700",
    "final_x": "3719841.50118",
    "final_y": "568792.335653",
    "longitude": "-89.94557782885735",
    "latitude": "30.056760112564028",
    "geocoded_column": {
      "latitude": "30.056760112564028",
      "longitude": "-89.94557782885735"
    }
  },
  {
    "service_request": "2024-1077699",
    "request_type": "Trash/Recycling",
    "request_reason": "Replace Trash Cart",
    "date_created": "2024-03-21T16:39:47.000",
    "date_modified": "2024-03-21T16:39:48.000",
    "request_status": "Pending",
    "responsible_agency": "Department of Sanitation",
    "final_address": "1436 Toledano St",
    "address_councildis": "B",
    "status": "Assigned to Contractor",
    "contractor": "Richards Disposal",
    "rowid": "1077699",
    "final_x": "3674808.71105",
    "final_y": "521014.225401",
    "longitude": "-90.08955911900198",
    "latitude": "29.926809717799667",
    "geocoded_column": {
      "latitude": "29.926809717799667",
      "longitude": "-90.08955911900198"
    }
  },
  {
    "service_request": "2024-1077698",
    "request_type": "Property Maintenance",
    "request_reason": "Property Maintenance",
    "date_created": "2024-03-21T16:37:44.000",
    "date_modified": "2024-03-21T16:37:44.000",
    "request_status": "Pending",
    "responsible_agency": "Department of Code Enforcement",
    "final_address": "3702 N Tonti St",
    "address_councildis": "D",
    "status": "Pending",
    "rowid": "1077698",
    "final_x": "3692111.84822",
    "final_y": "539985.873035",
    "longitude": "-90.03425898918708",
    "latitude": "29.97844738211308",
    "geocoded_column": {
      "latitude": "29.97844738211308",
      "longitude": "-90.03425898918708"
    }
  },
  {
    "service_request": "2024-1077697",
    "request_type": "Property Maintenance",
    "request_reason": "Property Maintenance",
    "date_created": "2024-03-21T16:36:50.000",
    "date_modified": "2024-03-21T16:36:50.000",
    "request_status": "Pending",
    "responsible_agency": "Department of Code Enforcement",
    "final_address": "2231 Independence St",
    "address_councildis": "D",
    "status": "Pending",
    "rowid": "1077697",
    "final_x": "3692073.68969",
    "final_y": "539877.556362",
    "longitude": "-90.0343833854828",
    "latitude": "29.978150739416797",
    "geocoded_column": {
      "latitude": "29.978150739416797",
      "longitude": "-90.0343833854828"
    }
  },
  {
    "service_request": "2024-1077696",
    "request_type": "Property Maintenance",
    "request_reason": "Property Maintenance",
    "date_created": "2024-03-21T16:35:37.000",
    "date_modified": "2024-03-21T16:35:37.000",
    "request_status": "Pending",
    "responsible_agency": "Department of Code Enforcement",
    "final_address": "2227 Independence St",
    "address_councildis": "D",
    "status": "Pending",
    "rowid": "1077696",
    "final_x": "3692066.31453",
    "final_y": "539846.25633",
    "longitude": "-90.03440779941654",
    "latitude": "29.978064905386947",
    "geocoded_column": {
      "latitude": "29.978064905386947",
      "longitude": "-90.03440779941654"
    }
  },
  {
    "service_request": "2024-1077695",
    "request_type": "Property Maintenance",
    "request_reason": "Property Maintenance",
    "date_created": "2024-03-21T16:33:57.000",
    "date_modified": "2024-03-21T16:33:57.000",
    "request_status": "Pending",
    "responsible_agency": "Department of Code Enforcement",
    "final_address": "2223 Independence St",
    "address_councildis": "D",
    "status": "Pending",
    "rowid": "1077695",
    "final_x": "3692057.68419",
    "final_y": "539813.069706",
    "longitude": "-90.03443624513646",
    "latitude": "29.977973923020002",
    "geocoded_column": {
      "latitude": "29.977973923020002",
      "longitude": "-90.03443624513646"
    }
  },
  {
    "service_request": "2024-1077694",
    "request_type": "Trash/Recycling",
    "request_reason": "Request a Large Item Pick Up",
    "date_created": "2024-03-21T16:31:59.000",
    "date_modified": "2024-03-21T16:31:59.000",
    "request_status": "Pending",
    "responsible_agency": "Department of Sanitation",
    "final_address": "1434 N Prieur St",
    "address_councildis": "D",
    "status": "Assigned to Contractor",
    "contractor": "IV Waste",
    "rowid": "1077694",
    "final_x": "3680650.52207",
    "final_y": "537465.070856",
    "longitude": "-90.07054578229447",
    "latitude": "29.971868361951703",
    "geocoded_column": {
      "latitude": "29.971868361951703",
      "longitude": "-90.07054578229447"
    }
  },
  {
    "service_request": "2024-1077693",
    "request_type": "Trash/Recycling",
    "request_reason": "Request a Large Item Pick Up",
    "date_created": "2024-03-21T16:27:32.000",
    "date_modified": "2024-03-21T16:27:32.000",
    "request_status": "Pending",
    "responsible_agency": "Department of Sanitation",
    "final_address": "26 N Blue Ridge Ct",
    "address_councildis": "E",
    "status": "Assigned to Contractor",
    "contractor": "Waste Pro",
    "rowid": "1077693",
    "final_x": "3713974.49599",
    "final_y": "567680.187236",
    "longitude": "-89.96416433717226",
    "latitude": "30.053896233131592",
    "geocoded_column": {
      "latitude": "30.053896233131592",
      "longitude": "-89.96416433717226"
    }
  },
  {
    "service_request": "2024-1077692",
    "request_type": "Trash/Recycling",
    "request_reason": "Order Trash Cart",
    "date_created": "2024-03-21T16:25:11.000",
    "date_modified": "2024-03-21T16:25:12.000",
    "request_status": "Pending",
    "responsible_agency": "Department of Sanitation",
    "final_address": "4601 Lancelot Dr",
    "address_councildis": "E",
    "status": "Assigned to Contractor",
    "contractor": "Waste Pro",
    "rowid": "1077692",
    "final_x": "3707624.29336",
    "final_y": "554479.272856",
    "longitude": "-89.98472668647379",
    "latitude": "30.01780604488776",
    "geocoded_column": {
      "latitude": "30.01780604488776",
      "longitude": "-89.98472668647379"
    }
  },
  {
    "service_request": "2024-1077691",
    "request_type": "Trash/Recycling",
    "request_reason": "Replace Trash Cart",
    "date_created": "2024-03-21T16:23:33.000",
    "date_modified": "2024-03-21T16:23:34.000",
    "request_status": "Pending",
    "responsible_agency": "Department of Sanitation",
    "final_address": "1817 Urquhart St",
    "address_councildis": "C",
    "status": "Assigned to Contractor",
    "contractor": "IV Waste",
    "rowid": "1077691",
    "final_x": "3683622.78133",
    "final_y": "536967.412872",
    "longitude": "-90.06117637984612",
    "latitude": "29.970409572268508",
    "geocoded_column": {
      "latitude": "29.970409572268508",
      "longitude": "-90.06117637984612"
    }
  },
  {
    "service_request": "2024-1077690",
    "request_type": "Roads/Drainage",
    "request_reason": "Street Subsidence (Sinking)",
    "date_created": "2024-03-21T16:21:59.000",
    "date_modified": "2024-03-21T16:21:59.000",
    "request_status": "Pending",
    "responsible_agency": "Department of Public Works",
    "final_address": "1231 Saint Roch Ave, New Orleans, Louisiana, 70117",
    "status": "Pending",
    "rowid": "1077690",
    "longitude": "0.0",
    "latitude": "0.0",
    "geocoded_column": {
      "latitude": "0.0",
      "longitude": "0.0"
    }
  },
  {
    "service_request": "2024-1077688",
    "request_type": "Trash/Recycling",
    "request_reason": "Order Recycling Cart",
    "date_created": "2024-03-21T16:17:00.000",
    "date_modified": "2024-03-21T16:17:00.000",
    "request_status": "Pending",
    "responsible_agency": "Department of Sanitation",
    "final_address": "915 Conrad St",
    "address_councildis": "A",
    "status": "Pending",
    "rowid": "1077688",
    "final_x": "3670633.12558",
    "final_y": "554246.873816",
    "longitude": "-90.10161266412445",
    "latitude": "30.018312266356883",
    "geocoded_column": {
      "latitude": "30.018312266356883",
      "longitude": "-90.10161266412445"
    }
  },
  {
    "service_request": "2024-1077687",
    "request_type": "Abandoned Vehicles",
    "request_reason": "Abandoned/Junk Vehicles",
    "date_created": "2024-03-21T16:15:11.000",
    "date_modified": "2024-03-21T16:15:12.000",
    "request_status": "Pending",
    "responsible_agency": "Department of Public Works",
    "final_address": "1622 Jo Ann Pl",
    "address_councildis": "C",
    "status": "Pending",
    "rowid": "1077687",
    "final_x": "3695003.79901",
    "final_y": "525225.374717",
    "longitude": "-90.02565722671305",
    "latitude": "29.937770732270486",
    "geocoded_column": {
      "latitude": "29.937770732270486",
      "longitude": "-90.02565722671305"
    }
  },
  {
    "service_request": "2024-1077686",
    "request_type": "Roads/Drainage",
    "request_reason": "Pothole",
    "date_created": "2024-03-21T16:13:35.000",
    "date_modified": "2024-03-21T16:13:36.000",
    "request_status": "Pending",
    "responsible_agency": "Department of Public Works",
    "final_address": "4900 BLK Press Dr",
    "address_councildis": "D",
    "status": "Pending",
    "rowid": "1077686",
    "final_x": "3689485.62132",
    "final_y": "551394.592865",
    "longitude": "-90.04214751414739",
    "latitude": "30.009898846885477",
    "geocoded_column": {
      "latitude": "30.009898846885477",
      "longitude": "-90.04214751414739"
    }
  },
  {
    "service_request": "2024-1077685",
    "request_type": "Trash/Recycling",
    "request_reason": "Request a Large Item Pick Up",
    "date_created": "2024-03-21T16:06:42.000",
    "date_modified": "2024-03-21T16:06:43.000",
    "request_status": "Pending",
    "responsible_agency": "Department of Sanitation",
    "final_address": "1542 De Battista Pl",
    "address_councildis": "C",
    "status": "Assigned to Contractor",
    "contractor": "Richards Disposal",
    "rowid": "1077685",
    "final_x": "3699816.81764",
    "final_y": "525465.287677",
    "longitude": "-90.01045349853717",
    "latitude": "29.938278498402248",
    "geocoded_column": {
      "latitude": "29.938278498402248",
      "longitude": "-90.01045349853717"
    }
  },
  {
    "service_request": "2024-1077684",
    "request_type": "Trash/Recycling",
    "request_reason": "Request a Large Item Pick Up",
    "date_created": "2024-03-21T16:05:50.000",
    "date_modified": "2024-03-21T16:05:51.000",
    "request_status": "Pending",
    "responsible_agency": "Department of Sanitation",
    "final_address": "720 Belleville St",
    "address_councildis": "C",
    "status": "Assigned to Contractor",
    "contractor": "Richards Disposal",
    "rowid": "1077684",
    "final_x": "3687855.88233",
    "final_y": "528912.802112",
    "longitude": "-90.04809312808595",
    "latitude": "29.94813227262319",
    "geocoded_column": {
      "latitude": "29.94813227262319",
      "longitude": "-90.04809312808595"
    }
  },
  {
    "service_request": "2024-1077683",
    "request_type": "Roads/Drainage",
    "request_reason": "Damaged Sidewalk",
    "date_created": "2024-03-21T15:58:59.000",
    "date_modified": "2024-03-21T15:58:59.000",
    "request_status": "Pending",
    "responsible_agency": "Department of Public Works",
    "final_address": "1504 St Anthony St",
    "address_councildis": "C",
    "status": "Pending",
    "rowid": "1077683",
    "final_x": "3683305.35784",
    "final_y": "537704.818632",
    "longitude": "-90.06215300198328",
    "latitude": "29.972446868777173",
    "geocoded_column": {
      "latitude": "29.972446868777173",
      "longitude": "-90.06215300198328"
    }
  },
  {
    "service_request": "2024-1077682",
    "request_type": "Parks & Parkways",
    "request_reason": "Request Tree Service (Right of Way/Public Property)",
    "date_created": "2024-03-21T15:57:47.000",
    "date_modified": "2024-03-21T15:57:47.000",
    "request_status": "Pending",
    "responsible_agency": "Department of Parks & Parkway",
    "final_address": "2236 Easter Ln",
    "address_councildis": "C",
    "status": "Pending",
    "rowid": "1077682",
    "final_x": "3699297.93047",
    "final_y": "522888.174651",
    "longitude": "-90.01218547420078",
    "latitude": "29.931208792523453",
    "geocoded_column": {
      "latitude": "29.931208792523453",
      "longitude": "-90.01218547420078"
    }
  },
  {
    "service_request": "2024-1077681",
    "request_type": "Trash/Recycling",
    "request_reason": "Replace Trash Cart",
    "date_created": "2024-03-21T15:57:36.000",
    "date_modified": "2024-03-21T15:57:37.000",
    "request_status": "Pending",
    "responsible_agency": "Department of Sanitation",
    "final_address": "4528 S Prieur St",
    "address_councildis": "B",
    "status": "Assigned to Contractor",
    "contractor": "Richards Disposal",
    "rowid": "1077681",
    "final_x": "3669590.52577",
    "final_y": "526788.594814",
    "longitude": "-90.10583630959438",
    "latitude": "29.942842092014516",
    "geocoded_column": {
      "latitude": "29.942842092014516",
      "longitude": "-90.10583630959438"
    }
  },
  {
    "service_request": "2024-1077680",
    "request_type": "Trash/Recycling",
    "request_reason": "Request a Large Item Pick Up",
    "date_created": "2024-03-21T15:55:51.000",
    "date_modified": "2024-03-21T15:55:51.000",
    "request_status": "Pending",
    "responsible_agency": "Department of Sanitation",
    "final_address": "5417 Freret St",
    "address_councildis": "A",
    "status": "Assigned to Contractor",
    "contractor": "Richards Disposal",
    "rowid": "1077680",
    "final_x": "3667761.82676",
    "final_y": "524116.028156",
    "longitude": "-90.11169993103742",
    "latitude": "29.93554713323735",
    "geocoded_column": {
      "latitude": "29.93554713323735",
      "longitude": "-90.11169993103742"
    }
  },
  {
    "service_request": "2024-1077679",
    "request_type": "Graffiti Removal",
    "request_reason": "Graffiti Removal",
    "date_created": "2024-03-21T15:52:43.000",
    "date_modified": "2024-03-21T15:52:43.000",
    "request_status": "Pending",
    "responsible_agency": "Department of Code Enforcement",
    "final_address": "400 BLK Iberville St",
    "address_councildis": "C",
    "status": "Pending",
    "rowid": "1077679",
    "final_x": "3682240.47505",
    "final_y": "530408.673878",
    "longitude": "-90.06577098955776",
    "latitude": "29.952417409456427",
    "geocoded_column": {
      "latitude": "29.952417409456427",
      "longitude": "-90.06577098955776"
    }
  },
  {
    "service_request": "2024-1077678",
    "request_type": "Trash/Recycling",
    "request_reason": "Request a Large Item Pick Up",
    "date_created": "2024-03-21T15:52:05.000",
    "date_modified": "2024-03-21T15:52:53.000",
    "request_status": "Pending",
    "responsible_agency": "Department of Sanitation",
    "final_address": "3201 Lamarque St",
    "address_councildis": "C",
    "status": "Assigned to Contractor",
    "contractor": "Richards Disposal",
    "rowid": "1077678",
    "final_x": "3696036.63325",
    "final_y": "526608.391934",
    "longitude": "-90.02234654835868",
    "latitude": "29.941541100836744",
    "geocoded_column": {
      "latitude": "29.941541100836744",
      "longitude": "-90.02234654835868"
    }
  },
  {
    "service_request": "2024-1077677",
    "request_type": "Property Maintenance",
    "request_reason": "Property Maintenance",
    "date_created": "2024-03-21T15:51:15.000",
    "date_modified": "2024-03-21T15:51:15.000",
    "request_status": "Pending",
    "responsible_agency": "Department of Code Enforcement",
    "final_address": "3233 Conti St",
    "address_councildis": "B",
    "status": "Pending",
    "rowid": "1077677",
    "final_x": "3674387.3028",
    "final_y": "537359.620872",
    "longitude": "-90.0903296600136",
    "latitude": "29.971766717746632",
    "geocoded_column": {
      "latitude": "29.971766717746632",
      "longitude": "-90.0903296600136"
    }
  },
  {
    "service_request": "2024-1077676",
    "request_type": "Trash/Recycling",
    "request_reason": "Replace Recycling Cart",
    "date_created": "2024-03-21T15:47:57.000",
    "date_modified": "2024-03-21T15:47:57.000",
    "request_status": "Pending",
    "responsible_agency": "Department of Sanitation",
    "final_address": "1615 Mirabeau Ave",
    "address_councildis": "D",
    "status": "Pending",
    "rowid": "1077676",
    "final_x": "3679898.88463",
    "final_y": "550529.754452",
    "longitude": "-90.07246554824083",
    "latitude": "30.007814405630842",
    "geocoded_column": {
      "latitude": "30.007814405630842",
      "longitude": "-90.07246554824083"
    }
  },
  {
    "service_request": "2024-1077675",
    "request_type": "Trash/Recycling",
    "request_reason": "Replace Trash Cart",
    "date_created": "2024-03-21T15:46:45.000",
    "date_modified": "2024-03-21T15:46:46.000",
    "request_status": "Pending",
    "responsible_agency": "Department of Sanitation",
    "final_address": "4129 Tchoupitoulas St",
    "address_councildis": "B",
    "status": "Assigned to Contractor",
    "contractor": "Richards Disposal",
    "rowid": "1077675",
    "final_x": "3672035.01447",
    "final_y": "517582.716278",
    "longitude": "-90.09843169924329",
    "latitude": "29.917456656983912",
    "geocoded_column": {
      "latitude": "29.917456656983912",
      "longitude": "-90.09843169924329"
    }
  },
  {
    "service_request": "2024-1077674",
    "request_type": "Parks & Parkways",
    "request_reason": "Request Tree Service (Right of Way/Public Property)",
    "date_created": "2024-03-21T15:44:28.000",
    "date_modified": "2024-03-21T15:44:29.000",
    "request_status": "Pending",
    "responsible_agency": "Department of Parks & Parkway",
    "final_address": "11026 Vienna St",
    "address_councildis": "E",
    "status": "Pending",
    "rowid": "1077674",
    "final_x": "3715902.57036",
    "final_y": "557810.302939",
    "longitude": "-89.95844455583878",
    "latitude": "30.02669455732732",
    "geocoded_column": {
      "latitude": "30.02669455732732",
      "longitude": "-89.95844455583878"
    }
  },
  {
    "service_request": "2024-1077673",
    "request_type": "Trash/Recycling",
    "request_reason": "Return Trash Cart",
    "date_created": "2024-03-21T15:41:43.000",
    "date_modified": "2024-03-21T15:41:44.000",
    "case_close_date": "2024-03-20T19:00:00.000",
    "request_status": "Pending",
    "responsible_agency": "Department of Sanitation",
    "final_address": "627 S Pierce St",
    "address_councildis": "A",
    "status": "Assigned to Contractor",
    "contractor": "Richards Disposal",
    "rowid": "1077673",
    "final_x": "3670118.39111",
    "final_y": "536311.667719",
    "longitude": "-90.10384709277842",
    "latitude": "29.969011841572087",
    "geocoded_column": {
      "latitude": "29.969011841572087",
      "longitude": "-90.10384709277842"
    }
  },
  {
    "service_request": "2024-1077672",
    "request_type": "Trash/Recycling",
    "request_reason": "Order Recycling Cart",
    "date_created": "2024-03-21T15:41:11.000",
    "date_modified": "2024-03-21T15:41:11.000",
    "request_status": "Pending",
    "responsible_agency": "Department of Sanitation",
    "final_address": "2018 Lombard St",
    "address_councildis": "D",
    "status": "Pending",
    "rowid": "1077672",
    "final_x": "3682682.12092",
    "final_y": "548989.728851",
    "longitude": "-90.06372639890427",
    "latitude": "30.003495385001507",
    "geocoded_column": {
      "latitude": "30.003495385001507",
      "longitude": "-90.06372639890427"
    }
  },
  {
    "service_request": "2024-1077671",
    "request_type": "Trash/Recycling",
    "request_reason": "Missed Trash Pick-Up",
    "date_created": "2024-03-21T15:39:42.000",
    "date_modified": "2024-03-21T15:39:43.000",
    "request_status": "Pending",
    "responsible_agency": "Department of Sanitation",
    "final_address": "7230 E Renaissance Ct",
    "address_councildis": "E",
    "status": "Assigned to Contractor",
    "contractor": "Waste Pro",
    "rowid": "1077671",
    "final_x": "3716911.41554",
    "final_y": "568314.849317",
    "longitude": "-89.95485742801111",
    "latitude": "30.055544472041568",
    "geocoded_column": {
      "latitude": "30.055544472041568",
      "longitude": "-89.95485742801111"
    }
  },
  {
    "service_request": "2024-1077670",
    "request_type": "Traffic Signals/Signs/Striping/Streetlights",
    "request_reason": "Traffic Signal Malfunctioning/Damaged",
    "date_created": "2024-03-21T15:38:50.000",
    "date_modified": "2024-03-21T15:38:51.000",
    "request_status": "Pending",
    "responsible_agency": "Department of Public Works",
    "final_address": "PALM ST & S CARROLLTON AVE",
    "address_councildis": "A",
    "status": "Pending",
    "rowid": "1077670",
    "final_x": "3667752.4",
    "final_y": "534673.18",
    "longitude": "-90.11137426030031",
    "latitude": "29.9645761383141",
    "geocoded_column": {
      "latitude": "29.9645761383141",
      "longitude": "-90.11137426030031"
    }
  },
  {
    "service_request": "2024-1077669",
    "request_type": "Trash/Recycling",
    "request_reason": "Replace Trash Cart",
    "date_created": "2024-03-21T15:33:37.000",
    "date_modified": "2024-03-21T15:33:37.000",
    "request_status": "Pending",
    "responsible_agency": "Department of Sanitation",
    "final_address": "5125 St Claude Ave",
    "address_councildis": "E",
    "status": "Assigned to Contractor",
    "contractor": "Waste Pro",
    "rowid": "1077669",
    "final_x": "3696496.59952",
    "final_y": "534305.427909",
    "longitude": "-90.0206159497999",
    "latitude": "29.962690772905088",
    "geocoded_column": {
      "latitude": "29.962690772905088",
      "longitude": "-90.0206159497999"
    }
  },
  {
    "service_request": "2024-1077668",
    "request_type": "Roads/Drainage",
    "request_reason": "Catch Basin - Clogged",
    "date_created": "2024-03-21T15:29:14.000",
    "date_modified": "2024-03-21T15:29:14.000",
    "request_status": "Pending",
    "responsible_agency": "Department of Public Works",
    "final_address": "2313 State St",
    "address_councildis": "A",
    "status": "Pending",
    "rowid": "1077668",
    "final_x": "3666705.39719",
    "final_y": "525135.394557",
    "longitude": "-90.11500088342156",
    "latitude": "29.938380992186616",
    "geocoded_column": {
      "latitude": "29.938380992186616",
      "longitude": "-90.11500088342156"
    }
  },
  {
    "service_request": "2024-1077667",
    "request_type": "Trash/Recycling",
    "request_reason": "Request a Large Item Pick Up",
    "date_created": "2024-03-21T15:26:12.000",
    "date_modified": "2024-03-21T15:26:13.000",
    "request_status": "Pending",
    "responsible_agency": "Department of Sanitation",
    "final_address": "4535 Camp St",
    "address_councildis": "B",
    "status": "Assigned to Contractor",
    "contractor": "Richards Disposal",
    "rowid": "1077667",
    "final_x": "3670322.95316",
    "final_y": "519127.119479",
    "longitude": "-90.10378341738199",
    "latitude": "29.921753900936242",
    "geocoded_column": {
      "latitude": "29.921753900936242",
      "longitude": "-90.10378341738199"
    }
  },
  {
    "service_request": "2024-1077666",
    "request_type": "Trash/Recycling",
    "request_reason": "Request a Large Item Pick Up",
    "date_created": "2024-03-21T15:22:51.000",
    "date_modified": "2024-03-21T15:22:51.000",
    "request_status": "Pending",
    "responsible_agency": "Department of Sanitation",
    "final_address": "5831 Brighton Pl",
    "address_councildis": "C",
    "status": "Assigned to Contractor",
    "contractor": "Richards Disposal",
    "rowid": "1077666",
    "final_x": "3705194.07966",
    "final_y": "520029.286392",
    "longitude": "-89.99367775578419",
    "latitude": "29.923159602078485",
    "geocoded_column": {
      "latitude": "29.923159602078485",
      "longitude": "-89.99367775578419"
    }
  },
  {
    "service_request": "2024-1077665",
    "request_type": "Traffic Signals/Signs/Striping/Streetlights",
    "request_reason": "Street Name Sign Damaged or Missing",
    "date_created": "2024-03-21T15:19:47.000",
    "date_modified": "2024-03-21T15:19:47.000",
    "request_status": "Pending",
    "responsible_agency": "Department of Public Works",
    "final_address": "600 BLK Dauphine St",
    "address_councildis": "C",
    "status": "Pending",
    "rowid": "1077665",
    "final_x": "3681854.75174",
    "final_y": "532730.348041",
    "longitude": "-90.06690790378119",
    "latitude": "29.958812952497304",
    "geocoded_column": {
      "latitude": "29.958812952497304",
      "longitude": "-90.06690790378119"
    }
  },
  {
    "service_request": "2024-1077664",
    "request_type": "Trash/Recycling",
    "request_reason": "Missed Trash Pick-Up",
    "date_created": "2024-03-21T15:14:44.000",
    "date_modified": "2024-03-21T15:14:45.000",
    "request_status": "Pending",
    "responsible_agency": "Department of Sanitation",
    "final_address": "3034 Second St",
    "address_councildis": "B",
    "status": "Assigned to Contractor",
    "contractor": "Richards Disposal",
    "rowid": "1077664",
    "final_x": "3673716.32238",
    "final_y": "527496.690879",
    "longitude": "-90.09278595565222",
    "latitude": "29.94466694866385",
    "geocoded_column": {
      "latitude": "29.94466694866385",
      "longitude": "-90.09278595565222"
    }
  },
  {
    "service_request": "2024-1077663",
    "request_type": "Trash/Recycling",
    "request_reason": "Repair Trash Cart",
    "date_created": "2024-03-21T15:14:18.000",
    "date_modified": "2024-03-21T15:14:19.000",
    "request_status": "Pending",
    "responsible_agency": "Department of Sanitation",
    "final_address": "2933 New Orleans St",
    "address_councildis": "D",
    "status": "Assigned to Contractor",
    "contractor": "IV Waste",
    "rowid": "1077663",
    "final_x": "3681890.64981",
    "final_y": "543281.076366",
    "longitude": "-90.06642618055076",
    "latitude": "29.987822709600827",
    "geocoded_column": {
      "latitude": "29.987822709600827",
      "longitude": "-90.06642618055076"
    }
  },
  {
    "service_request": "2024-1077662",
    "request_type": "Trash/Recycling",
    "request_reason": "Order Trash Cart",
    "date_created": "2024-03-21T15:12:05.000",
    "date_modified": "2024-03-21T15:12:05.000",
    "request_status": "Pending",
    "responsible_agency": "Department of Sanitation",
    "final_address": "7824 Dominican St",
    "address_councildis": "A",
    "status": "Assigned to Contractor",
    "contractor": "Richards Disposal",
    "rowid": "1077662",
    "final_x": "3660731.7703",
    "final_y": "525648.223293",
    "longitude": "-90.13384336611065",
    "latitude": "29.93996440428349",
    "geocoded_column": {
      "latitude": "29.93996440428349",
      "longitude": "-90.13384336611065"
    }
  },
  {
    "service_request": "2024-1077661",
    "request_type": "Trash/Recycling",
    "request_reason": "Order Trash Cart",
    "date_created": "2024-03-21T15:11:37.000",
    "date_modified": "2024-03-21T15:11:37.000",
    "request_status": "Pending",
    "responsible_agency": "Department of Sanitation",
    "final_address": "7822 Dominican St",
    "address_councildis": "A",
    "status": "Assigned to Contractor",
    "contractor": "Richards Disposal",
    "rowid": "1077661",
    "final_x": "3660743.64582",
    "final_y": "525639.536573",
    "longitude": "-90.13380616022826",
    "latitude": "29.93994017671897",
    "geocoded_column": {
      "latitude": "29.93994017671897",
      "longitude": "-90.13380616022826"
    }
  },
  {
    "service_request": "2024-1077660",
    "request_type": "Trash/Recycling",
    "request_reason": "Request a Large Item Pick Up",
    "date_created": "2024-03-21T15:10:35.000",
    "date_modified": "2024-03-21T15:10:35.000",
    "request_status": "Pending",
    "responsible_agency": "Department of Sanitation",
    "final_address": "1227 Shirley Dr",
    "address_councildis": "C",
    "status": "Assigned to Contractor",
    "contractor": "Richards Disposal",
    "rowid": "1077660",
    "final_x": "3693019.52598",
    "final_y": "526626.945854",
    "longitude": "-90.03187144885246",
    "latitude": "29.94168669001622",
    "geocoded_column": {
      "latitude": "29.94168669001622",
      "longitude": "-90.03187144885246"
    }
  },
  {
    "service_request": "2024-1077659",
    "request_type": "Trash/Recycling",
    "request_reason": "Replace Trash Cart",
    "date_created": "2024-03-21T15:09:07.000",
    "date_modified": "2024-03-21T15:09:08.000",
    "request_status": "Pending",
    "responsible_agency": "Department of Sanitation",
    "final_address": "3035 Baudin St",
    "address_councildis": "B",
    "status": "Assigned to Contractor",
    "contractor": "Richards Disposal",
    "rowid": "1077659",
    "final_x": "3673162.57454",
    "final_y": "534800.297158",
    "longitude": "-90.0942849508544",
    "latitude": "29.9647659149947",
    "geocoded_column": {
      "latitude": "29.9647659149947",
      "longitude": "-90.0942849508544"
    }
  },
  {
    "service_request": "2024-1077658",
    "request_type": "Roads/Drainage",
    "request_reason": "Street Flooding / Drainage",
    "date_created": "2024-03-21T15:08:22.000",
    "date_modified": "2024-03-21T15:08:22.000",
    "request_status": "Pending",
    "responsible_agency": "Department of Public Works",
    "final_address": "1235 Shirley Dr",
    "address_councildis": "C",
    "status": "Pending",
    "rowid": "1077658",
    "final_x": "3693013.31907",
    "final_y": "526539.041662",
    "longitude": "-90.0318941974255",
    "latitude": "29.941445177538636",
    "geocoded_column": {
      "latitude": "29.941445177538636",
      "longitude": "-90.0318941974255"
    }
  },
  {
    "service_request": "2024-1077657",
    "request_type": "Abandoned Vehicles",
    "request_reason": "Abandoned/Junk Vehicles",
    "date_created": "2024-03-21T15:06:57.000",
    "date_modified": "2024-03-21T15:11:12.000",
    "request_status": "Pending",
    "responsible_agency": "Department of Public Works",
    "final_address": "4700 Eastview Dr",
    "address_councildis": "E",
    "status": "Pending",
    "rowid": "1077657",
    "final_x": "3705082.84721",
    "final_y": "555046.283289",
    "longitude": "-89.99273564669754",
    "latitude": "30.019447106524236",
    "geocoded_column": {
      "latitude": "30.019447106524236",
      "longitude": "-89.99273564669754"
    }
  },
  {
    "service_request": "2024-1077656",
    "request_type": "Trash/Recycling",
    "request_reason": "MIssed Recycling Pick-Up",
    "date_created": "2024-03-21T15:06:08.000",
    "date_modified": "2024-03-21T15:06:09.000",
    "request_status": "Pending",
    "responsible_agency": "Department of Sanitation",
    "final_address": "3305 Chestnut St",
    "address_councildis": "B",
    "status": "Assigned to Contractor",
    "contractor": "Richards Disposal",
    "rowid": "1077656",
    "final_x": "3675028.4395",
    "final_y": "520477.706232",
    "longitude": "-90.08888388819318",
    "latitude": "29.925327903238923",
    "geocoded_column": {
      "latitude": "29.925327903238923",
      "longitude": "-90.08888388819318"
    }
  },
  {
    "service_request": "2024-1077655",
    "request_type": "Traffic Signals/Signs/Striping/Streetlights",
    "request_reason": "Street Light Outage/Malfunction",
    "date_created": "2024-03-21T15:04:34.000",
    "date_modified": "2024-03-21T15:04:34.000",
    "request_status": "Pending",
    "responsible_agency": "Department of Public Works",
    "final_address": "CROYDEN ST & HUNTLEE DR",
    "address_councildis": "C",
    "status": "Assigned to Contractor",
    "contractor": "Legacy Professional Services",
    "rowid": "1077655",
    "final_x": "3702423.7",
    "final_y": "523918.58",
    "longitude": "-90.0022801060229",
    "latitude": "29.933942580278384",
    "geocoded_column": {
      "latitude": "29.933942580278384",
      "longitude": "-90.0022801060229"
    }
  },
  {
    "service_request": "2024-1077654",
    "request_type": "Abandoned Vehicles",
    "request_reason": "Abandoned/Junk Vehicles",
    "date_created": "2024-03-21T15:03:51.000",
    "date_modified": "2024-03-21T15:05:51.000",
    "request_status": "Pending",
    "responsible_agency": "Department of Public Works",
    "final_address": "4900 Eastview Dr",
    "address_councildis": "E",
    "status": "Pending",
    "rowid": "1077654",
    "final_x": "3704972.51639",
    "final_y": "556084.626586",
    "longitude": "-89.99304587673423",
    "latitude": "30.02230569846241",
    "geocoded_column": {
      "latitude": "30.02230569846241",
      "longitude": "-89.99304587673423"
    }
  },
  {
    "service_request": "2024-1077653",
    "request_type": "Trash/Recycling",
    "request_reason": "Request a Large Item Pick Up",
    "date_created": "2024-03-21T15:02:21.000",
    "date_modified": "2024-03-21T15:02:22.000",
    "request_status": "Pending",
    "responsible_agency": "Department of Sanitation",
    "final_address": "1227 Shirley Dr",
    "address_councildis": "C",
    "status": "Assigned to Contractor",
    "contractor": "Richards Disposal",
    "rowid": "1077653",
    "final_x": "3693019.52598",
    "final_y": "526626.945854",
    "longitude": "-90.03187144885246",
    "latitude": "29.94168669001622",
    "geocoded_column": {
      "latitude": "29.94168669001622",
      "longitude": "-90.03187144885246"
    }
  },
  {
    "service_request": "2024-1077652",
    "request_type": "Abandoned Vehicles",
    "request_reason": "Abandoned/Junk Vehicles",
    "date_created": "2024-03-21T15:00:54.000",
    "date_modified": "2024-03-21T15:00:54.000",
    "request_status": "Pending",
    "responsible_agency": "Department of Public Works",
    "final_address": "2407 Baronne St",
    "address_councildis": "B",
    "status": "Pending",
    "rowid": "1077652",
    "final_x": "3676459.10965",
    "final_y": "523808.657147",
    "longitude": "-90.08425308713221",
    "latitude": "29.934444132808675",
    "geocoded_column": {
      "latitude": "29.934444132808675",
      "longitude": "-90.08425308713221"
    }
  },
  {
    "service_request": "2024-1077651",
    "request_type": "Trash/Recycling",
    "request_reason": "Order Recycling Cart",
    "date_created": "2024-03-21T15:00:35.000",
    "date_modified": "2024-03-21T15:00:35.000",
    "request_status": "Pending",
    "responsible_agency": "Department of Sanitation",
    "final_address": "2423 Octavia St",
    "address_councildis": "A",
    "status": "Pending",
    "rowid": "1077651",
    "final_x": "3667762.7314",
    "final_y": "524612.754108",
    "longitude": "-90.11168035581954",
    "latitude": "29.936912943854562",
    "geocoded_column": {
      "latitude": "29.936912943854562",
      "longitude": "-90.11168035581954"
    }
  },
  {
    "service_request": "2024-1077650",
    "request_type": "Trash/Recycling",
    "request_reason": "Repair Recycling Cart",
    "date_created": "2024-03-21T14:57:05.000",
    "date_modified": "2024-03-21T14:57:05.000",
    "request_status": "Pending",
    "responsible_agency": "Department of Sanitation",
    "final_address": "3739 Napoleon Ave",
    "address_councildis": "B",
    "status": "Pending",
    "rowid": "1077650",
    "final_x": "3670189.67745",
    "final_y": "528419.319232",
    "longitude": "-90.10388939663812",
    "latitude": "29.947308390532854",
    "geocoded_column": {
      "latitude": "29.947308390532854",
      "longitude": "-90.10388939663812"
    }
  },
  {
    "service_request": "2024-1077649",
    "request_type": "Property Maintenance",
    "request_reason": "Property Maintenance",
    "date_created": "2024-03-21T14:56:46.000",
    "date_modified": "2024-03-21T14:56:46.000",
    "request_status": "Pending",
    "responsible_agency": "Department of Code Enforcement",
    "final_address": "229 West Robert E Lee Blvd",
    "address_councildis": "A",
    "status": "Pending",
    "rowid": "1077649",
    "final_x": "3665948.2745",
    "final_y": "554942.215512",
    "longitude": "-90.11639177921748",
    "latitude": "30.020361850136307",
    "geocoded_column": {
      "latitude": "30.020361850136307",
      "longitude": "-90.11639177921748"
    }
  },
  {
    "service_request": "2024-1077648",
    "request_type": "Trash/Recycling",
    "request_reason": "Request a Large Item Pick Up",
    "date_created": "2024-03-21T14:55:59.000",
    "date_modified": "2024-03-21T14:56:00.000",
    "request_status": "Pending",
    "responsible_agency": "Department of Sanitation",
    "final_address": "2918 George Nick Connor Dr",
    "address_councildis": "D",
    "status": "Assigned to Contractor",
    "contractor": "IV Waste",
    "rowid": "1077648",
    "final_x": "3680966.96027",
    "final_y": "543186.066317",
    "longitude": "-90.06934711353642",
    "latitude": "29.98758951475751",
    "geocoded_column": {
      "latitude": "29.98758951475751",
      "longitude": "-90.06934711353642"
    }
  },
  {
    "service_request": "2024-1077647",
    "request_type": "Property Maintenance",
    "request_reason": "Property Maintenance",
    "date_created": "2024-03-21T14:50:58.000",
    "date_modified": "2024-03-21T14:50:58.000",
    "request_status": "Pending",
    "responsible_agency": "Department of Code Enforcement",
    "final_address": "2440 St Roch Ave",
    "address_councildis": "D",
    "status": "Pending",
    "rowid": "1077647",
    "final_x": "3686004.32386",
    "final_y": "541541.460108",
    "longitude": "-90.05349387147895",
    "latitude": "29.982913677870307",
    "geocoded_column": {
      "latitude": "29.982913677870307",
      "longitude": "-90.05349387147895"
    }
  },
  {
    "service_request": "2024-1077646",
    "request_type": "Trash/Recycling",
    "request_reason": "Request a Large Item Pick Up",
    "date_created": "2024-03-21T14:50:51.000",
    "date_modified": "2024-03-21T14:50:51.000",
    "request_status": "Pending",
    "responsible_agency": "Department of Sanitation",
    "final_address": "29 W Park Pl",
    "address_councildis": "A",
    "status": "Assigned to Contractor",
    "contractor": "IV Waste",
    "rowid": "1077646",
    "final_x": "3670104.9721",
    "final_y": "544096.551246",
    "longitude": "-90.10362562432668",
    "latitude": "29.990418026372414",
    "geocoded_column": {
      "latitude": "29.990418026372414",
      "longitude": "-90.10362562432668"
    }
  },
  {
    "service_request": "2024-1077645",
    "request_type": "Trash/Recycling",
    "request_reason": "Request a Large Item Pick Up",
    "date_created": "2024-03-21T14:50:05.000",
    "date_modified": "2024-03-21T14:50:06.000",
    "request_status": "Pending",
    "responsible_agency": "Department of Sanitation",
    "final_address": "6821 Coventry St",
    "address_councildis": "E",
    "status": "Assigned to Contractor",
    "contractor": "Waste Pro",
    "rowid": "1077645",
    "final_x": "3698574.20733",
    "final_y": "559769.355805",
    "longitude": "-90.01312870056826",
    "latitude": "30.032641523371392",
    "geocoded_column": {
      "latitude": "30.032641523371392",
      "longitude": "-90.01312870056826"
    }
  },
  {
    "service_request": "2024-1077644",
    "request_type": "Trash/Recycling",
    "request_reason": "Request a Large Item Pick Up",
    "date_created": "2024-03-21T14:46:19.000",
    "date_modified": "2024-03-21T14:46:19.000",
    "request_status": "Pending",
    "responsible_agency": "Department of Sanitation",
    "final_address": "6060 General Meyer Ave",
    "address_councildis": "C",
    "status": "Assigned to Contractor",
    "contractor": "Richards Disposal",
    "rowid": "1077644",
    "final_x": "3706290.11172",
    "final_y": "521284.721081",
    "longitude": "-89.99017157801757",
    "latitude": "29.926576328851077",
    "geocoded_column": {
      "latitude": "29.926576328851077",
      "longitude": "-89.99017157801757"
    }
  },
  {
    "service_request": "2024-1077643",
    "request_type": "Trash/Recycling",
    "request_reason": "Request a Large Item Pick Up",
    "date_created": "2024-03-21T14:44:07.000",
    "date_modified": "2024-03-21T14:44:08.000",
    "request_status": "Pending",
    "responsible_agency": "Department of Sanitation",
    "final_address": "1737 Congress St",
    "address_councildis": "D",
    "status": "Assigned to Contractor",
    "contractor": "IV Waste",
    "rowid": "1077643",
    "final_x": "3691385.53552",
    "final_y": "538113.048905",
    "longitude": "-90.03661988109816",
    "latitude": "29.973320403265458",
    "geocoded_column": {
      "latitude": "29.973320403265458",
      "longitude": "-90.03661988109816"
    }
  },
  {
    "service_request": "2024-1077642",
    "request_type": "Abandoned Vehicles",
    "request_reason": "Abandoned/Junk Vehicles",
    "date_created": "2024-03-21T14:42:25.000",
    "date_modified": "2024-03-21T14:42:25.000",
    "request_status": "Pending",
    "responsible_agency": "Department of Public Works",
    "final_address": "937 Valence St",
    "address_councildis": "B",
    "status": "Pending",
    "rowid": "1077642",
    "final_x": "3669966.51265",
    "final_y": "518990.891191",
    "longitude": "-90.10491316090625",
    "latitude": "29.921389828500278",
    "geocoded_column": {
      "latitude": "29.921389828500278",
      "longitude": "-90.10491316090625"
    }
  },
  {
    "service_request": "2024-1077641",
    "request_type": "Abandoned Vehicles",
    "request_reason": "Abandoned/Junk Vehicles",
    "date_created": "2024-03-21T14:41:29.000",
    "date_modified": "2024-03-21T14:41:30.000",
    "request_status": "Pending",
    "responsible_agency": "Department of Public Works",
    "final_address": "1934 Piety St",
    "address_councildis": "D",
    "status": "Pending",
    "rowid": "1077641",
    "final_x": "3690620.19536",
    "final_y": "539070.798154",
    "longitude": "-90.03900280552386",
    "latitude": "29.975977667259254",
    "geocoded_column": {
      "latitude": "29.975977667259254",
      "longitude": "-90.03900280552386"
    }
  },
  {
    "service_request": "2024-1077640",
    "request_type": "Property Maintenance",
    "request_reason": "Property Maintenance",
    "date_created": "2024-03-21T14:36:31.000",
    "date_modified": "2024-03-21T14:36:31.000",
    "request_status": "Pending",
    "responsible_agency": "Department of Code Enforcement",
    "final_address": "1901 France St",
    "address_councildis": "D",
    "status": "Pending",
    "rowid": "1077640",
    "final_x": "3693183.75779",
    "final_y": "538203.589321",
    "longitude": "-90.03093750265647",
    "latitude": "29.973513279375094",
    "geocoded_column": {
      "latitude": "29.973513279375094",
      "longitude": "-90.03093750265647"
    }
  },
  {
    "service_request": "2024-1077639",
    "request_type": "Roads/Drainage",
    "request_reason": "Man hole cover issue",
    "date_created": "2024-03-21T14:32:33.000",
    "date_modified": "2024-03-21T14:32:34.000",
    "request_status": "Pending",
    "responsible_agency": "Department of Public Works",
    "final_address": "124 S Lopez St",
    "address_councildis": "B",
    "status": "Pending",
    "rowid": "1077639",
    "final_x": "3673800.0578",
    "final_y": "535992.501319",
    "longitude": "-90.09223103894614",
    "latitude": "29.9680251048724",
    "geocoded_column": {
      "latitude": "29.9680251048724",
      "longitude": "-90.09223103894614"
    }
  },
  {
    "service_request": "2024-1077638",
    "request_type": "Trash/Recycling",
    "request_reason": "Order Recycling Cart",
    "date_created": "2024-03-21T14:32:05.000",
    "date_modified": "2024-03-21T14:32:05.000",
    "request_status": "Pending",
    "responsible_agency": "Department of Sanitation",
    "final_address": "725 Upperline St",
    "address_councildis": "B",
    "status": "Pending",
    "rowid": "1077638",
    "final_x": "3669017.93127",
    "final_y": "518045.585654",
    "longitude": "-90.10793933598276",
    "latitude": "29.91881846540534",
    "geocoded_column": {
      "latitude": "29.91881846540534",
      "longitude": "-90.10793933598276"
    }
  },
  {
    "service_request": "2024-1077636",
    "request_type": "Abandoned Vehicles",
    "request_reason": "Abandoned/Junk Vehicles",
    "date_created": "2024-03-21T14:29:30.000",
    "date_modified": "2024-03-21T14:29:30.000",
    "request_status": "Pending",
    "responsible_agency": "Department of Public Works",
    "final_address": "7621 Wave Dr",
    "address_councildis": "E",
    "status": "Pending",
    "rowid": "1077636",
    "final_x": "3715051.75352",
    "final_y": "568778.241957",
    "longitude": "-89.96071785155135",
    "latitude": "30.056879994937375",
    "geocoded_column": {
      "latitude": "30.056879994937375",
      "longitude": "-89.96071785155135"
    }
  },
  {
    "service_request": "2024-1077635",
    "request_type": "Trash/Recycling",
    "request_reason": "Request a Large Item Pick Up",
    "date_created": "2024-03-21T14:28:56.000",
    "date_modified": "2024-03-21T14:28:57.000",
    "request_status": "Pending",
    "responsible_agency": "Department of Sanitation",
    "final_address": "7131 Westhaven Rd",
    "address_councildis": "E",
    "status": "Assigned to Contractor",
    "contractor": "Waste Pro",
    "rowid": "1077635",
    "final_x": "3703805.08842",
    "final_y": "559907.670941",
    "longitude": "-89.99659371121723",
    "latitude": "30.03285508220601",
    "geocoded_column": {
      "latitude": "30.03285508220601",
      "longitude": "-89.99659371121723"
    }
  },
  {
    "service_request": "2024-1077634",
    "request_type": "Trash/Recycling",
    "request_reason": "Illegal Dumping",
    "date_created": "2024-03-21T14:28:11.000",
    "date_modified": "2024-03-21T14:28:11.000",
    "request_status": "Pending",
    "responsible_agency": "Department of Sanitation",
    "final_address": "1229 S Saratoga St",
    "address_councildis": "B",
    "status": "Pending",
    "rowid": "1077634",
    "final_x": "3677915.07131",
    "final_y": "527220.493759",
    "longitude": "-90.07953879370473",
    "latitude": "29.943781836322753",
    "geocoded_column": {
      "latitude": "29.943781836322753",
      "longitude": "-90.07953879370473"
    }
  },
  {
    "service_request": "2024-1077633",
    "request_type": "Abandoned Vehicles",
    "request_reason": "Abandoned/Junk Vehicles",
    "date_created": "2024-03-21T14:26:36.000",
    "date_modified": "2024-03-21T14:26:37.000",
    "request_status": "Pending",
    "responsible_agency": "Department of Public Works",
    "final_address": "1800 BLK Duels St",
    "address_councildis": "D",
    "status": "Pending",
    "rowid": "1077633",
    "final_x": "3682090.65612",
    "final_y": "542370.881581",
    "longitude": "-90.06582623123624",
    "latitude": "29.98531391218149",
    "geocoded_column": {
      "latitude": "29.98531391218149",
      "longitude": "-90.06582623123624"
    }
  },
  {
    "service_request": "2024-1077632",
    "request_type": "Abandoned Vehicles",
    "request_reason": "Abandoned/Junk Vehicles",
    "date_created": "2024-03-21T14:24:46.000",
    "date_modified": "2024-03-21T14:24:46.000",
    "request_status": "Pending",
    "responsible_agency": "Department of Public Works",
    "final_address": "1825 Duels St",
    "address_councildis": "D",
    "status": "Pending",
    "rowid": "1077632",
    "final_x": "3681743.71688",
    "final_y": "542374.197837",
    "longitude": "-90.0669219512397",
    "latitude": "29.9853335787027",
    "geocoded_column": {
      "latitude": "29.9853335787027",
      "longitude": "-90.0669219512397"
    }
  },
  {
    "service_request": "2024-1077631",
    "request_type": "Traffic Signals/Signs/Striping/Streetlights",
    "request_reason": "Street Light Outage/Malfunction",
    "date_created": "2024-03-21T14:24:25.000",
    "date_modified": "2024-03-21T14:24:25.000",
    "request_status": "Pending",
    "responsible_agency": "Department of Public Works",
    "final_address": "3323 N Prieur St",
    "address_councildis": "D",
    "status": "Assigned to Contractor",
    "contractor": "Legacy Professional Services",
    "rowid": "1077631",
    "final_x": "3690777.8191",
    "final_y": "538790.681225",
    "longitude": "-90.03851498323768",
    "latitude": "29.975202548388214",
    "geocoded_column": {
      "latitude": "29.975202548388214",
      "longitude": "-90.03851498323768"
    }
  },
  {
    "service_request": "2024-1077630",
    "request_type": "Traffic Signals/Signs/Striping/Streetlights",
    "request_reason": "Street Light Outage/Malfunction",
    "date_created": "2024-03-21T14:23:21.000",
    "date_modified": "2024-03-21T14:23:21.000",
    "request_status": "Pending",
    "responsible_agency": "Department of Public Works",
    "final_address": "N PRIEUR ST & DESIRE ST",
    "address_councildis": "D",
    "status": "Assigned to Contractor",
    "contractor": "Legacy Professional Services",
    "rowid": "1077630",
    "final_x": "3690922.4",
    "final_y": "538716.38",
    "longitude": "-90.03806101294609",
    "latitude": "29.974993753237257",
    "geocoded_column": {
      "latitude": "29.974993753237257",
      "longitude": "-90.03806101294609"
    }
  },
  {
    "service_request": "2024-1077629",
    "request_type": "Trash/Recycling",
    "request_reason": "Illegal Dumping",
    "date_created": "2024-03-21T14:23:15.000",
    "date_modified": "2024-03-21T14:23:15.000",
    "request_status": "Pending",
    "responsible_agency": "Department of Sanitation",
    "final_address": "1212 Simon Bolivar Ave",
    "address_councildis": "B",
    "status": "Pending",
    "rowid": "1077629",
    "final_x": "3677826.8411",
    "final_y": "527408.820927",
    "longitude": "-90.07981085557415",
    "latitude": "29.944302327877743",
    "geocoded_column": {
      "latitude": "29.944302327877743",
      "longitude": "-90.07981085557415"
    }
  },
  {
    "service_request": "2024-1077628",
    "request_type": "Abandoned Vehicles",
    "request_reason": "Abandoned/Junk Vehicles",
    "date_created": "2024-03-21T14:22:57.000",
    "date_modified": "2024-03-21T14:22:57.000",
    "request_status": "Pending",
    "responsible_agency": "Department of Public Works",
    "final_address": "1825 Duels St",
    "address_councildis": "D",
    "status": "Pending",
    "rowid": "1077628",
    "final_x": "3681743.71688",
    "final_y": "542374.197837",
    "longitude": "-90.0669219512397",
    "latitude": "29.9853335787027",
    "geocoded_column": {
      "latitude": "29.9853335787027",
      "longitude": "-90.0669219512397"
    }
  },
  {
    "service_request": "2024-1077627",
    "request_type": "Roads/Drainage",
    "request_reason": "Catch Basin - Clogged",
    "date_created": "2024-03-21T14:18:04.000",
    "date_modified": "2024-03-21T14:18:04.000",
    "request_status": "Pending",
    "responsible_agency": "Department of Public Works",
    "final_address": "6615 Elysian Fields Ave",
    "address_councildis": "D",
    "status": "Pending",
    "rowid": "1077627",
    "final_x": "3683426.11509",
    "final_y": "557933.389147",
    "longitude": "-90.0610622858613",
    "latitude": "30.02806449545044",
    "geocoded_column": {
      "latitude": "30.02806449545044",
      "longitude": "-90.0610622858613"
    }
  },
  {
    "service_request": "2024-1077626",
    "request_type": "Trash/Recycling",
    "request_reason": "Request a Large Item Pick Up",
    "date_created": "2024-03-21T14:17:36.000",
    "date_modified": "2024-03-21T14:17:37.000",
    "request_status": "Pending",
    "responsible_agency": "Department of Sanitation",
    "final_address": "2215 Milan St",
    "address_councildis": "B",
    "status": "Assigned to Contractor",
    "contractor": "Richards Disposal",
    "rowid": "1077626",
    "final_x": "3671417.99726",
    "final_y": "523216.438843",
    "longitude": "-90.100187905522",
    "latitude": "29.932965864061114",
    "geocoded_column": {
      "latitude": "29.932965864061114",
      "longitude": "-90.100187905522"
    }
  },
  {
    "service_request": "2024-1077625",
    "request_type": "Traffic Signals/Signs/Striping/Streetlights",
    "request_reason": "Street Light Outage/Malfunction",
    "date_created": "2024-03-21T14:16:50.000",
    "date_modified": "2024-03-21T14:16:51.000",
    "request_status": "Pending",
    "responsible_agency": "Department of Public Works",
    "final_address": "10 Veterans Blvd",
    "address_councildis": "A",
    "status": "Assigned to Contractor",
    "contractor": "Legacy Professional Services",
    "rowid": "1077625",
    "final_x": "3666244.22503",
    "final_y": "547220.510545",
    "longitude": "-90.11571592849909",
    "latitude": "29.99912120731801",
    "geocoded_column": {
      "latitude": "29.99912120731801",
      "longitude": "-90.11571592849909"
    }
  },
  {
    "service_request": "2024-1077624",
    "request_type": "Abandoned Vehicles",
    "request_reason": "Abandoned/Junk Vehicles",
    "date_created": "2024-03-21T14:14:52.000",
    "date_modified": "2024-03-21T14:14:52.000",
    "request_status": "Pending",
    "responsible_agency": "Department of Public Works",
    "final_address": "4013 Eve St",
    "address_councildis": "B",
    "status": "Pending",
    "rowid": "1077624",
    "final_x": "3671459.07291",
    "final_y": "530079.212993",
    "longitude": "-90.0998250033999",
    "latitude": "29.95183504115532",
    "geocoded_column": {
      "latitude": "29.95183504115532",
      "longitude": "-90.0998250033999"
    }
  },
  {
    "service_request": "2024-1077623",
    "request_type": "Abandoned Vehicles",
    "request_reason": "Abandoned/Junk Vehicles",
    "date_created": "2024-03-21T14:12:51.000",
    "date_modified": "2024-03-21T14:12:51.000",
    "request_status": "Pending",
    "responsible_agency": "Department of Public Works",
    "final_address": "710 N Rocheblave St",
    "address_councildis": "D",
    "status": "Pending",
    "rowid": "1077623",
    "final_x": "3677566.42658",
    "final_y": "536304.345735",
    "longitude": "-90.08032593412874",
    "latitude": "29.968769861064963",
    "geocoded_column": {
      "latitude": "29.968769861064963",
      "longitude": "-90.08032593412874"
    }
  },
  {
    "service_request": "2024-1077622",
    "request_type": "Abandoned Vehicles",
    "request_reason": "Abandoned/Junk Vehicles",
    "date_created": "2024-03-21T14:12:30.000",
    "date_modified": "2024-03-21T14:12:30.000",
    "request_status": "Pending",
    "responsible_agency": "Department of Public Works",
    "final_address": "2005 Saint Roch Ave, New Orleans, Louisiana, 70117",
    "status": "Pending",
    "rowid": "1077622",
    "longitude": "0.0",
    "latitude": "0.0",
    "geocoded_column": {
      "latitude": "0.0",
      "longitude": "0.0"
    }
  },
  {
    "service_request": "2024-1077621",
    "request_type": "Trash/Recycling",
    "request_reason": "Request a Large Item Pick Up",
    "date_created": "2024-03-21T14:10:51.000",
    "date_modified": "2024-03-21T14:10:52.000",
    "request_status": "Pending",
    "responsible_agency": "Department of Sanitation",
    "final_address": "6419 Painters St",
    "address_councildis": "D",
    "status": "Assigned to Contractor",
    "contractor": "IV Waste",
    "rowid": "1077621",
    "final_x": "3685992.88162",
    "final_y": "557004.832986",
    "longitude": "-90.05298426638575",
    "latitude": "30.02543269796193",
    "geocoded_column": {
      "latitude": "30.02543269796193",
      "longitude": "-90.05298426638575"
    }
  },
  {
    "service_request": "2024-1077620",
    "request_type": "Parks & Parkways",
    "request_reason": "Tree Stump (removal, grind)",
    "date_created": "2024-03-21T14:10:40.000",
    "date_modified": "2024-03-21T14:42:43.000",
    "case_close_date": "2024-03-21T09:42:43.000",
    "request_status": "Closed",
    "responsible_agency": "Department of Parks & Parkway",
    "final_address": "PEARL ST & BURDETTE ST",
    "address_councildis": "A",
    "status": "Resolved",
    "rowid": "1077620",
    "final_x": "3661136.6",
    "final_y": "525794.08",
    "longitude": "-90.13256042609896",
    "latitude": "29.940353805142703",
    "geocoded_column": {
      "latitude": "29.940353805142703",
      "longitude": "-90.13256042609896"
    }
  },
  {
    "service_request": "2024-1077619",
    "request_type": "Abandoned Vehicles",
    "request_reason": "Abandoned/Junk Vehicles",
    "date_created": "2024-03-21T14:10:19.000",
    "date_modified": "2024-03-21T14:11:52.000",
    "request_status": "Pending",
    "responsible_agency": "Department of Public Works",
    "final_address": "702 N Rocheblave St",
    "address_councildis": "D",
    "status": "Pending",
    "rowid": "1077619",
    "final_x": "3677498.72373",
    "final_y": "536215.446215",
    "longitude": "-90.08054281344542",
    "latitude": "29.968527453220183",
    "geocoded_column": {
      "latitude": "29.968527453220183",
      "longitude": "-90.08054281344542"
    }
  },
  {
    "service_request": "2024-1077618",
    "request_type": "Trash/Recycling",
    "request_reason": "Repair Recycling Cart",
    "date_created": "2024-03-21T14:06:22.000",
    "date_modified": "2024-03-21T14:06:23.000",
    "request_status": "Pending",
    "responsible_agency": "Department of Sanitation",
    "final_address": "2307 Governor Nicholls St",
    "address_councildis": "D",
    "status": "Pending",
    "rowid": "1077618",
    "final_x": "3679154.81135",
    "final_y": "537440.472264",
    "longitude": "-90.07527032614661",
    "latitude": "29.971845963910464",
    "geocoded_column": {
      "latitude": "29.971845963910464",
      "longitude": "-90.07527032614661"
    }
  },
  {
    "service_request": "2024-1077617",
    "request_type": "Trash/Recycling",
    "request_reason": "Repair Trash Cart",
    "date_created": "2024-03-21T14:06:10.000",
    "date_modified": "2024-03-21T14:06:10.000",
    "request_status": "Pending",
    "responsible_agency": "Department of Sanitation",
    "final_address": "2307 Governor Nicholls St",
    "address_councildis": "D",
    "status": "Assigned to Contractor",
    "contractor": "Richards Disposal",
    "rowid": "1077617",
    "final_x": "3679154.81135",
    "final_y": "537440.472264",
    "longitude": "-90.07527032614661",
    "latitude": "29.971845963910464",
    "geocoded_column": {
      "latitude": "29.971845963910464",
      "longitude": "-90.07527032614661"
    }
  },
  {
    "service_request": "2024-1077616",
    "request_type": "Trash/Recycling",
    "request_reason": "Request a Large Item Pick Up",
    "date_created": "2024-03-21T14:05:08.000",
    "date_modified": "2024-03-21T14:05:09.000",
    "request_status": "Pending",
    "responsible_agency": "Department of Sanitation",
    "final_address": "1713 Tennessee St",
    "address_councildis": "E",
    "status": "Assigned to Contractor",
    "contractor": "Waste Pro",
    "rowid": "1077616",
    "final_x": "3696396.89738",
    "final_y": "536685.448967",
    "longitude": "-90.02084470574023",
    "latitude": "29.96923812425209",
    "geocoded_column": {
      "latitude": "29.96923812425209",
      "longitude": "-90.02084470574023"
    }
  },
  {
    "service_request": "2024-1077615",
    "request_type": "Trash/Recycling",
    "request_reason": "Order Recycling Cart",
    "date_created": "2024-03-21T14:01:49.000",
    "date_modified": "2024-03-21T14:01:50.000",
    "request_status": "Pending",
    "responsible_agency": "Department of Sanitation",
    "final_address": "5401 St Bernard Ave",
    "address_councildis": "D",
    "status": "Pending",
    "rowid": "1077615",
    "final_x": "3677058.09838",
    "final_y": "552125.981142",
    "longitude": "-90.08138533978725",
    "latitude": "30.012289105185406",
    "geocoded_column": {
      "latitude": "30.012289105185406",
      "longitude": "-90.08138533978725"
    }
  },
  {
    "service_request": "2024-1077614",
    "request_type": "Trash/Recycling",
    "request_reason": "Request a Large Item Pick Up",
    "date_created": "2024-03-21T13:56:56.000",
    "date_modified": "2024-03-21T13:56:57.000",
    "request_status": "Pending",
    "responsible_agency": "Department of Sanitation",
    "final_address": "2915 Maurepas St",
    "address_councildis": "A",
    "status": "Assigned to Contractor",
    "contractor": "IV Waste",
    "rowid": "1077614",
    "final_x": "3677580.06062",
    "final_y": "540745.923851",
    "longitude": "-90.08012946640962",
    "latitude": "29.980982265658177",
    "geocoded_column": {
      "latitude": "29.980982265658177",
      "longitude": "-90.08012946640962"
    }
  },
  {
    "service_request": "2024-1077613",
    "request_type": "Traffic Signals/Signs/Striping/Streetlights",
    "request_reason": "Traffic Signal Malfunctioning/Damaged",
    "date_created": "2024-03-21T13:54:05.000",
    "date_modified": "2024-03-21T13:54:06.000",
    "request_status": "Pending",
    "responsible_agency": "Department of Public Works",
    "final_address": "ST CLAUDE AVE & ST ROCH AVE",
    "address_councildis": "C",
    "status": "Pending",
    "rowid": "1077613",
    "final_x": "3686495.6",
    "final_y": "536426.28",
    "longitude": "-90.05212282583256",
    "latitude": "29.968833632178853",
    "geocoded_column": {
      "latitude": "29.968833632178853",
      "longitude": "-90.05212282583256"
    }
  },
  {
    "service_request": "2024-1077612",
    "request_type": "Trash/Recycling",
    "request_reason": "Order Trash Cart",
    "date_created": "2024-03-21T13:50:38.000",
    "date_modified": "2024-03-21T14:01:33.000",
    "request_status": "Pending",
    "responsible_agency": "Department of Sanitation",
    "final_address": "5401 St Bernard Ave",
    "address_councildis": "D",
    "contractor": "IV Waste",
    "rowid": "1077612",
    "final_x": "3677058.09838",
    "final_y": "552125.981142",
    "longitude": "-90.08138533978725",
    "latitude": "30.012289105185406",
    "geocoded_column": {
      "latitude": "30.012289105185406",
      "longitude": "-90.08138533978725"
    }
  },
  {
    "service_request": "2024-1077611",
    "request_type": "Trash/Recycling",
    "request_reason": "Replace Trash Cart",
    "date_created": "2024-03-21T13:49:51.000",
    "date_modified": "2024-03-21T13:49:51.000",
    "request_status": "Pending",
    "responsible_agency": "Department of Sanitation",
    "final_address": "1937 Newton St",
    "address_councildis": "C",
    "status": "Assigned to Contractor",
    "contractor": "Richards Disposal",
    "rowid": "1077611",
    "final_x": "3691367.79196",
    "final_y": "527745.207167",
    "longitude": "-90.03704634770081",
    "latitude": "29.944813007352188",
    "geocoded_column": {
      "latitude": "29.944813007352188",
      "longitude": "-90.03704634770081"
    }
  },
  {
    "service_request": "2024-1077610",
    "request_type": "Parks & Parkways",
    "request_reason": "Request Tree Service (Right of Way/Public Property)",
    "date_created": "2024-03-21T13:48:23.000",
    "date_modified": "2024-03-21T13:48:24.000",
    "request_status": "Pending",
    "responsible_agency": "Department of Parks & Parkway",
    "final_address": "MUSIC ST & LOMBARD ST",
    "address_councildis": "D",
    "status": "Pending",
    "rowid": "1077610",
    "final_x": "3685707.6",
    "final_y": "549565.78",
    "longitude": "-90.0541481310499",
    "latitude": "30.004986794512114",
    "geocoded_column": {
      "latitude": "30.004986794512114",
      "longitude": "-90.0541481310499"
    }
  },
  {
    "service_request": "2024-1077609",
    "request_type": "Trash/Recycling",
    "request_reason": "Replace Trash Cart",
    "date_created": "2024-03-21T13:46:55.000",
    "date_modified": "2024-03-21T13:46:56.000",
    "request_status": "Pending",
    "responsible_agency": "Department of Sanitation",
    "final_address": "8625 Green St",
    "address_councildis": "A",
    "status": "Assigned to Contractor",
    "contractor": "Richards Disposal",
    "rowid": "1077609",
    "final_x": "3661693.63354",
    "final_y": "531044.428866",
    "longitude": "-90.13062778392951",
    "latitude": "29.95477452223324",
    "geocoded_column": {
      "latitude": "29.95477452223324",
      "longitude": "-90.13062778392951"
    }
  },
  {
    "service_request": "2024-1077608",
    "request_type": "Trash/Recycling",
    "request_reason": "Request a Large Item Pick Up",
    "date_created": "2024-03-21T13:44:57.000",
    "date_modified": "2024-03-21T13:44:57.000",
    "request_status": "Pending",
    "responsible_agency": "Department of Sanitation",
    "final_address": "1810 Marigny St",
    "address_councildis": "D",
    "status": "Assigned to Contractor",
    "contractor": "IV Waste",
    "rowid": "1077608",
    "final_x": "3685174.96751",
    "final_y": "539022.153994",
    "longitude": "-90.05620208499667",
    "latitude": "29.976011917025854",
    "geocoded_column": {
      "latitude": "29.976011917025854",
      "longitude": "-90.05620208499667"
    }
  },
  {
    "service_request": "2024-1077607",
    "request_type": "Trash/Recycling",
    "request_reason": "Order Recycling Cart",
    "date_created": "2024-03-21T13:44:05.000",
    "date_modified": "2024-03-21T13:44:06.000",
    "request_status": "Pending",
    "responsible_agency": "Department of Sanitation",
    "final_address": "3427 S Broad St",
    "address_councildis": "B",
    "status": "Pending",
    "rowid": "1077607",
    "final_x": "3670663.17678",
    "final_y": "529550.090433",
    "longitude": "-90.10235601956761",
    "latitude": "29.95040366278229",
    "geocoded_column": {
      "latitude": "29.95040366278229",
      "longitude": "-90.10235601956761"
    }
  },
  {
    "service_request": "2024-1077606",
    "request_type": "Trash/Recycling",
    "request_reason": "Request a Large Item Pick Up",
    "date_created": "2024-03-21T13:43:39.000",
    "date_modified": "2024-03-21T13:43:40.000",
    "request_status": "Pending",
    "responsible_agency": "Department of Sanitation",
    "final_address": "2808 Palmer Ave",
    "address_councildis": "A",
    "status": "Assigned to Contractor",
    "contractor": "Richards Disposal",
    "rowid": "1077606",
    "final_x": "3666820.10804",
    "final_y": "526914.559166",
    "longitude": "-90.11457898429398",
    "latitude": "29.943269768648463",
    "geocoded_column": {
      "latitude": "29.943269768648463",
      "longitude": "-90.11457898429398"
    }
  },
  {
    "service_request": "2024-1077605",
    "request_type": "Roads/Drainage",
    "request_reason": "Damaged Sidewalk",
    "date_created": "2024-03-21T13:42:39.000",
    "date_modified": "2024-03-21T13:42:39.000",
    "request_status": "Pending",
    "responsible_agency": "Department of Public Works",
    "final_address": "2817 Canal St",
    "address_councildis": "B",
    "status": "Pending",
    "rowid": "1077605",
    "final_x": "3674888.43861",
    "final_y": "535682.882055",
    "longitude": "-90.08880450830347",
    "latitude": "29.9671412969611",
    "geocoded_column": {
      "latitude": "29.9671412969611",
      "longitude": "-90.08880450830347"
    }
  },
  {
    "service_request": "2024-1077604",
    "request_type": "Traffic Signals/Signs/Striping/Streetlights",
    "request_reason": "Street Light Outage/Malfunction",
    "date_created": "2024-03-21T13:39:04.000",
    "date_modified": "2024-03-21T13:39:04.000",
    "request_status": "Pending",
    "responsible_agency": "Department of Public Works",
    "final_address": "5504 Wickfield Dr",
    "address_councildis": "D",
    "status": "Assigned to Contractor",
    "contractor": "Legacy Professional Services",
    "rowid": "1077604",
    "final_x": "3681091.5485",
    "final_y": "552936.719767",
    "longitude": "-90.06861363948298",
    "latitude": "30.01439655051513",
    "geocoded_column": {
      "latitude": "30.01439655051513",
      "longitude": "-90.06861363948298"
    }
  },
  {
    "service_request": "2024-1077603",
    "request_type": "Property Maintenance",
    "request_reason": "Property Maintenance",
    "date_created": "2024-03-21T13:39:03.000",
    "date_modified": "2024-03-21T13:39:03.000",
    "request_status": "Pending",
    "responsible_agency": "Department of Code Enforcement",
    "final_address": "1808 Allen St",
    "address_councildis": "D",
    "status": "Pending",
    "rowid": "1077603",
    "final_x": "3682423.56706",
    "final_y": "538787.522761",
    "longitude": "-90.06489999797404",
    "latitude": "29.97545079830909",
    "geocoded_column": {
      "latitude": "29.97545079830909",
      "longitude": "-90.06489999797404"
    }
  },
  {
    "service_request": "2024-1077602",
    "request_type": "Trash/Recycling",
    "request_reason": "Request a Large Item Pick Up",
    "date_created": "2024-03-21T13:38:57.000",
    "date_modified": "2024-03-21T13:38:57.000",
    "request_status": "Pending",
    "responsible_agency": "Department of Sanitation",
    "final_address": "7417 Dogwood Dr",
    "address_councildis": "E",
    "status": "Assigned to Contractor",
    "contractor": "Waste Pro",
    "rowid": "1077602",
    "final_x": "3701574.11645",
    "final_y": "560491.900702",
    "longitude": "-90.00362230856314",
    "latitude": "30.03453286139486",
    "geocoded_column": {
      "latitude": "30.03453286139486",
      "longitude": "-90.00362230856314"
    }
  },
  {
    "service_request": "2024-1077601",
    "request_type": "Property Maintenance",
    "request_reason": "Property Maintenance",
    "date_created": "2024-03-21T13:37:24.000",
    "date_modified": "2024-03-21T13:37:24.000",
    "request_status": "Pending",
    "responsible_agency": "Department of Code Enforcement",
    "final_address": "1725 N Roman St",
    "address_councildis": "D",
    "status": "Pending",
    "rowid": "1077601",
    "final_x": "3682398.71516",
    "final_y": "538753.313929",
    "longitude": "-90.06497968286817",
    "latitude": "29.97535749234136",
    "geocoded_column": {
      "latitude": "29.97535749234136",
      "longitude": "-90.06497968286817"
    }
  },
  {
    "service_request": "2024-1077600",
    "request_type": "Traffic Signals/Signs/Striping/Streetlights",
    "request_reason": "Traffic Sign Missing/Damaged",
    "date_created": "2024-03-21T13:36:24.000",
    "date_modified": "2024-03-21T13:36:25.000",
    "request_status": "Pending",
    "responsible_agency": "Department of Public Works",
    "final_address": "N ROCHEBLAVE ST & FLOOD ST",
    "address_councildis": "E",
    "status": "Pending",
    "rowid": "1077600",
    "final_x": "3699020.9",
    "final_y": "538716.58",
    "longitude": "-90.01248401865605",
    "latitude": "29.97474009709545",
    "geocoded_column": {
      "latitude": "29.97474009709545",
      "longitude": "-90.01248401865605"
    }
  },
  {
    "service_request": "2024-1077599",
    "request_type": "Trash/Recycling",
    "request_reason": "Replace Trash Cart",
    "date_created": "2024-03-21T13:35:22.000",
    "date_modified": "2024-03-21T13:35:22.000",
    "request_status": "Pending",
    "responsible_agency": "Department of Sanitation",
    "final_address": "4642 Anson St",
    "address_councildis": "C",
    "status": "Assigned to Contractor",
    "contractor": "Richards Disposal",
    "rowid": "1077599",
    "final_x": "3702442.5169",
    "final_y": "521612.749881",
    "longitude": "-90.00230526095444",
    "latitude": "29.927601748459402",
    "geocoded_column": {
      "latitude": "29.927601748459402",
      "longitude": "-90.00230526095444"
    }
  },
  {
    "service_request": "2024-1077598",
    "request_type": "Property Maintenance",
    "request_reason": "Property Maintenance",
    "date_created": "2024-03-21T13:34:18.000",
    "date_modified": "2024-03-21T13:34:18.000",
    "request_status": "Pending",
    "responsible_agency": "Department of Code Enforcement",
    "final_address": "1814 Old St Bernard St",
    "address_councildis": "D",
    "status": "Pending",
    "rowid": "1077598",
    "final_x": "3682384.05928",
    "final_y": "538858.291593",
    "longitude": "-90.0650223001847",
    "latitude": "29.975646590486136",
    "geocoded_column": {
      "latitude": "29.975646590486136",
      "longitude": "-90.0650223001847"
    }
  },