[
  {
    "service_request": "2023-1031553",
    "request_type": "Tax and Revenue",
    "request_reason": "Sales Tax Question",
    "date_created": "2023-09-02T01:01:11.000",
    "date_modified": "2023-09-02T01:01:11.000",
    "request_status": "Pending",
    "responsible_agency": "Bureau of Revenue",
    "final_address": "1775 Joseph Guillaume Pl",
    "address_councildis": "C",
    "status": "Pending",
    "rowid": "1031553",
    "final_x": "3683462.43785",
    "final_y": "536121.270855",
    "longitude": "-90.06171241725919",
    "latitude": "29.96808786850646",
    "geocoded_column": {
      "latitude": "29.96808786850646",
      "longitude": "-90.06171241725919"
    }
  },
  {
    "service_request": "2023-1031552",
    "request_type": "Tax and Revenue",
    "request_reason": "Occupational License Tax",
    "date_created": "2023-09-02T01:00:35.000",
    "date_modified": "2023-09-02T01:00:35.000",
    "request_status": "Pending",
    "responsible_agency": "Bureau of Revenue",
    "status": "Pending",
    "rowid": "1031552",
    "longitude": "0.0",
    "latitude": "0.0",
    "geocoded_column": {
      "latitude": "0.0",
      "longitude": "0.0"
    }
  },
  {
    "service_request": "2023-1031551",
    "request_type": "Safety & Permits",
    "request_reason": "Licenses & Permits",
    "date_created": "2023-09-02T01:00:01.000",
    "date_modified": "2023-09-02T01:00:01.000",
    "request_status": "Pending",
    "responsible_agency": "Safety and Permits",
    "final_address": "1775 Joseph Guillaume Pl",
    "address_councildis": "C",
    "status": "Pending",
    "rowid": "1031551",
    "final_x": "3683462.43785",
    "final_y": "536121.270855",
    "longitude": "-90.06171241725919",
    "latitude": "29.96808786850646",
    "geocoded_column": {
      "latitude": "29.96808786850646",
      "longitude": "-90.06171241725919"
    }
  },
  {
    "service_request": "2023-1031550",
    "request_type": "Health Related Request",
    "request_reason": "Noise Ordinance Complaint",
    "date_created": "2023-09-02T00:59:19.000",
    "date_modified": "2023-09-02T00:59:19.000",
    "request_status": "Pending",
    "responsible_agency": "Health Department",
    "final_address": "1775 Joseph Guillaume Pl",
    "address_councildis": "C",
    "status": "Pending",
    "rowid": "1031550",
    "final_x": "3683462.43785",
    "final_y": "536121.270855",
    "longitude": "-90.06171241725919",
    "latitude": "29.96808786850646",
    "geocoded_column": {
      "latitude": "29.96808786850646",
      "longitude": "-90.06171241725919"
    }
  },
  {
    "service_request": "2023-1031549",
    "request_type": "Roads/Drainage",
    "request_reason": "Pothole",
    "date_created": "2023-09-02T00:38:40.000",
    "date_modified": "2023-09-02T00:38:40.000",
    "request_status": "Pending",
    "responsible_agency": "Department of Public Works",
    "final_address": "5828 Garfield St",
    "address_councildis": "A",
    "status": "Pending",
    "rowid": "1031549",
    "final_x": "3665832.89076",
    "final_y": "521322.679609",
    "longitude": "-90.11788316699104",
    "latitude": "29.927922718137122",
    "geocoded_column": {
      "latitude": "29.927922718137122",
      "longitude": "-90.11788316699104"
    }
  },
  {
    "service_request": "2023-1031548",
    "request_type": "Health Related Request",
    "request_reason": "Noise Ordinance Complaint",
    "date_created": "2023-09-02T00:08:54.000",
    "date_modified": "2023-09-02T00:08:55.000",
    "request_status": "Pending",
    "responsible_agency": "Health Department",
    "final_address": "1359 St Bernard Ave",
    "address_councildis": "C",
    "status": "Pending",
    "rowid": "1031548",
    "final_x": "3682735.06946",
    "final_y": "537011.306248",
    "longitude": "-90.0639783346009",
    "latitude": "29.97055733385889",
    "geocoded_column": {
      "latitude": "29.97055733385889",
      "longitude": "-90.0639783346009"
    }
  },
  {
    "service_request": "2023-1031547",
    "request_type": "Traffic Signals/Signs/Striping/Streetlights",
    "request_reason": "Street Light Outage/Malfunction",
    "date_created": "2023-09-02T00:00:32.000",
    "date_modified": "2023-09-02T00:00:32.000",
    "request_status": "Pending",
    "responsible_agency": "Department of Public Works",
    "final_address": "6426 Vicksburg St",
    "address_councildis": "A",
    "status": "Assigned to Contractor",
    "contractor": "Legacy Professional Services",
    "rowid": "1031547",
    "final_x": "3669049.29793",
    "final_y": "550229.5549",
    "longitude": "-90.10675286338152",
    "latitude": "30.007312772616793",
    "geocoded_column": {
      "latitude": "30.007312772616793",
      "longitude": "-90.10675286338152"
    }
  },
  {
    "service_request": "2023-1031546",
    "request_type": "Traffic Signals/Signs/Striping/Streetlights",
    "request_reason": "Street Light Outage/Malfunction",
    "date_created": "2023-09-01T23:55:16.000",
    "date_modified": "2023-09-01T23:55:17.000",
    "request_status": "Pending",
    "responsible_agency": "Department of Public Works",
    "final_address": "6426 Vicksburg St",
    "address_councildis": "A",
    "status": "Assigned to Contractor",
    "contractor": "Legacy Professional Services",
    "rowid": "1031546",
    "final_x": "3669049.29793",
    "final_y": "550229.5549",
    "longitude": "-90.10675286338152",
    "latitude": "30.007312772616793",
    "geocoded_column": {
      "latitude": "30.007312772616793",
      "longitude": "-90.10675286338152"
    }
  },
  {
    "service_request": "2023-1031545",
    "request_type": "Roads/Drainage",
    "request_reason": "Pothole",
    "date_created": "2023-09-01T23:52:17.000",
    "date_modified": "2023-09-01T23:52:17.000",
    "request_status": "Pending",
    "responsible_agency": "Department of Public Works",
    "final_address": "2412 Washington Ave",
    "address_councildis": "B",
    "status": "Pending",
    "rowid": "1031545",
    "final_x": "3674176.64456",
    "final_y": "525048.549245",
    "longitude": "-90.09141635566213",
    "latitude": "29.937921649785306",
    "geocoded_column": {
      "latitude": "29.937921649785306",
      "longitude": "-90.09141635566213"
    }
  },
  {
    "service_request": "2023-1031544",
    "request_type": "Roads/Drainage",
    "request_reason": "Pothole",
    "date_created": "2023-09-01T23:22:43.000",
    "date_modified": "2023-09-01T23:22:43.000",
    "request_status": "Pending",
    "responsible_agency": "Department of Public Works",
    "final_address": "5717 Hurst St",
    "address_councildis": "A",
    "status": "Pending",
    "rowid": "1031544",
    "final_x": "3666238.39418",
    "final_y": "521686.968249",
    "longitude": "-90.11659087061466",
    "latitude": "29.928912562979253",
    "geocoded_column": {
      "latitude": "29.928912562979253",
      "longitude": "-90.11659087061466"
    }
  },
  {
    "service_request": "2023-1031543",
    "request_type": "Trash/Recycling",
    "request_reason": "Order Recycling Cart",
    "date_created": "2023-09-01T23:03:56.000",
    "date_modified": "2023-09-01T23:03:56.000",
    "request_status": "Pending",
    "responsible_agency": "Department of Sanitation",
    "final_address": "3416 First St",
    "address_councildis": "B",
    "status": "Pending",
    "rowid": "1031543",
    "final_x": "3673325.97985",
    "final_y": "528637.708736",
    "longitude": "-90.09397941982209",
    "latitude": "29.94781598707492",
    "geocoded_column": {
      "latitude": "29.94781598707492",
      "longitude": "-90.09397941982209"
    }
  },
  {
    "service_request": "2023-1031542",
    "request_type": "Trash/Recycling",
    "request_reason": "Order Trash Cart",
    "date_created": "2023-09-01T23:02:29.000",
    "date_modified": "2023-09-01T23:02:30.000",
    "request_status": "Pending",
    "responsible_agency": "Department of Sanitation",
    "final_address": "3416 First St",
    "address_councildis": "B",
    "status": "Assigned to Contractor",
    "contractor": "Richards Disposal",
    "rowid": "1031542",
    "final_x": "3673325.97985",
    "final_y": "528637.708736",
    "longitude": "-90.09397941982209",
    "latitude": "29.94781598707492",
    "geocoded_column": {
      "latitude": "29.94781598707492",
      "longitude": "-90.09397941982209"
    }
  },
  {
    "service_request": "2023-1031541",
    "request_type": "Trash/Recycling",
    "request_reason": "Replace Trash Cart",
    "date_created": "2023-09-01T23:01:07.000",
    "date_modified": "2023-09-01T23:01:08.000",
    "request_status": "Pending",
    "responsible_agency": "Department of Sanitation",
    "final_address": "1228 Decatur St",
    "address_councildis": "C",
    "status": "Assigned to Contractor",
    "contractor": "Empire Services",
    "rowid": "1031541",
    "final_x": "3684456.02645",
    "final_y": "533603.125765",
    "longitude": "-90.05866309634294",
    "latitude": "29.961133481826195",
    "geocoded_column": {
      "latitude": "29.961133481826195",
      "longitude": "-90.05866309634294"
    }
  },
  {
    "service_request": "2023-1031540",
    "request_type": "Roads/Drainage",
    "request_reason": "Pothole",
    "date_created": "2023-09-01T22:19:29.000",
    "date_modified": "2023-09-01T22:19:29.000",
    "request_status": "Pending",
    "responsible_agency": "Department of Public Works",
    "final_address": "1441 Webster St",
    "address_councildis": "A",
    "status": "Pending",
    "rowid": "1031540",
    "final_x": "3665017.56327",
    "final_y": "521685.098937",
    "longitude": "-90.12044486712436",
    "latitude": "29.92894301257407",
    "geocoded_column": {
      "latitude": "29.92894301257407",
      "longitude": "-90.12044486712436"
    }
  },
  {
    "service_request": "2023-1031539",
    "request_type": "Roads/Drainage",
    "request_reason": "Pothole",
    "date_created": "2023-09-01T22:18:29.000",
    "date_modified": "2023-09-01T22:18:29.000",
    "request_status": "Pending",
    "responsible_agency": "Department of Public Works",
    "final_address": "1331 Coliseum St",
    "address_councildis": "B",
    "status": "Pending",
    "rowid": "1031539",
    "final_x": "3679984.51272",
    "final_y": "525108.026237",
    "longitude": "-90.07307836739449",
    "latitude": "29.93791082655361",
    "geocoded_column": {
      "latitude": "29.93791082655361",
      "longitude": "-90.07307836739449"
    }
  },
  {
    "service_request": "2023-1031538",
    "request_type": "Roads/Drainage",
    "request_reason": "Pothole",
    "date_created": "2023-09-01T22:13:57.000",
    "date_modified": "2023-09-01T22:13:57.000",
    "request_status": "Pending",
    "responsible_agency": "Department of Public Works",
    "final_address": "6031 Pitt St",
    "address_councildis": "A",
    "status": "Pending",
    "rowid": "1031538",
    "final_x": "3665074.90548",
    "final_y": "521345.766329",
    "longitude": "-90.12027518893876",
    "latitude": "29.928008285877205",
    "geocoded_column": {
      "latitude": "29.928008285877205",
      "longitude": "-90.12027518893876"
    }
  },
  {
    "service_request": "2023-1031537",
    "request_type": "Trash/Recycling",
    "request_reason": "Order Trash Cart",
    "date_created": "2023-09-01T22:05:58.000",
    "date_modified": "2023-09-01T22:05:58.000",
    "request_status": "Pending",
    "responsible_agency": "Department of Sanitation",
    "final_address": "1933 S Lopez St",
    "address_councildis": "B",
    "status": "Assigned to Contractor",
    "contractor": "Richards Disposal",
    "rowid": "1031537",
    "final_x": "3669419.78522",
    "final_y": "529861.322177",
    "longitude": "-90.1062714898602",
    "latitude": "29.951296119031667",
    "geocoded_column": {
      "latitude": "29.951296119031667",
      "longitude": "-90.1062714898602"
    }
  },
  {
    "service_request": "2023-1031536",
    "request_type": "Traffic Signals/Signs/Striping/Streetlights",
    "request_reason": "Traffic Sign Missing/Damaged",
    "date_created": "2023-09-01T21:56:24.000",
    "date_modified": "2023-09-01T21:56:25.000",
    "request_status": "Pending",
    "responsible_agency": "Department of Public Works",
    "final_address": "1301 Pine St",
    "address_councildis": "A",
    "status": "Pending",
    "rowid": "1031536",
    "final_x": "3664211.97044",
    "final_y": "526942.45747",
    "longitude": "-90.12281264094489",
    "latitude": "29.943422501055476",
    "geocoded_column": {
      "latitude": "29.943422501055476",
      "longitude": "-90.12281264094489"
    }
  },
  {
    "service_request": "2023-1031535",
    "request_type": "Traffic Signals/Signs/Striping/Streetlights",
    "request_reason": "Street Light Outage/Malfunction",
    "date_created": "2023-09-01T21:50:04.000",
    "date_modified": "2023-09-01T21:50:05.000",
    "request_status": "Pending",
    "responsible_agency": "Department of Public Works",
    "final_address": "6090 Wilton Dr",
    "address_councildis": "D",
    "status": "Assigned to Contractor",
    "contractor": "Legacy Professional Services",
    "rowid": "1031535",
    "final_x": "3681629.55912",
    "final_y": "555379.285465",
    "longitude": "-90.06682849389541",
    "latitude": "30.02109637633347",
    "geocoded_column": {
      "latitude": "30.02109637633347",
      "longitude": "-90.06682849389541"
    }
  },
  {
    "service_request": "2023-1031534",
    "request_type": "Traffic Signals/Signs/Striping/Streetlights",
    "request_reason": "Traffic Signal Malfunctioning/Damaged",
    "date_created": "2023-09-01T21:48:58.000",
    "date_modified": "2023-09-01T21:48:58.000",
    "request_status": "Pending",
    "responsible_agency": "Department of Public Works",
    "final_address": "1544 Nashville Ave",
    "address_councildis": "A",
    "status": "Pending",
    "rowid": "1031534",
    "final_x": "3666133.94017",
    "final_y": "522045.154298",
    "longitude": "-90.11690860845337",
    "latitude": "29.929900510608903",
    "geocoded_column": {
      "latitude": "29.929900510608903",
      "longitude": "-90.11690860845337"
    }
  },
  {
    "service_request": "2023-1031532",
    "request_type": "Traffic Signals/Signs/Striping/Streetlights",
    "request_reason": "Street Light Outage/Malfunction",
    "date_created": "2023-09-01T20:10:16.000",
    "date_modified": "2023-09-01T20:10:17.000",
    "request_status": "Pending",
    "responsible_agency": "Department of Public Works",
    "final_address": "7727 Vanderkloot Ave",
    "address_councildis": "E",
    "status": "Assigned to Contractor",
    "contractor": "Legacy Professional Services",
    "rowid": "1031532",
    "final_x": "3705781.19748",
    "final_y": "563609.253409",
    "longitude": "-89.99021196927616",
    "latitude": "30.042969437758124",
    "geocoded_column": {
      "latitude": "30.042969437758124",
      "longitude": "-89.99021196927616"
    }
  },
  {
    "service_request": "2023-1031531",
    "request_type": "Traffic Signals/Signs/Striping/Streetlights",
    "request_reason": "Street Light Outage/Malfunction",
    "date_created": "2023-09-01T20:08:45.000",
    "date_modified": "2023-09-01T20:10:51.000",
    "request_status": "Pending",
    "responsible_agency": "Department of Public Works",
    "final_address": "7415 Vanderkloot Ave",
    "address_councildis": "E",
    "status": "Assigned to Contractor",
    "contractor": "Legacy Professional Services",
    "rowid": "1031531",
    "final_x": "3706273.68465",
    "final_y": "562719.592672",
    "longitude": "-89.98868851619079",
    "latitude": "30.040507341453814",
    "geocoded_column": {
      "latitude": "30.040507341453814",
      "longitude": "-89.98868851619079"
    }
  },
  {
    "service_request": "2023-1031530",
    "request_type": "Traffic Signals/Signs/Striping/Streetlights",
    "request_reason": "Traffic Sign Missing/Damaged",
    "date_created": "2023-09-01T19:44:46.000",
    "date_modified": "2023-09-01T19:44:46.000",
    "request_status": "Pending",
    "responsible_agency": "Department of Public Works",
    "final_address": "704 Piety St",
    "address_councildis": "C",
    "status": "Pending",
    "rowid": "1031530",
    "final_x": "3689447.34819",
    "final_y": "534369.036613",
    "longitude": "-90.04287422007788",
    "latitude": "29.963085850909483",
    "geocoded_column": {
      "latitude": "29.963085850909483",
      "longitude": "-90.04287422007788"
    }
  },
  {
    "service_request": "2023-1031529",
    "request_type": "Trash/Recycling",
    "request_reason": "Replace Trash Cart",
    "date_created": "2023-09-01T19:28:35.000",
    "date_modified": "2023-09-01T19:28:35.000",
    "request_status": "Pending",
    "responsible_agency": "Department of Sanitation",
    "final_address": "3950 S Inwood Ave",
    "address_councildis": "C",
    "status": "Assigned to Contractor",
    "contractor": "Richards Disposal",
    "rowid": "1031529",
    "final_x": "3705335.59351",
    "final_y": "513493.697842",
    "longitude": "-89.99347228977142",
    "latitude": "29.90518443494743",
    "geocoded_column": {
      "latitude": "29.90518443494743",
      "longitude": "-89.99347228977142"
    }
  },
  {
    "service_request": "2023-1031528",
    "request_type": "Abandoned Vehicles",
    "request_reason": "Abandoned/Junk Vehicles",
    "date_created": "2023-09-01T19:17:44.000",
    "date_modified": "2023-09-01T19:17:44.000",
    "request_status": "Pending",
    "responsible_agency": "Department of Public Works",
    "final_address": "2929 Joliet St",
    "address_councildis": "A",
    "status": "Pending",
    "rowid": "1031528",
    "final_x": "3665200.16602",
    "final_y": "533997.498309",
    "longitude": "-90.11945666761953",
    "latitude": "29.962792828847437",
    "geocoded_column": {
      "latitude": "29.962792828847437",
      "longitude": "-90.11945666761953"
    }
  },
  {
    "service_request": "2023-1031527",
    "request_type": "Trash/Recycling",
    "request_reason": "Replace Trash Cart",
    "date_created": "2023-09-01T19:08:42.000",
    "date_modified": "2023-09-01T19:08:43.000",
    "request_status": "Pending",
    "responsible_agency": "Department of Sanitation",
    "final_address": "5808 Tchoupitoulas St",
    "address_councildis": "A",
    "status": "Assigned to Contractor",
    "contractor": "Richards Disposal",
    "rowid": "1031527",
    "final_x": "3664993.11648",
    "final_y": "517243.671541",
    "longitude": "-90.12067042476868",
    "latitude": "29.91673119114161",
    "geocoded_column": {
      "latitude": "29.91673119114161",
      "longitude": "-90.12067042476868"
    }
  },
  {
    "service_request": "2023-1031526",
    "request_type": "Traffic Signals/Signs/Striping/Streetlights",
    "request_reason": "Street Light Outage/Malfunction",
    "date_created": "2023-09-01T18:56:42.000",
    "date_modified": "2023-09-01T18:56:43.000",
    "request_status": "Pending",
    "responsible_agency": "Department of Public Works",
    "final_address": "2540 DAbadie St",
    "address_councildis": "D",
    "status": "Assigned to Contractor",
    "contractor": "Legacy Professional Services",
    "rowid": "1031526",
    "final_x": "3679680.04194",
    "final_y": "540597.525323",
    "longitude": "-90.07350194200791",
    "latitude": "29.980510901603438",
    "geocoded_column": {
      "latitude": "29.980510901603438",
      "longitude": "-90.07350194200791"
    }
  },
  {
    "service_request": "2023-1031525",
    "request_type": "Traffic Signals/Signs/Striping/Streetlights",
    "request_reason": "Street Light Outage/Malfunction",
    "date_created": "2023-09-01T18:54:29.000",
    "date_modified": "2023-09-01T18:54:30.000",
    "request_status": "Pending",
    "responsible_agency": "Department of Public Works",
    "final_address": "2540 DAbadie St",
    "address_councildis": "D",
    "status": "Assigned to Contractor",
    "contractor": "Legacy Professional Services",
    "rowid": "1031525",
    "final_x": "3679680.04194",
    "final_y": "540597.525323",
    "longitude": "-90.07350194200791",
    "latitude": "29.980510901603438",
    "geocoded_column": {
      "latitude": "29.980510901603438",
      "longitude": "-90.07350194200791"
    }
  },
  {
    "service_request": "2023-1031524",
    "request_type": "Trash/Recycling",
    "request_reason": "Missed Trash Pick-Up",
    "date_created": "2023-09-01T18:52:56.000",
    "date_modified": "2023-09-01T18:52:57.000",
    "request_status": "Pending",
    "responsible_agency": "Department of Sanitation",
    "final_address": "6841 Dorchester St",
    "address_councildis": "E",
    "status": "Assigned to Contractor",
    "contractor": "Waste Pro",
    "rowid": "1031524",
    "final_x": "3698781.45143",
    "final_y": "559559.671197",
    "longitude": "-90.01248143429052",
    "latitude": "30.032058404394803",
    "geocoded_column": {
      "latitude": "30.032058404394803",
      "longitude": "-90.01248143429052"
    }
  },
  {
    "service_request": "2023-1031523",
    "request_type": "Trash/Recycling",
    "request_reason": "Missed Trash Pick-Up",
    "date_created": "2023-09-01T18:45:36.000",
    "date_modified": "2023-09-01T18:45:37.000",
    "request_status": "Pending",
    "responsible_agency": "Department of Sanitation",
    "final_address": "1820 Lauradale Dr",
    "address_councildis": "C",
    "status": "Assigned to Contractor",
    "contractor": "Richards Disposal",
    "rowid": "1031523",
    "final_x": "3692779.5064",
    "final_y": "524520.917052",
    "longitude": "-90.03270470988977",
    "latitude": "29.935903325737044",
    "geocoded_column": {
      "latitude": "29.935903325737044",
      "longitude": "-90.03270470988977"
    }
  },
  {
    "service_request": "2023-1031521",
    "request_type": "Trash/Recycling",
    "request_reason": "Replace Trash Cart",
    "date_created": "2023-09-01T18:42:20.000",
    "date_modified": "2023-09-01T18:42:21.000",
    "request_status": "Pending",
    "responsible_agency": "Department of Sanitation",
    "final_address": "3950 S Inwood Ave",
    "address_councildis": "C",
    "status": "Assigned to Contractor",
    "contractor": "Richards Disposal",
    "rowid": "1031521",
    "final_x": "3705335.59351",
    "final_y": "513493.697842",
    "longitude": "-89.99347228977142",
    "latitude": "29.90518443494743",
    "geocoded_column": {
      "latitude": "29.90518443494743",
      "longitude": "-89.99347228977142"
    }
  },
  {
    "service_request": "2023-1031520",
    "request_type": "Abandoned Vehicles",
    "request_reason": "Abandoned/Junk Vehicles",
    "date_created": "2023-09-01T18:38:20.000",
    "date_modified": "2023-09-01T18:38:20.000",
    "request_status": "Pending",
    "responsible_agency": "Department of Public Works",
    "final_address": "4850 General Meyer Ave",
    "address_councildis": "C",
    "status": "Pending",
    "rowid": "1031520",
    "final_x": "3702199.60004",
    "final_y": "523246.879675",
    "longitude": "-90.00301219444115",
    "latitude": "29.932102794548513",
    "geocoded_column": {
      "latitude": "29.932102794548513",
      "longitude": "-90.00301219444115"
    }
  },
  {
    "service_request": "2023-1031519",
    "request_type": "Abandoned Vehicles",
    "request_reason": "Abandoned/Junk Vehicles",
    "date_created": "2023-09-01T18:33:54.000",
    "date_modified": "2023-09-01T18:33:54.000",
    "request_status": "Pending",
    "responsible_agency": "Department of Public Works",
    "final_address": "729 State St",
    "address_councildis": "A",
    "status": "Pending",
    "rowid": "1031519",
    "final_x": "3664721.16154",
    "final_y": "519087.510967",
    "longitude": "-90.1214672779465",
    "latitude": "29.921809085438234",
    "geocoded_column": {
      "latitude": "29.921809085438234",
      "longitude": "-90.1214672779465"
    }
  },
  {
    "service_request": "2023-1031518",
    "request_type": "Traffic Signals/Signs/Striping/Streetlights",
    "request_reason": "Street Light Outage/Malfunction",
    "date_created": "2023-09-01T18:20:30.000",
    "date_modified": "2023-09-01T18:20:30.000",
    "request_status": "Pending",
    "responsible_agency": "Department of Public Works",
    "final_address": "4226 N Claiborne Ave",
    "address_councildis": "D",
    "status": "Assigned to Contractor",
    "contractor": "Legacy Professional Services",
    "rowid": "1031518",
    "final_x": "3693073.28982",
    "final_y": "536916.989704",
    "longitude": "-90.03133255340026",
    "latitude": "29.969979039522794",
    "geocoded_column": {
      "latitude": "29.969979039522794",
      "longitude": "-90.03133255340026"
    }
  },
  {
    "service_request": "2023-1031517",
    "request_type": "Abandoned Vehicles",
    "request_reason": "Abandoned/Junk Vehicles",
    "date_created": "2023-09-01T18:18:36.000",
    "date_modified": "2023-09-01T18:18:36.000",
    "request_status": "Pending",
    "responsible_agency": "Department of Public Works",
    "final_address": "4213 Jumonville St",
    "address_councildis": "D",
    "status": "Pending",
    "rowid": "1031517",
    "final_x": "3678063.33627",
    "final_y": "547713.636818",
    "longitude": "-90.07836203430014",
    "latitude": "30.000126494013504",
    "geocoded_column": {
      "latitude": "30.000126494013504",
      "longitude": "-90.07836203430014"
    }
  },
  {
    "service_request": "2023-1031516",
    "request_type": "Property Maintenance",
    "request_reason": "Property Maintenance",
    "date_created": "2023-09-01T18:05:36.000",
    "date_modified": "2023-09-01T18:05:36.000",
    "request_status": "Pending",
    "responsible_agency": "Department of Code Enforcement",
    "final_address": "800 Valmont St",
    "address_councildis": "B",
    "status": "Pending",
    "rowid": "1031516",
    "final_x": "3667399.80359",
    "final_y": "518305.780406",
    "longitude": "-90.11303819464234",
    "latitude": "29.919581402475536",
    "geocoded_column": {
      "latitude": "29.919581402475536",
      "longitude": "-90.11303819464234"
    }
  },
  {
    "service_request": "2023-1031515",
    "request_type": "Trash/Recycling",
    "request_reason": "Illegal Dumping",
    "date_created": "2023-09-01T18:04:23.000",
    "date_modified": "2023-09-01T18:04:23.000",
    "request_status": "Pending",
    "responsible_agency": "Department of Sanitation",
    "final_address": "726 N Galvez St",
    "address_councildis": "D",
    "status": "Pending",
    "rowid": "1031515",
    "final_x": "3678533.88194",
    "final_y": "535864.619143",
    "longitude": "-90.07728587392748",
    "latitude": "29.967531637956295",
    "geocoded_column": {
      "latitude": "29.967531637956295",
      "longitude": "-90.07728587392748"
    }
  },
  {
    "service_request": "2023-1031514",
    "request_type": "Trash/Recycling",
    "request_reason": "Missed Trash Pick-Up",
    "date_created": "2023-09-01T18:04:21.000",
    "date_modified": "2023-09-01T18:04:21.000",
    "request_status": "Pending",
    "responsible_agency": "Department of Sanitation",
    "final_address": "1014 St Ferdinand St",
    "address_councildis": "C",
    "status": "Assigned to Contractor",
    "contractor": "IV Waste",
    "rowid": "1031514",
    "final_x": "3687613.33302",
    "final_y": "536016.823623",
    "longitude": "-90.04860746294868",
    "latitude": "29.967673358069177",
    "geocoded_column": {
      "latitude": "29.967673358069177",
      "longitude": "-90.04860746294868"
    }
  },
  {
    "service_request": "2023-1031513",
    "request_type": "Property Maintenance",
    "request_reason": "Property Maintenance",
    "date_created": "2023-09-01T18:02:25.000",
    "date_modified": "2023-09-01T18:02:25.000",
    "request_status": "Pending",
    "responsible_agency": "Department of Code Enforcement",
    "final_address": "710 Valmont St",
    "address_councildis": "B",
    "status": "Pending",
    "rowid": "1031513",
    "final_x": "3667357.26151",
    "final_y": "517989.454518",
    "longitude": "-90.11318311174526",
    "latitude": "29.918712851350172",
    "geocoded_column": {
      "latitude": "29.918712851350172",
      "longitude": "-90.11318311174526"
    }
  },
  {
    "service_request": "2023-1031512",
    "request_type": "Trash/Recycling",
    "request_reason": "Request a Large Item Pick Up",
    "date_created": "2023-09-01T17:48:11.000",
    "date_modified": "2023-09-01T17:48:12.000",
    "request_status": "Pending",
    "responsible_agency": "Department of Sanitation",
    "final_address": "928 Pine St",
    "address_councildis": "A",
    "status": "Assigned to Contractor",
    "contractor": "Richards Disposal",
    "rowid": "1031512",
    "final_x": "3663413.58906",
    "final_y": "525980.288701",
    "longitude": "-90.12536537400875",
    "latitude": "29.94080001201722",
    "geocoded_column": {
      "latitude": "29.94080001201722",
      "longitude": "-90.12536537400875"
    }
  },
  {
    "service_request": "2023-1031511",
    "request_type": "Abandoned Vehicles",
    "request_reason": "Abandoned/Junk Vehicles",
    "date_created": "2023-09-01T17:44:12.000",
    "date_modified": "2023-09-01T17:44:12.000",
    "request_status": "Pending",
    "responsible_agency": "Department of Public Works",
    "final_address": "1568 Harrison Ave",
    "address_councildis": "D",
    "status": "Pending",
    "rowid": "1031511",
    "final_x": "3679321.37474",
    "final_y": "547649.286226",
    "longitude": "-90.07439005813302",
    "latitude": "29.999911606624607",
    "geocoded_column": {
      "latitude": "29.999911606624607",
      "longitude": "-90.07439005813302"
    }
  },
  {
    "service_request": "2023-1031510",
    "request_type": "Abandoned Vehicles",
    "request_reason": "Abandoned/Junk Vehicles",
    "date_created": "2023-09-01T17:43:08.000",
    "date_modified": "2023-09-01T17:43:08.000",
    "request_status": "Pending",
    "responsible_agency": "Department of Public Works",
    "final_address": "3930 Perrier St",
    "address_councildis": "B",
    "status": "Pending",
    "rowid": "1031510",
    "final_x": "3672516.81671",
    "final_y": "520195.171",
    "longitude": "-90.0968219322253",
    "latitude": "29.924625787717115",
    "geocoded_column": {
      "latitude": "29.924625787717115",
      "longitude": "-90.0968219322253"
    }
  },
  {
    "service_request": "2023-1031509",
    "request_type": "Abandoned Vehicles",
    "request_reason": "Abandoned/Junk Vehicles",
    "date_created": "2023-09-01T17:26:32.000",
    "date_modified": "2023-09-01T17:26:32.000",
    "request_status": "Pending",
    "responsible_agency": "Department of Public Works",
    "final_address": "1419 Harrison Ave",
    "address_councildis": "D",
    "status": "Pending",
    "rowid": "1031509",
    "final_x": "3678143.40622",
    "final_y": "547719.592338",
    "longitude": "-90.07810888292865",
    "latitude": "30.00014045801524",
    "geocoded_column": {
      "latitude": "30.00014045801524",
      "longitude": "-90.07810888292865"
    }
  },
  {
    "service_request": "2023-1031508",
    "request_type": "Trash/Recycling",
    "request_reason": "Missed Trash Pick-Up",
    "date_created": "2023-09-01T17:22:35.000",
    "date_modified": "2023-09-01T17:22:36.000",
    "request_status": "Pending",
    "responsible_agency": "Department of Sanitation",
    "final_address": "7319 Sheffield St",
    "address_councildis": "E",
    "status": "Assigned to Contractor",
    "contractor": "Waste Pro",
    "rowid": "1031508",
    "final_x": "3699632.91831",
    "final_y": "559361.683997",
    "longitude": "-90.00979798803601",
    "latitude": "30.03148700055262",
    "geocoded_column": {
      "latitude": "30.03148700055262",
      "longitude": "-90.00979798803601"
    }
  },
  {
    "service_request": "2023-1031507",
    "request_type": "Traffic Signals/Signs/Striping/Streetlights",
    "request_reason": "Street Light Outage/Malfunction",
    "date_created": "2023-09-01T17:19:21.000",
    "date_modified": "2023-09-01T17:19:22.000",
    "request_status": "Pending",
    "responsible_agency": "Department of Public Works",
    "final_address": "13025 Cherbourg St",
    "address_councildis": "E",
    "status": "Assigned to Contractor",
    "contractor": "Legacy Professional Services",
    "rowid": "1031507",
    "final_x": "3723951.80582",
    "final_y": "561033.998558",
    "longitude": "-89.93288568726786",
    "latitude": "30.035290384128164",
    "geocoded_column": {
      "latitude": "30.035290384128164",
      "longitude": "-89.93288568726786"
    }
  },
  {
    "service_request": "2023-1031506",
    "request_type": "Trash/Recycling",
    "request_reason": "Replace Trash Cart",
    "date_created": "2023-09-01T17:08:49.000",
    "date_modified": "2023-09-01T17:08:49.000",
    "request_status": "Pending",
    "responsible_agency": "Department of Sanitation",
    "final_address": "6391 Eastover Dr",
    "address_councildis": "E",
    "status": "Assigned to Contractor",
    "contractor": "Waste Pro",
    "rowid": "1031506",
    "final_x": "3718334.99129",
    "final_y": "563527.49296",
    "longitude": "-89.95054044349781",
    "latitude": "30.042334042378123",
    "geocoded_column": {
      "latitude": "30.042334042378123",
      "longitude": "-89.95054044349781"
    }
  },
  {
    "service_request": "2023-1031505",
    "request_type": "Trash/Recycling",
    "request_reason": "Request a Large Item Pick Up",
    "date_created": "2023-09-01T17:07:41.000",
    "date_modified": "2023-09-01T17:07:42.000",
    "request_status": "Pending",
    "responsible_agency": "Department of Sanitation",
    "final_address": "3500 Upperline St",
    "address_councildis": "B",
    "status": "Assigned to Contractor",
    "contractor": "Richards Disposal",
    "rowid": "1031505",
    "final_x": "3669243.4201",
    "final_y": "527751.661503",
    "longitude": "-90.10689966361467",
    "latitude": "29.94550043255526",
    "geocoded_column": {
      "latitude": "29.94550043255526",
      "longitude": "-90.10689966361467"
    }
  },
  {
    "service_request": "2023-1031504",
    "request_type": "Parks & Parkways",
    "request_reason": "Request Tree Service (Right of Way/Public Property)",
    "date_created": "2023-09-01T17:04:07.000",
    "date_modified": "2023-09-01T17:04:07.000",
    "request_status": "Pending",
    "responsible_agency": "Department of Parks & Parkway",
    "final_address": "4407 S Carrollton Ave",
    "address_councildis": "A",
    "status": "Pending",
    "rowid": "1031504",
    "final_x": "3670039.81146",
    "final_y": "537296.607944",
    "longitude": "-90.10406188337352",
    "latitude": "29.97172241499035",
    "geocoded_column": {
      "latitude": "29.97172241499035",
      "longitude": "-90.10406188337352"
    }
  },
  {
    "service_request": "2023-1031503",
    "request_type": "Safety & Permits",
    "request_reason": "Licenses & Permits",
    "date_created": "2023-09-01T17:02:24.000",
    "date_modified": "2023-09-01T17:02:24.000",
    "request_status": "Pending",
    "responsible_agency": "Safety and Permits",
    "final_address": "2900 BLK Peoples Ave",
    "address_councildis": "D",
    "status": "Pending",
    "rowid": "1031503",
    "final_x": "3688776.01086",
    "final_y": "543327.167726",
    "longitude": "-90.04467607100233",
    "latitude": "29.987738320981645",
    "geocoded_column": {
      "latitude": "29.987738320981645",
      "longitude": "-90.04467607100233"
    }
  },
  {
    "service_request": "2023-1031501",
    "request_type": "Trash/Recycling",
    "request_reason": "Order Trash Cart",
    "date_created": "2023-09-01T16:55:34.000",
    "date_modified": "2023-09-01T16:59:31.000",
    "request_status": "Pending",
    "responsible_agency": "Department of Sanitation",
    "final_address": "2211 Conti St",
    "address_councildis": "B",
    "status": "Assigned to Contractor",
    "contractor": "Richards Disposal",
    "rowid": "1031501",
    "final_x": "3677588.35323",
    "final_y": "534943.434758",
    "longitude": "-90.08030368728234",
    "latitude": "29.965027159611836",
    "geocoded_column": {
      "latitude": "29.965027159611836",
      "longitude": "-90.08030368728234"
    }
  },
  {
    "service_request": "2023-1031500",
    "request_type": "Trash/Recycling",
    "request_reason": "Order Recycling Cart",
    "date_created": "2023-09-01T16:55:12.000",
    "date_modified": "2023-09-01T16:55:12.000",
    "request_status": "Pending",
    "responsible_agency": "Department of Sanitation",
    "final_address": "2211 Conti St",
    "address_councildis": "B",
    "status": "Pending",
    "rowid": "1031500",
    "final_x": "3677588.35323",
    "final_y": "534943.434758",
    "longitude": "-90.08030368728234",
    "latitude": "29.965027159611836",
    "geocoded_column": {
      "latitude": "29.965027159611836",
      "longitude": "-90.08030368728234"
    }
  },
  {
    "service_request": "2023-1031499",
    "request_type": "Trash/Recycling",
    "request_reason": "Order Recycling Cart",
    "date_created": "2023-09-01T16:54:56.000",
    "date_modified": "2023-09-01T16:58:50.000",
    "request_status": "Pending",
    "responsible_agency": "Department of Sanitation",
    "final_address": "2209 Conti St",
    "address_councildis": "B",
    "status": "Pending",
    "rowid": "1031499",
    "final_x": "3677598.00462",
    "final_y": "534962.735878",
    "longitude": "-90.08027254218942",
    "latitude": "29.965079940929204",
    "geocoded_column": {
      "latitude": "29.965079940929204",
      "longitude": "-90.08027254218942"
    }
  },
  {
    "service_request": "2023-1031498",
    "request_type": "Trash/Recycling",
    "request_reason": "Order Trash Cart",
    "date_created": "2023-09-01T16:54:35.000",
    "date_modified": "2023-09-01T16:58:32.000",
    "request_status": "Pending",
    "responsible_agency": "Department of Sanitation",
    "final_address": "2209 Conti St",
    "address_councildis": "B",
    "status": "Assigned to Contractor",
    "contractor": "Richards Disposal",
    "rowid": "1031498",
    "final_x": "3677598.00462",
    "final_y": "534962.735878",
    "longitude": "-90.08027254218942",
    "latitude": "29.965079940929204",
    "geocoded_column": {
      "latitude": "29.965079940929204",
      "longitude": "-90.08027254218942"
    }
  },
  {
    "service_request": "2023-1031497",
    "request_type": "Safety & Permits",
    "request_reason": "Licenses & Permits",
    "date_created": "2023-09-01T16:49:50.000",
    "date_modified": "2023-09-01T16:53:21.000",
    "request_status": "Pending",
    "responsible_agency": "Safety and Permits",
    "final_address": "916 Foucher St Apt 4",
    "address_councildis": "B",
    "status": "Pending",
    "rowid": "1031497",
    "final_x": "3674316.35048",
    "final_y": "518732.705335",
    "longitude": "-90.09119144643519",
    "latitude": "29.9205509570555",
    "geocoded_column": {
      "latitude": "29.9205509570555",
      "longitude": "-90.09119144643519"
    }
  },
  {
    "service_request": "2023-1031496",
    "request_type": "Parks & Parkways",
    "request_reason": "Request Tree Service (Right of Way/Public Property)",
    "date_created": "2023-09-01T16:42:09.000",
    "date_modified": "2023-09-01T16:44:50.000",
    "request_status": "Pending",
    "responsible_agency": "Department of Parks & Parkway",
    "final_address": "210 Rhodes Ave",
    "address_councildis": "C",
    "status": "Pending",
    "rowid": "1031496",
    "final_x": "3706511.37195",
    "final_y": "519473.760567",
    "longitude": "-89.98954016914725",
    "latitude": "29.92158968604877",
    "geocoded_column": {
      "latitude": "29.92158968604877",
      "longitude": "-89.98954016914725"
    }
  },
  {
    "service_request": "2023-1031495",
    "request_type": "Abandoned Vehicles",
    "request_reason": "Abandoned/Junk Vehicles",
    "date_created": "2023-09-01T16:37:42.000",
    "date_modified": "2023-09-01T16:37:42.000",
    "request_status": "Pending",
    "responsible_agency": "Department of Public Works",
    "final_address": "1700 BLK Ursulines Ave",
    "address_councildis": "D",
    "status": "Pending",
    "rowid": "1031495",
    "final_x": "3680504.76264",
    "final_y": "535929.62806",
    "longitude": "-90.07105953256684",
    "latitude": "29.96765083828412",
    "geocoded_column": {
      "latitude": "29.96765083828412",
      "longitude": "-90.07105953256684"
    }
  },
  {
    "service_request": "2023-1031493",
    "request_type": "Trash/Recycling",
    "request_reason": "MIssed Recycling Pick-Up",
    "date_created": "2023-09-01T16:31:29.000",
    "date_modified": "2023-09-01T16:33:05.000",
    "request_status": "Pending",
    "responsible_agency": "Department of Sanitation",
    "final_address": "7933 Hampson St",
    "address_councildis": "A",
    "status": "Assigned to Contractor",
    "contractor": "Richards Disposal",
    "rowid": "1031493",
    "final_x": "3661201.28256",
    "final_y": "526782.756734",
    "longitude": "-90.13232349471072",
    "latitude": "29.943070488443226",
    "geocoded_column": {
      "latitude": "29.943070488443226",
      "longitude": "-90.13232349471072"
    }
  },
  {
    "service_request": "2023-1031492",
    "request_type": "EMS",
    "request_reason": "EMS Complaint",
    "date_created": "2023-09-01T16:24:30.000",
    "date_modified": "2023-09-01T16:25:10.000",
    "request_status": "Pending",
    "responsible_agency": "Emergency Medical Services",
    "status": "Pending",
    "rowid": "1031492",
    "longitude": "0.0",
    "latitude": "0.0",
    "geocoded_column": {
      "latitude": "0.0",
      "longitude": "0.0"
    }
  },
  {
    "service_request": "2023-1031491",
    "request_type": "Trash/Recycling",
    "request_reason": "Order Recycling Cart",
    "date_created": "2023-09-01T16:20:26.000",
    "date_modified": "2023-09-01T16:20:26.000",
    "request_status": "Pending",
    "responsible_agency": "Department of Sanitation",
    "final_address": "2238 Fats Domino Ave",
    "address_councildis": "E",
    "status": "Pending",
    "rowid": "1031491",
    "final_x": "3699171.07658",
    "final_y": "538213.598665",
    "longitude": "-90.01202804449794",
    "latitude": "29.9733523193546",
    "geocoded_column": {
      "latitude": "29.9733523193546",
      "longitude": "-90.01202804449794"
    }
  },
  {
    "service_request": "2023-1031490",
    "request_type": "Roads/Drainage",
    "request_reason": "Accessibility Ramps, Curbs and Sidewalk Repair",
    "date_created": "2023-09-01T16:19:39.000",
    "date_modified": "2023-09-01T16:19:39.000",
    "request_status": "Pending",
    "responsible_agency": "Department of Public Works",
    "final_address": "7201 Spring Lake Dr",
    "address_councildis": "E",
    "status": "Pending",
    "rowid": "1031490",
    "final_x": "3700169.42397",
    "final_y": "558994.22774",
    "longitude": "-90.00811604595594",
    "latitude": "30.030459587327485",
    "geocoded_column": {
      "latitude": "30.030459587327485",
      "longitude": "-90.00811604595594"
    }
  },
  {
    "service_request": "2023-1031489",
    "request_type": "Trash/Recycling",
    "request_reason": "Request a Large Item Pick Up",
    "date_created": "2023-09-01T16:18:07.000",
    "date_modified": "2023-09-01T16:18:24.000",
    "request_status": "Pending",
    "responsible_agency": "Department of Sanitation",
    "final_address": "5229 Laurel St",
    "address_councildis": "B",
    "status": "Assigned to Contractor",
    "contractor": "Richards Disposal",
    "rowid": "1031489",
    "final_x": "3667766.64506",
    "final_y": "517912.864694",
    "longitude": "-90.11189347483706",
    "latitude": "29.918490260299055",
    "geocoded_column": {
      "latitude": "29.918490260299055",
      "longitude": "-90.11189347483706"
    }
  },
  {
    "service_request": "2023-1031488",
    "request_type": "Traffic Signals/Signs/Striping/Streetlights",
    "request_reason": "Traffic Signal Malfunctioning/Damaged",
    "date_created": "2023-09-01T16:18:05.000",
    "date_modified": "2023-09-01T16:18:24.000",
    "request_status": "Pending",
    "responsible_agency": "Department of Public Works",
    "final_address": "1801 L. B. Landry Ave",
    "address_councildis": "C",
    "status": "Pending",
    "rowid": "1031488",
    "final_x": "3689900.27657",
    "final_y": "524128.37638",
    "longitude": "-90.04180843474808",
    "latitude": "29.934913521769634",
    "geocoded_column": {
      "latitude": "29.934913521769634",
      "longitude": "-90.04180843474808"
    }
  },
  {
    "service_request": "2023-1031487",
    "request_type": "Trash/Recycling",
    "request_reason": "Request a Large Item Pick Up",
    "date_created": "2023-09-01T16:13:11.000",
    "date_modified": "2023-09-01T16:13:12.000",
    "request_status": "Pending",
    "responsible_agency": "Department of Sanitation",
    "final_address": "3026 George Nick Connor Dr",
    "address_councildis": "D",
    "status": "Assigned to Contractor",
    "contractor": "IV Waste",
    "rowid": "1031487",
    "final_x": "3680927.83144",
    "final_y": "543599.279886",
    "longitude": "-90.06945631145624",
    "latitude": "29.988726893581628",
    "geocoded_column": {
      "latitude": "29.988726893581628",
      "longitude": "-90.06945631145624"
    }
  },
  {
    "service_request": "2023-1031486",
    "request_type": "Trash/Recycling",
    "request_reason": "Order Recycling Cart",
    "date_created": "2023-09-01T16:12:20.000",
    "date_modified": "2023-09-01T16:12:20.000",
    "request_status": "Pending",
    "responsible_agency": "Department of Sanitation",
    "final_address": "1814 Audubon St",
    "address_councildis": "A",
    "status": "Pending",
    "rowid": "1031486",
    "final_x": "3665647.72813",
    "final_y": "528226.35232",
    "longitude": "-90.11823657934482",
    "latitude": "29.94691101308228",
    "geocoded_column": {
      "latitude": "29.94691101308228",
      "longitude": "-90.11823657934482"
    }
  },
  {
    "service_request": "2023-1031485",
    "request_type": "Trash/Recycling",
    "request_reason": "Replace Trash Cart",
    "date_created": "2023-09-01T16:09:48.000",
    "date_modified": "2023-09-01T16:09:49.000",
    "request_status": "Pending",
    "responsible_agency": "Department of Sanitation",
    "final_address": "5518 Chestnut St",
    "address_councildis": "A",
    "status": "Assigned to Contractor",
    "contractor": "Richards Disposal",
    "rowid": "1031485",
    "final_x": "3666423.6953",
    "final_y": "519556.314231",
    "longitude": "-90.11607736261519",
    "latitude": "29.923048525457926",
    "geocoded_column": {
      "latitude": "29.923048525457926",
      "longitude": "-90.11607736261519"
    }
  },
  {
    "service_request": "2023-1031484",
    "request_type": "Trash/Recycling",
    "request_reason": "Request a Large Item Pick Up",
    "date_created": "2023-09-01T16:07:36.000",
    "date_modified": "2023-09-01T16:07:36.000",
    "request_status": "Pending",
    "responsible_agency": "Department of Sanitation",
    "final_address": "3024 George Nick Connor Dr",
    "address_councildis": "D",
    "status": "Assigned to Contractor",
    "contractor": "IV Waste",
    "rowid": "1031484",
    "final_x": "3680928.61967",
    "final_y": "543583.513422",
    "longitude": "-90.06945437099866",
    "latitude": "29.988683517445942",
    "geocoded_column": {
      "latitude": "29.988683517445942",
      "longitude": "-90.06945437099866"
    }
  },
  {
    "service_request": "2023-1031483",
    "request_type": "Trash/Recycling",
    "request_reason": "MIssed Recycling Pick-Up",
    "date_created": "2023-09-01T16:05:20.000",
    "date_modified": "2023-09-01T16:05:21.000",
    "request_status": "Pending",
    "responsible_agency": "Department of Sanitation",
    "final_address": "1516 Robert St",
    "address_councildis": "B",
    "status": "Assigned to Contractor",
    "contractor": "Richards Disposal",
    "rowid": "1031483",
    "final_x": "3668617.50503",
    "final_y": "520561.9822",
    "longitude": "-90.10911841476718",
    "latitude": "29.925749528965472",
    "geocoded_column": {
      "latitude": "29.925749528965472",
      "longitude": "-90.10911841476718"
    }
  },
  {
    "service_request": "2023-1031482",
    "request_type": "Abandoned Vehicles",
    "request_reason": "Abandoned/Junk Vehicles",
    "date_created": "2023-09-01T15:59:05.000",
    "date_modified": "2023-09-01T15:59:05.000",
    "request_status": "Pending",
    "responsible_agency": "Department of Public Works",
    "final_address": "1427 Henriette Delille St",
    "address_councildis": "C",
    "status": "Pending",
    "rowid": "1031482",
    "final_x": "3682677.4406",
    "final_y": "535812.114247",
    "longitude": "-90.06420227988548",
    "latitude": "29.967261725198885",
    "geocoded_column": {
      "latitude": "29.967261725198885",
      "longitude": "-90.06420227988548"
    }
  },
  {
    "service_request": "2023-1031481",
    "request_type": "Property Maintenance",
    "request_reason": "Property Maintenance",
    "date_created": "2023-09-01T15:54:52.000",
    "date_modified": "2023-09-01T15:54:52.000",
    "request_status": "Pending",
    "responsible_agency": "Department of Code Enforcement",
    "final_address": "5130 Chestnut St",
    "address_councildis": "B",
    "status": "Pending",
    "rowid": "1031481",
    "final_x": "3668101.95565",
    "final_y": "519276.115767",
    "longitude": "-90.11078916254174",
    "latitude": "29.92222893863259",
    "geocoded_column": {
      "latitude": "29.92222893863259",
      "longitude": "-90.11078916254174"
    }
  },
  {
    "service_request": "2023-1031480",
    "request_type": "Trash/Recycling",
    "request_reason": "Missed Trash Pick-Up",
    "date_created": "2023-09-01T15:50:36.000",
    "date_modified": "2023-09-01T15:50:36.000",
    "request_status": "Pending",
    "responsible_agency": "Department of Sanitation",
    "final_address": "7731 Wales St",
    "address_councildis": "E",
    "status": "Assigned to Contractor",
    "contractor": "Waste Pro",
    "rowid": "1031480",
    "final_x": "3700970.521",
    "final_y": "561831.172575",
    "longitude": "-90.00548069777854",
    "latitude": "30.038234583337484",
    "geocoded_column": {
      "latitude": "30.038234583337484",
      "longitude": "-90.00548069777854"
    }
  },
  {
    "service_request": "2023-1031479",
    "request_type": "Abandoned Vehicles",
    "request_reason": "Abandoned/Junk Vehicles",
    "date_created": "2023-09-01T15:47:06.000",
    "date_modified": "2023-09-01T15:47:06.000",
    "request_status": "Pending",
    "responsible_agency": "Department of Public Works",
    "status": "Pending",
    "rowid": "1031479",
    "longitude": "0.0",
    "latitude": "0.0",
    "geocoded_column": {
      "latitude": "0.0",
      "longitude": "0.0"
    }
  },
  {
    "service_request": "2023-1031478",
    "request_type": "Trash/Recycling",
    "request_reason": "Request a Large Item Pick Up",
    "date_created": "2023-09-01T15:45:30.000",
    "date_modified": "2023-09-01T15:45:31.000",
    "request_status": "Pending",
    "responsible_agency": "Department of Sanitation",
    "final_address": "5531 S Miro St",
    "address_councildis": "A",
    "status": "Assigned to Contractor",
    "contractor": "Richards Disposal",
    "rowid": "1031478",
    "final_x": "3668177.01741",
    "final_y": "527784.510207",
    "longitude": "-90.11026554610724",
    "latitude": "29.94562209771876",
    "geocoded_column": {
      "latitude": "29.94562209771876",
      "longitude": "-90.11026554610724"
    }
  },
  {
    "service_request": "2023-1031477",
    "request_type": "Parks & Parkways",
    "request_reason": "Request Tree Service (Right of Way/Public Property)",
    "date_created": "2023-09-01T15:42:10.000",
    "date_modified": "2023-09-01T15:42:11.000",
    "request_status": "Pending",
    "responsible_agency": "Department of Parks & Parkway",
    "final_address": "2020 Ellen Park Pl",
    "address_councildis": "C",
    "status": "Pending",
    "rowid": "1031477",
    "final_x": "3703008.51646",
    "final_y": "523382.393659",
    "longitude": "-90.00045356886365",
    "latitude": "29.932449562403463",
    "geocoded_column": {
      "latitude": "29.932449562403463",
      "longitude": "-90.00045356886365"
    }
  },
  {
    "service_request": "2023-1031476",
    "request_type": "Trash/Recycling",
    "request_reason": "Request a Large Item Pick Up",
    "date_created": "2023-09-01T15:34:26.000",
    "date_modified": "2023-09-01T15:34:26.000",
    "request_status": "Pending",
    "responsible_agency": "Department of Sanitation",
    "final_address": "3026 George Nick Connor Dr",
    "address_councildis": "D",
    "status": "Assigned to Contractor",
    "contractor": "IV Waste",
    "rowid": "1031476",
    "final_x": "3680927.83144",
    "final_y": "543599.279886",
    "longitude": "-90.06945631145624",
    "latitude": "29.988726893581628",
    "geocoded_column": {
      "latitude": "29.988726893581628",
      "longitude": "-90.06945631145624"
    }
  },
  {
    "service_request": "2023-1031475",
    "request_type": "Abandoned Vehicles",
    "request_reason": "Vehicle Blocking Your Driveway",
    "date_created": "2023-09-01T15:34:17.000",
    "date_modified": "2023-09-01T15:36:29.000",
    "request_status": "Pending",
    "responsible_agency": "Department of Public Works",
    "final_address": "PIEDMONT DR & MONTPELIER ST",
    "address_councildis": "D",
    "status": "Pending",
    "rowid": "1031475",
    "final_x": "3685646.2",
    "final_y": "546719.98",
    "longitude": "-90.0544424499734",
    "latitude": "29.997163756215432",
    "geocoded_column": {
      "latitude": "29.997163756215432",
      "longitude": "-90.0544424499734"
    }
  },
  {
    "service_request": "2023-1031474",
    "request_type": "Trash/Recycling",
    "request_reason": "Replace Trash Cart",
    "date_created": "2023-09-01T15:32:27.000",
    "date_modified": "2023-09-01T15:32:27.000",
    "request_status": "Pending",
    "responsible_agency": "Department of Sanitation",
    "final_address": "General De Gaulle Drive & Lang Street",
    "address_councildis": "C",
    "status": "Assigned to Contractor",
    "contractor": "Richards Disposal",
    "rowid": "1031474",
    "final_x": "3701870.07057",
    "final_y": "516991.824501",
    "longitude": "-90.00428151728532",
    "latitude": "29.91491406480183",
    "geocoded_column": {
      "latitude": "29.91491406480183",
      "longitude": "-90.00428151728532"
    }
  },
  {
    "service_request": "2023-1031473",
    "request_type": "Trash/Recycling",
    "request_reason": "Request a Large Item Pick Up",
    "date_created": "2023-09-01T15:32:04.000",
    "date_modified": "2023-09-01T15:32:04.000",
    "request_status": "Pending",
    "responsible_agency": "Department of Sanitation",
    "final_address": "2227 Leon C Simon Dr",
    "address_councildis": "D",
    "status": "Assigned to Contractor",
    "contractor": "IV Waste",
    "rowid": "1031473",
    "final_x": "3683650.14677",
    "final_y": "557024.805018",
    "longitude": "-90.06038625617722",
    "latitude": "30.025559383956676",
    "geocoded_column": {
      "latitude": "30.025559383956676",
      "longitude": "-90.06038625617722"
    }
  },
  {
    "service_request": "2023-1031472",
    "request_type": "Trash/Recycling",
    "request_reason": "Request a Large Item Pick Up",
    "date_created": "2023-09-01T15:31:57.000",
    "date_modified": "2023-09-01T15:31:57.000",
    "request_status": "Pending",
    "responsible_agency": "Department of Sanitation",
    "final_address": "3024 George Nick Connor Dr",
    "address_councildis": "D",
    "status": "Assigned to Contractor",
    "contractor": "IV Waste",
    "rowid": "1031472",
    "final_x": "3680928.61967",
    "final_y": "543583.513422",
    "longitude": "-90.06945437099866",
    "latitude": "29.988683517445942",
    "geocoded_column": {
      "latitude": "29.988683517445942",
      "longitude": "-90.06945437099866"
    }
  },
  {
    "service_request": "2023-1031471",
    "request_type": "Abandoned Vehicles",
    "request_reason": "Abandoned/Junk Vehicles",
    "date_created": "2023-09-01T15:27:14.000",
    "date_modified": "2023-09-01T15:27:14.000",
    "request_status": "Pending",
    "responsible_agency": "Department of Public Works",
    "final_address": "2400 BLK Frenchmen St",
    "address_councildis": "D",
    "status": "Pending",
    "rowid": "1031471",
    "final_x": "3684190.47246",
    "final_y": "541244.500304",
    "longitude": "-90.05923335574461",
    "latitude": "29.982152725359338",
    "geocoded_column": {
      "latitude": "29.982152725359338",
      "longitude": "-90.05923335574461"
    }
  },
  {
    "service_request": "2023-1031470",
    "request_type": "Roads/Drainage",
    "request_reason": "Catch Basin - Clogged",
    "date_created": "2023-09-01T15:26:31.000",
    "date_modified": "2023-09-01T15:26:32.000",
    "request_status": "Pending",
    "responsible_agency": "Department of Public Works",
    "final_address": "3619 Second St",
    "address_councildis": "B",
    "status": "Pending",
    "rowid": "1031470",
    "final_x": "3672758.21524",
    "final_y": "529070.68608",
    "longitude": "-90.09575731621923",
    "latitude": "29.949023405763537",
    "geocoded_column": {
      "latitude": "29.949023405763537",
      "longitude": "-90.09575731621923"
    }
  },
  {
    "service_request": "2023-1031469",
    "request_type": "Trash/Recycling",
    "request_reason": "Request a Large Item Pick Up",
    "date_created": "2023-09-01T15:26:20.000",
    "date_modified": "2023-09-01T15:26:21.000",
    "request_status": "Pending",
    "responsible_agency": "Department of Sanitation",
    "final_address": "3504 Republic St",
    "address_councildis": "D",
    "status": "Assigned to Contractor",
    "contractor": "IV Waste",
    "rowid": "1031469",
    "final_x": "3680432.64667",
    "final_y": "545290.323791",
    "longitude": "-90.07096159978485",
    "latitude": "29.99339167763523",
    "geocoded_column": {
      "latitude": "29.99339167763523",
      "longitude": "-90.07096159978485"
    }
  },
  {
    "service_request": "2023-1031468",
    "request_type": "Trash/Recycling",
    "request_reason": "Order Recycling Cart",
    "date_created": "2023-09-01T15:25:44.000",
    "date_modified": "2023-09-01T15:25:44.000",
    "request_status": "Pending",
    "responsible_agency": "Department of Sanitation",
    "final_address": "2300 Bienville Ave",
    "address_councildis": "B",
    "status": "Pending",
    "rowid": "1031468",
    "final_x": "3677097.55432",
    "final_y": "534677.650246",
    "longitude": "-90.08186276958943",
    "latitude": "29.964311090905422",
    "geocoded_column": {
      "latitude": "29.964311090905422",
      "longitude": "-90.08186276958943"
    }
  },
  {
    "service_request": "2023-1031467",
    "request_type": "Trash/Recycling",
    "request_reason": "Order Trash Cart",
    "date_created": "2023-09-01T15:25:17.000",
    "date_modified": "2023-09-01T15:25:18.000",
    "request_status": "Pending",
    "responsible_agency": "Department of Sanitation",
    "final_address": "2300 Bienville Ave",
    "address_councildis": "B",
    "status": "Assigned to Contractor",
    "contractor": "Richards Disposal",
    "rowid": "1031467",
    "final_x": "3677097.55432",
    "final_y": "534677.650246",
    "longitude": "-90.08186276958943",
    "latitude": "29.964311090905422",
    "geocoded_column": {
      "latitude": "29.964311090905422",
      "longitude": "-90.08186276958943"
    }
  },
  {
    "service_request": "2023-1031466",
    "request_type": "Roads/Drainage",
    "request_reason": "Damaged Sidewalk",
    "date_created": "2023-09-01T15:21:58.000",
    "date_modified": "2023-09-01T15:21:58.000",
    "request_status": "Pending",
    "responsible_agency": "Department of Public Works",
    "final_address": "5628 Cherlyn Dr",
    "address_councildis": "A",
    "status": "Pending",
    "rowid": "1031466",
    "final_x": "3665111.98093",
    "final_y": "545118.354895",
    "longitude": "-90.11936308237878",
    "latitude": "29.993374032482635",
    "geocoded_column": {
      "latitude": "29.993374032482635",
      "longitude": "-90.11936308237878"
    }
  },
  {
    "service_request": "2023-1031465",
    "request_type": "Trash/Recycling",
    "request_reason": "Order Recycling Cart",
    "date_created": "2023-09-01T15:17:55.000",
    "date_modified": "2023-09-01T15:17:55.000",
    "request_status": "Pending",
    "responsible_agency": "Department of Sanitation",
    "final_address": "1825 General Pershing St",
    "address_councildis": "B",
    "status": "Pending",
    "rowid": "1031465",
    "final_x": "3671239.03521",
    "final_y": "521848.052026",
    "longitude": "-90.10079934445159",
    "latitude": "29.929208534854716",
    "geocoded_column": {
      "latitude": "29.929208534854716",
      "longitude": "-90.10079934445159"
    }
  },
  {
    "service_request": "2023-1031464",
    "request_type": "Trash/Recycling",
    "request_reason": "Repair Recycling Cart",
    "date_created": "2023-09-01T15:15:13.000",
    "date_modified": "2023-09-01T15:16:24.000",
    "request_status": "Pending",
    "responsible_agency": "Department of Sanitation",
    "final_address": "4800 Congress Dr",
    "address_councildis": "D",
    "status": "Pending",
    "rowid": "1031464",
    "final_x": "3692179.71389",
    "final_y": "551895.364822",
    "longitude": "-90.03361798805147",
    "latitude": "30.011192034839336",
    "geocoded_column": {
      "latitude": "30.011192034839336",
      "longitude": "-90.03361798805147"
    }
  },
  {
    "service_request": "2023-1031463",
    "request_type": "Trash/Recycling",
    "request_reason": "Illegal Dumping",
    "date_created": "2023-09-01T15:14:50.000",
    "date_modified": "2023-09-01T15:15:07.000",
    "request_status": "Pending",
    "responsible_agency": "Department of Sanitation",
    "final_address": "7920 Unity Dr",
    "address_councildis": "E",
    "status": "Pending",
    "rowid": "1031463",
    "final_x": "3711537.24773",
    "final_y": "567738.441764",
    "longitude": "-89.9718656191049",
    "latitude": "30.054136260402004",
    "geocoded_column": {
      "latitude": "30.054136260402004",
      "longitude": "-89.9718656191049"
    }
  },
  {
    "service_request": "2023-1031462",
    "request_type": "Trash/Recycling",
    "request_reason": "Missed Trash Pick-Up",
    "date_created": "2023-09-01T15:14:31.000",
    "date_modified": "2023-09-01T16:06:45.000",
    "case_close_date": "2023-09-01T11:06:45.000",
    "request_status": "Closed",
    "responsible_agency": "Department of Sanitation",
    "final_address": "1738 St Ferdinand St",
    "address_councildis": "D",
    "status": "Invalid Request",
    "contractor": "IV Waste",
    "contractor_action": "Invalid Pick-Up",
    "rowid": "1031462",
    "final_x": "3688340.2015",
    "final_y": "538846.027337",
    "longitude": "-90.04621163708096",
    "latitude": "29.975430245990704",
    "geocoded_column": {
      "latitude": "29.975430245990704",
      "longitude": "-90.04621163708096"
    }
  },
  {
    "service_request": "2023-1031461",
    "request_type": "Trash/Recycling",
    "request_reason": "Request a Large Item Pick Up",
    "date_created": "2023-09-01T15:13:31.000",
    "date_modified": "2023-09-01T15:13:32.000",
    "request_status": "Pending",
    "responsible_agency": "Department of Sanitation",
    "final_address": "195 Pinewood Ct",
    "address_councildis": "C",
    "status": "Assigned to Contractor",
    "contractor": "Richards Disposal",
    "rowid": "1031461",
    "final_x": "3696079.84266",
    "final_y": "523630.312251",
    "longitude": "-90.02231770581209",
    "latitude": "29.933351048891375",
    "geocoded_column": {
      "latitude": "29.933351048891375",
      "longitude": "-90.02231770581209"
    }
  },
  {
    "service_request": "2023-1031460",
    "request_type": "Trash/Recycling",
    "request_reason": "Repair Recycling Cart",
    "date_created": "2023-09-01T15:13:15.000",
    "date_modified": "2023-09-01T15:13:16.000",
    "request_status": "Pending",
    "responsible_agency": "Department of Sanitation",
    "final_address": "5317 Camp St",
    "address_councildis": "B",
    "status": "Pending",
    "rowid": "1031460",
    "final_x": "3667388.65466",
    "final_y": "519079.843447",
    "longitude": "-90.11304736560885",
    "latitude": "29.921710158758394",
    "geocoded_column": {
      "latitude": "29.921710158758394",
      "longitude": "-90.11304736560885"
    }
  },
  {
    "service_request": "2023-1031459",
    "request_type": "Trash/Recycling",
    "request_reason": "Repair Trash Cart",
    "date_created": "2023-09-01T15:12:46.000",
    "date_modified": "2023-09-01T15:12:47.000",
    "request_status": "Pending",
    "responsible_agency": "Department of Sanitation",
    "final_address": "5317 Camp St",
    "address_councildis": "B",
    "status": "Assigned to Contractor",
    "contractor": "Richards Disposal",
    "rowid": "1031459",
    "final_x": "3667388.65466",
    "final_y": "519079.843447",
    "longitude": "-90.11304736560885",
    "latitude": "29.921710158758394",
    "geocoded_column": {
      "latitude": "29.921710158758394",
      "longitude": "-90.11304736560885"
    }
  },
  {
    "service_request": "2023-1031458",
    "request_type": "Trash/Recycling",
    "request_reason": "MIssed Recycling Pick-Up",
    "date_created": "2023-09-01T15:11:41.000",
    "date_modified": "2023-09-01T15:11:42.000",
    "request_status": "Pending",
    "responsible_agency": "Department of Sanitation",
    "final_address": "2611 Burdette St",
    "address_councildis": "A",
    "status": "Assigned to Contractor",
    "contractor": "Richards Disposal",
    "rowid": "1031458",
    "final_x": "3666375.4914",
    "final_y": "531424.583491",
    "longitude": "-90.11583145851121",
    "latitude": "29.95568386852713",
    "geocoded_column": {
      "latitude": "29.95568386852713",
      "longitude": "-90.11583145851121"
    }
  },
  {
    "service_request": "2023-1031457",
    "request_type": "Trash/Recycling",
    "request_reason": "Request a Large Item Pick Up",
    "date_created": "2023-09-01T15:08:05.000",
    "date_modified": "2023-09-01T15:08:06.000",
    "request_status": "Pending",
    "responsible_agency": "Department of Sanitation",
    "final_address": "5317 Camp St",
    "address_councildis": "B",
    "status": "Assigned to Contractor",
    "contractor": "Richards Disposal",
    "rowid": "1031457",
    "final_x": "3667388.65466",
    "final_y": "519079.843447",
    "longitude": "-90.11304736560885",
    "latitude": "29.921710158758394",
    "geocoded_column": {
      "latitude": "29.921710158758394",
      "longitude": "-90.11304736560885"
    }
  },
  {
    "service_request": "2023-1031456",
    "request_type": "Roads/Drainage",
    "request_reason": "Street Flooding / Drainage",
    "date_created": "2023-09-01T15:07:31.000",
    "date_modified": "2023-09-01T15:07:31.000",
    "request_status": "Pending",
    "responsible_agency": "Department of Public Works",
    "final_address": "1500 BLK Gentilly Blvd",
    "address_councildis": "D",
    "status": "Pending",
    "rowid": "1031456",
    "final_x": "3678360.10748",
    "final_y": "540124.86606",
    "longitude": "-90.07768722503056",
    "latitude": "29.97925109037169",
    "geocoded_column": {
      "latitude": "29.97925109037169",
      "longitude": "-90.07768722503056"
    }
  },
  {
    "service_request": "2023-1031455",
    "request_type": "Abandoned Vehicles",
    "request_reason": "Abandoned/Junk Vehicles",
    "date_created": "2023-09-01T15:04:03.000",
    "date_modified": "2023-09-01T15:04:04.000",
    "request_status": "Pending",
    "responsible_agency": "Department of Public Works",
    "final_address": "8950 Colapissa St",
    "address_councildis": "A",
    "status": "Pending",
    "rowid": "1031455",
    "final_x": "3664191.94298",
    "final_y": "535484.584006",
    "longitude": "-90.12259089969275",
    "latitude": "29.966911156265557",
    "geocoded_column": {
      "latitude": "29.966911156265557",
      "longitude": "-90.12259089969275"
    }
  },
  {
    "service_request": "2023-1031454",
    "request_type": "Trash/Recycling",
    "request_reason": "Return Trash Cart",
    "date_created": "2023-09-01T15:01:28.000",
    "date_modified": "2023-09-01T15:01:29.000",
    "request_status": "Pending",
    "responsible_agency": "Department of Sanitation",
    "final_address": "3537 Republic St",
    "address_councildis": "D",
    "status": "Assigned to Contractor",
    "contractor": "IV Waste",
    "rowid": "1031454",
    "final_x": "3680505.59976",
    "final_y": "545487.173648",
    "longitude": "-90.07072430093648",
    "latitude": "29.993930734999136",
    "geocoded_column": {
      "latitude": "29.993930734999136",
      "longitude": "-90.07072430093648"
    }
  },
  {
    "service_request": "2023-1031453",
    "request_type": "Trash/Recycling",
    "request_reason": "Request a Large Item Pick Up",
    "date_created": "2023-09-01T15:01:06.000",
    "date_modified": "2023-09-01T15:01:07.000",
    "request_status": "Pending",
    "responsible_agency": "Department of Sanitation",
    "final_address": "1730 N Gayoso St",
    "address_councildis": "D",
    "status": "Assigned to Contractor",
    "contractor": "IV Waste",
    "rowid": "1031453",
    "final_x": "3678849.19784",
    "final_y": "541570.160268",
    "longitude": "-90.0760923998908",
    "latitude": "29.983210401811498",
    "geocoded_column": {
      "latitude": "29.983210401811498",
      "longitude": "-90.0760923998908"
    }
  },
  {
    "service_request": "2023-1031452",
    "request_type": "Trash/Recycling",
    "request_reason": "Request a Large Item Pick Up",
    "date_created": "2023-09-01T14:59:07.000",
    "date_modified": "2023-09-01T14:59:07.000",
    "request_status": "Pending",
    "responsible_agency": "Department of Sanitation",
    "final_address": "1315 Fern St",
    "address_councildis": "A",
    "status": "Assigned to Contractor",
    "contractor": "Richards Disposal",
    "rowid": "1031452",
    "final_x": "3662888.99162",
    "final_y": "528176.285376",
    "longitude": "-90.12694863298958",
    "latitude": "29.94685349773006",
    "geocoded_column": {
      "latitude": "29.94685349773006",
      "longitude": "-90.12694863298958"
    }
  },
  {
    "service_request": "2023-1031451",
    "request_type": "Trash/Recycling",
    "request_reason": "Return Recycling Cart",
    "date_created": "2023-09-01T14:55:37.000",
    "date_modified": "2023-09-01T14:55:37.000",
    "request_status": "Pending",
    "responsible_agency": "Department of Sanitation",
    "final_address": "3529 Republic St",
    "address_councildis": "D",
    "status": "Pending",
    "rowid": "1031451",
    "final_x": "3680513.52104",
    "final_y": "545451.437712",
    "longitude": "-90.07070052266663",
    "latitude": "29.9938322338053",
    "geocoded_column": {
      "latitude": "29.9938322338053",
      "longitude": "-90.07070052266663"
    }
  },
  {
    "service_request": "2023-1031450",
    "request_type": "Mosquito, Termite & Rodent Control",
    "request_reason": "Mosquito Complaint",
    "date_created": "2023-09-01T14:49:37.000",
    "date_modified": "2023-09-01T14:49:37.000",
    "request_status": "Pending",
    "responsible_agency": "Mosquito, Termite & Rodent Control Board",
    "final_address": "3500 BLK Paris Ave",
    "address_councildis": "D",
    "status": "Pending",
    "rowid": "1031450",
    "final_x": "3679732.04634",
    "final_y": "545329.513787",
    "longitude": "-90.07317332192142",
    "latitude": "29.99352064087671",
    "geocoded_column": {
      "latitude": "29.99352064087671",
      "longitude": "-90.07317332192142"
    }
  },
  {
    "service_request": "2023-1031449",
    "request_type": "Trash/Recycling",
    "request_reason": "Replace Trash Cart",
    "date_created": "2023-09-01T14:47:43.000",
    "date_modified": "2023-09-01T14:47:43.000",
    "request_status": "Pending",
    "responsible_agency": "Department of Sanitation",
    "final_address": "1115 Louisiana Ave",
    "address_councildis": "B",
    "status": "Assigned to Contractor",
    "contractor": "Richards Disposal",
    "rowid": "1031449",
    "final_x": "3675043.03553",
    "final_y": "519796.040056",
    "longitude": "-90.08886118335636",
    "latitude": "29.92345310500521",
    "geocoded_column": {
      "latitude": "29.92345310500521",
      "longitude": "-90.08886118335636"
    }
  },
  {
    "service_request": "2023-1031448",
    "request_type": "Mosquito, Termite & Rodent Control",
    "request_reason": "Rodent Complaint (Rats)",
    "date_created": "2023-09-01T14:46:20.000",
    "date_modified": "2023-09-01T14:46:20.000",
    "request_status": "Pending",
    "responsible_agency": "Mosquito, Termite & Rodent Control Board",
    "final_address": "3500 BLK Paris Ave",
    "address_councildis": "D",
    "status": "Pending",
    "rowid": "1031448",
    "final_x": "3679660.12686",
    "final_y": "545325.10041",
    "longitude": "-90.07340065756613",
    "latitude": "29.99351068027962",
    "geocoded_column": {
      "latitude": "29.99351068027962",
      "longitude": "-90.07340065756613"
    }
  },
  {
    "service_request": "2023-1031447",
    "request_type": "Trash/Recycling",
    "request_reason": "Replace Recycling Cart",
    "date_created": "2023-09-01T14:41:39.000",
    "date_modified": "2023-09-01T14:41:39.000",
    "request_status": "Pending",
    "responsible_agency": "Department of Sanitation",
    "final_address": "3411 Bruxelles St",
    "address_councildis": "D",
    "status": "Pending",
    "rowid": "1031447",
    "final_x": "3680173.96117",
    "final_y": "544913.639951",
    "longitude": "-90.07179184582327",
    "latitude": "29.992363763787317",
    "geocoded_column": {
      "latitude": "29.992363763787317",
      "longitude": "-90.07179184582327"
    }
  },
  {
    "service_request": "2023-1031446",
    "request_type": "Traffic Signals/Signs/Striping/Streetlights",
    "request_reason": "Street Light Outage/Malfunction",
    "date_created": "2023-09-01T14:40:47.000",
    "date_modified": "2023-09-01T14:40:48.000",
    "request_status": "Pending",
    "responsible_agency": "Department of Public Works",
    "final_address": "9320 Belfast St",
    "address_councildis": "A",
    "status": "Assigned to Contractor",
    "contractor": "Legacy Professional Services",
    "rowid": "1031446",
    "final_x": "3662310.69427",
    "final_y": "535305.852422",
    "longitude": "-90.12853784976832",
    "latitude": "29.966474226828694",
    "geocoded_column": {
      "latitude": "29.966474226828694",
      "longitude": "-90.12853784976832"
    }
  },
  {
    "service_request": "2023-1031445",
    "request_type": "Property Maintenance",
    "request_reason": "Property Maintenance",
    "date_created": "2023-09-01T14:38:21.000",
    "date_modified": "2023-09-01T15:34:26.000",
    "request_status": "Pending",
    "responsible_agency": "Department of Code Enforcement",
    "final_address": "7769 Bullard Ave",
    "address_councildis": "E",
    "rowid": "1031445",
    "final_x": "3712585.59147",
    "final_y": "568262.476261",
    "longitude": "-89.96853235821015",
    "latitude": "30.055542849770962",
    "geocoded_column": {
      "latitude": "30.055542849770962",
      "longitude": "-89.96853235821015"
    }
  },
  {
    "service_request": "2023-1031444",
    "request_type": "Trash/Recycling",
    "request_reason": "Request a Large Item Pick Up",
    "date_created": "2023-09-01T14:29:58.000",
    "date_modified": "2023-09-01T14:29:59.000",
    "request_status": "Pending",
    "responsible_agency": "Department of Sanitation",
    "final_address": "2331 Ursulines Ave",
    "address_councildis": "D",
    "status": "Assigned to Contractor",
    "contractor": "Richards Disposal",
    "rowid": "1031444",
    "final_x": "3678825.70459",
    "final_y": "537304.261512",
    "longitude": "-90.0763144163318",
    "latitude": "29.97148136256616",
    "geocoded_column": {
      "latitude": "29.97148136256616",
      "longitude": "-90.0763144163318"
    }
  },
  {
    "service_request": "2023-1031443",
    "request_type": "Trash/Recycling",
    "request_reason": "Replace Trash Cart",
    "date_created": "2023-09-01T14:28:12.000",
    "date_modified": "2023-09-01T14:28:13.000",
    "request_status": "Pending",
    "responsible_agency": "Department of Sanitation",
    "final_address": "6 Fontainebleau Dr",
    "address_councildis": "A",
    "status": "Assigned to Contractor",
    "contractor": "Richards Disposal",
    "rowid": "1031443",
    "final_x": "3665549.65671",
    "final_y": "531845.766531",
    "longitude": "-90.11842506144463",
    "latitude": "29.95686608646346",
    "geocoded_column": {
      "latitude": "29.95686608646346",
      "longitude": "-90.11842506144463"
    }
  },
  {
    "service_request": "2023-1031442",
    "request_type": "Graffiti Removal",
    "request_reason": "Graffiti Removal",
    "date_created": "2023-09-01T14:27:50.000",
    "date_modified": "2023-09-01T14:27:50.000",
    "request_status": "Pending",
    "responsible_agency": "Department of Code Enforcement",
    "final_address": "920 Julia St",
    "address_councildis": "B",
    "status": "Pending",
    "rowid": "1031442",
    "final_x": "3679380.44117",
    "final_y": "528239.164224",
    "longitude": "-90.07487690353898",
    "latitude": "29.94653867020513",
    "geocoded_column": {
      "latitude": "29.94653867020513",
      "longitude": "-90.07487690353898"
    }
  },
  {
    "service_request": "2023-1031441",
    "request_type": "Trash/Recycling",
    "request_reason": "Missed Trash Pick-Up",
    "date_created": "2023-09-01T14:23:34.000",
    "date_modified": "2023-09-01T14:23:35.000",
    "request_status": "Pending",
    "responsible_agency": "Department of Sanitation",
    "final_address": "909 Eighth St",
    "address_councildis": "B",
    "status": "Assigned to Contractor",
    "contractor": "Richards Disposal",
    "rowid": "1031441",
    "final_x": "3676493.90702",
    "final_y": "519690.7598",
    "longitude": "-90.08428494305359",
    "latitude": "29.923120210302084",
    "geocoded_column": {
      "latitude": "29.923120210302084",
      "longitude": "-90.08428494305359"
    }
  },
  {
    "service_request": "2023-1031440",
    "request_type": "Trash/Recycling",
    "request_reason": "Repair Trash Cart",
    "date_created": "2023-09-01T14:23:22.000",
    "date_modified": "2023-09-01T14:23:23.000",
    "request_status": "Pending",
    "responsible_agency": "Department of Sanitation",
    "final_address": "16 Shoal Creek Dr",
    "address_councildis": "C",
    "status": "Assigned to Contractor",
    "contractor": "Richards Disposal",
    "rowid": "1031440",
    "final_x": "3719997.14719",
    "final_y": "512222.381489",
    "longitude": "-89.9472488447159",
    "latitude": "29.901209217404862",
    "geocoded_column": {
      "latitude": "29.901209217404862",
      "longitude": "-89.9472488447159"
    }
  },
  {
    "service_request": "2023-1031439",
    "request_type": "Traffic Signals/Signs/Striping/Streetlights",
    "request_reason": "Traffic Sign Missing/Damaged",
    "date_created": "2023-09-01T14:22:16.000",
    "date_modified": "2023-09-01T14:22:17.000",
    "request_status": "Pending",
    "responsible_agency": "Department of Public Works",
    "final_address": "4922 Wright Rd",
    "address_councildis": "E",
    "status": "Pending",
    "rowid": "1031439",
    "final_x": "3716499.73618",
    "final_y": "557681.777115",
    "longitude": "-89.95656247703286",
    "latitude": "30.02632144702347",
    "geocoded_column": {
      "latitude": "30.02632144702347",
      "longitude": "-89.95656247703286"
    }
  },
  {
    "service_request": "2023-1031438",
    "request_type": "Roads/Drainage",
    "request_reason": "Street Subsidence (Sinking)",
    "date_created": "2023-09-01T14:19:42.000",
    "date_modified": "2023-09-01T14:19:42.000",
    "request_status": "Pending",
    "responsible_agency": "Department of Public Works",
    "final_address": "1540 St Roch Ave",
    "address_councildis": "C",
    "status": "Pending",
    "rowid": "1031438",
    "final_x": "3686247.89218",
    "final_y": "538209.580169",
    "longitude": "-90.05284216507283",
    "latitude": "29.973744698300056",
    "geocoded_column": {
      "latitude": "29.973744698300056",
      "longitude": "-90.05284216507283"
    }
  },
  {
    "service_request": "2023-1031437",
    "request_type": "Traffic Signals/Signs/Striping/Streetlights",
    "request_reason": "Street Light Outage/Malfunction",
    "date_created": "2023-09-01T14:19:09.000",
    "date_modified": "2023-09-01T14:19:18.000",
    "request_status": "Pending",
    "responsible_agency": "Department of Public Works",
    "final_address": "4911 Wright Rd",
    "address_councildis": "E",
    "status": "Assigned to Contractor",
    "contractor": "Legacy Professional Services",
    "rowid": "1031437",
    "final_x": "3716720.85535",
    "final_y": "557646.737051",
    "longitude": "-89.95586510579271",
    "latitude": "30.026217793696258",
    "geocoded_column": {
      "latitude": "30.026217793696258",
      "longitude": "-89.95586510579271"
    }
  },
  {
    "service_request": "2023-1031436",
    "request_type": "Property Maintenance",
    "request_reason": "Property Maintenance",
    "date_created": "2023-09-01T14:15:27.000",
    "date_modified": "2023-09-01T14:15:28.000",
    "request_status": "Pending",
    "responsible_agency": "Department of Code Enforcement",
    "final_address": "1821 Hamilton St",
    "address_councildis": "A",
    "status": "Pending",
    "rowid": "1031436",
    "final_x": "3660918.48454",
    "final_y": "532421.759555",
    "longitude": "-90.13302986279992",
    "latitude": "29.95858408609916",
    "geocoded_column": {
      "latitude": "29.95858408609916",
      "longitude": "-90.13302986279992"
    }
  },
  {
    "service_request": "2023-1031435",
    "request_type": "Trash/Recycling",
    "request_reason": "Request a Large Item Pick Up",
    "date_created": "2023-09-01T14:14:43.000",
    "date_modified": "2023-09-01T14:14:44.000",
    "request_status": "Pending",
    "responsible_agency": "Department of Sanitation",
    "final_address": "6970 Connaught Ct",
    "address_councildis": "E",
    "status": "Assigned to Contractor",
    "contractor": "Waste Pro",
    "rowid": "1031435",
    "final_x": "3712647.6835",
    "final_y": "563631.116449",
    "longitude": "-89.96851046347366",
    "latitude": "30.042806456052183",
    "geocoded_column": {
      "latitude": "30.042806456052183",
      "longitude": "-89.96851046347366"
    }
  },
  {
    "service_request": "2023-1031434",
    "request_type": "Trash/Recycling",
    "request_reason": "Missed Trash Pick-Up",
    "date_created": "2023-09-01T14:06:46.000",
    "date_modified": "2023-09-01T14:06:47.000",
    "request_status": "Pending",
    "responsible_agency": "Department of Sanitation",
    "final_address": "2209 Baronne St",
    "address_councildis": "B",
    "status": "Assigned to Contractor",
    "contractor": "Richards Disposal",
    "rowid": "1031434",
    "final_x": "3676899.25602",
    "final_y": "524466.777532",
    "longitude": "-90.08284088127341",
    "latitude": "29.936240547846754",
    "geocoded_column": {
      "latitude": "29.936240547846754",
      "longitude": "-90.08284088127341"
    }
  },
  {
    "service_request": "2023-1031433",
    "request_type": "Property Maintenance",
    "request_reason": "Property Maintenance",
    "date_created": "2023-09-01T14:04:43.000",
    "date_modified": "2023-09-01T14:04:43.000",
    "request_status": "Pending",
    "responsible_agency": "Department of Code Enforcement",
    "final_address": "2136 Selma St",
    "address_councildis": "D",
    "status": "Pending",
    "rowid": "1031433",
    "final_x": "3683324.30844",
    "final_y": "551398.167125",
    "longitude": "-90.06161318365554",
    "latitude": "30.01009813911322",
    "geocoded_column": {
      "latitude": "30.01009813911322",
      "longitude": "-90.06161318365554"
    }
  },
  {
    "service_request": "2023-1031432",
    "request_type": "Parks & Parkways",
    "request_reason": "Request Tree Service (Right of Way/Public Property)",
    "date_created": "2023-09-01T13:57:13.000",
    "date_modified": "2023-09-01T14:09:18.000",
    "request_status": "Pending",
    "responsible_agency": "Department of Parks & Parkway",
    "final_address": "5568 Woodlawn Pl",
    "address_councildis": "A",
    "status": "Pending",
    "rowid": "1031432",
    "final_x": "3667394.08442",
    "final_y": "544381.482511",
    "longitude": "-90.11217906630708",
    "latitude": "29.991281207264187",
    "geocoded_column": {
      "latitude": "29.991281207264187",
      "longitude": "-90.11217906630708"
    }
  },
  {
    "service_request": "2023-1031431",
    "request_type": "Property Maintenance",
    "request_reason": "Property Maintenance",
    "date_created": "2023-09-01T13:56:34.000",
    "date_modified": "2023-09-01T13:56:34.000",
    "request_status": "Pending",
    "responsible_agency": "Department of Code Enforcement",
    "final_address": "4547 Mark Twain Dr",
    "address_councildis": "D",
    "status": "Pending",
    "rowid": "1031431",
    "final_x": "3691537.38409",
    "final_y": "551029.696469",
    "longitude": "-90.03567833273866",
    "latitude": "30.008831784833202",
    "geocoded_column": {
      "latitude": "30.008831784833202",
      "longitude": "-90.03567833273866"
    }
  },
  {
    "service_request": "2023-1031430",
    "request_type": "Traffic Signals/Signs/Striping/Streetlights",
    "request_reason": "Street Light Outage/Malfunction",
    "date_created": "2023-09-01T13:53:36.000",
    "date_modified": "2023-09-01T13:53:37.000",
    "request_status": "Pending",
    "responsible_agency": "Department of Public Works",
    "final_address": "6400 Wales St",
    "address_councildis": "E",
    "status": "Assigned to Contractor",
    "contractor": "Legacy Professional Services",
    "rowid": "1031430",
    "final_x": "3696407.84189",
    "final_y": "559848.214301",
    "longitude": "-90.01997170192413",
    "latitude": "30.03292680734196",
    "geocoded_column": {
      "latitude": "30.03292680734196",
      "longitude": "-90.01997170192413"
    }
  },
  {
    "service_request": "2023-1031429",
    "request_type": "Trash/Recycling",
    "request_reason": "Request a Large Item Pick Up",
    "date_created": "2023-09-01T13:52:59.000",
    "date_modified": "2023-09-01T13:53:40.000",
    "request_status": "Pending",
    "responsible_agency": "Department of Sanitation",
    "final_address": "2313 Allen Toussaint Blvd",
    "address_councildis": "D",
    "status": "Assigned to Contractor",
    "contractor": "IV Waste",
    "rowid": "1031429",
    "final_x": "3684373.28252",
    "final_y": "555901.467033",
    "longitude": "-90.05814075616709",
    "latitude": "30.02244851075969",
    "geocoded_column": {
      "latitude": "30.02244851075969",
      "longitude": "-90.05814075616709"
    }
  },
  {
    "service_request": "2023-1031428",
    "request_type": "Abandoned Vehicles",
    "request_reason": "Vehicle Blocking Your Driveway",
    "date_created": "2023-09-01T13:52:03.000",
    "date_modified": "2023-09-01T13:52:03.000",
    "request_status": "Pending",
    "responsible_agency": "Department of Public Works",
    "final_address": "2238 Dumaine St",
    "address_councildis": "D",
    "status": "Pending",
    "rowid": "1031428",
    "final_x": "3678518.62498",
    "final_y": "536415.586951",
    "longitude": "-90.07731498299496",
    "latitude": "29.96904707109007",
    "geocoded_column": {
      "latitude": "29.96904707109007",
      "longitude": "-90.07731498299496"
    }
  },
  {
    "service_request": "2023-1031427",
    "request_type": "Trash/Recycling",
    "request_reason": "Request a Large Item Pick Up",
    "date_created": "2023-09-01T13:50:48.000",
    "date_modified": "2023-09-01T13:50:49.000",
    "request_status": "Pending",
    "responsible_agency": "Department of Sanitation",
    "final_address": "3513 S Tonti St",
    "address_councildis": "B",
    "status": "Assigned to Contractor",
    "contractor": "Richards Disposal",
    "rowid": "1031427",
    "final_x": "3671082.03751",
    "final_y": "528306.87072",
    "longitude": "-90.10107568740045",
    "latitude": "29.946972836542376",
    "geocoded_column": {
      "latitude": "29.946972836542376",
      "longitude": "-90.10107568740045"
    }
  },
  {
    "service_request": "2023-1031426",
    "request_type": "Graffiti Removal",
    "request_reason": "Graffiti Removal",
    "date_created": "2023-09-01T13:49:10.000",
    "date_modified": "2023-09-01T13:49:10.000",
    "request_status": "Pending",
    "responsible_agency": "Department of Code Enforcement",
    "final_address": "1340 Magazine St",
    "address_councildis": "B",
    "status": "Pending",
    "rowid": "1031426",
    "final_x": "3680500.65179",
    "final_y": "524900.829308",
    "longitude": "-90.07145607765254",
    "latitude": "29.937325484370646",
    "geocoded_column": {
      "latitude": "29.937325484370646",
      "longitude": "-90.07145607765254"
    }
  },
  {
    "service_request": "2023-1031425",
    "request_type": "Trash/Recycling",
    "request_reason": "Missed Trash Pick-Up",
    "date_created": "2023-09-01T13:48:22.000",
    "date_modified": "2023-09-01T13:48:22.000",
    "request_status": "Pending",
    "responsible_agency": "Department of Sanitation",
    "final_address": "3513 S Tonti St",
    "address_councildis": "B",
    "status": "Assigned to Contractor",
    "contractor": "Richards Disposal",
    "rowid": "1031425",
    "final_x": "3671082.03751",
    "final_y": "528306.87072",
    "longitude": "-90.10107568740045",
    "latitude": "29.946972836542376",
    "geocoded_column": {
      "latitude": "29.946972836542376",
      "longitude": "-90.10107568740045"
    }
  },
  {
    "service_request": "2023-1031424",
    "request_type": "Roads/Drainage",
    "request_reason": "Street Subsidence (Sinking)",
    "date_created": "2023-09-01T13:35:41.000",
    "date_modified": "2023-09-01T13:35:41.000",
    "request_status": "Pending",
    "responsible_agency": "Department of Public Works",
    "final_address": "1614 Soniat St",
    "address_councildis": "B",
    "status": "Pending",
    "rowid": "1031424",
    "final_x": "3668385.57767",
    "final_y": "521321.035769",
    "longitude": "-90.10982495678796",
    "latitude": "29.927843496586124",
    "geocoded_column": {
      "latitude": "29.927843496586124",
      "longitude": "-90.10982495678796"
    }
  },
  {
    "service_request": "2023-1031423",
    "request_type": "Abandoned Vehicles",
    "request_reason": "Abandoned/Junk Vehicles",
    "date_created": "2023-09-01T13:34:25.000",
    "date_modified": "2023-09-01T13:34:25.000",
    "request_status": "Pending",
    "responsible_agency": "Department of Public Works",
    "final_address": "3007 Banks St",
    "address_councildis": "B",
    "status": "Pending",
    "rowid": "1031423",
    "final_x": "3673588.54926",
    "final_y": "535004.993798",
    "longitude": "-90.09293275121132",
    "latitude": "29.965316089418454",
    "geocoded_column": {
      "latitude": "29.965316089418454",
      "longitude": "-90.09293275121132"
    }
  },
  {
    "service_request": "2023-1031422",
    "request_type": "Property Maintenance",
    "request_reason": "Property Maintenance",
    "date_created": "2023-09-01T13:34:24.000",
    "date_modified": "2023-09-01T13:34:24.000",
    "request_status": "Pending",
    "responsible_agency": "Department of Code Enforcement",
    "final_address": "821 Belleville St",
    "address_councildis": "C",
    "status": "Pending",
    "rowid": "1031422",
    "final_x": "3687760.65897",
    "final_y": "528561.125888",
    "longitude": "-90.04840623786421",
    "latitude": "29.947168219578273",
    "geocoded_column": {
      "latitude": "29.947168219578273",
      "longitude": "-90.04840623786421"
    }
  },
  {
    "service_request": "2023-1031421",
    "request_type": "Abandoned Vehicles",
    "request_reason": "Abandoned/Junk Vehicles",
    "date_created": "2023-09-01T13:33:13.000",
    "date_modified": "2023-09-01T13:35:11.000",
    "request_status": "Pending",
    "responsible_agency": "Department of Public Works",
    "final_address": "1241 Music St",
    "address_councildis": "C",
    "status": "Pending",
    "rowid": "1031421",
    "final_x": "3686838.32386",
    "final_y": "537146.69748",
    "longitude": "-90.0510150241196",
    "latitude": "29.970803987213845",
    "geocoded_column": {
      "latitude": "29.970803987213845",
      "longitude": "-90.0510150241196"
    }
  },
  {
    "service_request": "2023-1031420",
    "request_type": "Roads/Drainage",
    "request_reason": "Street Subsidence (Sinking)",
    "date_created": "2023-09-01T13:32:49.000",
    "date_modified": "2023-09-01T13:32:49.000",
    "request_status": "Pending",
    "responsible_agency": "Department of Public Works",
    "final_address": "1614 Soniat St",
    "address_councildis": "B",
    "status": "Pending",
    "rowid": "1031420",
    "final_x": "3668385.57767",
    "final_y": "521321.035769",
    "longitude": "-90.10982495678796",
    "latitude": "29.927843496586124",
    "geocoded_column": {
      "latitude": "29.927843496586124",
      "longitude": "-90.10982495678796"
    }
  },
  {
    "service_request": "2023-1031419",
    "request_type": "Graffiti Removal",
    "request_reason": "Graffiti Removal",
    "date_created": "2023-09-01T13:29:28.000",
    "date_modified": "2023-09-01T13:29:28.000",
    "request_status": "Pending",
    "responsible_agency": "Department of Code Enforcement",
    "final_address": "514 S Rampart St",
    "address_councildis": "B",
    "status": "Pending",
    "rowid": "1031419",
    "final_x": "3679335.39695",
    "final_y": "529518.262657",
    "longitude": "-90.07497477274345",
    "latitude": "29.95005712320538",
    "geocoded_column": {
      "latitude": "29.95005712320538",
      "longitude": "-90.07497477274345"
    }
  },
  {
    "service_request": "2023-1031418",
    "request_type": "Trash/Recycling",
    "request_reason": "Repair Recycling Cart",
    "date_created": "2023-09-01T13:29:22.000",
    "date_modified": "2023-09-01T13:29:22.000",
    "request_status": "Pending",
    "responsible_agency": "Department of Sanitation",
    "final_address": "6167 Bellaire Dr",
    "address_councildis": "A",
    "status": "Pending",
    "rowid": "1031418",
    "final_x": "3664409.3904",
    "final_y": "548841.901779",
    "longitude": "-90.12145806286715",
    "latitude": "30.003632960433805",
    "geocoded_column": {
      "latitude": "30.003632960433805",
      "longitude": "-90.12145806286715"
    }
  },
  {
    "service_request": "2023-1031417",
    "request_type": "Property Maintenance",
    "request_reason": "Property Maintenance",
    "date_created": "2023-09-01T13:28:05.000",
    "date_modified": "2023-09-01T13:28:06.000",
    "request_status": "Pending",
    "responsible_agency": "Department of Code Enforcement",
    "final_address": "7922 Dorsett Dr",
    "address_councildis": "E",
    "status": "Pending",
    "rowid": "1031417",
    "final_x": "3712203.78021",
    "final_y": "568235.679141",
    "longitude": "-89.96974018595583",
    "latitude": "30.05548166757084",
    "geocoded_column": {
      "latitude": "30.05548166757084",
      "longitude": "-89.96974018595583"
    }
  },
  {
    "service_request": "2023-1031416",
    "request_type": "Roads/Drainage",
    "request_reason": "Street Subsidence (Sinking)",
    "date_created": "2023-09-01T13:26:04.000",
    "date_modified": "2023-09-01T13:26:04.000",
    "request_status": "Pending",
    "responsible_agency": "Department of Public Works",
    "final_address": "1614 Soniat St",
    "address_councildis": "B",
    "status": "Pending",
    "rowid": "1031416",
    "final_x": "3668385.57767",
    "final_y": "521321.035769",
    "longitude": "-90.10982495678796",
    "latitude": "29.927843496586124",
    "geocoded_column": {
      "latitude": "29.927843496586124",
      "longitude": "-90.10982495678796"
    }
  },
  {
    "service_request": "2023-1031415",
    "request_type": "Trash/Recycling",
    "request_reason": "Return Trash Cart",
    "date_created": "2023-09-01T13:25:09.000",
    "date_modified": "2023-09-01T13:25:10.000",
    "request_status": "Pending",
    "responsible_agency": "Department of Sanitation",
    "final_address": "3017 St Ann St",
    "address_councildis": "A",
    "status": "Assigned to Contractor",
    "contractor": "Richards Disposal",
    "rowid": "1031415",
    "final_x": "3675834.95368",
    "final_y": "538108.375113",
    "longitude": "-90.08573200289989",
    "latitude": "29.973782276284823",
    "geocoded_column": {
      "latitude": "29.973782276284823",
      "longitude": "-90.08573200289989"
    }
  },
  {
    "service_request": "2023-1031414",
    "request_type": "Abandoned Vehicles",
    "request_reason": "Vehicle Blocking Your Driveway",
    "date_created": "2023-09-01T13:15:14.000",
    "date_modified": "2023-09-01T13:15:14.000",
    "request_status": "Pending",
    "responsible_agency": "Department of Public Works",
    "final_address": "1655 N Villere St",
    "address_councildis": "C",
    "status": "Pending",
    "rowid": "1031414",
    "final_x": "3682950.82773",
    "final_y": "537306.007944",
    "longitude": "-90.06328662973912",
    "latitude": "29.971361087587876",
    "geocoded_column": {
      "latitude": "29.971361087587876",
      "longitude": "-90.06328662973912"
    }
  },
  {
    "service_request": "2023-1031413",
    "request_type": "Trash/Recycling",
    "request_reason": "Order Recycling Cart",
    "date_created": "2023-09-01T13:14:03.000",
    "date_modified": "2023-09-01T13:14:04.000",
    "request_status": "Pending",
    "responsible_agency": "Department of Sanitation",
    "final_address": "8962 Birch St",
    "address_councildis": "A",
    "status": "Pending",
    "rowid": "1031413",
    "final_x": "3660432.43853",
    "final_y": "531617.509635",
    "longitude": "-90.1345912457388",
    "latitude": "29.956386649266427",
    "geocoded_column": {
      "latitude": "29.956386649266427",
      "longitude": "-90.1345912457388"
    }
  },
  {
    "service_request": "2023-1031412",
    "request_type": "Trash/Recycling",
    "request_reason": "Order Trash Cart",
    "date_created": "2023-09-01T13:13:46.000",
    "date_modified": "2023-09-01T13:13:47.000",
    "request_status": "Pending",
    "responsible_agency": "Department of Sanitation",
    "final_address": "8962 Birch St",
    "address_councildis": "A",
    "status": "Assigned to Contractor",
    "contractor": "Richards Disposal",
    "rowid": "1031412",
    "final_x": "3660432.43853",
    "final_y": "531617.509635",
    "longitude": "-90.1345912457388",
    "latitude": "29.956386649266427",
    "geocoded_column": {
      "latitude": "29.956386649266427",
      "longitude": "-90.1345912457388"
    }
  },
  {
    "service_request": "2023-1031411",
    "request_type": "Trash/Recycling",
    "request_reason": "Repair Recycling Cart",
    "date_created": "2023-09-01T13:09:45.000",
    "date_modified": "2023-09-01T13:09:46.000",
    "request_status": "Pending",
    "responsible_agency": "Department of Sanitation",
    "final_address": "326 Vallette St",
    "address_councildis": "C",
    "status": "Pending",
    "rowid": "1031411",
    "final_x": "3687603.99958",
    "final_y": "530548.077698",
    "longitude": "-90.0488305419127",
    "latitude": "29.95263648687249",
    "geocoded_column": {
      "latitude": "29.95263648687249",
      "longitude": "-90.0488305419127"
    }
  },