[
  {
    "service_request": "2026-1298563",
    "request_type": "Trash/Recycling",
    "request_reason": "Request a Large Item Pick Up",
    "date_created": "2026-07-09T23:35:41.000",
    "date_modified": "2026-07-09T23:35:43.000",
    "request_status": "Pending",
    "responsible_agency": "Department of Sanitation",
    "final_address": "6921 Morrison Rd",
    "address_councildis": "E",
    "status": "Assigned to Contractor",
    "contractor": "Waste Pro",
    "rowid": "1298563",
    "final_x": "3699218.64829",
    "final_y": "559021.785116",
    "longitude": "-90.01111948653804",
    "latitude": "30.030565560542176",
    "geocoded_column": {
      "latitude": "30.030565560542176",
      "longitude": "-90.01111948653804"
    }
  },
  {
    "service_request": "2026-1298562",
    "request_type": "Streetlights",
    "request_reason": "Streetlight Outage/Malfunction",
    "date_created": "2026-07-09T23:25:18.000",
    "date_modified": "2026-07-09T23:25:19.000",
    "request_status": "Pending",
    "responsible_agency": "Department of Public Works",
    "final_address": "3701 Timber Wolf Ln",
    "address_councildis": "C",
    "status": "Pending",
    "rowid": "1298562",
    "final_x": "3704180.9571",
    "final_y": "510739.256175",
    "longitude": "-89.99721771716597",
    "latitude": "29.897647728499646",
    "geocoded_column": {
      "latitude": "29.897647728499646",
      "longitude": "-89.99721771716597"
    }
  },
  {
    "service_request": "2026-1298561",
    "request_type": "Streetlights",
    "request_reason": "New Streetlight Request",
    "date_created": "2026-07-09T23:24:37.000",
    "date_modified": "2026-07-09T23:24:39.000",
    "request_status": "Pending",
    "responsible_agency": "Department of Public Works",
    "final_address": "2110 Mardi Gras Blvd",
    "address_councildis": "C",
    "status": "Pending",
    "rowid": "1298561",
    "final_x": "3691744.77193",
    "final_y": "524249.363708",
    "longitude": "-90.03598108139616",
    "latitude": "29.935188901098684",
    "geocoded_column": {
      "latitude": "29.935188901098684",
      "longitude": "-90.03598108139616"
    }
  },
  {
    "service_request": "2026-1298560",
    "request_type": "Mosquito, Termite & Rodent Control",
    "request_reason": "Rodent Complaint (Mice & Rats)",
    "date_created": "2026-07-09T22:35:18.000",
    "date_modified": "2026-07-09T22:35:21.000",
    "request_status": "Pending",
    "responsible_agency": "Mosquito, Termite & Rodent Control Board",
    "final_address": "2907 Dumaine St",
    "address_councildis": "A",
    "status": "Pending",
    "rowid": "1298560",
    "final_x": "3676405.27489",
    "final_y": "538143.463625",
    "longitude": "-90.08392959398513",
    "latitude": "29.97386167080172",
    "geocoded_column": {
      "latitude": "29.97386167080172",
      "longitude": "-90.08392959398513"
    }
  },
  {
    "service_request": "2026-1298559",
    "request_type": "Streetlights",
    "request_reason": "Streetlight Outage/Malfunction",
    "date_created": "2026-07-09T21:18:24.000",
    "date_modified": "2026-07-09T21:18:26.000",
    "request_status": "Pending",
    "responsible_agency": "Department of Public Works",
    "final_address": "440 Pine St",
    "address_councildis": "A",
    "status": "Pending",
    "rowid": "1298559",
    "final_x": "3662079.13799",
    "final_y": "524067.913532",
    "longitude": "-90.12964191636387",
    "latitude": "29.93558020108946",
    "geocoded_column": {
      "latitude": "29.93558020108946",
      "longitude": "-90.12964191636387"
    }
  },
  {
    "service_request": "2026-1298558",
    "request_type": "Tree Service",
    "request_reason": "Tree Trim",
    "date_created": "2026-07-09T21:13:36.000",
    "date_modified": "2026-07-09T21:13:40.000",
    "request_status": "Pending",
    "responsible_agency": "Department of Parks & Parkways",
    "final_address": "3534 Upperline St A",
    "address_councildis": "B",
    "status": "Pending",
    "rowid": "1298558",
    "final_x": "3669251.04711",
    "final_y": "527989.154047",
    "longitude": "-90.10686755657366",
    "latitude": "29.946153235318885",
    "geocoded_column": {
      "latitude": "29.946153235318885",
      "longitude": "-90.10686755657366"
    }
  },
  {
    "service_request": "2026-1298557",
    "request_type": "Traffic Safety",
    "request_reason": "Request for Traffic Calming due to Speeding",
    "date_created": "2026-07-09T21:10:26.000",
    "date_modified": "2026-07-09T21:10:28.000",
    "request_status": "Pending",
    "responsible_agency": "Department of Public Works",
    "final_address": "3135 Esplanade Ave",
    "address_councildis": "A",
    "status": "Pending",
    "rowid": "1298557",
    "final_x": "3676200.56865",
    "final_y": "540575.331595",
    "longitude": "-90.08449239439497",
    "latitude": "29.980554608975353",
    "geocoded_column": {
      "latitude": "29.980554608975353",
      "longitude": "-90.08449239439497"
    }
  },
  {
    "service_request": "2026-1298556",
    "request_type": "Streetlights",
    "request_reason": "New Streetlight Request",
    "date_created": "2026-07-09T20:52:09.000",
    "date_modified": "2026-07-09T20:52:11.000",
    "request_status": "Pending",
    "responsible_agency": "Department of Public Works",
    "final_address": "1540 Westbrook Dr",
    "address_councildis": "D",
    "status": "Pending",
    "rowid": "1298556",
    "final_x": "3679170.53544",
    "final_y": "549511.901395",
    "longitude": "-90.07480193866519",
    "latitude": "30.005037691192314",
    "geocoded_column": {
      "latitude": "30.005037691192314",
      "longitude": "-90.07480193866519"
    }
  },
  {
    "service_request": "2026-1298555",
    "request_type": "Abandoned Vehicles",
    "request_reason": "Abandoned/Junk Vehicles",
    "date_created": "2026-07-09T20:50:48.000",
    "date_modified": "2026-07-09T20:50:50.000",
    "request_status": "Pending",
    "responsible_agency": "Department of Public Works",
    "final_address": "4928 Papania Dr",
    "address_councildis": "E",
    "status": "Pending",
    "rowid": "1298555",
    "final_x": "3715456.72376",
    "final_y": "557653.138587",
    "longitude": "-89.95985932060448",
    "latitude": "30.02627712002486",
    "geocoded_column": {
      "latitude": "30.02627712002486",
      "longitude": "-89.95985932060448"
    }
  },
  {
    "service_request": "2026-1298554",
    "request_type": "Streetlights",
    "request_reason": "New Streetlight Request",
    "date_created": "2026-07-09T20:38:35.000",
    "date_modified": "2026-07-09T20:38:37.000",
    "request_status": "Pending",
    "responsible_agency": "Department of Public Works",
    "final_address": "4013 Banks St",
    "address_councildis": "A",
    "status": "Pending",
    "rowid": "1298554",
    "final_x": "3670696.11508",
    "final_y": "537224.740488",
    "longitude": "-90.10199160961915",
    "latitude": "29.971505427258315",
    "geocoded_column": {
      "latitude": "29.971505427258315",
      "longitude": "-90.10199160961915"
    }
  },
  {
    "service_request": "2026-1298553",
    "request_type": "Streetlights",
    "request_reason": "Streetlight Outage/Malfunction",
    "date_created": "2026-07-09T20:36:54.000",
    "date_modified": "2026-07-09T20:36:56.000",
    "request_status": "Pending",
    "responsible_agency": "Department of Public Works",
    "final_address": "5727 Burgundy St",
    "address_councildis": "E",
    "status": "Pending",
    "rowid": "1298553",
    "final_x": "3698371.75037",
    "final_y": "532873.8281",
    "longitude": "-90.01474653032675",
    "latitude": "29.95869517987095",
    "geocoded_column": {
      "latitude": "29.95869517987095",
      "longitude": "-90.01474653032675"
    }
  },
  {
    "service_request": "2026-1298552",
    "request_type": "Trash/Recycling",
    "request_reason": "Illegal Dumping",
    "date_created": "2026-07-09T20:32:02.000",
    "date_modified": "2026-07-09T20:32:06.000",
    "request_status": "Pending",
    "responsible_agency": "Department of Sanitation",
    "final_address": "636 Poland Ave",
    "address_councildis": "C",
    "status": "Pending",
    "rowid": "1298552",
    "final_x": "3692596.78774",
    "final_y": "533463.141636",
    "longitude": "-90.03296117366759",
    "latitude": "29.960497053219765",
    "geocoded_column": {
      "latitude": "29.960497053219765",
      "longitude": "-90.03296117366759"
    }
  },
  {
    "service_request": "2026-1298551",
    "request_type": "Trash/Recycling",
    "request_reason": "Illegal Dumping",
    "date_created": "2026-07-09T20:19:07.000",
    "date_modified": "2026-07-09T20:19:10.000",
    "request_status": "Pending",
    "responsible_agency": "Department of Sanitation",
    "final_address": "1801 Lamanche St",
    "address_councildis": "E",
    "status": "Pending",
    "rowid": "1298551",
    "final_x": "3699121.19101",
    "final_y": "536319.814471",
    "longitude": "-90.01225454876639",
    "latitude": "29.96814667640549",
    "geocoded_column": {
      "latitude": "29.96814667640549",
      "longitude": "-90.01225454876639"
    }
  },
  {
    "service_request": "2026-1298550",
    "request_type": "General Services",
    "request_reason": "General Service Request",
    "date_created": "2026-07-09T19:57:42.000",
    "date_modified": "2026-07-09T19:57:45.000",
    "request_status": "Pending",
    "responsible_agency": "Orleans Parish Communication District",
    "final_address": "3141 Ponce De Leon St",
    "address_councildis": "A",
    "status": "Pending",
    "rowid": "1298550",
    "final_x": "3676280.52334",
    "final_y": "540562.560011",
    "longitude": "-90.08424030237236",
    "latitude": "29.9805170951782",
    "geocoded_column": {
      "latitude": "29.9805170951782",
      "longitude": "-90.08424030237236"
    }
  },
  {
    "service_request": "2026-1298549",
    "request_type": "Trash/Recycling",
    "request_reason": "Request a Large Item Pick Up",
    "date_created": "2026-07-09T19:49:22.000",
    "date_modified": "2026-07-09T19:49:25.000",
    "request_status": "Pending",
    "responsible_agency": "Department of Sanitation",
    "final_address": "2267 Carondelet St",
    "address_councildis": "B",
    "status": "Assigned to Contractor",
    "contractor": "IV Waste",
    "rowid": "1298549",
    "final_x": "3676938.48533",
    "final_y": "523722.579131",
    "longitude": "-90.08274267544935",
    "latitude": "29.93419306885663",
    "geocoded_column": {
      "latitude": "29.93419306885663",
      "longitude": "-90.08274267544935"
    }
  },
  {
    "service_request": "2026-1298548",
    "request_type": "Trash/Recycling",
    "request_reason": "Repair Trash Cart",
    "date_created": "2026-07-09T19:48:19.000",
    "date_modified": "2026-07-09T19:48:20.000",
    "request_status": "Pending",
    "responsible_agency": "Department of Sanitation",
    "final_address": "5892 Rhodes Ave",
    "address_councildis": "C",
    "status": "Assigned to Contractor",
    "contractor": "Richards Disposal",
    "rowid": "1298548",
    "final_x": "3705461.201",
    "final_y": "519493.473847",
    "longitude": "-89.99285434943258",
    "latitude": "29.921677713750565",
    "geocoded_column": {
      "latitude": "29.921677713750565",
      "longitude": "-89.99285434943258"
    }
  },
  {
    "service_request": "2026-1298547",
    "request_type": "Trash/Recycling",
    "request_reason": "Replace Trash Cart",
    "date_created": "2026-07-09T19:47:37.000",
    "date_modified": "2026-07-09T19:47:39.000",
    "request_status": "Pending",
    "responsible_agency": "Department of Sanitation",
    "final_address": "2267 Carondelet St",
    "address_councildis": "B",
    "status": "Assigned to Contractor",
    "contractor": "IV Waste",
    "rowid": "1298547",
    "final_x": "3676938.48533",
    "final_y": "523722.579131",
    "longitude": "-90.08274267544935",
    "latitude": "29.93419306885663",
    "geocoded_column": {
      "latitude": "29.93419306885663",
      "longitude": "-90.08274267544935"
    }
  },
  {
    "service_request": "2026-1298546",
    "request_type": "New Orleans Recreation Development Commission (NORDC)",
    "request_reason": "Facilities and Parks Maintenance/Clean Up",
    "date_created": "2026-07-09T19:44:10.000",
    "date_modified": "2026-07-09T19:44:11.000",
    "request_status": "Pending",
    "responsible_agency": "New Orleans Recreation Development Commission",
    "final_address": "3301 Royal St",
    "address_councildis": "C",
    "status": "Pending",
    "rowid": "1298546",
    "final_x": "3689507.60585",
    "final_y": "534299.647045",
    "longitude": "-90.04268640237082",
    "latitude": "29.962893187662416",
    "geocoded_column": {
      "latitude": "29.962893187662416",
      "longitude": "-90.04268640237082"
    }
  },
  {
    "service_request": "2026-1298545",
    "request_type": "General Services",
    "request_reason": "General Service Request",
    "date_created": "2026-07-09T19:34:47.000",
    "date_modified": "2026-07-09T19:34:49.000",
    "request_status": "Pending",
    "responsible_agency": "Orleans Parish Communication District",
    "final_address": "3141 Ponce De Leon St",
    "address_councildis": "A",
    "status": "Pending",
    "rowid": "1298545",
    "final_x": "3676280.52334",
    "final_y": "540562.560011",
    "longitude": "-90.08424030237236",
    "latitude": "29.9805170951782",
    "geocoded_column": {
      "latitude": "29.9805170951782",
      "longitude": "-90.08424030237236"
    }
  },
  {
    "service_request": "2026-1298544",
    "request_type": "Trash/Recycling",
    "request_reason": "Damaged Caused By Contractor",
    "date_created": "2026-07-09T19:31:09.000",
    "date_modified": "2026-07-09T19:31:11.000",
    "request_status": "Pending",
    "responsible_agency": "Department of Sanitation",
    "final_address": "3126 St Thomas St",
    "address_councildis": "B",
    "status": "Assigned to Contractor",
    "contractor": "IV Waste",
    "rowid": "1298544",
    "final_x": "3676942.18331",
    "final_y": "518531.167799",
    "longitude": "-90.0829098508214",
    "latitude": "29.919918262570633",
    "geocoded_column": {
      "latitude": "29.919918262570633",
      "longitude": "-90.0829098508214"
    }
  },
  {
    "service_request": "2026-1298543",
    "request_type": "General Services",
    "request_reason": "General Service Request",
    "date_created": "2026-07-09T19:29:09.000",
    "date_modified": "2026-07-09T19:29:12.000",
    "request_status": "Pending",
    "responsible_agency": "Orleans Parish Communication District",
    "final_address": "3141 Ponce De Leon St",
    "address_councildis": "A",
    "status": "Pending",
    "rowid": "1298543",
    "final_x": "3676280.52334",
    "final_y": "540562.560011",
    "longitude": "-90.08424030237236",
    "latitude": "29.9805170951782",
    "geocoded_column": {
      "latitude": "29.9805170951782",
      "longitude": "-90.08424030237236"
    }
  },
  {
    "service_request": "2026-1298542",
    "request_type": "Abandoned Vehicles",
    "request_reason": "Abandoned/Junk Vehicles",
    "date_created": "2026-07-09T19:24:08.000",
    "date_modified": "2026-07-09T19:24:09.000",
    "request_status": "Pending",
    "responsible_agency": "Department of Public Works",
    "final_address": "6440 Arts St",
    "address_councildis": "D",
    "status": "Pending",
    "rowid": "1298542",
    "final_x": "3685508.15644",
    "final_y": "557000.852762",
    "longitude": "-90.05451606477082",
    "latitude": "30.025436637649953",
    "geocoded_column": {
      "latitude": "30.025436637649953",
      "longitude": "-90.05451606477082"
    }
  },
  {
    "service_request": "2026-1298541",
    "request_type": "Abandoned Vehicles",
    "request_reason": "Abandoned/Junk Vehicles",
    "date_created": "2026-07-09T19:17:22.000",
    "date_modified": "2026-07-09T19:17:25.000",
    "request_status": "Pending",
    "responsible_agency": "Department of Public Works",
    "final_address": "4000 Vincennes Pl",
    "address_councildis": "B",
    "status": "Pending",
    "rowid": "1298541",
    "final_x": "3668361.6891",
    "final_y": "529964.509825",
    "longitude": "-90.10960896698514",
    "latitude": "29.951610965354156",
    "geocoded_column": {
      "latitude": "29.951610965354156",
      "longitude": "-90.10960896698514"
    }
  },
  {
    "service_request": "2026-1298540",
    "request_type": "Trash/Recycling",
    "request_reason": "Request a Large Item Pick Up",
    "date_created": "2026-07-09T18:51:49.000",
    "date_modified": "2026-07-09T18:51:52.000",
    "request_status": "Pending",
    "responsible_agency": "Department of Sanitation",
    "final_address": "2603 Valence St",
    "address_councildis": "B",
    "status": "Assigned to Contractor",
    "contractor": "IV Waste",
    "rowid": "1298540",
    "final_x": "3669430.5771",
    "final_y": "524348.907836",
    "longitude": "-90.10642378388877",
    "latitude": "29.936138451633667",
    "geocoded_column": {
      "latitude": "29.936138451633667",
      "longitude": "-90.10642378388877"
    }
  },
  {
    "service_request": "2026-1298539",
    "request_type": "Trash/Recycling",
    "request_reason": "Illegal Dumping",
    "date_created": "2026-07-09T18:32:02.000",
    "date_modified": "2026-07-09T18:32:04.000",
    "request_status": "Pending",
    "responsible_agency": "Department of Sanitation",
    "final_address": "1114 Kentucky St",
    "address_councildis": "D",
    "status": "Pending",
    "rowid": "1298539",
    "final_x": "3693325.28406",
    "final_y": "535162.811334",
    "longitude": "-90.03059971828945",
    "latitude": "29.965147793966548",
    "geocoded_column": {
      "latitude": "29.965147793966548",
      "longitude": "-90.03059971828945"
    }
  },
  {
    "service_request": "2026-1298538",
    "request_type": "Trash/Recycling",
    "request_reason": "Request a Large Item Pick Up",
    "date_created": "2026-07-09T18:29:22.000",
    "date_modified": "2026-07-09T18:29:23.000",
    "request_status": "Pending",
    "responsible_agency": "Department of Sanitation",
    "final_address": "3447 Derby Pl",
    "address_councildis": "A",
    "status": "Assigned to Contractor",
    "contractor": "IV Waste",
    "rowid": "1298538",
    "final_x": "3676921.38811",
    "final_y": "542987.678413",
    "longitude": "-90.08213253459247",
    "latitude": "29.987166105536755",
    "geocoded_column": {
      "latitude": "29.987166105536755",
      "longitude": "-90.08213253459247"
    }
  },
  {
    "service_request": "2026-1298537",
    "request_type": "Trash/Recycling",
    "request_reason": "Illegal Dumping",
    "date_created": "2026-07-09T17:57:55.000",
    "date_modified": "2026-07-09T17:57:57.000",
    "request_status": "Pending",
    "responsible_agency": "Department of Sanitation",
    "final_address": "6010 Chartres St",
    "address_councildis": "E",
    "status": "Pending",
    "rowid": "1298537",
    "final_x": "3698533.36874",
    "final_y": "531578.673987",
    "longitude": "-90.01428326416479",
    "latitude": "29.955128849872484",
    "geocoded_column": {
      "latitude": "29.955128849872484",
      "longitude": "-90.01428326416479"
    }
  },
  {
    "service_request": "2026-1298536",
    "request_type": "Trash/Recycling",
    "request_reason": "Request a Large Item Pick Up",
    "date_created": "2026-07-09T17:55:05.000",
    "date_modified": "2026-07-09T17:55:07.000",
    "request_status": "Pending",
    "responsible_agency": "Department of Sanitation",
    "final_address": "4921 Dodt Ave",
    "address_councildis": "E",
    "status": "Assigned to Contractor",
    "contractor": "Waste Pro",
    "rowid": "1298536",
    "final_x": "3705417.6307",
    "final_y": "556291.953818",
    "longitude": "-89.99163176518996",
    "latitude": "30.02286144461547",
    "geocoded_column": {
      "latitude": "30.02286144461547",
      "longitude": "-89.99163176518996"
    }
  },
  {
    "service_request": "2026-1298535",
    "request_type": "Property Maintenance",
    "request_reason": "Property Maintenance",
    "date_created": "2026-07-09T17:52:05.000",
    "date_modified": "2026-07-09T17:52:07.000",
    "request_status": "Pending",
    "responsible_agency": "Department of Code Enforcement",
    "final_address": "3324 Octavia St",
    "address_councildis": "B",
    "status": "Pending",
    "rowid": "1298535",
    "final_x": "3668388.43604",
    "final_y": "527935.548095",
    "longitude": "-90.10959293312362",
    "latitude": "29.94603119606775",
    "geocoded_column": {
      "latitude": "29.94603119606775",
      "longitude": "-90.10959293312362"
    }
  },
  {
    "service_request": "2026-1298534",
    "request_type": "Trash/Recycling",
    "request_reason": "Repair Trash Cart",
    "date_created": "2026-07-09T17:47:58.000",
    "date_modified": "2026-07-09T17:48:01.000",
    "request_status": "Pending",
    "responsible_agency": "Department of Sanitation",
    "final_address": "201 Roselyn Park Pl",
    "address_councildis": "C",
    "status": "Assigned to Contractor",
    "contractor": "Richards Disposal",
    "rowid": "1298534",
    "final_x": "3702588.53079",
    "final_y": "523558.903675",
    "longitude": "-90.00177294112547",
    "latitude": "29.932948329970436",
    "geocoded_column": {
      "latitude": "29.932948329970436",
      "longitude": "-90.00177294112547"
    }
  },
  {
    "service_request": "2026-1298533",
    "request_type": "Traffic Signals",
    "request_reason": "Traffic Signal Flashing",
    "date_created": "2026-07-09T17:35:47.000",
    "date_modified": "2026-07-09T17:35:51.000",
    "request_status": "Pending",
    "final_address": "4141 Orleans Ave",
    "address_councildis": "A",
    "rowid": "1298533",
    "final_x": "3672370.0779",
    "final_y": "540530.536843",
    "longitude": "-90.09659229465717",
    "latitude": "29.980545675684755",
    "geocoded_column": {
      "latitude": "29.980545675684755",
      "longitude": "-90.09659229465717"
    }
  },
  {
    "service_request": "2026-1298532",
    "request_type": "Trash/Recycling",
    "request_reason": "Missed Trash Pick-Up",
    "date_created": "2026-07-09T17:25:29.000",
    "date_modified": "2026-07-09T17:25:31.000",
    "request_status": "Pending",
    "responsible_agency": "Department of Sanitation",
    "final_address": "1500 Shirley Dr",
    "address_councildis": "C",
    "status": "Assigned to Contractor",
    "contractor": "Richards Disposal",
    "rowid": "1298532",
    "final_x": "3693152.16272",
    "final_y": "525399.345405",
    "longitude": "-90.03149672384602",
    "latitude": "29.938307066955083",
    "geocoded_column": {
      "latitude": "29.938307066955083",
      "longitude": "-90.03149672384602"
    }
  },
  {
    "service_request": "2026-1298531",
    "request_type": "Abandoned Vehicles",
    "request_reason": "Abandoned/Junk Vehicles",
    "date_created": "2026-07-09T17:08:12.000",
    "date_modified": "2026-07-09T17:08:14.000",
    "request_status": "Pending",
    "responsible_agency": "Department of Public Works",
    "final_address": "1300 Andry St",
    "address_councildis": "E",
    "status": "Pending",
    "rowid": "1298531",
    "final_x": "3697324.14896",
    "final_y": "534741.33191",
    "longitude": "-90.01798687135253",
    "latitude": "29.963863259265167",
    "geocoded_column": {
      "latitude": "29.963863259265167",
      "longitude": "-90.01798687135253"
    }
  },
  {
    "service_request": "2026-1298530",
    "request_type": "Trash/Recycling",
    "request_reason": "Request a Large Item Pick Up",
    "date_created": "2026-07-09T17:07:37.000",
    "date_modified": "2026-07-09T17:07:40.000",
    "request_status": "Pending",
    "responsible_agency": "Department of Sanitation",
    "final_address": "4101 Erato St",
    "address_councildis": "B",
    "status": "Assigned to Contractor",
    "contractor": "IV Waste",
    "rowid": "1298530",
    "final_x": "3671399.89268",
    "final_y": "531207.50477",
    "longitude": "-90.09997351960132",
    "latitude": "29.954939222910696",
    "geocoded_column": {
      "latitude": "29.954939222910696",
      "longitude": "-90.09997351960132"
    }
  },
  {
    "service_request": "2026-1298529",
    "request_type": "Trash/Recycling",
    "request_reason": "Replace Trash Cart",
    "date_created": "2026-07-09T17:07:14.000",
    "date_modified": "2026-07-09T17:07:16.000",
    "request_status": "Pending",
    "responsible_agency": "Department of Sanitation",
    "final_address": "1930 Napoleon Ave",
    "address_councildis": "B",
    "status": "Assigned to Contractor",
    "contractor": "IV Waste",
    "rowid": "1298529",
    "final_x": "3670577.24967",
    "final_y": "522220.07193",
    "longitude": "-90.10287586874803",
    "latitude": "29.930251027496933",
    "geocoded_column": {
      "latitude": "29.930251027496933",
      "longitude": "-90.10287586874803"
    }
  },
  {
    "service_request": "2026-1298528",
    "request_type": "Traffic Signals",
    "request_reason": "Traffic Signal Completely Dark (Blacked Out)",
    "date_created": "2026-07-09T17:03:51.000",
    "date_modified": "2026-07-09T17:03:53.000",
    "request_status": "Pending",
    "responsible_agency": "Department of Public Works",
    "final_address": "3900 BLK Alvar St",
    "address_councildis": "D",
    "rowid": "1298528",
    "final_x": "3693253.42546",
    "final_y": "548375.932891",
    "longitude": "-90.03035215683843",
    "latitude": "30.00148136641642",
    "geocoded_column": {
      "latitude": "30.00148136641642",
      "longitude": "-90.03035215683843"
    }
  },
  {
    "service_request": "2026-1298527",
    "request_type": "Trash/Recycling",
    "request_reason": "Request a Large Item Pick Up",
    "date_created": "2026-07-09T16:53:59.000",
    "date_modified": "2026-07-09T16:54:01.000",
    "request_status": "Pending",
    "responsible_agency": "Department of Sanitation",
    "final_address": "4025 Perrier St",
    "address_councildis": "B",
    "status": "Assigned to Contractor",
    "contractor": "IV Waste",
    "rowid": "1298527",
    "final_x": "3672169.51457",
    "final_y": "520229.447032",
    "longitude": "-90.09791708394438",
    "latitude": "29.924730336624805",
    "geocoded_column": {
      "latitude": "29.924730336624805",
      "longitude": "-90.09791708394438"
    }
  },
  {
    "service_request": "2026-1298526",
    "request_type": "Homeless Related Request",
    "request_reason": "Homeless Encampment Complaint",
    "date_created": "2026-07-09T16:50:56.000",
    "date_modified": "2026-07-09T16:50:58.000",
    "request_status": "Pending",
    "responsible_agency": "Office Of Homeless Services And Strategy",
    "final_address": "1600 BLK Pleasure St",
    "address_councildis": "D",
    "status": "Pending",
    "rowid": "1298526",
    "final_x": "3680056.14346",
    "final_y": "544799.952182",
    "longitude": "-90.07216796173714",
    "latitude": "29.992054728660253",
    "geocoded_column": {
      "latitude": "29.992054728660253",
      "longitude": "-90.07216796173714"
    }
  },
  {
    "service_request": "2026-1298525",
    "request_type": "Homeless Related Request",
    "request_reason": "Homeless Encampment Complaint",
    "date_created": "2026-07-09T16:49:51.000",
    "date_modified": "2026-07-09T16:49:53.000",
    "request_status": "Pending",
    "responsible_agency": "Office Of Homeless Services And Strategy",
    "final_address": "OLD GENTILLY RD & LOUISA ST",
    "address_councildis": "D",
    "status": "Pending",
    "rowid": "1298525",
    "final_x": "3691562.7",
    "final_y": "549283.78",
    "longitude": "-90.03566081991953",
    "latitude": "30.004030369093243",
    "geocoded_column": {
      "latitude": "30.004030369093243",
      "longitude": "-90.03566081991953"
    }
  },
  {
    "service_request": "2026-1298524",
    "request_type": "Drainage",
    "request_reason": "Catch Basin Not Draining",
    "date_created": "2026-07-09T16:47:41.000",
    "date_modified": "2026-07-09T16:47:44.000",
    "request_status": "Pending",
    "responsible_agency": "Sewerage & Water Board",
    "final_address": "1013 Sixth St",
    "address_councildis": "B",
    "status": "Pending",
    "rowid": "1298524",
    "final_x": "3676794.69038",
    "final_y": "520352.753656",
    "longitude": "-90.08331268831368",
    "latitude": "29.924931460297483",
    "geocoded_column": {
      "latitude": "29.924931460297483",
      "longitude": "-90.08331268831368"
    }
  },
  {
    "service_request": "2026-1298523",
    "request_type": "Trash/Recycling",
    "request_reason": "Return Trash Cart",
    "date_created": "2026-07-09T16:47:02.000",
    "date_modified": "2026-07-09T16:47:04.000",
    "request_status": "Pending",
    "responsible_agency": "Department of Sanitation",
    "final_address": "618 Leontine St",
    "address_councildis": "B",
    "status": "Assigned to Contractor",
    "contractor": "IV Waste",
    "rowid": "1298523",
    "final_x": "3666938.11002",
    "final_y": "517730.838774",
    "longitude": "-90.11451484146119",
    "latitude": "29.918014005230862",
    "geocoded_column": {
      "latitude": "29.918014005230862",
      "longitude": "-90.11451484146119"
    }
  },
  {
    "service_request": "2026-1298522",
    "request_type": "Trash/Recycling",
    "request_reason": "Request a Large Item Pick Up",
    "date_created": "2026-07-09T16:42:59.000",
    "date_modified": "2026-07-09T16:43:01.000",
    "request_status": "Pending",
    "responsible_agency": "Department of Sanitation",
    "final_address": "1024 St Mary St",
    "address_councildis": "B",
    "status": "Assigned to Contractor",
    "contractor": "IV Waste",
    "rowid": "1298522",
    "final_x": "3679850.24872",
    "final_y": "522663.982586",
    "longitude": "-90.07358708085766",
    "latitude": "29.931194572485897",
    "geocoded_column": {
      "latitude": "29.931194572485897",
      "longitude": "-90.07358708085766"
    }
  },
  {
    "service_request": "2026-1298521",
    "request_type": "Abandoned Vehicles",
    "request_reason": "Abandoned/Junk Vehicles",
    "date_created": "2026-07-09T16:41:10.000",
    "date_modified": "2026-07-09T16:41:12.000",
    "request_status": "Pending",
    "responsible_agency": "Department of Public Works",
    "final_address": "4800 BLK Laine Ave",
    "address_councildis": "E",
    "status": "Pending",
    "rowid": "1298521",
    "final_x": "3705628.3118",
    "final_y": "556139.104045",
    "longitude": "-89.99097172429481",
    "latitude": "30.02243438214499",
    "geocoded_column": {
      "latitude": "30.02243438214499",
      "longitude": "-89.99097172429481"
    }
  },
  {
    "service_request": "2026-1298520",
    "request_type": "Abandoned Vehicles",
    "request_reason": "Abandoned/Junk Vehicles",
    "date_created": "2026-07-09T16:39:50.000",
    "date_modified": "2026-07-09T16:39:51.000",
    "request_status": "Pending",
    "responsible_agency": "Department of Public Works",
    "final_address": "2600 BLK Franklin Ave",
    "address_councildis": "D",
    "status": "Pending",
    "rowid": "1298520",
    "final_x": "3687497.88284",
    "final_y": "542413.960235",
    "longitude": "-90.04874557105987",
    "latitude": "29.985266788313556",
    "geocoded_column": {
      "latitude": "29.985266788313556",
      "longitude": "-90.04874557105987"
    }
  },
  {
    "service_request": "2026-1298519",
    "request_type": "Roads and Streets",
    "request_reason": "Sidewalk Damaged or Missing",
    "date_created": "2026-07-09T16:35:30.000",
    "date_modified": "2026-07-09T16:35:32.000",
    "request_status": "Pending",
    "responsible_agency": "Department of Public Works",
    "final_address": "3121 Marigny St",
    "address_councildis": "D",
    "status": "Pending",
    "rowid": "1298519",
    "final_x": "3684826.90261",
    "final_y": "544248.24571",
    "longitude": "-90.05711753752021",
    "latitude": "29.990392487914914",
    "geocoded_column": {
      "latitude": "29.990392487914914",
      "longitude": "-90.05711753752021"
    }
  },
  {
    "service_request": "2026-1298518",
    "request_type": "Roads and Streets",
    "request_reason": "Sidewalk Damaged or Missing",
    "date_created": "2026-07-09T16:29:01.000",
    "date_modified": "2026-07-09T16:29:03.000",
    "request_status": "Pending",
    "responsible_agency": "Department of Public Works",
    "final_address": "700 BLK Calhoun St",
    "address_councildis": "A",
    "status": "Pending",
    "rowid": "1298518",
    "final_x": "3663384.36053",
    "final_y": "519574.320219",
    "longitude": "-90.12567081395153",
    "latitude": "29.923186467062127",
    "geocoded_column": {
      "latitude": "29.923186467062127",
      "longitude": "-90.12567081395153"
    }
  },
  {
    "service_request": "2026-1298517",
    "request_type": "Trash/Recycling",
    "request_reason": "Replace Trash Cart",
    "date_created": "2026-07-09T16:26:06.000",
    "date_modified": "2026-07-09T16:26:08.000",
    "request_status": "Pending",
    "responsible_agency": "Department of Sanitation",
    "final_address": "820 Mazant St",
    "address_councildis": "C",
    "status": "Assigned to Contractor",
    "contractor": "IV Waste",
    "rowid": "1298517",
    "final_x": "3691832.04758",
    "final_y": "534246.253381",
    "longitude": "-90.0353480467733",
    "latitude": "29.962674177719606",
    "geocoded_column": {
      "latitude": "29.962674177719606",
      "longitude": "-90.0353480467733"
    }
  },
  {
    "service_request": "2026-1298516",
    "request_type": "Trash/Recycling",
    "request_reason": "Repair Recycling Cart",
    "date_created": "2026-07-09T16:24:33.000",
    "date_modified": "2026-07-09T16:24:35.000",
    "request_status": "Pending",
    "responsible_agency": "Department of Sanitation",
    "final_address": "716 Calhoun St",
    "address_councildis": "A",
    "status": "Pending",
    "rowid": "1298516",
    "final_x": "3663333.25715",
    "final_y": "519575.270328",
    "longitude": "-90.12583209695087",
    "latitude": "29.92319056045942",
    "geocoded_column": {
      "latitude": "29.92319056045942",
      "longitude": "-90.12583209695087"
    }
  },
  {
    "service_request": "2026-1298515",
    "request_type": "Trash/Recycling",
    "request_reason": "Order Recycling Cart",
    "date_created": "2026-07-09T16:24:23.000",
    "date_modified": "2026-07-09T16:24:25.000",
    "request_status": "Pending",
    "responsible_agency": "Department of Sanitation",
    "final_address": "1730 Audubon St",
    "address_councildis": "A",
    "status": "Pending",
    "rowid": "1298515",
    "final_x": "3665525.74727",
    "final_y": "528050.051775",
    "longitude": "-90.11862762042233",
    "latitude": "29.946429799696276",
    "geocoded_column": {
      "latitude": "29.946429799696276",
      "longitude": "-90.11862762042233"
    }
  },
  {
    "service_request": "2026-1298514",
    "request_type": "Trash/Recycling",
    "request_reason": "Request a Large Item Pick Up",
    "date_created": "2026-07-09T16:22:55.000",
    "date_modified": "2026-07-09T16:22:57.000",
    "request_status": "Pending",
    "responsible_agency": "Department of Sanitation",
    "final_address": "6202 Wales St",
    "address_councildis": "E",
    "status": "Assigned to Contractor",
    "contractor": "Waste Pro",
    "rowid": "1298514",
    "final_x": "3695884.46614",
    "final_y": "559662.224733",
    "longitude": "-90.0216323370094",
    "latitude": "30.03243189177333",
    "geocoded_column": {
      "latitude": "30.03243189177333",
      "longitude": "-90.0216323370094"
    }
  },
  {
    "service_request": "2026-1298513",
    "request_type": "Streetlights",
    "request_reason": "Streetlight Outage/Malfunction",
    "date_created": "2026-07-09T16:21:15.000",
    "date_modified": "2026-07-09T16:21:17.000",
    "request_status": "Pending",
    "responsible_agency": "Department of Public Works",
    "final_address": "South Cortez Street & Ulloa Street",
    "address_councildis": "B",
    "status": "Pending",
    "rowid": "1298513",
    "final_x": "3670648.12596",
    "final_y": "535724.449415",
    "longitude": "-90.1021940752878",
    "latitude": "29.967381548141393",
    "geocoded_column": {
      "latitude": "29.967381548141393",
      "longitude": "-90.1021940752878"
    }
  },
  {
    "service_request": "2026-1298512",
    "request_type": "Streetlights",
    "request_reason": "Streetlight Outage/Malfunction",
    "date_created": "2026-07-09T16:21:08.000",
    "date_modified": "2026-07-09T16:21:55.000",
    "request_status": "Pending",
    "responsible_agency": "Department of Public Works",
    "final_address": "EARHART BLVD & EAGLE ST",
    "address_councildis": "A",
    "status": "Pending",
    "rowid": "1298512",
    "final_x": "3664383.5",
    "final_y": "534710.98",
    "longitude": "-90.1220117863216",
    "latitude": "29.96477843291884",
    "geocoded_column": {
      "latitude": "29.96477843291884",
      "longitude": "-90.1220117863216"
    }
  },
  {
    "service_request": "2026-1298511",
    "request_type": "Trash/Recycling",
    "request_reason": "Request a Large Item Pick Up",
    "date_created": "2026-07-09T16:19:08.000",
    "date_modified": "2026-07-09T16:19:10.000",
    "request_status": "Pending",
    "responsible_agency": "Department of Sanitation",
    "final_address": "4819 Warren Dr",
    "address_councildis": "E",
    "status": "Assigned to Contractor",
    "contractor": "Waste Pro",
    "rowid": "1298511",
    "final_x": "3713494.70571",
    "final_y": "556629.07337",
    "longitude": "-89.96609760865526",
    "latitude": "30.023525865337415",
    "geocoded_column": {
      "latitude": "30.023525865337415",
      "longitude": "-89.96609760865526"
    }
  },
  {
    "service_request": "2026-1298510",
    "request_type": "Abandoned Vehicles",
    "request_reason": "Abandoned/Junk Vehicles",
    "date_created": "2026-07-09T16:17:43.000",
    "date_modified": "2026-07-09T16:17:44.000",
    "request_status": "Pending",
    "responsible_agency": "Department of Public Works",
    "final_address": "WABASH ST & IDAHO ST",
    "address_councildis": "C",
    "status": "Pending",
    "rowid": "1298510",
    "final_x": "3693363.6",
    "final_y": "521294.98",
    "longitude": "-90.03097647731916",
    "latitude": "29.927014853118624",
    "geocoded_column": {
      "latitude": "29.927014853118624",
      "longitude": "-90.03097647731916"
    }
  },
  {
    "service_request": "2026-1298509",
    "request_type": "Trash/Recycling",
    "request_reason": "Request a Large Item Pick Up",
    "date_created": "2026-07-09T16:15:44.000",
    "date_modified": "2026-07-09T16:15:45.000",
    "request_status": "Pending",
    "responsible_agency": "Department of Sanitation",
    "final_address": "2415 Bienville Ave",
    "address_councildis": "B",
    "status": "Assigned to Contractor",
    "contractor": "IV Waste",
    "rowid": "1298509",
    "final_x": "3676817.79701",
    "final_y": "535053.498886",
    "longitude": "-90.08273326697609",
    "latitude": "29.965352945863668",
    "geocoded_column": {
      "latitude": "29.965352945863668",
      "longitude": "-90.08273326697609"
    }
  },
  {
    "service_request": "2026-1298508",
    "request_type": "Trash/Recycling",
    "request_reason": "Repair Trash Cart",
    "date_created": "2026-07-09T16:13:04.000",
    "date_modified": "2026-07-09T16:13:20.000",
    "request_status": "Pending",
    "responsible_agency": "Department of Sanitation",
    "final_address": "2023 Cadiz St",
    "address_councildis": "B",
    "status": "Assigned to Contractor",
    "contractor": "IV Waste",
    "rowid": "1298508",
    "final_x": "3669979.08078",
    "final_y": "522427.82329",
    "longitude": "-90.1047571662956",
    "latitude": "29.930839925956978",
    "geocoded_column": {
      "latitude": "29.930839925956978",
      "longitude": "-90.1047571662956"
    }
  },
  {
    "service_request": "2026-1298507",
    "request_type": "Trash/Recycling",
    "request_reason": "Dead Animal Pick Up",
    "date_created": "2026-07-09T16:11:56.000",
    "date_modified": "2026-07-09T16:11:58.000",
    "request_status": "Pending",
    "responsible_agency": "Department of Sanitation",
    "final_address": "401 St Joseph St",
    "address_councildis": "B",
    "status": "Assigned to Contractor",
    "contractor": "IV Waste",
    "rowid": "1298507",
    "final_x": "3681281.52002",
    "final_y": "527260.582271",
    "longitude": "-90.06890861851",
    "latitude": "29.94379034985457",
    "geocoded_column": {
      "latitude": "29.94379034985457",
      "longitude": "-90.06890861851"
    }
  },
  {
    "service_request": "2026-1298506",
    "request_type": "Trash/Recycling",
    "request_reason": "Illegal Dumping",
    "date_created": "2026-07-09T16:11:43.000",
    "date_modified": "2026-07-09T16:11:44.000",
    "request_status": "Pending",
    "responsible_agency": "Department of Sanitation",
    "final_address": "REDWOOD DR & HAMMOND ST",
    "address_councildis": "E",
    "status": "Pending",
    "rowid": "1298506",
    "final_x": "3712466.5",
    "final_y": "556358.38",
    "longitude": "-89.96935667435065",
    "latitude": "30.022815259497172",
    "geocoded_column": {
      "latitude": "30.022815259497172",
      "longitude": "-89.96935667435065"
    }
  },
  {
    "service_request": "2026-1298505",
    "request_type": "Trash/Recycling",
    "request_reason": "Request a Large Item Pick Up",
    "date_created": "2026-07-09T16:11:06.000",
    "date_modified": "2026-07-09T16:11:08.000",
    "request_status": "Pending",
    "responsible_agency": "Department of Sanitation",
    "final_address": "4635 Dodt Ave",
    "address_councildis": "E",
    "status": "Assigned to Contractor",
    "contractor": "Waste Pro",
    "rowid": "1298505",
    "final_x": "3705539.72606",
    "final_y": "554702.460312",
    "longitude": "-89.99130479828582",
    "latitude": "30.018487020381986",
    "geocoded_column": {
      "latitude": "30.018487020381986",
      "longitude": "-89.99130479828582"
    }
  },
  {
    "service_request": "2026-1298504",
    "request_type": "Parks & Grass Service",
    "request_reason": "Request Grass Cutting Service (City Owned Property)",
    "date_created": "2026-07-09T16:07:40.000",
    "date_modified": "2026-07-09T16:07:42.000",
    "request_status": "Pending",
    "responsible_agency": "Department of Parks & Parkways",
    "final_address": "6524 Catina St",
    "address_councildis": "A",
    "status": "Pending",
    "rowid": "1298504",
    "final_x": "3666934.54151",
    "final_y": "551019.224981",
    "longitude": "-90.11340743517984",
    "latitude": "30.009546166181135",
    "geocoded_column": {
      "latitude": "30.009546166181135",
      "longitude": "-90.11340743517984"
    }
  },
  {
    "service_request": "2026-1298503",
    "request_type": "Abandoned Vehicles",
    "request_reason": "Abandoned/Junk Vehicles",
    "date_created": "2026-07-09T16:06:59.000",
    "date_modified": "2026-07-09T16:07:35.000",
    "request_status": "Pending",
    "responsible_agency": "Department of Public Works",
    "final_address": "1533 St Roch Ave",
    "address_councildis": "C",
    "status": "Pending",
    "rowid": "1298503",
    "final_x": "3686427.79542",
    "final_y": "538204.987465",
    "longitude": "-90.05227415494278",
    "latitude": "29.97372654072907",
    "geocoded_column": {
      "latitude": "29.97372654072907",
      "longitude": "-90.05227415494278"
    }
  },
  {
    "service_request": "2026-1298502",
    "request_type": "Abandoned Vehicles",
    "request_reason": "Abandoned/Junk Vehicles",
    "date_created": "2026-07-09T16:04:46.000",
    "date_modified": "2026-07-09T16:05:23.000",
    "request_status": "Pending",
    "responsible_agency": "Department of Public Works",
    "final_address": "2000 BLK Pauger St",
    "address_councildis": "C",
    "status": "Pending",
    "rowid": "1298502",
    "final_x": "3683800.24785",
    "final_y": "537133.024603",
    "longitude": "-90.06061011214898",
    "latitude": "29.970859528228612",
    "geocoded_column": {
      "latitude": "29.970859528228612",
      "longitude": "-90.06061011214898"
    }
  },
  {
    "service_request": "2026-1298501",
    "request_type": "Property Maintenance",
    "request_reason": "Property Maintenance",
    "date_created": "2026-07-09T16:03:18.000",
    "date_modified": "2026-07-09T16:03:19.000",
    "request_status": "Pending",
    "responsible_agency": "Department of Code Enforcement",
    "final_address": "1508 Gordon St",
    "address_councildis": "E",
    "status": "Pending",
    "rowid": "1298501",
    "final_x": "3699614.87927",
    "final_y": "534928.530694",
    "longitude": "-90.01074618579652",
    "latitude": "29.964305485148788",
    "geocoded_column": {
      "latitude": "29.964305485148788",
      "longitude": "-90.01074618579652"
    }
  },
  {
    "service_request": "2026-1298500",
    "request_type": "Trash/Recycling",
    "request_reason": "Repair Trash Cart",
    "date_created": "2026-07-09T16:03:14.000",
    "date_modified": "2026-07-09T16:03:15.000",
    "request_status": "Pending",
    "responsible_agency": "Department of Sanitation",
    "final_address": "3033 Octavia St",
    "address_councildis": "B",
    "status": "Assigned to Contractor",
    "contractor": "IV Waste",
    "rowid": "1298500",
    "final_x": "3668257.89978",
    "final_y": "526832.833214",
    "longitude": "-90.11004225173377",
    "latitude": "29.943002920147734",
    "geocoded_column": {
      "latitude": "29.943002920147734",
      "longitude": "-90.11004225173377"
    }
  },
  {
    "service_request": "2026-1298499",
    "request_type": "Trash/Recycling",
    "request_reason": "Repair Trash Cart",
    "date_created": "2026-07-09T16:02:39.000",
    "date_modified": "2026-07-09T16:02:41.000",
    "request_status": "Pending",
    "responsible_agency": "Department of Sanitation",
    "final_address": "1724 Rousselin Dr",
    "address_councildis": "D",
    "status": "Assigned to Contractor",
    "contractor": "IV Waste",
    "rowid": "1298499",
    "final_x": "3679936.23189",
    "final_y": "540689.614667",
    "longitude": "-90.0726895837578",
    "latitude": "29.980756367673845",
    "geocoded_column": {
      "latitude": "29.980756367673845",
      "longitude": "-90.0726895837578"
    }
  },
  {
    "service_request": "2026-1298498",
    "request_type": "Trash/Recycling",
    "request_reason": "Repair Recycling Cart",
    "date_created": "2026-07-09T16:02:21.000",
    "date_modified": "2026-07-09T16:02:25.000",
    "request_status": "Pending",
    "responsible_agency": "Department of Sanitation",
    "final_address": "4154 Bienville Ave",
    "address_councildis": "A",
    "status": "Pending",
    "rowid": "1298498",
    "final_x": "3671188.00462",
    "final_y": "539178.89953",
    "longitude": "-90.10037173902157",
    "latitude": "29.976864160682712",
    "geocoded_column": {
      "latitude": "29.976864160682712",
      "longitude": "-90.10037173902157"
    }
  },
  {
    "service_request": "2026-1298497",
    "request_type": "Trash/Recycling",
    "request_reason": "Order Second Trash Cart",
    "date_created": "2026-07-09T16:00:07.000",
    "date_modified": "2026-07-09T16:00:09.000",
    "request_status": "Pending",
    "responsible_agency": "Department of Sanitation",
    "final_address": "1908 Alabo St",
    "address_councildis": "E",
    "status": "Assigned to Contractor",
    "contractor": "Waste Pro",
    "rowid": "1298497",
    "final_x": "3699693.2506",
    "final_y": "536630.728519",
    "longitude": "-90.01043663707692",
    "latitude": "29.968983430539822",
    "geocoded_column": {
      "latitude": "29.968983430539822",
      "longitude": "-90.01043663707692"
    }
  },
  {
    "service_request": "2026-1298496",
    "request_type": "Trash/Recycling",
    "request_reason": "Illegal Dumping",
    "date_created": "2026-07-09T16:00:04.000",
    "date_modified": "2026-07-09T16:00:05.000",
    "request_status": "Pending",
    "responsible_agency": "Department of Sanitation",
    "final_address": "5100 BLK Metropolitan Dr",
    "address_councildis": "D",
    "status": "Pending",
    "rowid": "1298496",
    "final_x": "3690382.73993",
    "final_y": "552451.972311",
    "longitude": "-90.03927547362747",
    "latitude": "30.012778422860084",
    "geocoded_column": {
      "latitude": "30.012778422860084",
      "longitude": "-90.03927547362747"
    }
  },
  {
    "service_request": "2026-1298495",
    "request_type": "Trash/Recycling",
    "request_reason": "Order Recycling Cart",
    "date_created": "2026-07-09T15:58:04.000",
    "date_modified": "2026-07-09T15:58:06.000",
    "request_status": "Pending",
    "responsible_agency": "Department of Sanitation",
    "final_address": "1908 Alabo St",
    "address_councildis": "E",
    "status": "Pending",
    "rowid": "1298495",
    "final_x": "3699693.2506",
    "final_y": "536630.728519",
    "longitude": "-90.01043663707692",
    "latitude": "29.968983430539822",
    "geocoded_column": {
      "latitude": "29.968983430539822",
      "longitude": "-90.01043663707692"
    }
  },
  {
    "service_request": "2026-1298494",
    "request_type": "Trash/Recycling",
    "request_reason": "Request a Large Item Pick Up",
    "date_created": "2026-07-09T15:56:45.000",
    "date_modified": "2026-07-09T15:56:48.000",
    "request_status": "Pending",
    "responsible_agency": "Department of Sanitation",
    "final_address": "3149 St Thomas St",
    "address_councildis": "B",
    "status": "Assigned to Contractor",
    "contractor": "IV Waste",
    "rowid": "1298494",
    "final_x": "3676749.38843",
    "final_y": "518478.894006",
    "longitude": "-90.08352021087741",
    "latitude": "29.919780310153918",
    "geocoded_column": {
      "latitude": "29.919780310153918",
      "longitude": "-90.08352021087741"
    }
  },
  {
    "service_request": "2026-1298493",
    "request_type": "General Services",
    "request_reason": "General Service Request",
    "date_created": "2026-07-09T15:54:25.000",
    "date_modified": "2026-07-09T15:54:26.000",
    "request_status": "Pending",
    "responsible_agency": "Orleans Parish Communication District",
    "final_address": "3141 Ponce De Leon St",
    "address_councildis": "A",
    "status": "Pending",
    "rowid": "1298493",
    "final_x": "3676280.52334",
    "final_y": "540562.560011",
    "longitude": "-90.08424030237236",
    "latitude": "29.9805170951782",
    "geocoded_column": {
      "latitude": "29.9805170951782",
      "longitude": "-90.08424030237236"
    }
  },
  {
    "service_request": "2026-1298492",
    "request_type": "Trash/Recycling",
    "request_reason": "Missed Trash Pick-Up",
    "date_created": "2026-07-09T15:54:18.000",
    "date_modified": "2026-07-09T16:11:43.000",
    "request_status": "Pending",
    "responsible_agency": "Department of Sanitation",
    "final_address": "4700 Coronado Dr",
    "address_councildis": "E",
    "status": "Assigned to Contractor",
    "contractor": "Waste Pro",
    "rowid": "1298492",
    "final_x": "3714081.08824",
    "final_y": "556208.961818",
    "longitude": "-89.96426064189482",
    "latitude": "30.022351472970552",
    "geocoded_column": {
      "latitude": "30.022351472970552",
      "longitude": "-89.96426064189482"
    }
  },
  {
    "service_request": "2026-1298491",
    "request_type": "Healthy Homes",
    "request_reason": "Healthy Homes",
    "date_created": "2026-07-09T15:53:49.000",
    "date_modified": "2026-07-09T15:53:51.000",
    "request_status": "Pending",
    "responsible_agency": "Department of Code Enforcement",
    "final_address": "1936 St Philip St",
    "address_councildis": "C",
    "status": "Pending",
    "rowid": "1298491",
    "final_x": "3679610.44251",
    "final_y": "536094.371399",
    "longitude": "-90.07387809864863",
    "latitude": "29.968130885270682",
    "geocoded_column": {
      "latitude": "29.968130885270682",
      "longitude": "-90.07387809864863"
    }
  },
  {
    "service_request": "2026-1298490",
    "request_type": "Mosquito, Termite & Rodent Control",
    "request_reason": "Non-Rodent Complaint (Possums & Snakes)",
    "date_created": "2026-07-09T15:53:23.000",
    "date_modified": "2026-07-09T15:53:25.000",
    "request_status": "Pending",
    "responsible_agency": "Mosquito, Termite & Rodent Control Board",
    "final_address": "2133 Jackson Ave",
    "address_councildis": "B",
    "status": "Pending",
    "rowid": "1298490",
    "final_x": "3676086.77608",
    "final_y": "525768.026557",
    "longitude": "-90.08536116535443",
    "latitude": "29.939842911743867",
    "geocoded_column": {
      "latitude": "29.939842911743867",
      "longitude": "-90.08536116535443"
    }
  },
  {
    "service_request": "2026-1298489",
    "request_type": "Trash/Recycling",
    "request_reason": "Request a Large Item Pick Up",
    "date_created": "2026-07-09T15:53:05.000",
    "date_modified": "2026-07-09T15:53:08.000",
    "request_status": "Pending",
    "responsible_agency": "Department of Sanitation",
    "final_address": "2666 Ramsey Dr",
    "address_councildis": "C",
    "status": "Assigned to Contractor",
    "contractor": "Richards Disposal",
    "rowid": "1298489",
    "final_x": "3703170.13028",
    "final_y": "520983.703801",
    "longitude": "-90.00003148517621",
    "latitude": "29.92584882956618",
    "geocoded_column": {
      "latitude": "29.92584882956618",
      "longitude": "-90.00003148517621"
    }
  },
  {
    "service_request": "2026-1298488",
    "request_type": "General Services",
    "request_reason": "General Service Request",
    "date_created": "2026-07-09T15:52:46.000",
    "date_modified": "2026-07-09T15:52:49.000",
    "request_status": "Pending",
    "responsible_agency": "Orleans Parish Communication District",
    "final_address": "3141 Ponce De Leon St",
    "address_councildis": "A",
    "status": "Pending",
    "rowid": "1298488",
    "final_x": "3676280.52334",
    "final_y": "540562.560011",
    "longitude": "-90.08424030237236",
    "latitude": "29.9805170951782",
    "geocoded_column": {
      "latitude": "29.9805170951782",
      "longitude": "-90.08424030237236"
    }
  },
  {
    "service_request": "2026-1298487",
    "request_type": "Trash/Recycling",
    "request_reason": "Request a Large Item Pick Up",
    "date_created": "2026-07-09T15:51:52.000",
    "date_modified": "2026-07-09T15:51:55.000",
    "request_status": "Pending",
    "responsible_agency": "Department of Sanitation",
    "final_address": "853 Taft Pl",
    "address_councildis": "A",
    "status": "Assigned to Contractor",
    "contractor": "IV Waste",
    "rowid": "1298487",
    "final_x": "3673777.18702",
    "final_y": "539818.041802",
    "longitude": "-90.09217240365089",
    "latitude": "29.978544723048827",
    "geocoded_column": {
      "latitude": "29.978544723048827",
      "longitude": "-90.09217240365089"
    }
  },
  {
    "service_request": "2026-1298486",
    "request_type": "Trash/Recycling",
    "request_reason": "Request a Large Item Pick Up",
    "date_created": "2026-07-09T15:51:32.000",
    "date_modified": "2026-07-09T15:51:33.000",
    "request_status": "Pending",
    "responsible_agency": "Department of Sanitation",
    "final_address": "4615 Annette St",
    "address_councildis": "D",
    "status": "Assigned to Contractor",
    "contractor": "IV Waste",
    "rowid": "1298486",
    "final_x": "3682111.43023",
    "final_y": "549555.031635",
    "longitude": "-90.06550954015076",
    "latitude": "30.005067139102298",
    "geocoded_column": {
      "latitude": "30.005067139102298",
      "longitude": "-90.06550954015076"
    }
  },
  {
    "service_request": "2026-1298485",
    "request_type": "Trash/Recycling",
    "request_reason": "Request a Large Item Pick Up",
    "date_created": "2026-07-09T15:43:35.000",
    "date_modified": "2026-07-09T15:43:36.000",
    "request_status": "Pending",
    "responsible_agency": "Department of Sanitation",
    "final_address": "4403 Danneel St",
    "address_councildis": "B",
    "status": "Assigned to Contractor",
    "contractor": "IV Waste",
    "rowid": "1298485",
    "final_x": "3670589.53191",
    "final_y": "522321.737146",
    "longitude": "-90.1028336490289",
    "latitude": "29.930530211567334",
    "geocoded_column": {
      "latitude": "29.930530211567334",
      "longitude": "-90.1028336490289"
    }
  },
  {
    "service_request": "2026-1298484",
    "request_type": "Tree Service",
    "request_reason": "Dead or Dying Tree",
    "date_created": "2026-07-09T15:37:02.000",
    "date_modified": "2026-07-09T15:38:24.000",
    "request_status": "Pending",
    "responsible_agency": "Department of Parks & Parkways",
    "final_address": "4664 Stephen Girard Ave",
    "address_councildis": "D",
    "status": "Pending",
    "rowid": "1298484",
    "final_x": "3691581.89603",
    "final_y": "550514.391572",
    "longitude": "-90.03555614431455",
    "latitude": "30.007413500345567",
    "geocoded_column": {
      "latitude": "30.007413500345567",
      "longitude": "-90.03555614431455"
    }
  },
  {
    "service_request": "2026-1298483",
    "request_type": "Homeless Related Request",
    "request_reason": "Homeless Encampment Complaint",
    "date_created": "2026-07-09T15:33:55.000",
    "date_modified": "2026-07-09T15:33:57.000",
    "request_status": "Pending",
    "responsible_agency": "Office Of Homeless Services And Strategy",
    "final_address": "739 S Clark St",
    "address_councildis": "B",
    "status": "Pending",
    "rowid": "1298483",
    "final_x": "3671192.91655",
    "final_y": "534872.34567",
    "longitude": "-90.10050256626383",
    "latitude": "29.965022441781148",
    "geocoded_column": {
      "latitude": "29.965022441781148",
      "longitude": "-90.10050256626383"
    }
  },
  {
    "service_request": "2026-1298482",
    "request_type": "Trash/Recycling",
    "request_reason": "Request a Large Item Pick Up",
    "date_created": "2026-07-09T15:26:17.000",
    "date_modified": "2026-07-09T15:26:19.000",
    "request_status": "Pending",
    "responsible_agency": "Department of Sanitation",
    "final_address": "7301 Ebbtide Dr",
    "address_councildis": "E",
    "status": "Assigned to Contractor",
    "contractor": "Waste Pro",
    "rowid": "1298482",
    "final_x": "3702663.11153",
    "final_y": "560476.154782",
    "longitude": "-90.00018153280496",
    "latitude": "30.034454773097114",
    "geocoded_column": {
      "latitude": "30.034454773097114",
      "longitude": "-90.00018153280496"
    }
  },
  {
    "service_request": "2026-1298481",
    "request_type": "Trash/Recycling",
    "request_reason": "Request a Large Item Pick Up",
    "date_created": "2026-07-09T15:23:58.000",
    "date_modified": "2026-07-09T15:24:00.000",
    "request_status": "Pending",
    "responsible_agency": "Department of Sanitation",
    "final_address": "4708 Bonita Dr",
    "address_councildis": "E",
    "status": "Assigned to Contractor",
    "contractor": "Waste Pro",
    "rowid": "1298481",
    "final_x": "3704470.64369",
    "final_y": "555042.767897",
    "longitude": "-89.99467011904031",
    "latitude": "30.019457120811442",
    "geocoded_column": {
      "latitude": "30.019457120811442",
      "longitude": "-89.99467011904031"
    }
  },
  {
    "service_request": "2026-1298480",
    "request_type": "Trash/Recycling",
    "request_reason": "Order Recycling Cart",
    "date_created": "2026-07-09T15:23:41.000",
    "date_modified": "2026-07-09T15:23:42.000",
    "request_status": "Pending",
    "responsible_agency": "Department of Sanitation",
    "final_address": "3909 Iberville St",
    "address_councildis": "A",
    "status": "Pending",
    "rowid": "1298480",
    "final_x": "3672010.46983",
    "final_y": "538278.133641",
    "longitude": "-90.09780480407676",
    "latitude": "29.97436299986857",
    "geocoded_column": {
      "latitude": "29.97436299986857",
      "longitude": "-90.09780480407676"
    }
  },
  {
    "service_request": "2026-1298479",
    "request_type": "Drainage",
    "request_reason": "Catch Basin Not Draining",
    "date_created": "2026-07-09T15:23:15.000",
    "date_modified": "2026-07-09T15:23:17.000",
    "request_status": "Pending",
    "responsible_agency": "Sewerage & Water Board",
    "final_address": "4674 Stephen Girard Ave",
    "address_councildis": "D",
    "status": "Pending",
    "rowid": "1298479",
    "final_x": "3691647.47043",
    "final_y": "550544.363156",
    "longitude": "-90.03534790437367",
    "latitude": "30.007493868845177",
    "geocoded_column": {
      "latitude": "30.007493868845177",
      "longitude": "-90.03534790437367"
    }
  },
  {
    "service_request": "2026-1298478",
    "request_type": "Trash/Recycling",
    "request_reason": "Repair Trash Cart",
    "date_created": "2026-07-09T15:21:43.000",
    "date_modified": "2026-07-09T15:21:45.000",
    "request_status": "Pending",
    "responsible_agency": "Department of Sanitation",
    "final_address": "5206 Timber Haven Ln",
    "address_councildis": "C",
    "status": "Assigned to Contractor",
    "contractor": "Richards Disposal",
    "rowid": "1298478",
    "final_x": "3703425.37214",
    "final_y": "511477.479344",
    "longitude": "-89.99957506464608",
    "latitude": "29.899701797621475",
    "geocoded_column": {
      "latitude": "29.899701797621475",
      "longitude": "-89.99957506464608"
    }
  },
  {
    "service_request": "2026-1298477",
    "request_type": "Property Maintenance",
    "request_reason": "Property Maintenance",
    "date_created": "2026-07-09T15:20:14.000",
    "date_modified": "2026-07-09T15:20:49.000",
    "request_status": "Pending",
    "responsible_agency": "Department of Code Enforcement",
    "final_address": "1938 Benton St",
    "address_councildis": "E",
    "status": "Pending",
    "rowid": "1298477",
    "final_x": "3700058.64836",
    "final_y": "536733.232199",
    "longitude": "-90.00927895344128",
    "latitude": "29.969253674009245",
    "geocoded_column": {
      "latitude": "29.969253674009245",
      "longitude": "-90.00927895344128"
    }
  },
  {
    "service_request": "2026-1298476",
    "request_type": "Safety & Permits",
    "request_reason": "Zoning Enforcement",
    "date_created": "2026-07-09T15:19:52.000",
    "date_modified": "2026-07-09T15:24:12.000",
    "request_status": "Pending",
    "responsible_agency": "Safety and Permits",
    "final_address": "1101 Pine St",
    "address_councildis": "A",
    "status": "Pending",
    "rowid": "1298476",
    "final_x": "3663782.41914",
    "final_y": "526390.846462",
    "longitude": "-90.12418722940505",
    "latitude": "29.941918218136976",
    "geocoded_column": {
      "latitude": "29.941918218136976",
      "longitude": "-90.12418722940505"
    }
  },
  {
    "service_request": "2026-1298475",
    "request_type": "Street and Traffic Signs",
    "request_reason": "Additional Signage Request",
    "date_created": "2026-07-09T15:18:08.000",
    "date_modified": "2026-07-09T15:18:09.000",
    "request_status": "Pending",
    "responsible_agency": "Department of Public Works",
    "final_address": "29 Christopher Ct",
    "address_councildis": "E",
    "status": "Pending",
    "rowid": "1298475",
    "final_x": "3716375.96056",
    "final_y": "570075.287463",
    "longitude": "-89.95648301674474",
    "latitude": "30.060402650545566",
    "geocoded_column": {
      "latitude": "30.060402650545566",
      "longitude": "-89.95648301674474"
    }
  },
  {
    "service_request": "2026-1298474",
    "request_type": "Trash/Recycling",
    "request_reason": "Repair Trash Cart",
    "date_created": "2026-07-09T15:17:51.000",
    "date_modified": "2026-07-09T15:17:54.000",
    "request_status": "Pending",
    "responsible_agency": "Department of Sanitation",
    "final_address": "3460 Wall Blvd",
    "address_councildis": "C",
    "status": "Assigned to Contractor",
    "contractor": "Richards Disposal",
    "rowid": "1298474",
    "final_x": "3696916.94275",
    "final_y": "523904.63462",
    "longitude": "-90.01966511744463",
    "latitude": "29.934078979007033",
    "geocoded_column": {
      "latitude": "29.934078979007033",
      "longitude": "-90.01966511744463"
    }
  },
  {
    "service_request": "2026-1298473",
    "request_type": "Property Maintenance",
    "request_reason": "Property Maintenance",
    "date_created": "2026-07-09T15:09:32.000",
    "date_modified": "2026-07-09T15:09:34.000",
    "request_status": "Pending",
    "responsible_agency": "Department of Code Enforcement",
    "final_address": "2821 Clouet St",
    "address_councildis": "D",
    "status": "Pending",
    "rowid": "1298473",
    "final_x": "3690828.49033",
    "final_y": "542932.337741",
    "longitude": "-90.03820710460934",
    "latitude": "29.98658905073933",
    "geocoded_column": {
      "latitude": "29.98658905073933",
      "longitude": "-90.03820710460934"
    }
  },
  {
    "service_request": "2026-1298472",
    "request_type": "Trash/Recycling",
    "request_reason": "Request a Large Item Pick Up",
    "date_created": "2026-07-09T15:03:45.000",
    "date_modified": "2026-07-09T15:03:47.000",
    "request_status": "Pending",
    "responsible_agency": "Department of Sanitation",
    "final_address": "2108 DAbadie St",
    "address_councildis": "D",
    "status": "Assigned to Contractor",
    "contractor": "IV Waste",
    "rowid": "1298472",
    "final_x": "3681125.52104",
    "final_y": "539476.159754",
    "longitude": "-90.06897557865726",
    "latitude": "29.977383757672133",
    "geocoded_column": {
      "latitude": "29.977383757672133",
      "longitude": "-90.06897557865726"
    }
  },
  {
    "service_request": "2026-1298471",
    "request_type": "Mosquito, Termite & Rodent Control",
    "request_reason": "Mosquito Complaint",
    "date_created": "2026-07-09T15:03:37.000",
    "date_modified": "2026-07-09T15:03:39.000",
    "request_status": "Pending",
    "responsible_agency": "Mosquito, Termite & Rodent Control Board",
    "final_address": "3324 Octavia St",
    "address_councildis": "B",
    "status": "Pending",
    "rowid": "1298471",
    "final_x": "3668388.43604",
    "final_y": "527935.548095",
    "longitude": "-90.10959293312362",
    "latitude": "29.94603119606775",
    "geocoded_column": {
      "latitude": "29.94603119606775",
      "longitude": "-90.10959293312362"
    }
  },
  {
    "service_request": "2026-1298470",
    "request_type": "Trash/Recycling",
    "request_reason": "Repair Recycling Cart",
    "date_created": "2026-07-09T14:59:21.000",
    "date_modified": "2026-07-09T14:59:23.000",
    "request_status": "Pending",
    "responsible_agency": "Department of Sanitation",
    "final_address": "70 Grand Canyon Dr",
    "address_councildis": "C",
    "status": "Pending",
    "rowid": "1298470",
    "final_x": "3699195.58077",
    "final_y": "515879.040884",
    "longitude": "-90.01276358727179",
    "latitude": "29.911939314152832",
    "geocoded_column": {
      "latitude": "29.911939314152832",
      "longitude": "-90.01276358727179"
    }
  },
  {
    "service_request": "2026-1298469",
    "request_type": "Streetlights",
    "request_reason": "Streetlight Knocked Down/Leaning",
    "date_created": "2026-07-09T14:58:45.000",
    "date_modified": "2026-07-09T14:58:47.000",
    "request_status": "Pending",
    "responsible_agency": "Department of Public Works",
    "final_address": "7700 BLK W Cavelier Dr",
    "address_councildis": "E",
    "status": "Pending",
    "rowid": "1298469",
    "final_x": "3724528.9223",
    "final_y": "569408.74975",
    "longitude": "-89.93073797198315",
    "latitude": "30.058298062231955",
    "geocoded_column": {
      "latitude": "30.058298062231955",
      "longitude": "-89.93073797198315"
    }
  },
  {
    "service_request": "2026-1298468",
    "request_type": "Property Maintenance",
    "request_reason": "Property Maintenance",
    "date_created": "2026-07-09T14:58:37.000",
    "date_modified": "2026-07-09T14:58:38.000",
    "request_status": "Pending",
    "responsible_agency": "Department of Code Enforcement",
    "final_address": "3324 Octavia St",
    "address_councildis": "B",
    "status": "Pending",
    "rowid": "1298468",
    "final_x": "3668388.43604",
    "final_y": "527935.548095",
    "longitude": "-90.10959293312362",
    "latitude": "29.94603119606775",
    "geocoded_column": {
      "latitude": "29.94603119606775",
      "longitude": "-90.10959293312362"
    }
  },
  {
    "service_request": "2026-1298467",
    "request_type": "Trash/Recycling",
    "request_reason": "Request a Large Item Pick Up",
    "date_created": "2026-07-09T14:58:07.000",
    "date_modified": "2026-07-09T14:58:09.000",
    "request_status": "Pending",
    "responsible_agency": "Department of Sanitation",
    "final_address": "4600 Rosemont Pl",
    "address_councildis": "E",
    "status": "Assigned to Contractor",
    "contractor": "Waste Pro",
    "rowid": "1298467",
    "final_x": "3702712.61604",
    "final_y": "554094.696856",
    "longitude": "-90.00025970745185",
    "latitude": "30.016906645215958",
    "geocoded_column": {
      "latitude": "30.016906645215958",
      "longitude": "-90.00025970745185"
    }
  },
  {
    "service_request": "2026-1298466",
    "request_type": "Trash/Recycling",
    "request_reason": "Request a Large Item Pick Up",
    "date_created": "2026-07-09T14:58:06.000",
    "date_modified": "2026-07-09T14:58:08.000",
    "request_status": "Pending",
    "responsible_agency": "Department of Sanitation",
    "final_address": "5721 Durham Dr",
    "address_councildis": "C",
    "status": "Assigned to Contractor",
    "contractor": "Richards Disposal",
    "rowid": "1298466",
    "final_x": "3705153.76356",
    "final_y": "518763.960055",
    "longitude": "-89.99385170853348",
    "latitude": "29.9196816895678",
    "geocoded_column": {
      "latitude": "29.9196816895678",
      "longitude": "-89.99385170853348"
    }
  },
  {
    "service_request": "2026-1298465",
    "request_type": "Trash/Recycling",
    "request_reason": "Missed Trash Pick-Up",
    "date_created": "2026-07-09T14:57:00.000",
    "date_modified": "2026-07-09T15:33:58.000",
    "case_close_date": "2026-07-09T10:33:57.000",
    "request_status": "Closed",
    "responsible_agency": "Department of Sanitation",
    "final_address": "4532 Magazine St",
    "address_councildis": "B",
    "status": "Invalid Request",
    "contractor": "IV Waste",
    "contractor_action": "Invalid Request",
    "rowid": "1298465",
    "final_x": "3670385.57153",
    "final_y": "518674.043447",
    "longitude": "-90.1036011061994",
    "latitude": "29.920506237844997",
    "geocoded_column": {
      "latitude": "29.920506237844997",
      "longitude": "-90.1036011061994"
    }
  },
  {
    "service_request": "2026-1298464",
    "request_type": "Trash/Recycling",
    "request_reason": "Missed Trash Pick-Up",
    "date_created": "2026-07-09T14:54:18.000",
    "date_modified": "2026-07-09T15:34:25.000",
    "case_close_date": "2026-07-09T10:34:24.000",
    "request_status": "Closed",
    "responsible_agency": "Department of Sanitation",
    "final_address": "1727 Valence St",
    "address_councildis": "B",
    "status": "Invalid Request",
    "contractor": "IV Waste",
    "contractor_action": "Invalid Request",
    "rowid": "1298464",
    "final_x": "3669733.44673",
    "final_y": "521347.442809",
    "longitude": "-90.10556914539352",
    "latitude": "29.927876464521137",
    "geocoded_column": {
      "latitude": "29.927876464521137",
      "longitude": "-90.10556914539352"
    }
  },
  {
    "service_request": "2026-1298463",
    "request_type": "Trash/Recycling",
    "request_reason": "Order Recycling Cart",
    "date_created": "2026-07-09T14:52:45.000",
    "date_modified": "2026-07-09T14:52:47.000",
    "request_status": "Pending",
    "responsible_agency": "Department of Sanitation",
    "final_address": "924 Orleans Ave",
    "address_councildis": "C",
    "status": "Pending",
    "rowid": "1298463",
    "final_x": "3681907.01237",
    "final_y": "533122.993796",
    "longitude": "-90.06672917269026",
    "latitude": "29.95989100615003",
    "geocoded_column": {
      "latitude": "29.95989100615003",
      "longitude": "-90.06672917269026"
    }
  },
  {
    "service_request": "2026-1298462",
    "request_type": "Traffic Signals",
    "request_reason": "Traffic Signal Malfunctioning or Damaged",
    "date_created": "2026-07-09T14:51:26.000",
    "date_modified": "2026-07-09T14:51:28.000",
    "request_status": "Pending",
    "responsible_agency": "Department of Public Works",
    "final_address": "EARHART BLVD & S CLAIBORNE AVE",
    "address_councildis": "B",
    "status": "Pending",
    "rowid": "1298462",
    "final_x": "3675857.3",
    "final_y": "529234.48",
    "longitude": "-90.0859665173446",
    "latitude": "29.94938138407249",
    "geocoded_column": {
      "latitude": "29.94938138407249",
      "longitude": "-90.0859665173446"
    }
  },
  {
    "service_request": "2026-1298461",
    "request_type": "Trash/Recycling",
    "request_reason": "Request a Large Item Pick Up",
    "date_created": "2026-07-09T14:51:16.000",
    "date_modified": "2026-07-09T14:51:18.000",
    "request_status": "Pending",
    "responsible_agency": "Department of Sanitation",
    "final_address": "4600 Kendall Dr",
    "address_councildis": "D",
    "status": "Assigned to Contractor",
    "contractor": "IV Waste",
    "rowid": "1298461",
    "final_x": "3690678.45744",
    "final_y": "550418.432468",
    "longitude": "-90.03841377892871",
    "latitude": "30.00717775238279",
    "geocoded_column": {
      "latitude": "30.00717775238279",
      "longitude": "-90.03841377892871"
    }
  },
  {
    "service_request": "2026-1298460",
    "request_type": "Trash/Recycling",
    "request_reason": "Illegal Dumping",
    "date_created": "2026-07-09T14:45:32.000",
    "date_modified": "2026-07-09T14:45:36.000",
    "request_status": "Pending",
    "responsible_agency": "Department of Sanitation",
    "final_address": "7000 BLK Rev Taza Green Sr Ave",
    "address_councildis": "C",
    "status": "Pending",
    "rowid": "1298460",
    "final_x": "3710391.64545",
    "final_y": "519105.302128",
    "longitude": "-89.97730570817961",
    "latitude": "29.920450857662416",
    "geocoded_column": {
      "latitude": "29.920450857662416",
      "longitude": "-89.97730570817961"
    }
  },
  {
    "service_request": "2026-1298459",
    "request_type": "Roads and Streets",
    "request_reason": "Pothole",
    "date_created": "2026-07-09T14:42:03.000",
    "date_modified": "2026-07-09T14:42:05.000",
    "request_status": "Pending",
    "responsible_agency": "Department of Public Works",
    "final_address": "BROADWAY ST & HAMPSON ST",
    "address_councildis": "A",
    "status": "Pending",
    "rowid": "1298459",
    "final_x": "3663192.6",
    "final_y": "525064.48",
    "longitude": "-90.12609354151101",
    "latitude": "29.938288233511624",
    "geocoded_column": {
      "latitude": "29.938288233511624",
      "longitude": "-90.12609354151101"
    }
  },
  {
    "service_request": "2026-1298458",
    "request_type": "Streetlights",
    "request_reason": "Streetlight Outage/Malfunction",
    "date_created": "2026-07-09T14:39:31.000",
    "date_modified": "2026-07-09T14:39:33.000",
    "request_status": "Pending",
    "responsible_agency": "Department of Public Works",
    "final_address": "8728 Lincoln Beach Blvd",
    "address_councildis": "E",
    "status": "Pending",
    "rowid": "1298458",
    "final_x": "3703951.26282",
    "final_y": "563818.003105",
    "longitude": "-89.99598756860773",
    "latitude": "30.043602269161127",
    "geocoded_column": {
      "latitude": "30.043602269161127",
      "longitude": "-89.99598756860773"
    }
  },
  {
    "service_request": "2026-1298457",
    "request_type": "Abandoned Vehicles",
    "request_reason": "Abandoned/Junk Vehicles",
    "date_created": "2026-07-09T14:37:25.000",
    "date_modified": "2026-07-09T14:38:32.000",
    "request_status": "Pending",
    "responsible_agency": "Department of Public Works",
    "final_address": "ORLEANS AVE & WILSON DR",
    "address_councildis": "A",
    "status": "Inspected",
    "rowid": "1298457",
    "final_x": "3673935.8",
    "final_y": "539116.18",
    "longitude": "-90.09169546517278",
    "latitude": "29.976610117688754",
    "geocoded_column": {
      "latitude": "29.976610117688754",
      "longitude": "-90.09169546517278"
    }
  },
  {
    "service_request": "2026-1298456",
    "request_type": "Traffic Safety",
    "request_reason": "Request for Traffic Calming due to Speeding",
    "date_created": "2026-07-09T14:35:23.000",
    "date_modified": "2026-07-09T14:35:25.000",
    "request_status": "Pending",
    "responsible_agency": "Department of Public Works",
    "final_address": "3000 BLK Esplanade Ave",
    "address_councildis": "D",
    "status": "Pending",
    "rowid": "1298456",
    "final_x": "3676519.43629",
    "final_y": "540268.701731",
    "longitude": "-90.08349583519261",
    "latitude": "29.97970192277398",
    "geocoded_column": {
      "latitude": "29.97970192277398",
      "longitude": "-90.08349583519261"
    }
  },
  {
    "service_request": "2026-1298455",
    "request_type": "Trash/Recycling",
    "request_reason": "Illegal Dumping",
    "date_created": "2026-07-09T14:34:50.000",
    "date_modified": "2026-07-09T14:34:52.000",
    "request_status": "Pending",
    "responsible_agency": "Department of Sanitation",
    "final_address": "0 N Robertson St",
    "address_councildis": "C",
    "status": "Pending",
    "rowid": "1298455",
    "final_x": "3679204.64264",
    "final_y": "532940.920836",
    "longitude": "-90.07526897159998",
    "latitude": "29.95947222784385",
    "geocoded_column": {
      "latitude": "29.95947222784385",
      "longitude": "-90.07526897159998"
    }
  },
  {
    "service_request": "2026-1298454",
    "request_type": "General Services",
    "request_reason": "General Service Request",
    "date_created": "2026-07-09T14:34:30.000",
    "date_modified": "2026-07-09T14:34:31.000",
    "request_status": "Pending",
    "responsible_agency": "Orleans Parish Communication District",
    "final_address": "3141 Ponce De Leon St",
    "address_councildis": "A",
    "status": "Pending",
    "rowid": "1298454",
    "final_x": "3676280.52334",
    "final_y": "540562.560011",
    "longitude": "-90.08424030237236",
    "latitude": "29.9805170951782",
    "geocoded_column": {
      "latitude": "29.9805170951782",
      "longitude": "-90.08424030237236"
    }
  },
  {
    "service_request": "2026-1298453",
    "request_type": "General Services",
    "request_reason": "General Service Request",
    "date_created": "2026-07-09T14:32:03.000",
    "date_modified": "2026-07-09T14:32:06.000",
    "request_status": "Pending",
    "responsible_agency": "Orleans Parish Communication District",
    "final_address": "3141 Ponce De Leon St",
    "address_councildis": "A",
    "status": "Pending",
    "rowid": "1298453",
    "final_x": "3676280.52334",
    "final_y": "540562.560011",
    "longitude": "-90.08424030237236",
    "latitude": "29.9805170951782",
    "geocoded_column": {
      "latitude": "29.9805170951782",
      "longitude": "-90.08424030237236"
    }
  },
  {
    "service_request": "2026-1298452",
    "request_type": "Trash/Recycling",
    "request_reason": "Missed Trash Pick-Up",
    "date_created": "2026-07-09T14:29:07.000",
    "date_modified": "2026-07-09T15:54:36.000",
    "case_close_date": "2026-07-09T10:54:35.000",
    "request_status": "Closed",
    "responsible_agency": "Department of Sanitation",
    "final_address": "3923 Tchoupitoulas St",
    "address_councildis": "B",
    "status": "Invalid Request",
    "contractor": "IV Waste",
    "contractor_action": "Invalid Request",
    "rowid": "1298452",
    "final_x": "3673215.28942",
    "final_y": "517720.915702",
    "longitude": "-90.09470151386837",
    "latitude": "29.91780163239496",
    "geocoded_column": {
      "latitude": "29.91780163239496",
      "longitude": "-90.09470151386837"
    }
  },
  {
    "service_request": "2026-1298451",
    "request_type": "Trash/Recycling",
    "request_reason": "Request a Large Item Pick Up",
    "date_created": "2026-07-09T14:28:37.000",
    "date_modified": "2026-07-09T14:28:39.000",
    "request_status": "Pending",
    "responsible_agency": "Department of Sanitation",
    "final_address": "5013 Iberville St",
    "address_councildis": "A",
    "status": "Assigned to Contractor",
    "contractor": "IV Waste",
    "rowid": "1298451",
    "final_x": "3668407.08372",
    "final_y": "541005.083211",
    "longitude": "-90.10909317172013",
    "latitude": "29.981967535670186",
    "geocoded_column": {
      "latitude": "29.981967535670186",
      "longitude": "-90.10909317172013"
    }
  },
  {
    "service_request": "2026-1298450",
    "request_type": "Abandoned Vehicles",
    "request_reason": "Abandoned/Junk Vehicles",
    "date_created": "2026-07-09T14:21:08.000",
    "date_modified": "2026-07-09T14:22:07.000",
    "request_status": "Pending",
    "responsible_agency": "Department of Public Works",
    "final_address": "2832 Pauger St",
    "address_councildis": "D",
    "status": "Pending",
    "rowid": "1298450",
    "final_x": "3683518.93602",
    "final_y": "540181.868299",
    "longitude": "-90.06139164649072",
    "latitude": "29.97925137470511",
    "geocoded_column": {
      "latitude": "29.97925137470511",
      "longitude": "-90.06139164649072"
    }
  },
  {
    "service_request": "2026-1298449",
    "request_type": "Trash/Recycling",
    "request_reason": "Request a Large Item Pick Up",
    "date_created": "2026-07-09T14:15:15.000",
    "date_modified": "2026-07-09T14:15:17.000",
    "request_status": "Pending",
    "responsible_agency": "Department of Sanitation",
    "final_address": "1811 Robert St",
    "address_councildis": "B",
    "status": "Assigned to Contractor",
    "contractor": "IV Waste",
    "rowid": "1298449",
    "final_x": "3668802.35034",
    "final_y": "522278.14553",
    "longitude": "-90.10847700200273",
    "latitude": "29.93046300002147",
    "geocoded_column": {
      "latitude": "29.93046300002147",
      "longitude": "-90.10847700200273"
    }
  },
  {
    "service_request": "2026-1298448",
    "request_type": "Trash/Recycling",
    "request_reason": "Repair Trash Cart",
    "date_created": "2026-07-09T14:12:39.000",
    "date_modified": "2026-07-09T14:12:42.000",
    "request_status": "Pending",
    "responsible_agency": "Department of Sanitation",
    "final_address": "4628 St Anthony Ave",
    "address_councildis": "D",
    "status": "Assigned to Contractor",
    "contractor": "IV Waste",
    "rowid": "1298448",
    "final_x": "3682349.8941",
    "final_y": "549703.616916",
    "longitude": "-90.06475098667345",
    "latitude": "30.005468438057868",
    "geocoded_column": {
      "latitude": "30.005468438057868",
      "longitude": "-90.06475098667345"
    }
  },
  {
    "service_request": "2026-1298447",
    "request_type": "Trash/Recycling",
    "request_reason": "Request a Large Item Pick Up",
    "date_created": "2026-07-09T14:09:01.000",
    "date_modified": "2026-07-09T14:09:03.000",
    "request_status": "Pending",
    "responsible_agency": "Department of Sanitation",
    "final_address": "7601 Stonewood St",
    "address_councildis": "E",
    "status": "Assigned to Contractor",
    "contractor": "Waste Pro",
    "rowid": "1298447",
    "final_x": "3719621.99084",
    "final_y": "572386.265833",
    "longitude": "-89.94613413220472",
    "latitude": "30.06664922632796",
    "geocoded_column": {
      "latitude": "30.06664922632796",
      "longitude": "-89.94613413220472"
    }
  },
  {
    "service_request": "2026-1298446",
    "request_type": "Abandoned Vehicles",
    "request_reason": "Abandoned/Junk Vehicles",
    "date_created": "2026-07-09T14:08:47.000",
    "date_modified": "2026-07-09T14:08:49.000",
    "request_status": "Pending",
    "responsible_agency": "Department of Public Works",
    "final_address": "8509 S Claiborne Ave",
    "address_councildis": "A",
    "status": "Pending",
    "rowid": "1298446",
    "final_x": "3663780.29683",
    "final_y": "532647.015876",
    "longitude": "-90.1239854618413",
    "latitude": "29.9591207267592",
    "geocoded_column": {
      "latitude": "29.9591207267592",
      "longitude": "-90.1239854618413"
    }
  },
  {
    "service_request": "2026-1298445",
    "request_type": "Parks & Grass Service",
    "request_reason": "Request Grass Cutting Service (City Owned Property)",
    "date_created": "2026-07-09T14:08:33.000",
    "date_modified": "2026-07-09T14:08:34.000",
    "request_status": "Pending",
    "responsible_agency": "Department of Parks & Parkways",
    "final_address": "2000 Earhart Blvd",
    "address_councildis": "B",
    "status": "Pending",
    "rowid": "1298445",
    "final_x": "3678075.43266",
    "final_y": "527571.601215",
    "longitude": "-90.07902035474025",
    "latitude": "29.94474243946236",
    "geocoded_column": {
      "latitude": "29.94474243946236",
      "longitude": "-90.07902035474025"
    }
  },
  {
    "service_request": "2026-1298444",
    "request_type": "Trash/Recycling",
    "request_reason": "Request a Large Item Pick Up",
    "date_created": "2026-07-09T14:07:04.000",
    "date_modified": "2026-07-09T14:07:06.000",
    "request_status": "Pending",
    "responsible_agency": "Department of Sanitation",
    "final_address": "1111 Erato St",
    "address_councildis": "B",
    "status": "Assigned to Contractor",
    "contractor": "IV Waste",
    "rowid": "1298444",
    "final_x": "3680552.30274",
    "final_y": "525692.492349",
    "longitude": "-90.07126548381918",
    "latitude": "29.939500730852806",
    "geocoded_column": {
      "latitude": "29.939500730852806",
      "longitude": "-90.07126548381918"
    }
  },
  {
    "service_request": "2026-1298443",
    "request_type": "Property Maintenance",
    "request_reason": "Illegal Dumping",
    "date_created": "2026-07-09T14:05:24.000",
    "date_modified": "2026-07-09T14:05:26.000",
    "request_status": "Pending",
    "responsible_agency": "Department of Sanitation",
    "final_address": "1304 Simon Bolivar Ave",
    "address_councildis": "B",
    "status": "Pending",
    "rowid": "1298443",
    "final_x": "3677659.49109",
    "final_y": "527147.001023",
    "longitude": "-90.0803482670005",
    "latitude": "29.943587442885605",
    "geocoded_column": {
      "latitude": "29.943587442885605",
      "longitude": "-90.0803482670005"
    }
  },
  {
    "service_request": "2026-1298442",
    "request_type": "Trash/Recycling",
    "request_reason": "Request a Large Item Pick Up",
    "date_created": "2026-07-09T14:04:59.000",
    "date_modified": "2026-07-09T14:05:01.000",
    "request_status": "Pending",
    "responsible_agency": "Department of Sanitation",
    "final_address": "7711 Means Ave",
    "address_councildis": "E",
    "status": "Assigned to Contractor",
    "contractor": "Waste Pro",
    "rowid": "1298442",
    "final_x": "3708016.57483",
    "final_y": "564982.83581",
    "longitude": "-89.98309616967384",
    "latitude": "30.0466740042263",
    "geocoded_column": {
      "latitude": "30.0466740042263",
      "longitude": "-89.98309616967384"
    }
  },
  {
    "service_request": "2026-1298441",
    "request_type": "Trash/Recycling",
    "request_reason": "Return Trash Cart",
    "date_created": "2026-07-09T14:04:35.000",
    "date_modified": "2026-07-09T14:04:36.000",
    "request_status": "Pending",
    "responsible_agency": "Department of Sanitation",
    "final_address": "15 St Claude Ct",
    "address_councildis": "E",
    "status": "Assigned to Contractor",
    "contractor": "Waste Pro",
    "rowid": "1298441",
    "final_x": "3697509.32016",
    "final_y": "533639.439621",
    "longitude": "-90.01744208237321",
    "latitude": "29.960827601002112",
    "geocoded_column": {
      "latitude": "29.960827601002112",
      "longitude": "-90.01744208237321"
    }
  },
  {
    "service_request": "2026-1298440",
    "request_type": "Trash/Recycling",
    "request_reason": "Repair Recycling Cart",
    "date_created": "2026-07-09T14:04:34.000",
    "date_modified": "2026-07-09T14:04:35.000",
    "request_status": "Pending",
    "responsible_agency": "Department of Sanitation",
    "final_address": "5111 Laurel St",
    "address_councildis": "B",
    "status": "Pending",
    "rowid": "1298440",
    "final_x": "3668202.92653",
    "final_y": "517891.777462",
    "longitude": "-90.11051707151711",
    "latitude": "29.918419482007454",
    "geocoded_column": {
      "latitude": "29.918419482007454",
      "longitude": "-90.11051707151711"
    }
  },
  {
    "service_request": "2026-1298439",
    "request_type": "Trash/Recycling",
    "request_reason": "Request a Large Item Pick Up",
    "date_created": "2026-07-09T14:04:22.000",
    "date_modified": "2026-07-09T14:04:23.000",
    "request_status": "Pending",
    "responsible_agency": "Department of Sanitation",
    "final_address": "4317 N Claiborne Ave",
    "address_councildis": "D",
    "status": "Assigned to Contractor",
    "contractor": "IV Waste",
    "rowid": "1298439",
    "final_x": "3693309.21117",
    "final_y": "536953.356808",
    "longitude": "-90.0305861880584",
    "latitude": "29.97007166294854",
    "geocoded_column": {
      "latitude": "29.97007166294854",
      "longitude": "-90.0305861880584"
    }
  },
  {
    "service_request": "2026-1298438",
    "request_type": "Abandoned Vehicles",
    "request_reason": "Abandoned/Junk Vehicles",
    "date_created": "2026-07-09T14:03:16.000",
    "date_modified": "2026-07-09T14:03:18.000",
    "request_status": "Pending",
    "responsible_agency": "Department of Public Works",
    "final_address": "3101 Palmyra St",
    "address_councildis": "B",
    "status": "Pending",
    "rowid": "1298438",
    "final_x": "3673609.99752",
    "final_y": "535524.36615",
    "longitude": "-90.09284726226402",
    "latitude": "29.966743550110866",
    "geocoded_column": {
      "latitude": "29.966743550110866",
      "longitude": "-90.09284726226402"
    }
  },
  {
    "service_request": "2026-1298437",
    "request_type": "Trash/Recycling",
    "request_reason": "Request a Large Item Pick Up",
    "date_created": "2026-07-09T14:02:43.000",
    "date_modified": "2026-07-09T14:02:45.000",
    "request_status": "Pending",
    "responsible_agency": "Department of Sanitation",
    "final_address": "2763 Mendez St",
    "address_councildis": "D",
    "status": "Assigned to Contractor",
    "contractor": "IV Waste",
    "rowid": "1298437",
    "final_x": "3687830.4911",
    "final_y": "553816.086871",
    "longitude": "-90.04729079168989",
    "latitude": "30.016608243368957",
    "geocoded_column": {
      "latitude": "30.016608243368957",
      "longitude": "-90.04729079168989"
    }
  },
  {
    "service_request": "2026-1298436",
    "request_type": "Trash/Recycling",
    "request_reason": "Repair Trash Cart",
    "date_created": "2026-07-09T14:02:28.000",
    "date_modified": "2026-07-09T14:03:21.000",
    "request_status": "Pending",
    "responsible_agency": "Department of Sanitation",
    "final_address": "1625 Charlton Dr",
    "address_councildis": "D",
    "status": "Assigned to Contractor",
    "contractor": "IV Waste",
    "rowid": "1298436",
    "final_x": "3680419.4708",
    "final_y": "550883.597653",
    "longitude": "-90.07080854560083",
    "latitude": "30.008771585709134",
    "geocoded_column": {
      "latitude": "30.008771585709134",
      "longitude": "-90.07080854560083"
    }
  },
  {
    "service_request": "2026-1298435",
    "request_type": "Abandoned Vehicles",
    "request_reason": "Abandoned/Junk Vehicles",
    "date_created": "2026-07-09T14:00:32.000",
    "date_modified": "2026-07-09T14:00:35.000",
    "request_status": "Pending",
    "responsible_agency": "Department of Public Works",
    "final_address": "1440 N Galvez St",
    "address_councildis": "D",
    "status": "Pending",
    "rowid": "1298435",
    "final_x": "3680133.34645",
    "final_y": "537898.431689",
    "longitude": "-90.07216404043693",
    "latitude": "29.973075616717175",
    "geocoded_column": {
      "latitude": "29.973075616717175",
      "longitude": "-90.07216404043693"
    }
  },
  {
    "service_request": "2026-1298434",
    "request_type": "Drainage",
    "request_reason": "Catch Basin Not Draining",
    "date_created": "2026-07-09T14:00:20.000",
    "date_modified": "2026-07-09T14:00:22.000",
    "request_status": "Pending",
    "responsible_agency": "Sewerage & Water Board",
    "final_address": "1715 Lowerline St",
    "address_councildis": "A",
    "status": "Pending",
    "rowid": "1298434",
    "final_x": "3664796.88231",
    "final_y": "528359.202496",
    "longitude": "-90.12091858617546",
    "latitude": "29.94730109034079",
    "geocoded_column": {
      "latitude": "29.94730109034079",
      "longitude": "-90.12091858617546"
    }
  },
  {
    "service_request": "2026-1298433",
    "request_type": "Drainage",
    "request_reason": "Catch Basin Not Draining",
    "date_created": "2026-07-09T14:00:01.000",
    "date_modified": "2026-07-09T14:00:02.000",
    "request_status": "Pending",
    "responsible_agency": "Sewerage & Water Board",
    "final_address": "5311 Pasteur Blvd",
    "address_councildis": "D",
    "status": "Pending",
    "rowid": "1298433",
    "final_x": "3683020.14645",
    "final_y": "552333.413078",
    "longitude": "-90.06254137237023",
    "latitude": "30.012679004534426",
    "geocoded_column": {
      "latitude": "30.012679004534426",
      "longitude": "-90.06254137237023"
    }
  },
  {
    "service_request": "2026-1298432",
    "request_type": "Trash/Recycling",
    "request_reason": "Request a Large Item Pick Up",
    "date_created": "2026-07-09T13:59:28.000",
    "date_modified": "2026-07-09T13:59:30.000",
    "request_status": "Pending",
    "responsible_agency": "Department of Sanitation",
    "final_address": "1600 BLK Nashville Ave",
    "address_councildis": "A",
    "status": "Assigned to Contractor",
    "contractor": "IV Waste",
    "rowid": "1298432",
    "final_x": "3666305.43802",
    "final_y": "522395.752896",
    "longitude": "-90.11635546183375",
    "latitude": "29.930859538290722",
    "geocoded_column": {
      "latitude": "29.930859538290722",
      "longitude": "-90.11635546183375"
    }
  },
  {
    "service_request": "2026-1298431",
    "request_type": "Trash/Recycling",
    "request_reason": "Replace Recycling Cart",
    "date_created": "2026-07-09T13:59:06.000",
    "date_modified": "2026-07-09T13:59:08.000",
    "request_status": "Pending",
    "responsible_agency": "Department of Sanitation",
    "final_address": "5621 Norland Ave",
    "address_councildis": "C",
    "status": "Pending",
    "rowid": "1298431",
    "final_x": "3704396.48119",
    "final_y": "520630.492536",
    "longitude": "-89.99617330253852",
    "latitude": "29.924838327097753",
    "geocoded_column": {
      "latitude": "29.924838327097753",
      "longitude": "-89.99617330253852"
    }
  },
  {
    "service_request": "2026-1298430",
    "request_type": "Trash/Recycling",
    "request_reason": "Request a Large Item Pick Up",
    "date_created": "2026-07-09T13:58:56.000",
    "date_modified": "2026-07-09T13:58:58.000",
    "request_status": "Pending",
    "responsible_agency": "Department of Sanitation",
    "final_address": "4657 Chantilly Dr",
    "address_councildis": "E",
    "status": "Assigned to Contractor",
    "contractor": "Waste Pro",
    "rowid": "1298430",
    "final_x": "3701002.63217",
    "final_y": "553779.226711",
    "longitude": "-90.00567405799599",
    "latitude": "30.016093812742938",
    "geocoded_column": {
      "latitude": "30.016093812742938",
      "longitude": "-90.00567405799599"
    }
  },
  {
    "service_request": "2026-1298429",
    "request_type": "Streetlights",
    "request_reason": "Streetlight Outage/Malfunction",
    "date_created": "2026-07-09T13:58:00.000",
    "date_modified": "2026-07-09T13:58:02.000",
    "request_status": "Pending",
    "responsible_agency": "Department of Public Works",
    "final_address": "5618 Rosemary Pl",
    "address_councildis": "A",
    "status": "Pending",
    "rowid": "1298429",
    "final_x": "3667084.38605",
    "final_y": "544913.741647",
    "longitude": "-90.11313943270619",
    "latitude": "29.99275380967612",
    "geocoded_column": {
      "latitude": "29.99275380967612",
      "longitude": "-90.11313943270619"
    }
  },
  {
    "service_request": "2026-1298428",
    "request_type": "Drainage",
    "request_reason": "Catch Basin Not Draining",
    "date_created": "2026-07-09T13:57:57.000",
    "date_modified": "2026-07-09T13:57:58.000",
    "request_status": "Pending",
    "responsible_agency": "Sewerage & Water Board",
    "final_address": "9133 Colapissa St",
    "address_councildis": "A",
    "status": "Pending",
    "rowid": "1298428",
    "final_x": "3663795.35091",
    "final_y": "535952.162631",
    "longitude": "-90.12382775703136",
    "latitude": "29.968208360176057",
    "geocoded_column": {
      "latitude": "29.968208360176057",
      "longitude": "-90.12382775703136"
    }
  },
  {
    "service_request": "2026-1298427",
    "request_type": "Trash/Recycling",
    "request_reason": "Replace Trash Cart",
    "date_created": "2026-07-09T13:57:35.000",
    "date_modified": "2026-07-09T13:57:37.000",
    "request_status": "Pending",
    "responsible_agency": "Department of Sanitation",
    "final_address": "5111 Laurel St",
    "address_councildis": "B",
    "status": "Assigned to Contractor",
    "contractor": "IV Waste",
    "rowid": "1298427",
    "final_x": "3668202.92653",
    "final_y": "517891.777462",
    "longitude": "-90.11051707151711",
    "latitude": "29.918419482007454",
    "geocoded_column": {
      "latitude": "29.918419482007454",
      "longitude": "-90.11051707151711"
    }
  },
  {
    "service_request": "2026-1298426",
    "request_type": "Trash/Recycling",
    "request_reason": "Replace Trash Cart",
    "date_created": "2026-07-09T13:56:26.000",
    "date_modified": "2026-07-09T13:56:28.000",
    "request_status": "Pending",
    "responsible_agency": "Department of Sanitation",
    "final_address": "3541 Piedmont Dr",
    "address_councildis": "D",
    "status": "Assigned to Contractor",
    "contractor": "IV Waste",
    "rowid": "1298426",
    "final_x": "3686217.12694",
    "final_y": "545886.932368",
    "longitude": "-90.05266833112731",
    "latitude": "29.994855640858173",
    "geocoded_column": {
      "latitude": "29.994855640858173",
      "longitude": "-90.05266833112731"
    }
  },
  {
    "service_request": "2026-1298425",
    "request_type": "Streetlights",
    "request_reason": "Streetlight Outage/Malfunction",
    "date_created": "2026-07-09T13:54:13.000",
    "date_modified": "2026-07-09T13:54:15.000",
    "request_status": "Pending",
    "responsible_agency": "Department of Public Works",
    "final_address": "2300 BLK Selma St",
    "address_councildis": "D",
    "status": "Pending",
    "rowid": "1298425",
    "final_x": "3685059.29454",
    "final_y": "551446.598338",
    "longitude": "-90.05613002741227",
    "latitude": "30.010178246470897",
    "geocoded_column": {
      "latitude": "30.010178246470897",
      "longitude": "-90.05613002741227"
    }
  },