[
  {
    "service_request": "2023-977011",
    "request_type": "Taxi Issues",
    "request_reason": "Taxi Lost & Found Item",
    "date_created": "2023-02-23T01:49:40.000",
    "date_modified": "2023-02-23T01:49:40.000",
    "request_status": "Pending",
    "responsible_agency": "Ground Transportation Bureau",
    "status": "Pending",
    "rowid": "977011",
    "longitude": "0.0",
    "latitude": "0.0",
    "geocoded_column": {
      "latitude": "0.0",
      "longitude": "0.0"
    }
  },
  {
    "service_request": "2023-977010",
    "request_type": "Traffic Signals/Signs/Striping/Streetlights",
    "request_reason": "Street Light Outage/Malfunction",
    "date_created": "2023-02-22T23:48:43.000",
    "date_modified": "2023-02-22T23:48:43.000",
    "request_status": "Pending",
    "responsible_agency": "Department of Public Works",
    "final_address": "6562 Marshal Foch St",
    "address_councildis": "A",
    "status": "Assigned to Contractor",
    "contractor": "Legacy Professional Services",
    "rowid": "977010",
    "final_x": "3670090.65082",
    "final_y": "551093.637845",
    "longitude": "-90.10343362725116",
    "latitude": "30.009658005070083",
    "geocoded_column": {
      "latitude": "30.009658005070083",
      "longitude": "-90.10343362725116"
    }
  },
  {
    "service_request": "2023-977009",
    "request_type": "Trash/Recycling",
    "request_reason": "Missed Trash Pick-Up",
    "date_created": "2023-02-22T23:40:01.000",
    "date_modified": "2023-02-22T23:40:02.000",
    "request_status": "Pending",
    "responsible_agency": "Department of Sanitation",
    "final_address": "7328 Plum St",
    "address_councildis": "A",
    "status": "Assigned to Contractor",
    "contractor": "Richards Disposal",
    "rowid": "977009",
    "final_x": "3663927.37088",
    "final_y": "527035.813182",
    "longitude": "-90.12370808767713",
    "latitude": "29.94368746359225",
    "geocoded_column": {
      "latitude": "29.94368746359225",
      "longitude": "-90.12370808767713"
    }
  },
  {
    "service_request": "2023-977008",
    "request_type": "Trash/Recycling",
    "request_reason": "Missed Trash Pick-Up",
    "date_created": "2023-02-22T23:32:25.000",
    "date_modified": "2023-02-22T23:32:25.000",
    "request_status": "Pending",
    "responsible_agency": "Department of Sanitation",
    "final_address": "11308 Will Stutley Dr",
    "address_councildis": "E",
    "status": "Assigned to Contractor",
    "contractor": "Waste Pro",
    "rowid": "977008",
    "final_x": "3716958.09196",
    "final_y": "558156.190171",
    "longitude": "-89.95509611273272",
    "latitude": "30.02761074231564",
    "geocoded_column": {
      "latitude": "30.02761074231564",
      "longitude": "-89.95509611273272"
    }
  },
  {
    "service_request": "2023-977007",
    "request_type": "Trash/Recycling",
    "request_reason": "Request a Large Item Pick Up",
    "date_created": "2023-02-22T22:16:15.000",
    "date_modified": "2023-02-22T22:16:16.000",
    "request_status": "Pending",
    "responsible_agency": "Department of Sanitation",
    "final_address": "1234 Egania St",
    "address_councildis": "E",
    "status": "Assigned to Contractor",
    "contractor": "Waste Pro",
    "rowid": "977007",
    "final_x": "3696944.63178",
    "final_y": "534738.725894",
    "longitude": "-90.01918543823872",
    "latitude": "29.963868067328434",
    "geocoded_column": {
      "latitude": "29.963868067328434",
      "longitude": "-90.01918543823872"
    }
  },
  {
    "service_request": "2023-977006",
    "request_type": "Traffic Signals/Signs/Striping/Streetlights",
    "request_reason": "Traffic Signal Malfunctioning/Damaged",
    "date_created": "2023-02-22T22:10:24.000",
    "date_modified": "2023-02-22T22:10:25.000",
    "request_status": "Pending",
    "responsible_agency": "Department of Public Works",
    "final_address": "POYDRAS ST & I 10 E & S CLAIBORNE AVE",
    "address_councildis": "B",
    "status": "Pending",
    "rowid": "977006",
    "final_x": "3676836.7",
    "final_y": "530857.68",
    "longitude": "-90.0828181784778",
    "latitude": "29.953815289693384",
    "geocoded_column": {
      "latitude": "29.953815289693384",
      "longitude": "-90.0828181784778"
    }
  },
  {
    "service_request": "2023-977005",
    "request_type": "Mosquito, Termite & Rodent Control",
    "request_reason": "Rodent Complaint (Rats)",
    "date_created": "2023-02-22T22:06:08.000",
    "date_modified": "2023-02-22T22:06:08.000",
    "request_status": "Pending",
    "responsible_agency": "Mosquito, Termite & Rodent Control Board",
    "final_address": "1241 Mazant St",
    "address_councildis": "D",
    "status": "Pending",
    "rowid": "977005",
    "final_x": "3692310.7448",
    "final_y": "535904.983559",
    "longitude": "-90.0337769833759",
    "latitude": "29.967220183053904",
    "geocoded_column": {
      "latitude": "29.967220183053904",
      "longitude": "-90.0337769833759"
    }
  },
  {
    "service_request": "2023-977004",
    "request_type": "Trash/Recycling",
    "request_reason": "MIssed Recycling Pick-Up",
    "date_created": "2023-02-22T21:50:59.000",
    "date_modified": "2023-02-22T21:51:00.000",
    "request_status": "Pending",
    "responsible_agency": "Department of Sanitation",
    "final_address": "5641 Christian Ln",
    "address_councildis": "E",
    "status": "Assigned to Contractor",
    "contractor": "Waste Pro",
    "rowid": "977004",
    "final_x": "3704337.36593",
    "final_y": "557030.329946",
    "longitude": "-89.99501787967738",
    "latitude": "30.02492642951628",
    "geocoded_column": {
      "latitude": "30.02492642951628",
      "longitude": "-89.99501787967738"
    }
  },
  {
    "service_request": "2023-977003",
    "request_type": "Trash/Recycling",
    "request_reason": "Missed Trash Pick-Up",
    "date_created": "2023-02-22T21:49:50.000",
    "date_modified": "2023-02-22T21:49:51.000",
    "request_status": "Pending",
    "responsible_agency": "Department of Sanitation",
    "final_address": "1607 Pine St",
    "address_councildis": "A",
    "status": "Assigned to Contractor",
    "contractor": "Richards Disposal",
    "rowid": "977003",
    "final_x": "3664824.95968",
    "final_y": "527862.477375",
    "longitude": "-90.12084653058926",
    "latitude": "29.945934439308413",
    "geocoded_column": {
      "latitude": "29.945934439308413",
      "longitude": "-90.12084653058926"
    }
  },
  {
    "service_request": "2023-977002",
    "request_type": "Trash/Recycling",
    "request_reason": "Missed Trash Pick-Up",
    "date_created": "2023-02-22T21:39:00.000",
    "date_modified": "2023-02-22T21:39:00.000",
    "request_status": "Pending",
    "responsible_agency": "Department of Sanitation",
    "final_address": "7523 Zimple St",
    "address_councildis": "A",
    "status": "Assigned to Contractor",
    "contractor": "Richards Disposal",
    "rowid": "977002",
    "final_x": "3663182.41831",
    "final_y": "526841.03091",
    "longitude": "-90.12606659199297",
    "latitude": "29.94317347756813",
    "geocoded_column": {
      "latitude": "29.94317347756813",
      "longitude": "-90.12606659199297"
    }
  },
  {
    "service_request": "2023-977001",
    "request_type": "Trash/Recycling",
    "request_reason": "Missed Trash Pick-Up",
    "date_created": "2023-02-22T21:28:45.000",
    "date_modified": "2023-02-22T21:28:46.000",
    "request_status": "Pending",
    "responsible_agency": "Department of Sanitation",
    "final_address": "4956 Venus St",
    "address_councildis": "D",
    "status": "Assigned to Contractor",
    "contractor": "IV Waste",
    "rowid": "977001",
    "final_x": "3686336.67478",
    "final_y": "551460.660949",
    "longitude": "-90.05209382123702",
    "latitude": "30.010177701662567",
    "geocoded_column": {
      "latitude": "30.010177701662567",
      "longitude": "-90.05209382123702"
    }
  },
  {
    "service_request": "2023-977000",
    "request_type": "Trash/Recycling",
    "request_reason": "Missed Trash Pick-Up",
    "date_created": "2023-02-22T21:20:05.000",
    "date_modified": "2023-02-22T21:20:06.000",
    "request_status": "Pending",
    "responsible_agency": "Department of Sanitation",
    "final_address": "4674 Venus St",
    "address_councildis": "D",
    "status": "Assigned to Contractor",
    "contractor": "IV Waste",
    "rowid": "977000",
    "final_x": "3686442.36399",
    "final_y": "550219.611924",
    "longitude": "-90.0518037629815",
    "latitude": "30.006762019598067",
    "geocoded_column": {
      "latitude": "30.006762019598067",
      "longitude": "-90.0518037629815"
    }
  },
  {
    "service_request": "2023-976999",
    "request_type": "Trash/Recycling",
    "request_reason": "Request a Large Item Pick Up",
    "date_created": "2023-02-22T21:03:35.000",
    "date_modified": "2023-02-22T21:03:36.000",
    "request_status": "Pending",
    "responsible_agency": "Department of Sanitation",
    "final_address": "6125 N Robertson St",
    "address_councildis": "E",
    "status": "Assigned to Contractor",
    "contractor": "Waste Pro",
    "rowid": "976999",
    "final_x": "3700248.56298",
    "final_y": "534677.337542",
    "longitude": "-90.0087542470864",
    "latitude": "29.963594667008035",
    "geocoded_column": {
      "latitude": "29.963594667008035",
      "longitude": "-90.0087542470864"
    }
  },
  {
    "service_request": "2023-976998",
    "request_type": "Trash/Recycling",
    "request_reason": "Missed Trash Pick-Up",
    "date_created": "2023-02-22T20:59:23.000",
    "date_modified": "2023-02-22T20:59:24.000",
    "request_status": "Pending",
    "responsible_agency": "Department of Sanitation",
    "final_address": "4737 Bright Dr",
    "address_councildis": "E",
    "status": "Assigned to Contractor",
    "contractor": "Waste Pro",
    "rowid": "976998",
    "final_x": "3715897.24428",
    "final_y": "556961.224922",
    "longitude": "-89.9584935773793",
    "latitude": "30.024360106471935",
    "geocoded_column": {
      "latitude": "30.024360106471935",
      "longitude": "-89.9584935773793"
    }
  },
  {
    "service_request": "2023-976997",
    "request_type": "Trash/Recycling",
    "request_reason": "Missed Trash Pick-Up",
    "date_created": "2023-02-22T20:58:27.000",
    "date_modified": "2023-02-22T20:58:27.000",
    "request_status": "Pending",
    "responsible_agency": "Department of Sanitation",
    "final_address": "4121 State Street Dr, New Orleans, Louisiana, 70125",
    "address_councildis": "B",
    "status": "Assigned to Contractor",
    "contractor": "Richards Disposal",
    "rowid": "976997",
    "final_x": "3668399.7225",
    "final_y": "530720.818498",
    "longitude": "-90.1094633686689",
    "latitude": "29.9536894498014",
    "geocoded_column": {
      "latitude": "29.9536894498014",
      "longitude": "-90.1094633686689"
    }
  },
  {
    "service_request": "2023-976996",
    "request_type": "Abandoned Vehicles",
    "request_reason": "Abandoned/Junk Vehicles",
    "date_created": "2023-02-22T20:51:54.000",
    "date_modified": "2023-02-22T20:51:54.000",
    "request_status": "Pending",
    "responsible_agency": "Department of Public Works",
    "final_address": "1519 S Robertson St",
    "address_councildis": "B",
    "status": "Pending",
    "rowid": "976996",
    "final_x": "3676002.54037",
    "final_y": "527302.060927",
    "longitude": "-90.08557437040608",
    "latitude": "29.94406352333117",
    "geocoded_column": {
      "latitude": "29.94406352333117",
      "longitude": "-90.08557437040608"
    }
  },
  {
    "service_request": "2023-976995",
    "request_type": "Trash/Recycling",
    "request_reason": "MIssed Recycling Pick-Up",
    "date_created": "2023-02-22T20:46:44.000",
    "date_modified": "2023-02-22T20:46:45.000",
    "request_status": "Pending",
    "responsible_agency": "Department of Sanitation",
    "final_address": "3026 Baudin St",
    "address_councildis": "B",
    "status": "Assigned to Contractor",
    "contractor": "Richards Disposal",
    "rowid": "976995",
    "final_x": "3673179.7524",
    "final_y": "534691.69031",
    "longitude": "-90.09423441309634",
    "latitude": "29.964466771858454",
    "geocoded_column": {
      "latitude": "29.964466771858454",
      "longitude": "-90.09423441309634"
    }
  },
  {
    "service_request": "2023-976994",
    "request_type": "Traffic Signals/Signs/Striping/Streetlights",
    "request_reason": "Street Light Outage/Malfunction",
    "date_created": "2023-02-22T20:43:10.000",
    "date_modified": "2023-02-22T20:43:11.000",
    "request_status": "Pending",
    "responsible_agency": "Department of Public Works",
    "final_address": "1700 BLK Poydras St",
    "address_councildis": "B",
    "status": "Assigned to Contractor",
    "contractor": "Legacy Professional Services",
    "rowid": "976994",
    "final_x": "3676998.78737",
    "final_y": "530699.94823",
    "longitude": "-90.082311810907",
    "latitude": "29.953376715108305",
    "geocoded_column": {
      "latitude": "29.953376715108305",
      "longitude": "-90.082311810907"
    }
  },
  {
    "service_request": "2023-976992",
    "request_type": "Trash/Recycling",
    "request_reason": "Missed Trash Pick-Up",
    "date_created": "2023-02-22T20:31:29.000",
    "date_modified": "2023-02-22T20:31:29.000",
    "request_status": "Pending",
    "responsible_agency": "Department of Sanitation",
    "final_address": "37 Fontainebleau Dr",
    "address_councildis": "A",
    "status": "Assigned to Contractor",
    "contractor": "Richards Disposal",
    "rowid": "976992",
    "final_x": "3666173.46381",
    "final_y": "531495.029571",
    "longitude": "-90.11646703024334",
    "latitude": "29.955883473194273",
    "geocoded_column": {
      "latitude": "29.955883473194273",
      "longitude": "-90.11646703024334"
    }
  },
  {
    "service_request": "2023-976991",
    "request_type": "Trash/Recycling",
    "request_reason": "Missed Trash Pick-Up",
    "date_created": "2023-02-22T20:25:35.000",
    "date_modified": "2023-02-22T20:25:35.000",
    "request_status": "Pending",
    "responsible_agency": "Department of Sanitation",
    "final_address": "925 Cherokee St",
    "address_councildis": "A",
    "status": "Assigned to Contractor",
    "contractor": "Richards Disposal",
    "rowid": "976991",
    "final_x": "3663027.84179",
    "final_y": "526328.298622",
    "longitude": "-90.12657168001252",
    "latitude": "29.941768104665808",
    "geocoded_column": {
      "latitude": "29.941768104665808",
      "longitude": "-90.12657168001252"
    }
  },
  {
    "service_request": "2023-976989",
    "request_type": "Traffic Signals/Signs/Striping/Streetlights",
    "request_reason": "Street Light Outage/Malfunction",
    "date_created": "2023-02-22T20:18:56.000",
    "date_modified": "2023-02-22T20:18:57.000",
    "request_status": "Pending",
    "responsible_agency": "Department of Public Works",
    "final_address": "DESAIX BLVD & YUPON ST",
    "address_councildis": "D",
    "status": "Assigned to Contractor",
    "contractor": "Legacy Professional Services",
    "rowid": "976989",
    "final_x": "3675702.8",
    "final_y": "543710.08",
    "longitude": "-90.08595678254473",
    "latitude": "29.989188990665088",
    "geocoded_column": {
      "latitude": "29.989188990665088",
      "longitude": "-90.08595678254473"
    }
  },
  {
    "service_request": "2023-976988",
    "request_type": "Trash/Recycling",
    "request_reason": "MIssed Recycling Pick-Up",
    "date_created": "2023-02-22T20:18:43.000",
    "date_modified": "2023-02-22T20:18:43.000",
    "request_status": "Pending",
    "responsible_agency": "Department of Sanitation",
    "final_address": "4743 Charlmark Dr",
    "address_councildis": "E",
    "status": "Assigned to Contractor",
    "contractor": "Waste Pro",
    "rowid": "976988",
    "final_x": "3711512.81662",
    "final_y": "556041.107417",
    "longitude": "-89.97238197222306",
    "latitude": "30.021974064808084",
    "geocoded_column": {
      "latitude": "30.021974064808084",
      "longitude": "-89.97238197222306"
    }
  },
  {
    "service_request": "2023-976987",
    "request_type": "Trash/Recycling",
    "request_reason": "Missed Trash Pick-Up",
    "date_created": "2023-02-22T20:16:55.000",
    "date_modified": "2023-02-22T20:16:56.000",
    "request_status": "Pending",
    "responsible_agency": "Department of Sanitation",
    "final_address": "4743 Charlmark Dr",
    "address_councildis": "E",
    "status": "Assigned to Contractor",
    "contractor": "Waste Pro",
    "rowid": "976987",
    "final_x": "3711512.81662",
    "final_y": "556041.107417",
    "longitude": "-89.97238197222306",
    "latitude": "30.021974064808084",
    "geocoded_column": {
      "latitude": "30.021974064808084",
      "longitude": "-89.97238197222306"
    }
  },
  {
    "service_request": "2023-976986",
    "request_type": "Trash/Recycling",
    "request_reason": "Missed Trash Pick-Up",
    "date_created": "2023-02-22T20:15:08.000",
    "date_modified": "2023-02-22T20:15:09.000",
    "request_status": "Pending",
    "responsible_agency": "Department of Sanitation",
    "final_address": "4707 Lafaye St",
    "address_councildis": "D",
    "status": "Assigned to Contractor",
    "contractor": "IV Waste",
    "rowid": "976986",
    "final_x": "3687494.84738",
    "final_y": "550443.952852",
    "longitude": "-90.04847075230369",
    "latitude": "30.007346466786785",
    "geocoded_column": {
      "latitude": "30.007346466786785",
      "longitude": "-90.04847075230369"
    }
  },
  {
    "service_request": "2023-976985",
    "request_type": "Trash/Recycling",
    "request_reason": "Request a Large Item Pick Up",
    "date_created": "2023-02-22T20:07:51.000",
    "date_modified": "2023-02-22T20:07:51.000",
    "request_status": "Pending",
    "responsible_agency": "Department of Sanitation",
    "final_address": "8803 Olive St",
    "address_councildis": "A",
    "status": "Assigned to Contractor",
    "contractor": "Richards Disposal",
    "rowid": "976985",
    "final_x": "3665401.99636",
    "final_y": "535901.590663",
    "longitude": "-90.11875557496711",
    "latitude": "29.9680225742866",
    "geocoded_column": {
      "latitude": "29.9680225742866",
      "longitude": "-90.11875557496711"
    }
  },
  {
    "service_request": "2023-976984",
    "request_type": "Traffic Signals/Signs/Striping/Streetlights",
    "request_reason": "Street Light Outage/Malfunction",
    "date_created": "2023-02-22T20:01:15.000",
    "date_modified": "2023-02-22T20:01:15.000",
    "request_status": "Pending",
    "responsible_agency": "Department of Public Works",
    "final_address": "8701 Hammond St",
    "address_councildis": "E",
    "status": "Assigned to Contractor",
    "contractor": "Legacy Professional Services",
    "rowid": "976984",
    "final_x": "3707470.39441",
    "final_y": "555984.314969",
    "longitude": "-89.98515699276201",
    "latitude": "30.02194930637277",
    "geocoded_column": {
      "latitude": "30.02194930637277",
      "longitude": "-89.98515699276201"
    }
  },
  {
    "service_request": "2023-976983",
    "request_type": "Trash/Recycling",
    "request_reason": "Missed Trash Pick-Up",
    "date_created": "2023-02-22T19:58:26.000",
    "date_modified": "2023-02-22T19:58:27.000",
    "request_status": "Pending",
    "responsible_agency": "Department of Sanitation",
    "final_address": "11437 Melvin Pl",
    "address_councildis": "E",
    "status": "Assigned to Contractor",
    "contractor": "Waste Pro",
    "rowid": "976983",
    "final_x": "3718149.04965",
    "final_y": "561831.998495",
    "longitude": "-89.95119271866753",
    "latitude": "30.037678290627007",
    "geocoded_column": {
      "latitude": "30.037678290627007",
      "longitude": "-89.95119271866753"
    }
  },
  {
    "service_request": "2023-976982",
    "request_type": "Safety & Permits",
    "request_reason": "Safety & Permits Request (Cyber Incident Back Up)",
    "date_created": "2023-02-22T19:51:49.000",
    "date_modified": "2023-02-22T19:51:49.000",
    "request_status": "Pending",
    "responsible_agency": "Safety and Permits",
    "final_address": "1441 Piety St",
    "address_councildis": "C",
    "status": "Pending",
    "rowid": "976982",
    "final_x": "3690226.36348",
    "final_y": "537232.187656",
    "longitude": "-90.04031216319885",
    "latitude": "29.970934364779723",
    "geocoded_column": {
      "latitude": "29.970934364779723",
      "longitude": "-90.04031216319885"
    }
  },
  {
    "service_request": "2023-976981",
    "request_type": "Trash/Recycling",
    "request_reason": "Repair Recycling Cart",
    "date_created": "2023-02-22T19:46:19.000",
    "date_modified": "2023-02-22T19:46:19.000",
    "request_status": "Pending",
    "responsible_agency": "Department of Sanitation",
    "final_address": "3310 Desaix Blvd",
    "address_councildis": "A",
    "status": "Pending",
    "rowid": "976981",
    "final_x": "3677473.98376",
    "final_y": "543494.953038",
    "longitude": "-90.08036956071709",
    "latitude": "29.98854433077897",
    "geocoded_column": {
      "latitude": "29.98854433077897",
      "longitude": "-90.08036956071709"
    }
  },
  {
    "service_request": "2023-976980",
    "request_type": "Abandoned Vehicles",
    "request_reason": "Abandoned/Junk Vehicles",
    "date_created": "2023-02-22T19:40:09.000",
    "date_modified": "2023-02-22T19:40:09.000",
    "request_status": "Pending",
    "responsible_agency": "Department of Public Works",
    "final_address": "610 Lesseps St",
    "address_councildis": "C",
    "status": "Pending",
    "rowid": "976980",
    "final_x": "3692235.28093",
    "final_y": "533395.593732",
    "longitude": "-90.03410515319229",
    "latitude": "29.960322595944188",
    "geocoded_column": {
      "latitude": "29.960322595944188",
      "longitude": "-90.03410515319229"
    }
  },
  {
    "service_request": "2023-976979",
    "request_type": "Trash/Recycling",
    "request_reason": "Missed Trash Pick-Up",
    "date_created": "2023-02-22T19:37:23.000",
    "date_modified": "2023-02-22T19:37:24.000",
    "request_status": "Pending",
    "responsible_agency": "Department of Sanitation",
    "final_address": "2831 Audubon St",
    "address_councildis": "B",
    "status": "Assigned to Contractor",
    "contractor": "Richards Disposal",
    "rowid": "976979",
    "final_x": "3667694.17434",
    "final_y": "531295.870018",
    "longitude": "-90.11167184375363",
    "latitude": "29.955291355719048",
    "geocoded_column": {
      "latitude": "29.955291355719048",
      "longitude": "-90.11167184375363"
    }
  },
  {
    "service_request": "2023-976978",
    "request_type": "Trash/Recycling",
    "request_reason": "Missed Trash Pick-Up",
    "date_created": "2023-02-22T19:35:36.000",
    "date_modified": "2023-02-22T19:35:37.000",
    "request_status": "Pending",
    "responsible_agency": "Department of Sanitation",
    "final_address": "7224 Walmsley Ave",
    "address_councildis": "B",
    "status": "Assigned to Contractor",
    "contractor": "Richards Disposal",
    "rowid": "976978",
    "final_x": "3667133.42746",
    "final_y": "531347.688962",
    "longitude": "-90.11344074122005",
    "latitude": "29.955450267875644",
    "geocoded_column": {
      "latitude": "29.955450267875644",
      "longitude": "-90.11344074122005"
    }
  },
  {
    "service_request": "2023-976977",
    "request_type": "Trash/Recycling",
    "request_reason": "Missed Trash Pick-Up",
    "date_created": "2023-02-22T19:35:30.000",
    "date_modified": "2023-02-22T19:35:30.000",
    "request_status": "Pending",
    "responsible_agency": "Department of Sanitation",
    "final_address": "7224 Walmsley Ave",
    "address_councildis": "B",
    "status": "Assigned to Contractor",
    "contractor": "Richards Disposal",
    "rowid": "976977",
    "final_x": "3667133.42746",
    "final_y": "531347.688962",
    "longitude": "-90.11344074122005",
    "latitude": "29.955450267875644",
    "geocoded_column": {
      "latitude": "29.955450267875644",
      "longitude": "-90.11344074122005"
    }
  },
  {
    "service_request": "2023-976976",
    "request_type": "Property Maintenance",
    "request_reason": "Property Maintenance",
    "date_created": "2023-02-22T19:34:57.000",
    "date_modified": "2023-02-22T19:37:09.000",
    "request_status": "Pending",
    "responsible_agency": "Department of Code Enforcement",
    "final_address": "7310 Hansbrough Ave",
    "address_councildis": "E",
    "status": "Pending",
    "rowid": "976976",
    "final_x": "3708157.13304",
    "final_y": "563460.108704",
    "longitude": "-89.98270866275847",
    "latitude": "30.042482558271484",
    "geocoded_column": {
      "latitude": "30.042482558271484",
      "longitude": "-89.98270866275847"
    }
  },
  {
    "service_request": "2023-976975",
    "request_type": "Trash/Recycling",
    "request_reason": "MIssed Recycling Pick-Up",
    "date_created": "2023-02-22T19:34:44.000",
    "date_modified": "2023-02-22T19:34:44.000",
    "request_status": "Pending",
    "responsible_agency": "Department of Sanitation",
    "final_address": "225 Walnut St",
    "address_councildis": "A",
    "status": "Assigned to Contractor",
    "contractor": "Richards Disposal",
    "rowid": "976975",
    "final_x": "3661395.55418",
    "final_y": "521207.350969",
    "longitude": "-90.13189469890942",
    "latitude": "29.927734279295464",
    "geocoded_column": {
      "latitude": "29.927734279295464",
      "longitude": "-90.13189469890942"
    }
  },
  {
    "service_request": "2023-976974",
    "request_type": "Trash/Recycling",
    "request_reason": "Missed Trash Pick-Up",
    "date_created": "2023-02-22T19:32:24.000",
    "date_modified": "2023-02-22T19:32:24.000",
    "request_status": "Pending",
    "responsible_agency": "Department of Sanitation",
    "final_address": "225 Walnut St",
    "address_councildis": "A",
    "status": "Assigned to Contractor",
    "contractor": "Richards Disposal",
    "rowid": "976974",
    "final_x": "3661395.55418",
    "final_y": "521207.350969",
    "longitude": "-90.13189469890942",
    "latitude": "29.927734279295464",
    "geocoded_column": {
      "latitude": "29.927734279295464",
      "longitude": "-90.13189469890942"
    }
  },
  {
    "service_request": "2023-976973",
    "request_type": "Trash/Recycling",
    "request_reason": "Missed Trash Pick-Up",
    "date_created": "2023-02-22T19:31:55.000",
    "date_modified": "2023-02-22T19:31:56.000",
    "request_status": "Pending",
    "responsible_agency": "Department of Sanitation",
    "final_address": "2237 Audubon Street",
    "address_councildis": "A",
    "status": "Assigned to Contractor",
    "contractor": "Richards Disposal",
    "rowid": "976973",
    "final_x": "3666600.19975",
    "final_y": "529519.826945",
    "longitude": "-90.11518584741388",
    "latitude": "29.950439841751784",
    "geocoded_column": {
      "latitude": "29.950439841751784",
      "longitude": "-90.11518584741388"
    }
  },
  {
    "service_request": "2023-976972",
    "request_type": "Abandoned Vehicles",
    "request_reason": "Abandoned/Junk Vehicles",
    "date_created": "2023-02-22T19:30:21.000",
    "date_modified": "2023-02-22T19:30:21.000",
    "request_status": "Pending",
    "responsible_agency": "Department of Public Works",
    "final_address": "14508 Beekman Rd",
    "address_councildis": "E",
    "status": "Pending",
    "rowid": "976972",
    "final_x": "3720816.43686",
    "final_y": "572785.344489",
    "longitude": "-89.942343031808",
    "latitude": "30.06770670977812",
    "geocoded_column": {
      "latitude": "30.06770670977812",
      "longitude": "-89.942343031808"
    }
  },
  {
    "service_request": "2023-976971",
    "request_type": "Roads/Drainage",
    "request_reason": "Man hole cover issue",
    "date_created": "2023-02-22T19:24:36.000",
    "date_modified": "2023-02-22T19:24:37.000",
    "request_status": "Pending",
    "responsible_agency": "Department of Public Works",
    "final_address": "N DORGENOIS ST & ST ANN ST",
    "address_councildis": "D",
    "status": "Pending",
    "rowid": "976971",
    "final_x": "3677367.2",
    "final_y": "536882.08",
    "longitude": "-90.08093516204895",
    "latitude": "29.970364422109665",
    "geocoded_column": {
      "latitude": "29.970364422109665",
      "longitude": "-90.08093516204895"
    }
  },
  {
    "service_request": "2023-976970",
    "request_type": "Trash/Recycling",
    "request_reason": "Order Trash Cart",
    "date_created": "2023-02-22T19:12:57.000",
    "date_modified": "2023-02-22T19:12:57.000",
    "request_status": "Pending",
    "responsible_agency": "Department of Sanitation",
    "final_address": "3917 Cadillac St",
    "address_councildis": "D",
    "status": "Assigned to Contractor",
    "contractor": "IV Waste",
    "rowid": "976970",
    "final_x": "3677000.34952",
    "final_y": "546548.135121",
    "longitude": "-90.08176028400288",
    "latitude": "29.996953744595448",
    "geocoded_column": {
      "latitude": "29.996953744595448",
      "longitude": "-90.08176028400288"
    }
  },
  {
    "service_request": "2023-976969",
    "request_type": "Traffic Signals/Signs/Striping/Streetlights",
    "request_reason": "Street Light Outage/Malfunction",
    "date_created": "2023-02-22T19:10:39.000",
    "date_modified": "2023-02-22T19:10:39.000",
    "request_status": "Pending",
    "responsible_agency": "Department of Public Works",
    "final_address": "3717 Gentilly Blvd",
    "address_councildis": "D",
    "status": "Assigned to Contractor",
    "contractor": "Legacy Professional Services",
    "rowid": "976969",
    "final_x": "3687102.84822",
    "final_y": "548973.525587",
    "longitude": "-90.04976122380779",
    "latitude": "30.00331540745377",
    "geocoded_column": {
      "latitude": "30.00331540745377",
      "longitude": "-90.04976122380779"
    }
  },
  {
    "service_request": "2023-976968",
    "request_type": "Traffic Signals/Signs/Striping/Streetlights",
    "request_reason": "Street Light Outage/Malfunction",
    "date_created": "2023-02-22T19:08:33.000",
    "date_modified": "2023-02-22T19:08:34.000",
    "request_status": "Pending",
    "responsible_agency": "Department of Public Works",
    "final_address": "1432 Chartres St",
    "address_councildis": "C",
    "status": "Assigned to Contractor",
    "contractor": "Legacy Professional Services",
    "rowid": "976968",
    "final_x": "3684565.83516",
    "final_y": "534395.091845",
    "longitude": "-90.0582885121374",
    "latitude": "29.96330775661264",
    "geocoded_column": {
      "latitude": "29.96330775661264",
      "longitude": "-90.0582885121374"
    }
  },
  {
    "service_request": "2023-976967",
    "request_type": "Trash/Recycling",
    "request_reason": "Order Recycling Cart",
    "date_created": "2023-02-22T19:06:22.000",
    "date_modified": "2023-02-22T19:06:22.000",
    "request_status": "Pending",
    "responsible_agency": "Department of Sanitation",
    "final_address": "2955 Seine St",
    "address_councildis": "C",
    "status": "Pending",
    "rowid": "976967",
    "final_x": "3694291.12451",
    "final_y": "520479.946168",
    "longitude": "-90.0280778460513",
    "latitude": "29.92474476620032",
    "geocoded_column": {
      "latitude": "29.92474476620032",
      "longitude": "-90.0280778460513"
    }
  },
  {
    "service_request": "2023-976966",
    "request_type": "Abandoned Vehicles",
    "request_reason": "Abandoned/Junk Vehicles",
    "date_created": "2023-02-22T19:05:37.000",
    "date_modified": "2023-02-22T19:05:37.000",
    "request_status": "Pending",
    "responsible_agency": "Department of Public Works",
    "final_address": "14642 Beekman Rd",
    "address_councildis": "E",
    "status": "Pending",
    "rowid": "976966",
    "final_x": "3721311.31641",
    "final_y": "573368.960362",
    "longitude": "-89.94075622052408",
    "latitude": "30.069294878929615",
    "geocoded_column": {
      "latitude": "30.069294878929615",
      "longitude": "-89.94075622052408"
    }
  },
  {
    "service_request": "2023-976965",
    "request_type": "Trash/Recycling",
    "request_reason": "Missed Trash Pick-Up",
    "date_created": "2023-02-22T19:01:32.000",
    "date_modified": "2023-02-22T19:01:32.000",
    "request_status": "Pending",
    "responsible_agency": "Department of Sanitation",
    "final_address": "7409 Spruce St",
    "address_councildis": "A",
    "status": "Assigned to Contractor",
    "contractor": "Richards Disposal",
    "rowid": "976965",
    "final_x": "3665199.88064",
    "final_y": "529277.096833",
    "longitude": "-90.1196154634946",
    "latitude": "29.94981327211562",
    "geocoded_column": {
      "latitude": "29.94981327211562",
      "longitude": "-90.1196154634946"
    }
  },
  {
    "service_request": "2023-976964",
    "request_type": "Trash/Recycling",
    "request_reason": "MIssed Recycling Pick-Up",
    "date_created": "2023-02-22T18:51:55.000",
    "date_modified": "2023-02-22T18:51:56.000",
    "request_status": "Pending",
    "responsible_agency": "Department of Sanitation",
    "final_address": "811 Peniston St",
    "address_councildis": "B",
    "status": "Assigned to Contractor",
    "contractor": "Richards Disposal",
    "rowid": "976964",
    "final_x": "3673492.33819",
    "final_y": "518808.867639",
    "longitude": "-90.09378987351101",
    "latitude": "29.92078491525923",
    "geocoded_column": {
      "latitude": "29.92078491525923",
      "longitude": "-90.09378987351101"
    }
  },
  {
    "service_request": "2023-976963",
    "request_type": "Traffic Signals/Signs/Striping/Streetlights",
    "request_reason": "Traffic Signal Malfunctioning/Damaged",
    "date_created": "2023-02-22T18:33:41.000",
    "date_modified": "2023-02-22T18:33:42.000",
    "request_status": "Pending",
    "responsible_agency": "Department of Public Works",
    "final_address": "POYDRAS ST & S CLAIBORNE AV OVERPASS",
    "address_councildis": "B",
    "status": "Pending",
    "rowid": "976963",
    "final_x": "3676840.0",
    "final_y": "530788.08",
    "longitude": "-90.08281015689269",
    "latitude": "29.95362381394783",
    "geocoded_column": {
      "latitude": "29.95362381394783",
      "longitude": "-90.08281015689269"
    }
  },
  {
    "service_request": "2023-976962",
    "request_type": "Traffic Signals/Signs/Striping/Streetlights",
    "request_reason": "Street Light Outage/Malfunction",
    "date_created": "2023-02-22T18:26:24.000",
    "date_modified": "2023-02-22T18:26:24.000",
    "request_status": "Pending",
    "responsible_agency": "Department of Public Works",
    "final_address": "1307 Touro St",
    "address_councildis": "C",
    "status": "Assigned to Contractor",
    "contractor": "Legacy Professional Services",
    "rowid": "976962",
    "final_x": "3684192.64655",
    "final_y": "537058.502024",
    "longitude": "-90.05937348612117",
    "latitude": "29.970642626799812",
    "geocoded_column": {
      "latitude": "29.970642626799812",
      "longitude": "-90.05937348612117"
    }
  },
  {
    "service_request": "2023-976961",
    "request_type": "Trash/Recycling",
    "request_reason": "Order Recycling Cart",
    "date_created": "2023-02-22T18:23:42.000",
    "date_modified": "2023-02-22T18:23:42.000",
    "request_status": "Pending",
    "responsible_agency": "Department of Sanitation",
    "final_address": "7206 Chatelain Dr",
    "address_councildis": "E",
    "status": "Pending",
    "rowid": "976961",
    "final_x": "3715389.26021",
    "final_y": "566831.651364",
    "longitude": "-89.95972481452728",
    "latitude": "30.0515165490428",
    "geocoded_column": {
      "latitude": "30.0515165490428",
      "longitude": "-89.95972481452728"
    }
  },
  {
    "service_request": "2023-976960",
    "request_type": "Trash/Recycling",
    "request_reason": "Illegal Dumping",
    "date_created": "2023-02-22T18:23:14.000",
    "date_modified": "2023-02-22T18:23:14.000",
    "request_status": "Pending",
    "responsible_agency": "Department of Sanitation",
    "final_address": "3017 Toledano St",
    "address_councildis": "B",
    "status": "Pending",
    "rowid": "976960",
    "final_x": "3672513.95227",
    "final_y": "526960.45779",
    "longitude": "-90.09660047666142",
    "latitude": "29.94322822219608",
    "geocoded_column": {
      "latitude": "29.94322822219608",
      "longitude": "-90.09660047666142"
    }
  },
  {
    "service_request": "2023-976959",
    "request_type": "Trash/Recycling",
    "request_reason": "Order Recycling Cart",
    "date_created": "2023-02-22T18:09:42.000",
    "date_modified": "2023-02-22T18:09:42.000",
    "request_status": "Pending",
    "responsible_agency": "Department of Sanitation",
    "final_address": "2124 Seventh St",
    "address_councildis": "B",
    "status": "Pending",
    "rowid": "976959",
    "final_x": "3674107.4235",
    "final_y": "523751.260987",
    "longitude": "-90.09167927391977",
    "latitude": "29.934356592358267",
    "geocoded_column": {
      "latitude": "29.934356592358267",
      "longitude": "-90.09167927391977"
    }
  },
  {
    "service_request": "2023-976958",
    "request_type": "Trash/Recycling",
    "request_reason": "Illegal Dumping",
    "date_created": "2023-02-22T18:08:10.000",
    "date_modified": "2023-02-22T18:08:10.000",
    "request_status": "Pending",
    "responsible_agency": "Department of Sanitation",
    "final_address": "2128 Toledano St",
    "address_councildis": "B",
    "status": "Pending",
    "rowid": "976958",
    "final_x": "3673709.4994",
    "final_y": "523561.582075",
    "longitude": "-90.09294199314",
    "latitude": "29.933846887457005",
    "geocoded_column": {
      "latitude": "29.933846887457005",
      "longitude": "-90.09294199314"
    }
  },
  {
    "service_request": "2023-976957",
    "request_type": "Property Maintenance",
    "request_reason": "Property Maintenance",
    "date_created": "2023-02-22T18:05:58.000",
    "date_modified": "2023-02-22T18:05:58.000",
    "request_status": "Pending",
    "responsible_agency": "Department of Code Enforcement",
    "final_address": "965 Navarre St",
    "address_councildis": "A",
    "status": "Pending",
    "rowid": "976957",
    "final_x": "3670335.99034",
    "final_y": "543731.92763",
    "longitude": "-90.10290826236762",
    "latitude": "29.98940861754111",
    "geocoded_column": {
      "latitude": "29.98940861754111",
      "longitude": "-90.10290826236762"
    }
  },
  {
    "service_request": "2023-976956",
    "request_type": "Traffic Signals/Signs/Striping/Streetlights",
    "request_reason": "Street Light Outage/Malfunction",
    "date_created": "2023-02-22T18:05:13.000",
    "date_modified": "2023-02-22T18:05:14.000",
    "request_status": "Pending",
    "responsible_agency": "Department of Public Works",
    "final_address": "11325 Curran Rd",
    "address_councildis": "E",
    "status": "Assigned to Contractor",
    "contractor": "Legacy Professional Services",
    "rowid": "976956",
    "final_x": "3711257.37259",
    "final_y": "566686.607075",
    "longitude": "-89.9727897048572",
    "latitude": "30.05125328291266",
    "geocoded_column": {
      "latitude": "30.05125328291266",
      "longitude": "-89.9727897048572"
    }
  },
  {
    "service_request": "2023-976955",
    "request_type": "Traffic Signals/Signs/Striping/Streetlights",
    "request_reason": "Traffic Sign Missing/Damaged",
    "date_created": "2023-02-22T18:04:17.000",
    "date_modified": "2023-02-22T18:04:17.000",
    "request_status": "Pending",
    "responsible_agency": "Department of Public Works",
    "final_address": "3300 Aurora Dr",
    "address_councildis": "C",
    "status": "Pending",
    "rowid": "976955",
    "final_x": "3706984.11422",
    "final_y": "518681.002935",
    "longitude": "-89.98807731812023",
    "latitude": "29.919394625619677",
    "geocoded_column": {
      "latitude": "29.919394625619677",
      "longitude": "-89.98807731812023"
    }
  },
  {
    "service_request": "2023-976954",
    "request_type": "Mosquito, Termite & Rodent Control",
    "request_reason": "Non-Rodent Complaint (Mice, Possums, Snakes)",
    "date_created": "2023-02-22T17:59:23.000",
    "date_modified": "2023-02-22T17:59:23.000",
    "request_status": "Pending",
    "responsible_agency": "Mosquito, Termite & Rodent Control Board",
    "final_address": "8615 Stroelitz St",
    "address_councildis": "A",
    "status": "Pending",
    "rowid": "976954",
    "final_x": "3666567.56404",
    "final_y": "536286.064903",
    "longitude": "-90.11506174668799",
    "latitude": "29.969045727621026",
    "geocoded_column": {
      "latitude": "29.969045727621026",
      "longitude": "-90.11506174668799"
    }
  },
  {
    "service_request": "2023-976953",
    "request_type": "Trash/Recycling",
    "request_reason": "Repair Trash Cart",
    "date_created": "2023-02-22T17:58:07.000",
    "date_modified": "2023-02-22T17:58:08.000",
    "request_status": "Pending",
    "responsible_agency": "Department of Sanitation",
    "final_address": "48 Grand Canyon Dr",
    "address_councildis": "C",
    "status": "Assigned to Contractor",
    "contractor": "Richards Disposal",
    "rowid": "976953",
    "final_x": "3699375.85188",
    "final_y": "516515.813301",
    "longitude": "-90.01217143459398",
    "latitude": "29.913684508612366",
    "geocoded_column": {
      "latitude": "29.913684508612366",
      "longitude": "-90.01217143459398"
    }
  },
  {
    "service_request": "2023-976952",
    "request_type": "Trash/Recycling",
    "request_reason": "Missed Trash Pick-Up",
    "date_created": "2023-02-22T17:58:06.000",
    "date_modified": "2023-02-22T17:58:07.000",
    "request_status": "Pending",
    "responsible_agency": "Department of Sanitation",
    "final_address": "500 BLK Napoleon Ave",
    "address_councildis": "B",
    "status": "Assigned to Contractor",
    "contractor": "Richards Disposal",
    "rowid": "976952",
    "final_x": "3671212.69428",
    "final_y": "517609.435041",
    "longitude": "-90.10102640013092",
    "latitude": "29.917554468142644",
    "geocoded_column": {
      "latitude": "29.917554468142644",
      "longitude": "-90.10102640013092"
    }
  },
  {
    "service_request": "2023-976951",
    "request_type": "Trash/Recycling",
    "request_reason": "Request a Large Item Pick Up",
    "date_created": "2023-02-22T17:57:54.000",
    "date_modified": "2023-02-22T17:57:55.000",
    "request_status": "Pending",
    "responsible_agency": "Department of Sanitation",
    "final_address": "821 N Robertson St",
    "address_councildis": "C",
    "status": "Assigned to Contractor",
    "contractor": "Richards Disposal",
    "rowid": "976951",
    "final_x": "3680366.35963",
    "final_y": "534808.955014",
    "longitude": "-90.07153558517139",
    "latitude": "29.964573562545365",
    "geocoded_column": {
      "latitude": "29.964573562545365",
      "longitude": "-90.07153558517139"
    }
  },
  {
    "service_request": "2023-976950",
    "request_type": "Property Maintenance",
    "request_reason": "Property Maintenance",
    "date_created": "2023-02-22T17:52:15.000",
    "date_modified": "2023-02-22T17:52:15.000",
    "request_status": "Pending",
    "responsible_agency": "Department of Code Enforcement",
    "final_address": "1539 N Broad St",
    "address_councildis": "D",
    "status": "Pending",
    "rowid": "976950",
    "final_x": "3678797.94306",
    "final_y": "539864.940042",
    "longitude": "-90.07631337462261",
    "latitude": "29.978523183843546",
    "geocoded_column": {
      "latitude": "29.978523183843546",
      "longitude": "-90.07631337462261"
    }
  },
  {
    "service_request": "2023-976949",
    "request_type": "Trash/Recycling",
    "request_reason": "Order Recycling Cart",
    "date_created": "2023-02-22T17:50:06.000",
    "date_modified": "2023-02-22T17:50:06.000",
    "request_status": "Pending",
    "responsible_agency": "Department of Sanitation",
    "final_address": "7006 Roy St",
    "address_councildis": "A",
    "status": "Pending",
    "contractor": "IV Waste",
    "rowid": "976949",
    "final_x": "3665102.58996",
    "final_y": "554351.030872",
    "longitude": "-90.1190836894037",
    "latitude": "30.018760969487527",
    "geocoded_column": {
      "latitude": "30.018760969487527",
      "longitude": "-90.1190836894037"
    }
  },
  {
    "service_request": "2023-976948",
    "request_type": "Trash/Recycling",
    "request_reason": "Order Trash Cart",
    "date_created": "2023-02-22T17:49:51.000",
    "date_modified": "2023-02-22T17:49:52.000",
    "request_status": "Pending",
    "responsible_agency": "Department of Sanitation",
    "final_address": "7006 Roy St",
    "address_councildis": "A",
    "status": "Assigned to Contractor",
    "contractor": "IV Waste",
    "rowid": "976948",
    "final_x": "3665102.58996",
    "final_y": "554351.030872",
    "longitude": "-90.1190836894037",
    "latitude": "30.018760969487527",
    "geocoded_column": {
      "latitude": "30.018760969487527",
      "longitude": "-90.1190836894037"
    }
  },
  {
    "service_request": "2023-976947",
    "request_type": "Trash/Recycling",
    "request_reason": "Request a Large Item Pick Up",
    "date_created": "2023-02-22T17:48:07.000",
    "date_modified": "2023-02-22T17:48:07.000",
    "request_status": "Pending",
    "responsible_agency": "Department of Sanitation",
    "final_address": "2522 Peniston St",
    "address_councildis": "B",
    "status": "Assigned to Contractor",
    "contractor": "Richards Disposal",
    "rowid": "976947",
    "final_x": "3672046.98196",
    "final_y": "524379.784636",
    "longitude": "-90.09816265318439",
    "latitude": "29.936146060969133",
    "geocoded_column": {
      "latitude": "29.936146060969133",
      "longitude": "-90.09816265318439"
    }
  },
  {
    "service_request": "2023-976946",
    "request_type": "Trash/Recycling",
    "request_reason": "Order Recycling Cart",
    "date_created": "2023-02-22T17:32:44.000",
    "date_modified": "2023-02-22T17:32:45.000",
    "request_status": "Pending",
    "responsible_agency": "Department of Sanitation",
    "final_address": "7420 Bullard Ave",
    "address_councildis": "E",
    "status": "Pending",
    "rowid": "976946",
    "final_x": "3713749.49496",
    "final_y": "566388.172771",
    "longitude": "-89.96492427241222",
    "latitude": "30.05035111125088",
    "geocoded_column": {
      "latitude": "30.05035111125088",
      "longitude": "-89.96492427241222"
    }
  },
  {
    "service_request": "2023-976945",
    "request_type": "Trash/Recycling",
    "request_reason": "Replace Trash Cart",
    "date_created": "2023-02-22T17:31:52.000",
    "date_modified": "2023-02-22T17:31:52.000",
    "request_status": "Pending",
    "responsible_agency": "Department of Sanitation",
    "final_address": "7420 Bullard Ave",
    "address_councildis": "E",
    "status": "Assigned to Contractor",
    "contractor": "Waste Pro",
    "rowid": "976945",
    "final_x": "3713749.49496",
    "final_y": "566388.172771",
    "longitude": "-89.96492427241222",
    "latitude": "30.05035111125088",
    "geocoded_column": {
      "latitude": "30.05035111125088",
      "longitude": "-89.96492427241222"
    }
  },
  {
    "service_request": "2023-976944",
    "request_type": "Trash/Recycling",
    "request_reason": "Missed Trash Pick-Up",
    "date_created": "2023-02-22T17:29:10.000",
    "date_modified": "2023-02-22T17:29:11.000",
    "request_status": "Pending",
    "responsible_agency": "Department of Sanitation",
    "final_address": "500 BLK General Pershing St",
    "address_councildis": "B",
    "status": "Assigned to Contractor",
    "contractor": "Richards Disposal",
    "rowid": "976944",
    "final_x": "3671572.01804",
    "final_y": "517646.026504",
    "longitude": "-90.09989097041087",
    "latitude": "29.917644452353365",
    "geocoded_column": {
      "latitude": "29.917644452353365",
      "longitude": "-90.09989097041087"
    }
  },
  {
    "service_request": "2023-976943",
    "request_type": "Property Maintenance",
    "request_reason": "Property Maintenance",
    "date_created": "2023-02-22T17:29:02.000",
    "date_modified": "2023-02-22T17:29:02.000",
    "request_status": "Pending",
    "responsible_agency": "Department of Code Enforcement",
    "final_address": "8017 Burthe St",
    "address_councildis": "A",
    "status": "Pending",
    "rowid": "976943",
    "final_x": "3661491.57562",
    "final_y": "527441.495167",
    "longitude": "-90.13138514663514",
    "latitude": "29.94487343977359",
    "geocoded_column": {
      "latitude": "29.94487343977359",
      "longitude": "-90.13138514663514"
    }
  },
  {
    "service_request": "2023-976942",
    "request_type": "Traffic Signals/Signs/Striping/Streetlights",
    "request_reason": "Street Light Outage/Malfunction",
    "date_created": "2023-02-22T17:25:35.000",
    "date_modified": "2023-02-22T17:25:36.000",
    "request_status": "Pending",
    "responsible_agency": "Department of Public Works",
    "final_address": "12421 Morrison Rd",
    "address_councildis": "E",
    "status": "Assigned to Contractor",
    "contractor": "Legacy Professional Services",
    "rowid": "976942",
    "final_x": "3714966.86072",
    "final_y": "567889.43594",
    "longitude": "-89.96101982841223",
    "latitude": "30.05443893953863",
    "geocoded_column": {
      "latitude": "30.05443893953863",
      "longitude": "-89.96101982841223"
    }
  },
  {
    "service_request": "2023-976941",
    "request_type": "Trash/Recycling",
    "request_reason": "Missed Trash Pick-Up",
    "date_created": "2023-02-22T17:24:58.000",
    "date_modified": "2023-02-22T17:24:59.000",
    "request_status": "Pending",
    "responsible_agency": "Department of Sanitation",
    "final_address": "6038 St Roch Ave",
    "address_councildis": "D",
    "status": "Assigned to Contractor",
    "contractor": "IV Waste",
    "rowid": "976941",
    "final_x": "3684849.52105",
    "final_y": "555387.567513",
    "longitude": "-90.05665405152598",
    "latitude": "30.02102089510698",
    "geocoded_column": {
      "latitude": "30.02102089510698",
      "longitude": "-90.05665405152598"
    }
  },
  {
    "service_request": "2023-976940",
    "request_type": "Trash/Recycling",
    "request_reason": "Replace Trash Cart",
    "date_created": "2023-02-22T17:22:09.000",
    "date_modified": "2023-02-22T17:22:10.000",
    "request_status": "Pending",
    "responsible_agency": "Department of Sanitation",
    "final_address": "3437 Milan St",
    "address_councildis": "B",
    "status": "Assigned to Contractor",
    "contractor": "Richards Disposal",
    "rowid": "976940",
    "final_x": "3670969.90971",
    "final_y": "527577.729727",
    "longitude": "-90.10145446759776",
    "latitude": "29.94497125226893",
    "geocoded_column": {
      "latitude": "29.94497125226893",
      "longitude": "-90.10145446759776"
    }
  },
  {
    "service_request": "2023-976939",
    "request_type": "Trash/Recycling",
    "request_reason": "Dead Animal Pick Up",
    "date_created": "2023-02-22T17:18:27.000",
    "date_modified": "2023-02-22T17:18:27.000",
    "request_status": "Pending",
    "responsible_agency": "Department of Sanitation",
    "final_address": "HAYNE BLVD & POMPANO ST",
    "address_councildis": "E",
    "status": "Assigned to Contractor",
    "contractor": "Waste Pro",
    "rowid": "976939",
    "final_x": "3700015.7",
    "final_y": "562035.18",
    "longitude": "-90.00849070657978",
    "latitude": "30.038825913997652",
    "geocoded_column": {
      "latitude": "30.038825913997652",
      "longitude": "-90.00849070657978"
    }
  },
  {
    "service_request": "2023-976938",
    "request_type": "Trash/Recycling",
    "request_reason": "Replace Trash Cart",
    "date_created": "2023-02-22T17:18:25.000",
    "date_modified": "2023-02-22T17:18:26.000",
    "request_status": "Pending",
    "responsible_agency": "Department of Sanitation",
    "final_address": "3608 Banks St",
    "address_councildis": "B",
    "status": "Assigned to Contractor",
    "contractor": "Richards Disposal",
    "rowid": "976938",
    "final_x": "3671753.1627",
    "final_y": "536243.186695",
    "longitude": "-90.09868669229873",
    "latitude": "29.968775208481716",
    "geocoded_column": {
      "latitude": "29.968775208481716",
      "longitude": "-90.09868669229873"
    }
  },
  {
    "service_request": "2023-976937",
    "request_type": "Trash/Recycling",
    "request_reason": "Missed Trash Pick-Up",
    "date_created": "2023-02-22T17:09:12.000",
    "date_modified": "2023-02-22T17:09:13.000",
    "request_status": "Pending",
    "responsible_agency": "Department of Sanitation",
    "final_address": "4133 General Pershing St",
    "address_councildis": "B",
    "status": "Assigned to Contractor",
    "contractor": "Richards Disposal",
    "rowid": "976937",
    "final_x": "3670028.04846",
    "final_y": "529492.805889",
    "longitude": "-90.10436336924452",
    "latitude": "29.95026489527118",
    "geocoded_column": {
      "latitude": "29.95026489527118",
      "longitude": "-90.10436336924452"
    }
  },
  {
    "service_request": "2023-976936",
    "request_type": "Trash/Recycling",
    "request_reason": "Missed Trash Pick-Up",
    "date_created": "2023-02-22T17:02:34.000",
    "date_modified": "2023-02-22T17:02:35.000",
    "request_status": "Pending",
    "responsible_agency": "Department of Sanitation",
    "final_address": "4133 General Pershing St",
    "address_councildis": "B",
    "status": "Assigned to Contractor",
    "contractor": "Richards Disposal",
    "rowid": "976936",
    "final_x": "3670028.04846",
    "final_y": "529492.805889",
    "longitude": "-90.10436336924452",
    "latitude": "29.95026489527118",
    "geocoded_column": {
      "latitude": "29.95026489527118",
      "longitude": "-90.10436336924452"
    }
  },
  {
    "service_request": "2023-976935",
    "request_type": "Roads/Drainage",
    "request_reason": "Catch Basin - Clogged",
    "date_created": "2023-02-22T16:59:13.000",
    "date_modified": "2023-02-22T16:59:14.000",
    "request_status": "Pending",
    "responsible_agency": "Department of Public Works",
    "final_address": "N TONTI ST & URSULINES AVE",
    "address_councildis": "D",
    "status": "Pending",
    "rowid": "976935",
    "final_x": "3678719.93",
    "final_y": "537316.95",
    "longitude": "-90.07664802847127",
    "latitude": "29.971519441769676",
    "geocoded_column": {
      "latitude": "29.971519441769676",
      "longitude": "-90.07664802847127"
    }
  },
  {
    "service_request": "2023-976934",
    "request_type": "Trash/Recycling",
    "request_reason": "Repair Recycling Cart",
    "date_created": "2023-02-22T16:55:42.000",
    "date_modified": "2023-02-22T16:55:43.000",
    "request_status": "Pending",
    "responsible_agency": "Department of Sanitation",
    "final_address": "18 Dove St",
    "address_councildis": "D",
    "status": "Pending",
    "rowid": "976934",
    "final_x": "3673661.23752",
    "final_y": "554745.597016",
    "longitude": "-90.0920278679654",
    "latitude": "30.019593726098645",
    "geocoded_column": {
      "latitude": "30.019593726098645",
      "longitude": "-90.0920278679654"
    }
  },
  {
    "service_request": "2023-976933",
    "request_type": "Trash/Recycling",
    "request_reason": "Missed Trash Pick-Up",
    "date_created": "2023-02-22T16:49:16.000",
    "date_modified": "2023-02-22T16:49:17.000",
    "request_status": "Pending",
    "responsible_agency": "Department of Sanitation",
    "final_address": "2500 BLK Acacia St",
    "address_councildis": "D",
    "status": "Assigned to Contractor",
    "contractor": "IV Waste",
    "rowid": "976933",
    "final_x": "3686677.20699",
    "final_y": "546314.307093",
    "longitude": "-90.05119988804606",
    "latitude": "29.996016620632755",
    "geocoded_column": {
      "latitude": "29.996016620632755",
      "longitude": "-90.05119988804606"
    }
  },
  {
    "service_request": "2023-976932",
    "request_type": "Trash/Recycling",
    "request_reason": "MIssed Recycling Pick-Up",
    "date_created": "2023-02-22T16:49:04.000",
    "date_modified": "2023-02-22T16:49:05.000",
    "request_status": "Pending",
    "responsible_agency": "Department of Sanitation",
    "final_address": "1123 Louisiana Ave",
    "address_councildis": "B",
    "status": "Assigned to Contractor",
    "contractor": "Richards Disposal",
    "rowid": "976932",
    "final_x": "3675017.26952",
    "final_y": "519856.663736",
    "longitude": "-90.08894043886947",
    "latitude": "29.92362057005257",
    "geocoded_column": {
      "latitude": "29.92362057005257",
      "longitude": "-90.08894043886947"
    }
  },
  {
    "service_request": "2023-976930",
    "request_type": "Trash/Recycling",
    "request_reason": "Replace Trash Cart",
    "date_created": "2023-02-22T16:44:44.000",
    "date_modified": "2023-02-22T16:44:44.000",
    "request_status": "Pending",
    "responsible_agency": "Department of Sanitation",
    "final_address": "2126 Franklin Ave",
    "address_councildis": "D",
    "status": "Assigned to Contractor",
    "contractor": "IV Waste",
    "rowid": "976930",
    "final_x": "3687521.21878",
    "final_y": "540450.653195",
    "longitude": "-90.04874138457517",
    "latitude": "29.97986767124855",
    "geocoded_column": {
      "latitude": "29.97986767124855",
      "longitude": "-90.04874138457517"
    }
  },
  {
    "service_request": "2023-976929",
    "request_type": "Trash/Recycling",
    "request_reason": "Missed Trash Pick-Up",
    "date_created": "2023-02-22T16:40:21.000",
    "date_modified": "2023-02-22T16:40:21.000",
    "request_status": "Pending",
    "responsible_agency": "Department of Sanitation",
    "final_address": "6336 Debore Dr",
    "address_councildis": "D",
    "status": "Assigned to Contractor",
    "contractor": "IV Waste",
    "rowid": "976929",
    "final_x": "3690726.15708",
    "final_y": "556879.226266",
    "longitude": "-90.03803234493898",
    "latitude": "30.024941051782903",
    "geocoded_column": {
      "latitude": "30.024941051782903",
      "longitude": "-90.03803234493898"
    }
  },
  {
    "service_request": "2023-976928",
    "request_type": "Traffic Signals/Signs/Striping/Streetlights",
    "request_reason": "Street Light Outage/Malfunction",
    "date_created": "2023-02-22T16:39:56.000",
    "date_modified": "2023-02-22T16:42:48.000",
    "request_status": "Pending",
    "responsible_agency": "Department of Public Works",
    "final_address": "3726 Gentilly Blvd",
    "address_councildis": "D",
    "status": "Assigned to Contractor",
    "contractor": "Legacy Professional Services",
    "rowid": "976928",
    "final_x": "3687241.42114",
    "final_y": "548693.713171",
    "longitude": "-90.04933335727279",
    "latitude": "30.0025417559106",
    "geocoded_column": {
      "latitude": "30.0025417559106",
      "longitude": "-90.04933335727279"
    }
  },
  {
    "service_request": "2023-976927",
    "request_type": "Traffic Signals/Signs/Striping/Streetlights",
    "request_reason": "Traffic Signal Malfunctioning/Damaged",
    "date_created": "2023-02-22T16:36:49.000",
    "date_modified": "2023-02-22T16:36:50.000",
    "request_status": "Pending",
    "responsible_agency": "Department of Public Works",
    "final_address": "POYDRAS ST & POYDRAS EXIT & S CLAIBORNE AVE",
    "address_councildis": "B",
    "status": "Pending",
    "rowid": "976927",
    "final_x": "3676976.22",
    "final_y": "530785.22",
    "longitude": "-90.082380129555",
    "latitude": "29.95361186141607",
    "geocoded_column": {
      "latitude": "29.95361186141607",
      "longitude": "-90.082380129555"
    }
  },
  {
    "service_request": "2023-976926",
    "request_type": "Trash/Recycling",
    "request_reason": "Replace Trash Cart",
    "date_created": "2023-02-22T16:35:18.000",
    "date_modified": "2023-02-22T16:35:19.000",
    "request_status": "Pending",
    "responsible_agency": "Department of Sanitation",
    "final_address": "856 Homedale St",
    "address_councildis": "A",
    "status": "Assigned to Contractor",
    "contractor": "IV Waste",
    "rowid": "976926",
    "final_x": "3669284.93562",
    "final_y": "544578.627919",
    "longitude": "-90.10619961042906",
    "latitude": "29.991767744800992",
    "geocoded_column": {
      "latitude": "29.991767744800992",
      "longitude": "-90.10619961042906"
    }
  },
  {
    "service_request": "2023-976925",
    "request_type": "Property Maintenance",
    "request_reason": "Property Maintenance",
    "date_created": "2023-02-22T16:26:06.000",
    "date_modified": "2023-02-22T16:26:07.000",
    "request_status": "Pending",
    "responsible_agency": "Department of Code Enforcement",
    "final_address": "5117 N Roman St",
    "address_councildis": "E",
    "status": "Pending",
    "rowid": "976925",
    "final_x": "3697137.11709",
    "final_y": "536815.123976",
    "longitude": "-90.01850235031306",
    "latitude": "29.969571349735524",
    "geocoded_column": {
      "latitude": "29.969571349735524",
      "longitude": "-90.01850235031306"
    }
  },
  {
    "service_request": "2023-976924",
    "request_type": "Trash/Recycling",
    "request_reason": "Missed Trash Pick-Up",
    "date_created": "2023-02-22T16:25:49.000",
    "date_modified": "2023-02-22T16:25:50.000",
    "request_status": "Pending",
    "responsible_agency": "Department of Sanitation",
    "final_address": "4027 Delgado Dr",
    "address_councildis": "A",
    "status": "Assigned to Contractor",
    "contractor": "Richards Disposal",
    "rowid": "976924",
    "final_x": "3673830.0546",
    "final_y": "540953.462283",
    "longitude": "-90.09196657760572",
    "latitude": "29.98166516588389",
    "geocoded_column": {
      "latitude": "29.98166516588389",
      "longitude": "-90.09196657760572"
    }
  },
  {
    "service_request": "2023-976923",
    "request_type": "Trash/Recycling",
    "request_reason": "Missed Trash Pick-Up",
    "date_created": "2023-02-22T16:23:31.000",
    "date_modified": "2023-02-22T16:23:32.000",
    "request_status": "Pending",
    "responsible_agency": "Department of Sanitation",
    "final_address": "731 Fern St",
    "address_councildis": "A",
    "status": "Assigned to Contractor",
    "contractor": "Richards Disposal",
    "rowid": "976923",
    "final_x": "3661572.91936",
    "final_y": "526733.867006",
    "longitude": "-90.1311517589614",
    "latitude": "29.942925341207168",
    "geocoded_column": {
      "latitude": "29.942925341207168",
      "longitude": "-90.1311517589614"
    }
  },
  {
    "service_request": "2023-976922",
    "request_type": "Trash/Recycling",
    "request_reason": "Missed Trash Pick-Up",
    "date_created": "2023-02-22T16:22:41.000",
    "date_modified": "2023-02-22T16:22:42.000",
    "request_status": "Pending",
    "responsible_agency": "Department of Sanitation",
    "final_address": "4911 Elysian Fields Ave",
    "address_councildis": "D",
    "status": "Assigned to Contractor",
    "contractor": "IV Waste",
    "rowid": "976922",
    "final_x": "3683994.38332",
    "final_y": "550867.850069",
    "longitude": "-90.05951479922668",
    "latitude": "30.00861949397602",
    "geocoded_column": {
      "latitude": "30.00861949397602",
      "longitude": "-90.05951479922668"
    }
  },
  {
    "service_request": "2023-976921",
    "request_type": "Trash/Recycling",
    "request_reason": "Request a Large Item Pick Up",
    "date_created": "2023-02-22T16:21:21.000",
    "date_modified": "2023-02-22T16:21:21.000",
    "request_status": "Pending",
    "responsible_agency": "Department of Sanitation",
    "final_address": "4501 Marque Dr",
    "address_councildis": "E",
    "status": "Assigned to Contractor",
    "contractor": "Waste Pro",
    "rowid": "976921",
    "final_x": "3710317.38757",
    "final_y": "554204.900056",
    "longitude": "-89.97622790255126",
    "latitude": "30.0169641976918",
    "geocoded_column": {
      "latitude": "30.0169641976918",
      "longitude": "-89.97622790255126"
    }
  },
  {
    "service_request": "2023-976920",
    "request_type": "Abandoned Vehicles",
    "request_reason": "Abandoned/Junk Vehicles",
    "date_created": "2023-02-22T16:19:38.000",
    "date_modified": "2023-02-22T16:19:38.000",
    "request_status": "Pending",
    "responsible_agency": "Department of Public Works",
    "final_address": "N DORGENOIS ST & FRENCHMEN ST",
    "address_councildis": "D",
    "status": "Pending",
    "rowid": "976920",
    "final_x": "3684179.4",
    "final_y": "541423.98",
    "longitude": "-90.05926202464241",
    "latitude": "29.982646569884306",
    "geocoded_column": {
      "latitude": "29.982646569884306",
      "longitude": "-90.05926202464241"
    }
  },
  {
    "service_request": "2023-976919",
    "request_type": "Trash/Recycling",
    "request_reason": "Illegal Dumping",
    "date_created": "2023-02-22T16:19:20.000",
    "date_modified": "2023-02-22T16:19:21.000",
    "request_status": "Pending",
    "responsible_agency": "Department of Sanitation",
    "final_address": "VERMILLION BLVD & BURBANK DR",
    "address_councildis": "D",
    "status": "Pending",
    "rowid": "976919",
    "final_x": "3683133.4",
    "final_y": "554736.88",
    "longitude": "-90.06209930753245",
    "latitude": "30.019284206755465",
    "geocoded_column": {
      "latitude": "30.019284206755465",
      "longitude": "-90.06209930753245"
    }
  },
  {
    "service_request": "2023-976918",
    "request_type": "Trash/Recycling",
    "request_reason": "Replace Recycling Cart",
    "date_created": "2023-02-22T16:18:24.000",
    "date_modified": "2023-02-22T16:18:24.000",
    "request_status": "Pending",
    "responsible_agency": "Department of Sanitation",
    "final_address": "757 French St",
    "address_councildis": "A",
    "status": "Pending",
    "rowid": "976918",
    "final_x": "3669074.96801",
    "final_y": "548605.633875",
    "longitude": "-90.1067266846821",
    "latitude": "30.002846800744027",
    "geocoded_column": {
      "latitude": "30.002846800744027",
      "longitude": "-90.1067266846821"
    }
  },
  {
    "service_request": "2023-976917",
    "request_type": "Trash/Recycling",
    "request_reason": "Missed Trash Pick-Up",
    "date_created": "2023-02-22T16:11:42.000",
    "date_modified": "2023-02-22T16:11:43.000",
    "request_status": "Pending",
    "responsible_agency": "Department of Sanitation",
    "final_address": "6057 Vermillion Blvd, New Orleans, Louisiana, 70122",
    "address_councildis": "D",
    "status": "Assigned to Contractor",
    "contractor": "IV Waste",
    "rowid": "976917",
    "final_x": "3683162.4788",
    "final_y": "555559.282201",
    "longitude": "-90.06197859705208",
    "latitude": "30.021544623787406",
    "geocoded_column": {
      "latitude": "30.021544623787406",
      "longitude": "-90.06197859705208"
    }
  },
  {
    "service_request": "2023-976916",
    "request_type": "Trash/Recycling",
    "request_reason": "Dead Animal Pick Up",
    "date_created": "2023-02-22T16:11:39.000",
    "date_modified": "2023-02-22T16:11:40.000",
    "request_status": "Pending",
    "responsible_agency": "Department of Sanitation",
    "final_address": "1223 Prentiss Ave",
    "address_councildis": "D",
    "status": "Assigned to Contractor",
    "contractor": "IV Waste",
    "rowid": "976916",
    "final_x": "3676762.66017",
    "final_y": "553357.788055",
    "longitude": "-90.08227626731963",
    "latitude": "30.015685004418277",
    "geocoded_column": {
      "latitude": "30.015685004418277",
      "longitude": "-90.08227626731963"
    }
  },
  {
    "service_request": "2023-976915",
    "request_type": "Abandoned Vehicles",
    "request_reason": "Abandoned/Junk Vehicles",
    "date_created": "2023-02-22T16:10:08.000",
    "date_modified": "2023-02-22T16:10:09.000",
    "request_status": "Pending",
    "responsible_agency": "Department of Public Works",
    "final_address": "2401 State St",
    "address_councildis": "A",
    "status": "Pending",
    "rowid": "976915",
    "final_x": "3666744.15879",
    "final_y": "525363.394941",
    "longitude": "-90.11487085436053",
    "latitude": "29.939006786832163",
    "geocoded_column": {
      "latitude": "29.939006786832163",
      "longitude": "-90.11487085436053"
    }
  },
  {
    "service_request": "2023-976914",
    "request_type": "Trash/Recycling",
    "request_reason": "Request a Large Item Pick Up",
    "date_created": "2023-02-22T16:10:04.000",
    "date_modified": "2023-02-22T16:10:05.000",
    "request_status": "Pending",
    "responsible_agency": "Department of Sanitation",
    "final_address": "2922 Cambronne St",
    "address_councildis": "A",
    "status": "Assigned to Contractor",
    "contractor": "Richards Disposal",
    "rowid": "976914",
    "final_x": "3665362.46068",
    "final_y": "533765.775941",
    "longitude": "-90.11895191515589",
    "latitude": "29.96215093993837",
    "geocoded_column": {
      "latitude": "29.96215093993837",
      "longitude": "-90.11895191515589"
    }
  },
  {
    "service_request": "2023-976913",
    "request_type": "Roads/Drainage",
    "request_reason": "Catch Basin - Clogged",
    "date_created": "2023-02-22T16:08:43.000",
    "date_modified": "2023-02-22T16:08:44.000",
    "request_status": "Pending",
    "responsible_agency": "Department of Public Works",
    "final_address": "N TONTI ST & URSULINES AVE",
    "address_councildis": "D",
    "status": "Pending",
    "rowid": "976913",
    "final_x": "3678719.93",
    "final_y": "537316.95",
    "longitude": "-90.07664802847127",
    "latitude": "29.971519441769676",
    "geocoded_column": {
      "latitude": "29.971519441769676",
      "longitude": "-90.07664802847127"
    }
  },
  {
    "service_request": "2023-976912",
    "request_type": "Trash/Recycling",
    "request_reason": "MIssed Recycling Pick-Up",
    "date_created": "2023-02-22T16:08:33.000",
    "date_modified": "2023-02-22T16:08:33.000",
    "request_status": "Pending",
    "responsible_agency": "Department of Sanitation",
    "final_address": "620 Soraparu St",
    "address_councildis": "B",
    "status": "Assigned to Contractor",
    "contractor": "Richards Disposal",
    "rowid": "976912",
    "final_x": "3679239.42933",
    "final_y": "520277.98508",
    "longitude": "-90.0755980373529",
    "latitude": "29.924652310462665",
    "geocoded_column": {
      "latitude": "29.924652310462665",
      "longitude": "-90.0755980373529"
    }
  },
  {
    "service_request": "2023-976911",
    "request_type": "Trash/Recycling",
    "request_reason": "Request a Large Item Pick Up",
    "date_created": "2023-02-22T16:03:08.000",
    "date_modified": "2023-02-22T16:03:08.000",
    "request_status": "Pending",
    "responsible_agency": "Department of Sanitation",
    "final_address": "1327 Esplanade Ave",
    "address_councildis": "C",
    "status": "Assigned to Contractor",
    "contractor": "IV Waste",
    "rowid": "976911",
    "final_x": "3682006.594",
    "final_y": "536079.828679",
    "longitude": "-90.0663114712774",
    "latitude": "29.968018261421562",
    "geocoded_column": {
      "latitude": "29.968018261421562",
      "longitude": "-90.0663114712774"
    }
  },
  {
    "service_request": "2023-976910",
    "request_type": "Trash/Recycling",
    "request_reason": "Missed Trash Pick-Up",
    "date_created": "2023-02-22T16:01:42.000",
    "date_modified": "2023-02-22T16:01:43.000",
    "request_status": "Pending",
    "responsible_agency": "Department of Sanitation",
    "final_address": "4021 S Derbigny St",
    "address_councildis": "B",
    "status": "Assigned to Contractor",
    "contractor": "Richards Disposal",
    "rowid": "976910",
    "final_x": "3671577.14356",
    "final_y": "526455.782782",
    "longitude": "-90.09957538084464",
    "latitude": "29.941868299655376",
    "geocoded_column": {
      "latitude": "29.941868299655376",
      "longitude": "-90.09957538084464"
    }
  },
  {
    "service_request": "2023-976909",
    "request_type": "Abandoned Vehicles",
    "request_reason": "Abandoned/Junk Vehicles",
    "date_created": "2023-02-22T16:00:32.000",
    "date_modified": "2023-02-22T16:02:54.000",
    "request_status": "Pending",
    "responsible_agency": "Department of Public Works",
    "final_address": "New Orleans,LA",
    "address_councildis": "C",
    "rowid": "976909",
    "final_x": "3686822.91919",
    "final_y": "535154.52199",
    "longitude": "-90.05113407633281",
    "latitude": "29.96532667280891",
    "geocoded_column": {
      "latitude": "29.96532667280891",
      "longitude": "-90.05113407633281"
    }
  },
  {
    "service_request": "2023-976908",
    "request_type": "Abandoned Vehicles",
    "request_reason": "Abandoned/Junk Vehicles",
    "date_created": "2023-02-22T15:59:59.000",
    "date_modified": "2023-02-22T15:59:59.000",
    "request_status": "Pending",
    "responsible_agency": "Department of Public Works",
    "final_address": "540 Marigny St",
    "address_councildis": "C",
    "status": "Pending",
    "rowid": "976908",
    "final_x": "3685537.9023",
    "final_y": "534514.685637",
    "longitude": "-90.0552146271654",
    "latitude": "29.963606819994848",
    "geocoded_column": {
      "latitude": "29.963606819994848",
      "longitude": "-90.0552146271654"
    }
  },
  {
    "service_request": "2023-976907",
    "request_type": "Trash/Recycling",
    "request_reason": "Request a Large Item Pick Up",
    "date_created": "2023-02-22T15:59:05.000",
    "date_modified": "2023-02-22T15:59:06.000",
    "request_status": "Pending",
    "responsible_agency": "Department of Sanitation",
    "final_address": "8022 Ebbtide Dr",
    "address_councildis": "E",
    "status": "Assigned to Contractor",
    "contractor": "Waste Pro",
    "rowid": "976907",
    "final_x": "3701793.00996",
    "final_y": "562352.177503",
    "longitude": "-90.00286231897961",
    "latitude": "30.03964090961092",
    "geocoded_column": {
      "latitude": "30.03964090961092",
      "longitude": "-90.00286231897961"
    }
  },
  {
    "service_request": "2023-976906",
    "request_type": "Traffic Signals/Signs/Striping/Streetlights",
    "request_reason": "Street Light Outage/Malfunction",
    "date_created": "2023-02-22T15:50:46.000",
    "date_modified": "2023-02-22T15:50:47.000",
    "request_status": "Pending",
    "responsible_agency": "Department of Public Works",
    "final_address": "1200 Allen Toussaint Blvd",
    "address_councildis": "D",
    "status": "Assigned to Contractor",
    "contractor": "Legacy Professional Services",
    "rowid": "976906",
    "final_x": "3676667.27361",
    "final_y": "555074.621081",
    "longitude": "-90.08251843209551",
    "latitude": "30.020408539295705",
    "geocoded_column": {
      "latitude": "30.020408539295705",
      "longitude": "-90.08251843209551"
    }
  },
  {
    "service_request": "2023-976905",
    "request_type": "Trash/Recycling",
    "request_reason": "Repair Trash Cart",
    "date_created": "2023-02-22T15:50:44.000",
    "date_modified": "2023-02-22T15:50:45.000",
    "request_status": "Pending",
    "responsible_agency": "Department of Sanitation",
    "final_address": "12941 Chanelle Ct",
    "address_councildis": "E",
    "status": "Assigned to Contractor",
    "contractor": "Waste Pro",
    "rowid": "976905",
    "final_x": "3717114.10584",
    "final_y": "567512.863972",
    "longitude": "-89.95424727960089",
    "latitude": "30.053332636753733",
    "geocoded_column": {
      "latitude": "30.053332636753733",
      "longitude": "-89.95424727960089"
    }
  },
  {
    "service_request": "2023-976903",
    "request_type": "Trash/Recycling",
    "request_reason": "Repair Trash Cart",
    "date_created": "2023-02-22T15:45:30.000",
    "date_modified": "2023-02-22T15:45:31.000",
    "request_status": "Pending",
    "responsible_agency": "Department of Sanitation",
    "final_address": "2535 Eads St",
    "address_councildis": "D",
    "status": "Assigned to Contractor",
    "contractor": "IV Waste",
    "rowid": "976903",
    "final_x": "3687878.72623",
    "final_y": "542057.425228",
    "longitude": "-90.04755528587111",
    "latitude": "29.98427469861975",
    "geocoded_column": {
      "latitude": "29.98427469861975",
      "longitude": "-90.04755528587111"
    }
  },
  {
    "service_request": "2023-976902",
    "request_type": "Roads/Drainage",
    "request_reason": "Pothole",
    "date_created": "2023-02-22T15:43:31.000",
    "date_modified": "2023-02-22T15:43:32.000",
    "request_status": "Pending",
    "responsible_agency": "Department of Public Works",
    "final_address": "6000 BLK Dover Pl",
    "address_councildis": "C",
    "status": "Pending",
    "rowid": "976902",
    "final_x": "3706476.80683",
    "final_y": "519081.162741",
    "longitude": "-89.98966380750461",
    "latitude": "29.920511293192494",
    "geocoded_column": {
      "latitude": "29.920511293192494",
      "longitude": "-89.98966380750461"
    }
  },
  {
    "service_request": "2023-976901",
    "request_type": "Traffic Signals/Signs/Striping/Streetlights",
    "request_reason": "Street Light Outage/Malfunction",
    "date_created": "2023-02-22T15:42:52.000",
    "date_modified": "2023-02-22T15:42:53.000",
    "request_status": "Pending",
    "responsible_agency": "Department of Public Works",
    "final_address": "7311 Agate St",
    "address_councildis": "D",
    "status": "Assigned to Contractor",
    "contractor": "Legacy Professional Services",
    "rowid": "976901",
    "final_x": "3670801.82273",
    "final_y": "555286.662169",
    "longitude": "-90.10104431028897",
    "latitude": "30.021166326244234",
    "geocoded_column": {
      "latitude": "30.021166326244234",
      "longitude": "-90.10104431028897"
    }
  },
  {
    "service_request": "2023-976900",
    "request_type": "Trash/Recycling",
    "request_reason": "Replace Trash Cart",
    "date_created": "2023-02-22T15:42:41.000",
    "date_modified": "2023-02-22T15:42:42.000",
    "request_status": "Pending",
    "responsible_agency": "Department of Sanitation",
    "final_address": "4815 Mithra St",
    "address_councildis": "D",
    "status": "Assigned to Contractor",
    "contractor": "IV Waste",
    "rowid": "976900",
    "final_x": "3691486.57673",
    "final_y": "553716.426199",
    "longitude": "-90.03574272528341",
    "latitude": "30.016220877421496",
    "geocoded_column": {
      "latitude": "30.016220877421496",
      "longitude": "-90.03574272528341"
    }
  },
  {
    "service_request": "2023-976899",
    "request_type": "Trash/Recycling",
    "request_reason": "Missed Trash Pick-Up",
    "date_created": "2023-02-22T15:40:06.000",
    "date_modified": "2023-02-22T15:40:07.000",
    "request_status": "Pending",
    "responsible_agency": "Department of Sanitation",
    "final_address": "1813 Fern St",
    "address_councildis": "A",
    "status": "Assigned to Contractor",
    "contractor": "Richards Disposal",
    "rowid": "976899",
    "final_x": "3664066.29735",
    "final_y": "529474.224449",
    "longitude": "-90.12318815005868",
    "latitude": "29.950388276977932",
    "geocoded_column": {
      "latitude": "29.950388276977932",
      "longitude": "-90.12318815005868"
    }
  },
  {
    "service_request": "2023-976898",
    "request_type": "Trash/Recycling",
    "request_reason": "Missed Trash Pick-Up",
    "date_created": "2023-02-22T15:37:07.000",
    "date_modified": "2023-02-22T15:37:08.000",
    "request_status": "Pending",
    "responsible_agency": "Department of Sanitation",
    "final_address": "822 Vallette St",
    "address_councildis": "C",
    "status": "Assigned to Contractor",
    "contractor": "Richards Disposal",
    "rowid": "976898",
    "final_x": "3687505.27522",
    "final_y": "528544.854208",
    "longitude": "-90.04921315421001",
    "latitude": "29.947131350111324",
    "geocoded_column": {
      "latitude": "29.947131350111324",
      "longitude": "-90.04921315421001"
    }
  },
  {
    "service_request": "2023-976897",
    "request_type": "Trash/Recycling",
    "request_reason": "Request a Large Item Pick Up",
    "date_created": "2023-02-22T15:35:46.000",
    "date_modified": "2023-02-22T15:35:46.000",
    "request_status": "Pending",
    "responsible_agency": "Department of Sanitation",
    "final_address": "7311 Agate St",
    "address_councildis": "D",
    "status": "Assigned to Contractor",
    "contractor": "IV Waste",
    "rowid": "976897",
    "final_x": "3670801.82273",
    "final_y": "555286.662169",
    "longitude": "-90.10104431028897",
    "latitude": "30.021166326244234",
    "geocoded_column": {
      "latitude": "30.021166326244234",
      "longitude": "-90.10104431028897"
    }
  },
  {
    "service_request": "2023-976896",
    "request_type": "Traffic Signals/Signs/Striping/Streetlights",
    "request_reason": "Striping/Road Surface Markings",
    "date_created": "2023-02-22T15:34:26.000",
    "date_modified": "2023-02-22T15:34:26.000",
    "request_status": "Pending",
    "responsible_agency": "Department of Public Works",
    "final_address": "WOODLAND HWY & VAN BUREN ST",
    "address_councildis": "C",
    "status": "Pending",
    "rowid": "976896",
    "final_x": "3712694.26",
    "final_y": "515513.81",
    "longitude": "-89.9701723767961",
    "latitude": "29.91050038767842",
    "geocoded_column": {
      "latitude": "29.91050038767842",
      "longitude": "-89.9701723767961"
    }
  },
  {
    "service_request": "2023-976895",
    "request_type": "Abandoned Vehicles",
    "request_reason": "Abandoned/Junk Vehicles",
    "date_created": "2023-02-22T15:32:11.000",
    "date_modified": "2023-02-22T15:38:07.000",
    "request_status": "Pending",
    "responsible_agency": "Department of Public Works",
    "final_address": "12700 Hayne Blvd",
    "address_councildis": "E",
    "status": "Pending",
    "rowid": "976895",
    "final_x": "3714473.03461",
    "final_y": "570249.035047",
    "longitude": "-89.9624914571783",
    "latitude": "30.06094311903613",
    "geocoded_column": {
      "latitude": "30.06094311903613",
      "longitude": "-89.9624914571783"
    }
  },
  {
    "service_request": "2023-976894",
    "request_type": "Trash/Recycling",
    "request_reason": "Order Recycling Cart",
    "date_created": "2023-02-22T15:31:15.000",
    "date_modified": "2023-02-22T15:31:15.000",
    "request_status": "Pending",
    "responsible_agency": "Department of Sanitation",
    "final_address": "7311 Agate St",
    "address_councildis": "D",
    "status": "Pending",
    "rowid": "976894",
    "final_x": "3670801.82273",
    "final_y": "555286.662169",
    "longitude": "-90.10104431028897",
    "latitude": "30.021166326244234",
    "geocoded_column": {
      "latitude": "30.021166326244234",
      "longitude": "-90.10104431028897"
    }
  },
  {
    "service_request": "2023-976893",
    "request_type": "Trash/Recycling",
    "request_reason": "Missed Trash Pick-Up",
    "date_created": "2023-02-22T15:29:46.000",
    "date_modified": "2023-02-22T15:29:47.000",
    "request_status": "Pending",
    "responsible_agency": "Department of Sanitation",
    "final_address": "1422 Peniston St",
    "address_councildis": "B",
    "status": "Assigned to Contractor",
    "contractor": "Richards Disposal",
    "rowid": "976893",
    "final_x": "3672919.60065",
    "final_y": "520751.669753",
    "longitude": "-90.09553149983255",
    "latitude": "29.926144022962372",
    "geocoded_column": {
      "latitude": "29.926144022962372",
      "longitude": "-90.09553149983255"
    }
  },
  {
    "service_request": "2023-976892",
    "request_type": "Trash/Recycling",
    "request_reason": "Missed Trash Pick-Up",
    "date_created": "2023-02-22T15:25:24.000",
    "date_modified": "2023-02-22T15:25:25.000",
    "request_status": "Pending",
    "responsible_agency": "Department of Sanitation",
    "final_address": "5418 Magnolia St",
    "address_councildis": "A",
    "status": "Assigned to Contractor",
    "contractor": "Richards Disposal",
    "rowid": "976892",
    "final_x": "3667887.08903",
    "final_y": "524677.77766",
    "longitude": "-90.11128556162733",
    "latitude": "29.937088091499476",
    "geocoded_column": {
      "latitude": "29.937088091499476",
      "longitude": "-90.11128556162733"
    }
  },
  {
    "service_request": "2023-976891",
    "request_type": "Roads/Drainage",
    "request_reason": "Accessibility Ramps, Curbs and Sidewalk Repair",
    "date_created": "2023-02-22T15:21:48.000",
    "date_modified": "2023-02-22T15:21:48.000",
    "request_status": "Pending",
    "responsible_agency": "Department of Public Works",
    "final_address": "3500 Bruxelles St",
    "address_councildis": "D",
    "status": "Pending",
    "rowid": "976891",
    "final_x": "3680083.04943",
    "final_y": "545218.471055",
    "longitude": "-90.0720684193865",
    "latitude": "29.9932046936387",
    "geocoded_column": {
      "latitude": "29.9932046936387",
      "longitude": "-90.0720684193865"
    }
  },
  {
    "service_request": "2023-976890",
    "request_type": "Traffic Signals/Signs/Striping/Streetlights",
    "request_reason": "Street Light Outage/Malfunction",
    "date_created": "2023-02-22T15:21:09.000",
    "date_modified": "2023-02-22T15:21:10.000",
    "request_status": "Pending",
    "responsible_agency": "Department of Public Works",
    "final_address": "8209 Spruce St",
    "address_councildis": "A",
    "status": "Assigned to Contractor",
    "contractor": "Legacy Professional Services",
    "rowid": "976890",
    "final_x": "3663549.44839",
    "final_y": "530783.191682",
    "longitude": "-90.12477650441186",
    "latitude": "29.95400251296115",
    "geocoded_column": {
      "latitude": "29.95400251296115",
      "longitude": "-90.12477650441186"
    }
  },
  {
    "service_request": "2023-976889",
    "request_type": "Trash/Recycling",
    "request_reason": "Request a Large Item Pick Up",
    "date_created": "2023-02-22T15:19:42.000",
    "date_modified": "2023-02-22T15:19:43.000",
    "request_status": "Pending",
    "responsible_agency": "Department of Sanitation",
    "final_address": "7215 S Claiborne Ave Unit B",
    "address_councildis": "A",
    "status": "Assigned to Contractor",
    "contractor": "Richards Disposal",
    "rowid": "976889",
    "final_x": "3666373.49281",
    "final_y": "529987.704769",
    "longitude": "-90.11588597637655",
    "latitude": "29.951732978826872",
    "geocoded_column": {
      "latitude": "29.951732978826872",
      "longitude": "-90.11588597637655"
    }
  },
  {
    "service_request": "2023-976888",
    "request_type": "Trash/Recycling",
    "request_reason": "Order Recycling Cart",
    "date_created": "2023-02-22T15:19:21.000",
    "date_modified": "2023-02-22T15:19:21.000",
    "request_status": "Pending",
    "responsible_agency": "Department of Sanitation",
    "final_address": "3030 General Pershing St",
    "address_councildis": "B",
    "status": "Pending",
    "rowid": "976888",
    "final_x": "3670666.04398",
    "final_y": "526155.765182",
    "longitude": "-90.10246209489121",
    "latitude": "29.94107029169993",
    "geocoded_column": {
      "latitude": "29.94107029169993",
      "longitude": "-90.10246209489121"
    }
  },
  {
    "service_request": "2023-976887",
    "request_type": "Abandoned Vehicles",
    "request_reason": "Abandoned/Junk Vehicles",
    "date_created": "2023-02-22T15:18:58.000",
    "date_modified": "2023-02-22T15:21:05.000",
    "request_status": "Pending",
    "responsible_agency": "Department of Public Works",
    "final_address": "ST NICK ST & VIXEN ST",
    "address_councildis": "C",
    "status": "Pending",
    "rowid": "976887",
    "final_x": "3699309.3",
    "final_y": "520709.68",
    "longitude": "-90.01222887357261",
    "latitude": "29.92521832153691",
    "geocoded_column": {
      "latitude": "29.92521832153691",
      "longitude": "-90.01222887357261"
    }
  },
  {
    "service_request": "2023-976886",
    "request_type": "Trash/Recycling",
    "request_reason": "Request a Large Item Pick Up",
    "date_created": "2023-02-22T15:18:02.000",
    "date_modified": "2023-02-22T15:38:34.000",
    "request_status": "Pending",
    "responsible_agency": "Department of Sanitation",
    "final_address": "5668 General Haig St",
    "address_councildis": "A",
    "status": "Assigned to Contractor",
    "contractor": "IV Waste",
    "rowid": "976886",
    "final_x": "3670350.38625",
    "final_y": "544952.524815",
    "longitude": "-90.10282138547089",
    "latitude": "29.992764414790187",
    "geocoded_column": {
      "latitude": "29.992764414790187",
      "longitude": "-90.10282138547089"
    }
  },
  {
    "service_request": "2023-976885",
    "request_type": "Trash/Recycling",
    "request_reason": "Order Recycling Cart",
    "date_created": "2023-02-22T15:16:06.000",
    "date_modified": "2023-02-22T15:16:06.000",
    "request_status": "Pending",
    "responsible_agency": "Department of Sanitation",
    "final_address": "7215 S Claiborne Ave Unit B",
    "address_councildis": "A",
    "status": "Pending",
    "rowid": "976885",
    "final_x": "3666373.49281",
    "final_y": "529987.704769",
    "longitude": "-90.11588597637655",
    "latitude": "29.951732978826872",
    "geocoded_column": {
      "latitude": "29.951732978826872",
      "longitude": "-90.11588597637655"
    }
  },
  {
    "service_request": "2023-976884",
    "request_type": "Traffic Signals/Signs/Striping/Streetlights",
    "request_reason": "Traffic Signal Malfunctioning/Damaged",
    "date_created": "2023-02-22T15:15:04.000",
    "date_modified": "2023-02-22T15:15:46.000",
    "request_status": "Pending",
    "responsible_agency": "Department of Public Works",
    "final_address": "S BROAD ST & TULANE AVE",
    "address_councildis": "B",
    "status": "Pending",
    "rowid": "976884",
    "final_x": "3674313.3",
    "final_y": "533773.18",
    "longitude": "-90.09068620733277",
    "latitude": "29.961907423023113",
    "geocoded_column": {
      "latitude": "29.961907423023113",
      "longitude": "-90.09068620733277"
    }
  },
  {
    "service_request": "2023-976883",
    "request_type": "Abandoned Vehicles",
    "request_reason": "Vehicle Blocking Your Driveway",
    "date_created": "2023-02-22T15:12:31.000",
    "date_modified": "2023-02-22T15:12:31.000",
    "request_status": "Pending",
    "responsible_agency": "Department of Public Works",
    "final_address": "1101 N Rampart St",
    "address_councildis": "C",
    "status": "Pending",
    "rowid": "976883",
    "final_x": "3682247.68156",
    "final_y": "534592.556165",
    "longitude": "-90.06560207369664",
    "latitude": "29.963921440923606",
    "geocoded_column": {
      "latitude": "29.963921440923606",
      "longitude": "-90.06560207369664"
    }
  },
  {
    "service_request": "2023-976882",
    "request_type": "Trash/Recycling",
    "request_reason": "Repair Trash Cart",
    "date_created": "2023-02-22T15:11:43.000",
    "date_modified": "2023-02-22T15:11:44.000",
    "request_status": "Pending",
    "responsible_agency": "Department of Sanitation",
    "final_address": "4201 Eden St",
    "address_councildis": "B",
    "status": "Assigned to Contractor",
    "contractor": "Richards Disposal",
    "rowid": "976882",
    "final_x": "3670456.00923",
    "final_y": "530352.18061",
    "longitude": "-90.10298295470119",
    "latitude": "29.95261526536419",
    "geocoded_column": {
      "latitude": "29.95261526536419",
      "longitude": "-90.10298295470119"
    }
  },
  {
    "service_request": "2023-976881",
    "request_type": "Roads/Drainage",
    "request_reason": "Pothole",
    "date_created": "2023-02-22T15:10:21.000",
    "date_modified": "2023-02-22T15:10:21.000",
    "request_status": "Pending",
    "responsible_agency": "Department of Public Works",
    "final_address": "6960 Pontchartrain Blvd",
    "address_councildis": "A",
    "status": "Pending",
    "rowid": "976881",
    "final_x": "3666390.79444",
    "final_y": "554140.75772",
    "longitude": "-90.11502047173417",
    "latitude": "30.01814519381278",
    "geocoded_column": {
      "latitude": "30.01814519381278",
      "longitude": "-90.11502047173417"
    }
  },
  {
    "service_request": "2023-976880",
    "request_type": "Trash/Recycling",
    "request_reason": "Order Recycling Cart",
    "date_created": "2023-02-22T15:07:54.000",
    "date_modified": "2023-02-22T15:09:25.000",
    "request_status": "Pending",
    "responsible_agency": "Department of Sanitation",
    "final_address": "5696 Stillwater Dr",
    "address_councildis": "E",
    "status": "Pending",
    "rowid": "976880",
    "final_x": "3715979.68351",
    "final_y": "561419.709278",
    "longitude": "-89.95806399973408",
    "latitude": "30.036616433533183",
    "geocoded_column": {
      "latitude": "30.036616433533183",
      "longitude": "-89.95806399973408"
    }
  },
  {
    "service_request": "2023-976879",
    "request_type": "Trash/Recycling",
    "request_reason": "Request a Large Item Pick Up",
    "date_created": "2023-02-22T15:07:41.000",
    "date_modified": "2023-02-22T15:30:44.000",
    "case_close_date": "2023-02-22T09:30:44.000",
    "request_status": "Closed",
    "responsible_agency": "Department of Sanitation",
    "final_address": "1480 N Johnson St",
    "address_councildis": "D",
    "status": "Assigned to Contractor",
    "contractor": "IV Waste",
    "contractor_action": "Completed",
    "rowid": "976879",
    "final_x": "3680607.40002",
    "final_y": "537999.786697",
    "longitude": "-90.07066335950597",
    "latitude": "29.973339952683034",
    "geocoded_column": {
      "latitude": "29.973339952683034",
      "longitude": "-90.07066335950597"
    }
  },
  {
    "service_request": "2023-976878",
    "request_type": "Trash/Recycling",
    "request_reason": "Replace Trash Cart",
    "date_created": "2023-02-22T15:07:06.000",
    "date_modified": "2023-02-22T15:07:07.000",
    "request_status": "Pending",
    "responsible_agency": "Department of Sanitation",
    "final_address": "300 Abalon Ct",
    "address_councildis": "C",
    "status": "Assigned to Contractor",
    "contractor": "Richards Disposal",
    "rowid": "976878",
    "final_x": "3689433.28675",
    "final_y": "530652.902402",
    "longitude": "-90.04305076821902",
    "latitude": "29.95286820580555",
    "geocoded_column": {
      "latitude": "29.95286820580555",
      "longitude": "-90.04305076821902"
    }
  },
  {
    "service_request": "2023-976877",
    "request_type": "Trash/Recycling",
    "request_reason": "Order Trash Cart",
    "date_created": "2023-02-22T15:05:33.000",
    "date_modified": "2023-02-22T15:05:33.000",
    "request_status": "Pending",
    "responsible_agency": "Department of Sanitation",
    "final_address": "25244 Chef Menteur Hwy",
    "address_councildis": "E",
    "status": "Assigned to Contractor",
    "contractor": "Waste Pro",
    "rowid": "976877",
    "final_x": "3779323.63243",
    "final_y": "598236.583681",
    "longitude": "-89.75628935120774",
    "latitude": "30.135602278600746",
    "geocoded_column": {
      "latitude": "30.135602278600746",
      "longitude": "-89.75628935120774"
    }
  },
  {
    "service_request": "2023-976876",
    "request_type": "Property Maintenance",
    "request_reason": "Property Maintenance",
    "date_created": "2023-02-22T15:02:26.000",
    "date_modified": "2023-02-22T15:02:26.000",
    "request_status": "Pending",
    "responsible_agency": "Department of Code Enforcement",
    "final_address": "4116 Erato St",
    "address_councildis": "B",
    "status": "Pending",
    "rowid": "976876",
    "final_x": "3671261.35707",
    "final_y": "531214.948482",
    "longitude": "-90.10041071086543",
    "latitude": "29.954963790149375",
    "geocoded_column": {
      "latitude": "29.954963790149375",
      "longitude": "-90.10041071086543"
    }
  },
  {
    "service_request": "2023-976875",
    "request_type": "Property Maintenance",
    "request_reason": "Property Maintenance",
    "date_created": "2023-02-22T15:02:14.000",
    "date_modified": "2023-02-22T15:02:15.000",
    "request_status": "Pending",
    "responsible_agency": "Department of Code Enforcement",
    "final_address": "4112 Erato St",
    "address_councildis": "B",
    "status": "Pending",
    "rowid": "976875",
    "final_x": "3671284.37127",
    "final_y": "531201.509826",
    "longitude": "-90.10033849714267",
    "latitude": "29.95492615735954",
    "geocoded_column": {
      "latitude": "29.95492615735954",
      "longitude": "-90.10033849714267"
    }
  },
  {
    "service_request": "2023-976874",
    "request_type": "Abandoned Vehicles",
    "request_reason": "Abandoned/Junk Vehicles",
    "date_created": "2023-02-22T15:02:00.000",
    "date_modified": "2023-02-22T15:02:01.000",
    "request_status": "Pending",
    "responsible_agency": "Department of Public Works",
    "final_address": "2728 Lavender St",
    "address_councildis": "D",
    "status": "Pending",
    "rowid": "976874",
    "final_x": "3688043.4886",
    "final_y": "546961.680209",
    "longitude": "-90.04686096206429",
    "latitude": "29.99775455570041",
    "geocoded_column": {
      "latitude": "29.99775455570041",
      "longitude": "-90.04686096206429"
    }
  },
  {
    "service_request": "2023-976873",
    "request_type": "Trash/Recycling",
    "request_reason": "MIssed Recycling Pick-Up",
    "date_created": "2023-02-22T14:59:43.000",
    "date_modified": "2023-02-22T14:59:44.000",
    "request_status": "Pending",
    "responsible_agency": "Department of Sanitation",
    "final_address": "3430 Coliseum St",
    "address_councildis": "B",
    "status": "Assigned to Contractor",
    "contractor": "Richards Disposal",
    "rowid": "976873",
    "final_x": "3674364.17492",
    "final_y": "520427.713272",
    "longitude": "-90.090982476753",
    "latitude": "29.925210258964285",
    "geocoded_column": {
      "latitude": "29.925210258964285",
      "longitude": "-90.090982476753"
    }
  },
  {
    "service_request": "2023-976872",
    "request_type": "Trash/Recycling",
    "request_reason": "MIssed Recycling Pick-Up",
    "date_created": "2023-02-22T14:57:22.000",
    "date_modified": "2023-02-22T14:57:23.000",
    "request_status": "Pending",
    "responsible_agency": "Department of Sanitation",
    "final_address": "7800 BLK Sycamore St",
    "address_councildis": "A",
    "status": "Assigned to Contractor",
    "contractor": "Richards Disposal",
    "rowid": "976872",
    "final_x": "3665031.60625",
    "final_y": "530330.540833",
    "longitude": "-90.12011156730141",
    "latitude": "29.952714801838535",
    "geocoded_column": {
      "latitude": "29.952714801838535",
      "longitude": "-90.12011156730141"
    }
  },
  {
    "service_request": "2023-976871",
    "request_type": "Traffic Signals/Signs/Striping/Streetlights",
    "request_reason": "Traffic Signal Malfunctioning/Damaged",
    "date_created": "2023-02-22T14:56:52.000",
    "date_modified": "2023-02-22T14:56:52.000",
    "request_status": "Pending",
    "responsible_agency": "Department of Public Works",
    "final_address": "S BROAD ST & TULANE AVE",
    "address_councildis": "B",
    "status": "Pending",
    "rowid": "976871",
    "final_x": "3674313.3",
    "final_y": "533773.18",
    "longitude": "-90.09068620733277",
    "latitude": "29.961907423023113",
    "geocoded_column": {
      "latitude": "29.961907423023113",
      "longitude": "-90.09068620733277"
    }
  },