[
  {
    "service_request": "2023-1008768",
    "request_type": "Trash/Recycling",
    "request_reason": "Repair Trash Cart",
    "date_created": "2023-06-14T22:22:17.000",
    "date_modified": "2023-06-14T22:22:18.000",
    "request_status": "Pending",
    "responsible_agency": "Department of Sanitation",
    "final_address": "2529 Robert St",
    "address_councildis": "B",
    "status": "Assigned to Contractor",
    "contractor": "Richards Disposal",
    "rowid": "1008768",
    "final_x": "3668893.47521",
    "final_y": "524866.070524",
    "longitude": "-90.10810197634368",
    "latitude": "29.93757628515281",
    "geocoded_column": {
      "latitude": "29.93757628515281",
      "longitude": "-90.10810197634368"
    }
  },
  {
    "service_request": "2023-1008767",
    "request_type": "Traffic Signals/Signs/Striping/Streetlights",
    "request_reason": "Street Light Outage/Malfunction",
    "date_created": "2023-06-14T22:02:45.000",
    "date_modified": "2023-06-14T22:02:46.000",
    "request_status": "Pending",
    "responsible_agency": "Department of Public Works",
    "final_address": "2210 Orleans Ave",
    "address_councildis": "D",
    "status": "Assigned to Contractor",
    "contractor": "Legacy Professional Services",
    "rowid": "1008767",
    "final_x": "3678255.75426",
    "final_y": "535823.555591",
    "longitude": "-90.0781656276981",
    "latitude": "29.96742710736512",
    "geocoded_column": {
      "latitude": "29.96742710736512",
      "longitude": "-90.0781656276981"
    }
  },
  {
    "service_request": "2023-1008766",
    "request_type": "Trash/Recycling",
    "request_reason": "Request a Large Item Pick Up",
    "date_created": "2023-06-14T22:01:13.000",
    "date_modified": "2023-06-14T22:01:14.000",
    "request_status": "Pending",
    "responsible_agency": "Department of Sanitation",
    "final_address": "5519 Charlotte Dr",
    "address_councildis": "D",
    "status": "Assigned to Contractor",
    "contractor": "IV Waste",
    "rowid": "1008766",
    "final_x": "3680130.96949",
    "final_y": "552772.898774",
    "longitude": "-90.07165429172042",
    "latitude": "30.013975219792353",
    "geocoded_column": {
      "latitude": "30.013975219792353",
      "longitude": "-90.07165429172042"
    }
  },
  {
    "service_request": "2023-1008765",
    "request_type": "Roads/Drainage",
    "request_reason": "Catch Basin - Clogged",
    "date_created": "2023-06-14T21:58:12.000",
    "date_modified": "2023-06-14T21:58:12.000",
    "request_status": "Pending",
    "responsible_agency": "Department of Public Works",
    "final_address": "2210 Orleans Ave",
    "address_councildis": "D",
    "status": "Pending",
    "rowid": "1008765",
    "final_x": "3678255.75426",
    "final_y": "535823.555591",
    "longitude": "-90.0781656276981",
    "latitude": "29.96742710736512",
    "geocoded_column": {
      "latitude": "29.96742710736512",
      "longitude": "-90.0781656276981"
    }
  },
  {
    "service_request": "2023-1008764",
    "request_type": "Property Maintenance",
    "request_reason": "Property Maintenance",
    "date_created": "2023-06-14T21:42:10.000",
    "date_modified": "2023-06-14T21:42:10.000",
    "request_status": "Pending",
    "responsible_agency": "Department of Code Enforcement",
    "final_address": "1603 Arts St",
    "address_councildis": "D",
    "status": "Pending",
    "rowid": "1008764",
    "final_x": "3687091.04239",
    "final_y": "538366.916681",
    "longitude": "-90.05017375528617",
    "latitude": "29.97415138345498",
    "geocoded_column": {
      "latitude": "29.97415138345498",
      "longitude": "-90.05017375528617"
    }
  },
  {
    "service_request": "2023-1008763",
    "request_type": "Traffic Signals/Signs/Striping/Streetlights",
    "request_reason": "Traffic Sign Missing/Damaged",
    "date_created": "2023-06-14T21:17:34.000",
    "date_modified": "2023-06-14T21:17:34.000",
    "request_status": "Pending",
    "responsible_agency": "Department of Public Works",
    "final_address": "CITY PARK AVE & ANSEMAN AVE & N ALEXANDER ST",
    "address_councildis": "A",
    "status": "Pending",
    "rowid": "1008763",
    "final_x": "3671816.1",
    "final_y": "541670.78",
    "longitude": "-90.09830318337166",
    "latitude": "29.983697384142122",
    "geocoded_column": {
      "latitude": "29.983697384142122",
      "longitude": "-90.09830318337166"
    }
  },
  {
    "service_request": "2023-1008762",
    "request_type": "Trash/Recycling",
    "request_reason": "Order Recycling Cart",
    "date_created": "2023-06-14T21:16:09.000",
    "date_modified": "2023-06-14T21:16:09.000",
    "request_status": "Pending",
    "responsible_agency": "Department of Sanitation",
    "final_address": "2741 Dreux Ave",
    "address_councildis": "D",
    "status": "Pending",
    "rowid": "1008762",
    "final_x": "3687669.92598",
    "final_y": "552343.28111",
    "longitude": "-90.04785031334103",
    "latitude": "30.01256352429885",
    "geocoded_column": {
      "latitude": "30.01256352429885",
      "longitude": "-90.04785031334103"
    }
  },
  {
    "service_request": "2023-1008761",
    "request_type": "Trash/Recycling",
    "request_reason": "Replace Trash Cart",
    "date_created": "2023-06-14T21:11:58.000",
    "date_modified": "2023-06-14T21:11:59.000",
    "request_status": "Pending",
    "responsible_agency": "Department of Sanitation",
    "final_address": "6800 Lake Willow Dr",
    "address_councildis": "E",
    "status": "Assigned to Contractor",
    "contractor": "Waste Pro",
    "rowid": "1008761",
    "final_x": "3703749.17604",
    "final_y": "559078.689116",
    "longitude": "-89.99680095414168",
    "latitude": "30.03057749880043",
    "geocoded_column": {
      "latitude": "30.03057749880043",
      "longitude": "-89.99680095414168"
    }
  },
  {
    "service_request": "2023-1008760",
    "request_type": "Abandoned Vehicles",
    "request_reason": "Abandoned/Junk Vehicles",
    "date_created": "2023-06-14T20:56:55.000",
    "date_modified": "2023-06-14T20:56:55.000",
    "request_status": "Pending",
    "responsible_agency": "Department of Public Works",
    "final_address": "N PARK PL & E PARK PL",
    "address_councildis": "A",
    "status": "Pending",
    "rowid": "1008760",
    "final_x": "3670101.8",
    "final_y": "544920.38",
    "longitude": "-90.10360771645522",
    "latitude": "29.992683365623236",
    "geocoded_column": {
      "latitude": "29.992683365623236",
      "longitude": "-90.10360771645522"
    }
  },
  {
    "service_request": "2023-1008759",
    "request_type": "Trash/Recycling",
    "request_reason": "Missed Trash Pick-Up",
    "date_created": "2023-06-14T20:50:03.000",
    "date_modified": "2023-06-14T20:50:04.000",
    "request_status": "Pending",
    "responsible_agency": "Department of Sanitation",
    "final_address": "3400 BLK Nashville Ave",
    "address_councildis": "A",
    "status": "Assigned to Contractor",
    "contractor": "Richards Disposal",
    "rowid": "1008759",
    "final_x": "3668089.8439",
    "final_y": "528292.81689",
    "longitude": "-90.11052365536752",
    "latitude": "29.947022334363254",
    "geocoded_column": {
      "latitude": "29.947022334363254",
      "longitude": "-90.11052365536752"
    }
  },
  {
    "service_request": "2023-1008758",
    "request_type": "Abandoned Vehicles",
    "request_reason": "Abandoned/Junk Vehicles",
    "date_created": "2023-06-14T20:31:06.000",
    "date_modified": "2023-06-14T20:31:06.000",
    "request_status": "Pending",
    "responsible_agency": "Department of Public Works",
    "final_address": "1031 Thalia St",
    "address_councildis": "B",
    "status": "Pending",
    "rowid": "1008758",
    "final_x": "3680664.80501",
    "final_y": "525240.355005",
    "longitude": "-90.07092602598497",
    "latitude": "29.938254095625982",
    "geocoded_column": {
      "latitude": "29.938254095625982",
      "longitude": "-90.07092602598497"
    }
  },
  {
    "service_request": "2023-1008757",
    "request_type": "Abandoned Vehicles",
    "request_reason": "Abandoned/Junk Vehicles",
    "date_created": "2023-06-14T20:29:58.000",
    "date_modified": "2023-06-14T20:29:58.000",
    "request_status": "Pending",
    "responsible_agency": "Department of Public Works",
    "final_address": "FRANCE RD & HAYNE BLVD",
    "address_councildis": "D",
    "status": "Pending",
    "rowid": "1008757",
    "final_x": "3690868.34",
    "final_y": "558794.79",
    "longitude": "-90.03751462024054",
    "latitude": "30.03020370998618",
    "geocoded_column": {
      "latitude": "30.03020370998618",
      "longitude": "-90.03751462024054"
    }
  },
  {
    "service_request": "2023-1008755",
    "request_type": "Health Related Request",
    "request_reason": "Noise Ordinance Complaint",
    "date_created": "2023-06-14T20:28:04.000",
    "date_modified": "2023-06-14T20:28:04.000",
    "request_status": "Pending",
    "responsible_agency": "Health Department",
    "final_address": "1224 St Bernard Ave",
    "address_councildis": "C",
    "status": "Pending",
    "rowid": "1008755",
    "final_x": "3682916.67836",
    "final_y": "536293.198663",
    "longitude": "-90.06342992731621",
    "latitude": "29.968577253130643",
    "geocoded_column": {
      "latitude": "29.968577253130643",
      "longitude": "-90.06342992731621"
    }
  },
  {
    "service_request": "2023-1008754",
    "request_type": "Trash/Recycling",
    "request_reason": "Replace Trash Cart",
    "date_created": "2023-06-14T19:56:40.000",
    "date_modified": "2023-06-14T19:56:41.000",
    "request_status": "Pending",
    "responsible_agency": "Department of Sanitation",
    "final_address": "5469 Stillwater Dr",
    "address_councildis": "E",
    "status": "Assigned to Contractor",
    "contractor": "Waste Pro",
    "rowid": "1008754",
    "final_x": "3716768.54591",
    "final_y": "560705.385758",
    "longitude": "-89.95559820212921",
    "latitude": "30.034626274593734",
    "geocoded_column": {
      "latitude": "30.034626274593734",
      "longitude": "-89.95559820212921"
    }
  },
  {
    "service_request": "2023-1008753",
    "request_type": "Trash/Recycling",
    "request_reason": "Request a Large Item Pick Up",
    "date_created": "2023-06-14T19:49:17.000",
    "date_modified": "2023-06-14T19:49:18.000",
    "request_status": "Pending",
    "responsible_agency": "Department of Sanitation",
    "final_address": "2324 Jackson Ave",
    "address_councildis": "B",
    "status": "Assigned to Contractor",
    "contractor": "Richards Disposal",
    "rowid": "1008753",
    "final_x": "3675647.30606",
    "final_y": "526195.183742",
    "longitude": "-90.08673396542972",
    "latitude": "29.9410306073941",
    "geocoded_column": {
      "latitude": "29.9410306073941",
      "longitude": "-90.08673396542972"
    }
  },
  {
    "service_request": "2023-1008752",
    "request_type": "Trash/Recycling",
    "request_reason": "Request a Large Item Pick Up",
    "date_created": "2023-06-14T19:47:39.000",
    "date_modified": "2023-06-14T19:47:40.000",
    "request_status": "Pending",
    "responsible_agency": "Department of Sanitation",
    "final_address": "2326 Jackson Ave Apt B",
    "address_councildis": "B",
    "status": "Assigned to Contractor",
    "contractor": "Richards Disposal",
    "rowid": "1008752",
    "final_x": "3675616.16789",
    "final_y": "526190.488126",
    "longitude": "-90.08683243568711",
    "latitude": "29.941018627442883",
    "geocoded_column": {
      "latitude": "29.941018627442883",
      "longitude": "-90.08683243568711"
    }
  },
  {
    "service_request": "2023-1008751",
    "request_type": "Trash/Recycling",
    "request_reason": "Request a Large Item Pick Up",
    "date_created": "2023-06-14T19:37:30.000",
    "date_modified": "2023-06-14T19:37:31.000",
    "request_status": "Pending",
    "responsible_agency": "Department of Sanitation",
    "final_address": "2420 Dubreuil St",
    "address_councildis": "E",
    "status": "Assigned to Contractor",
    "contractor": "Waste Pro",
    "rowid": "1008751",
    "final_x": "3702639.90135",
    "final_y": "537674.205576",
    "longitude": "-90.00109267098752",
    "latitude": "29.971758742336537",
    "geocoded_column": {
      "latitude": "29.971758742336537",
      "longitude": "-90.00109267098752"
    }
  },
  {
    "service_request": "2023-1008749",
    "request_type": "Trash/Recycling",
    "request_reason": "MIssed Recycling Pick-Up",
    "date_created": "2023-06-14T19:28:46.000",
    "date_modified": "2023-06-14T19:28:47.000",
    "request_status": "Pending",
    "responsible_agency": "Department of Sanitation",
    "final_address": "10 Palm Ter",
    "address_councildis": "B",
    "status": "Assigned to Contractor",
    "contractor": "Richards Disposal",
    "rowid": "1008749",
    "final_x": "3671773.60148",
    "final_y": "521238.328441",
    "longitude": "-90.09913254951194",
    "latitude": "29.927516168928225",
    "geocoded_column": {
      "latitude": "29.927516168928225",
      "longitude": "-90.09913254951194"
    }
  },
  {
    "service_request": "2023-1008748",
    "request_type": "Trash/Recycling",
    "request_reason": "MIssed Recycling Pick-Up",
    "date_created": "2023-06-14T19:22:05.000",
    "date_modified": "2023-06-14T19:22:05.000",
    "request_status": "Pending",
    "responsible_agency": "Department of Sanitation",
    "final_address": "716 Peniston St",
    "address_councildis": "B",
    "status": "Assigned to Contractor",
    "contractor": "Richards Disposal",
    "rowid": "1008748",
    "final_x": "3673485.12014",
    "final_y": "518469.724342",
    "longitude": "-90.09382423794936",
    "latitude": "29.91985259424551",
    "geocoded_column": {
      "latitude": "29.91985259424551",
      "longitude": "-90.09382423794936"
    }
  },
  {
    "service_request": "2023-1008747",
    "request_type": "Traffic Signals/Signs/Striping/Streetlights",
    "request_reason": "Traffic Sign Missing/Damaged",
    "date_created": "2023-06-14T19:13:58.000",
    "date_modified": "2023-06-14T19:13:58.000",
    "request_status": "Pending",
    "responsible_agency": "Department of Public Works",
    "final_address": "5600 BLK N Tonti St",
    "address_councildis": "E",
    "status": "Pending",
    "rowid": "1008747",
    "final_x": "3699414.73794",
    "final_y": "538210.511293",
    "longitude": "-90.01125862929948",
    "latitude": "29.973336102153517",
    "geocoded_column": {
      "latitude": "29.973336102153517",
      "longitude": "-90.01125862929948"
    }
  },
  {
    "service_request": "2023-1008746",
    "request_type": "Traffic Signals/Signs/Striping/Streetlights",
    "request_reason": "Street Light Outage/Malfunction",
    "date_created": "2023-06-14T19:11:37.000",
    "date_modified": "2023-06-14T19:11:38.000",
    "request_status": "Pending",
    "responsible_agency": "Department of Public Works",
    "status": "Assigned to Contractor",
    "contractor": "Legacy Professional Services",
    "rowid": "1008746",
    "longitude": "0.0",
    "latitude": "0.0",
    "geocoded_column": {
      "latitude": "0.0",
      "longitude": "0.0"
    }
  },
  {
    "service_request": "2023-1008745",
    "request_type": "Trash/Recycling",
    "request_reason": "Illegal Dumping",
    "date_created": "2023-06-14T19:07:34.000",
    "date_modified": "2023-06-14T19:07:34.000",
    "request_status": "Pending",
    "responsible_agency": "Department of Sanitation",
    "final_address": "5500 BLK N Tonti St",
    "address_councildis": "E",
    "status": "Pending",
    "rowid": "1008745",
    "final_x": "3699070.16777",
    "final_y": "538295.99603",
    "longitude": "-90.01234373319625",
    "latitude": "29.973582081491216",
    "geocoded_column": {
      "latitude": "29.973582081491216",
      "longitude": "-90.01234373319625"
    }
  },
  {
    "service_request": "2023-1008744",
    "request_type": "Trash/Recycling",
    "request_reason": "Missed Trash Pick-Up",
    "date_created": "2023-06-14T19:00:17.000",
    "date_modified": "2023-06-14T19:00:18.000",
    "request_status": "Pending",
    "responsible_agency": "Department of Sanitation",
    "final_address": "1821 Fern St",
    "address_councildis": "A",
    "status": "Assigned to Contractor",
    "contractor": "Richards Disposal",
    "rowid": "1008744",
    "final_x": "3664104.65562",
    "final_y": "529518.321729",
    "longitude": "-90.12306556345776",
    "latitude": "29.950508416285594",
    "geocoded_column": {
      "latitude": "29.950508416285594",
      "longitude": "-90.12306556345776"
    }
  },
  {
    "service_request": "2023-1008743",
    "request_type": "Trash/Recycling",
    "request_reason": "Repair Recycling Cart",
    "date_created": "2023-06-14T18:49:47.000",
    "date_modified": "2023-06-14T18:49:47.000",
    "request_status": "Pending",
    "responsible_agency": "Department of Sanitation",
    "final_address": "7431 Fieldston Rd",
    "address_councildis": "E",
    "status": "Pending",
    "rowid": "1008743",
    "final_x": "3700746.96177",
    "final_y": "560141.722205",
    "longitude": "-90.00624903438703",
    "latitude": "30.033596373831262",
    "geocoded_column": {
      "latitude": "30.033596373831262",
      "longitude": "-90.00624903438703"
    }
  },
  {
    "service_request": "2023-1008742",
    "request_type": "Trash/Recycling",
    "request_reason": "Request a Large Item Pick Up",
    "date_created": "2023-06-14T18:32:19.000",
    "date_modified": "2023-06-14T18:32:20.000",
    "request_status": "Pending",
    "responsible_agency": "Department of Sanitation",
    "final_address": "6543 E Hermes St",
    "address_councildis": "D",
    "status": "Assigned to Contractor",
    "contractor": "Waste Pro",
    "rowid": "1008742",
    "final_x": "3697971.39523",
    "final_y": "555639.908697",
    "longitude": "-90.01518374272342",
    "latitude": "30.021306207796147",
    "geocoded_column": {
      "latitude": "30.021306207796147",
      "longitude": "-90.01518374272342"
    }
  },
  {
    "service_request": "2023-1008741",
    "request_type": "Trash/Recycling",
    "request_reason": "Request a Large Item Pick Up",
    "date_created": "2023-06-14T18:27:10.000",
    "date_modified": "2023-06-14T18:27:10.000",
    "request_status": "Pending",
    "responsible_agency": "Department of Sanitation",
    "final_address": "3713 St Claude Ave",
    "address_councildis": "C",
    "status": "Assigned to Contractor",
    "contractor": "IV Waste",
    "rowid": "1008741",
    "final_x": "3691106.16982",
    "final_y": "535589.452038",
    "longitude": "-90.03759229849675",
    "latitude": "29.96639009229955",
    "geocoded_column": {
      "latitude": "29.96639009229955",
      "longitude": "-90.03759229849675"
    }
  },
  {
    "service_request": "2023-1008740",
    "request_type": "Trash/Recycling",
    "request_reason": "Repair Recycling Cart",
    "date_created": "2023-06-14T18:20:54.000",
    "date_modified": "2023-06-14T18:20:54.000",
    "request_status": "Pending",
    "responsible_agency": "Department of Sanitation",
    "final_address": "536 Second St",
    "address_councildis": "B",
    "status": "Pending",
    "rowid": "1008740",
    "final_x": "3678882.36162",
    "final_y": "519667.091704",
    "longitude": "-90.07674632800837",
    "latitude": "29.922983324477947",
    "geocoded_column": {
      "latitude": "29.922983324477947",
      "longitude": "-90.07674632800837"
    }
  },
  {
    "service_request": "2023-1008739",
    "request_type": "Abandoned Vehicles",
    "request_reason": "Abandoned/Junk Vehicles",
    "date_created": "2023-06-14T18:13:05.000",
    "date_modified": "2023-06-14T18:13:05.000",
    "request_status": "Pending",
    "responsible_agency": "Department of Public Works",
    "final_address": "5400 Montegut Dr",
    "address_councildis": "D",
    "status": "Pending",
    "rowid": "1008739",
    "final_x": "3689634.45814",
    "final_y": "553213.847703",
    "longitude": "-90.04161249189568",
    "latitude": "30.014896513712465",
    "geocoded_column": {
      "latitude": "30.014896513712465",
      "longitude": "-90.04161249189568"
    }
  },
  {
    "service_request": "2023-1008738",
    "request_type": "Abandoned Vehicles",
    "request_reason": "Abandoned/Junk Vehicles",
    "date_created": "2023-06-14T18:10:53.000",
    "date_modified": "2023-06-14T18:10:53.000",
    "request_status": "Pending",
    "responsible_agency": "Department of Public Works",
    "final_address": "5400 Montegut Dr",
    "address_councildis": "D",
    "status": "Pending",
    "rowid": "1008738",
    "final_x": "3689634.45814",
    "final_y": "553213.847703",
    "longitude": "-90.04161249189568",
    "latitude": "30.014896513712465",
    "geocoded_column": {
      "latitude": "30.014896513712465",
      "longitude": "-90.04161249189568"
    }
  },
  {
    "service_request": "2023-1008737",
    "request_type": "Trash/Recycling",
    "request_reason": "Request a Large Item Pick Up",
    "date_created": "2023-06-14T18:04:35.000",
    "date_modified": "2023-06-14T18:04:36.000",
    "request_status": "Pending",
    "responsible_agency": "Department of Sanitation",
    "final_address": "1622 St Anthony St",
    "address_councildis": "D",
    "status": "Assigned to Contractor",
    "contractor": "IV Waste",
    "rowid": "1008737",
    "final_x": "3683316.25071",
    "final_y": "538219.294793",
    "longitude": "-90.06210057429708",
    "latitude": "29.973861167153547",
    "geocoded_column": {
      "latitude": "29.973861167153547",
      "longitude": "-90.06210057429708"
    }
  },
  {
    "service_request": "2023-1008736",
    "request_type": "Parks & Parkways",
    "request_reason": "Request Tree Service (Right of Way/Public Property)",
    "date_created": "2023-06-14T18:02:04.000",
    "date_modified": "2023-06-14T18:02:05.000",
    "request_status": "Pending",
    "responsible_agency": "Department of Parks & Parkway",
    "final_address": "1014 N Carrollton Ave",
    "address_councildis": "A",
    "status": "Pending",
    "rowid": "1008736",
    "final_x": "3673787.24987",
    "final_y": "541106.512972",
    "longitude": "-90.09209653868531",
    "latitude": "29.982087277803604",
    "geocoded_column": {
      "latitude": "29.982087277803604",
      "longitude": "-90.09209653868531"
    }
  },
  {
    "service_request": "2023-1008735",
    "request_type": "Roads/Drainage",
    "request_reason": "Pothole",
    "date_created": "2023-06-14T17:59:39.000",
    "date_modified": "2023-06-14T17:59:39.000",
    "request_status": "Pending",
    "responsible_agency": "Department of Public Works",
    "final_address": "4242 Mithra St",
    "address_councildis": "D",
    "status": "Pending",
    "rowid": "1008735",
    "final_x": "3689689.20047",
    "final_y": "553054.554199",
    "longitude": "-90.04144520733108",
    "latitude": "30.014456818579884",
    "geocoded_column": {
      "latitude": "30.014456818579884",
      "longitude": "-90.04144520733108"
    }
  },
  {
    "service_request": "2023-1008734",
    "request_type": "Trash/Recycling",
    "request_reason": "Order Recycling Cart",
    "date_created": "2023-06-14T17:55:20.000",
    "date_modified": "2023-06-14T17:55:21.000",
    "request_status": "Pending",
    "responsible_agency": "Department of Sanitation",
    "final_address": "11405 Campbell Ln",
    "address_councildis": "E",
    "status": "Pending",
    "rowid": "1008734",
    "final_x": "3717833.01561",
    "final_y": "561314.652894",
    "longitude": "-89.95221115698885",
    "latitude": "30.036266277688625",
    "geocoded_column": {
      "latitude": "30.036266277688625",
      "longitude": "-89.95221115698885"
    }
  },
  {
    "service_request": "2023-1008733",
    "request_type": "Trash/Recycling",
    "request_reason": "MIssed Recycling Pick-Up",
    "date_created": "2023-06-14T17:54:51.000",
    "date_modified": "2023-06-14T17:54:51.000",
    "request_status": "Pending",
    "responsible_agency": "Department of Sanitation",
    "final_address": "11405 Campbell Ln",
    "address_councildis": "E",
    "status": "Assigned to Contractor",
    "contractor": "Waste Pro",
    "rowid": "1008733",
    "final_x": "3717833.01561",
    "final_y": "561314.652894",
    "longitude": "-89.95221115698885",
    "latitude": "30.036266277688625",
    "geocoded_column": {
      "latitude": "30.036266277688625",
      "longitude": "-89.95221115698885"
    }
  },
  {
    "service_request": "2023-1008732",
    "request_type": "Property Maintenance",
    "request_reason": "Property Maintenance",
    "date_created": "2023-06-14T17:54:29.000",
    "date_modified": "2023-06-14T17:54:30.000",
    "request_status": "Pending",
    "responsible_agency": "Department of Code Enforcement",
    "final_address": "6607 Pauline Dr",
    "address_councildis": "D",
    "status": "Pending",
    "rowid": "1008732",
    "final_x": "3690978.05206",
    "final_y": "558035.250459",
    "longitude": "-90.03719508047016",
    "latitude": "30.028111851093293",
    "geocoded_column": {
      "latitude": "30.028111851093293",
      "longitude": "-90.03719508047016"
    }
  },
  {
    "service_request": "2023-1008731",
    "request_type": "Roads/Drainage",
    "request_reason": "Service Cut",
    "date_created": "2023-06-14T17:52:40.000",
    "date_modified": "2023-06-14T17:52:40.000",
    "request_status": "Pending",
    "responsible_agency": "Department of Public Works",
    "final_address": "2252 Pressburg St",
    "address_councildis": "D",
    "status": "Pending",
    "rowid": "1008731",
    "final_x": "3684110.63061",
    "final_y": "554533.6486",
    "longitude": "-90.05901873752644",
    "latitude": "30.018695548053664",
    "geocoded_column": {
      "latitude": "30.018695548053664",
      "longitude": "-90.05901873752644"
    }
  },
  {
    "service_request": "2023-1008730",
    "request_type": "Trash/Recycling",
    "request_reason": "Order Recycling Cart",
    "date_created": "2023-06-14T17:49:41.000",
    "date_modified": "2023-06-14T17:49:41.000",
    "request_status": "Pending",
    "responsible_agency": "Department of Sanitation",
    "final_address": "53 Winners Cir",
    "address_councildis": "E",
    "status": "Pending",
    "rowid": "1008730",
    "final_x": "3715929.56293",
    "final_y": "570291.255143",
    "longitude": "-89.95788585203292",
    "latitude": "30.06101121340745",
    "geocoded_column": {
      "latitude": "30.06101121340745",
      "longitude": "-89.95788585203292"
    }
  },
  {
    "service_request": "2023-1008729",
    "request_type": "Trash/Recycling",
    "request_reason": "Illegal Dumping",
    "date_created": "2023-06-14T17:46:06.000",
    "date_modified": "2023-06-14T17:46:06.000",
    "request_status": "Pending",
    "responsible_agency": "Department of Sanitation",
    "final_address": "2900 BLK Laussat Pl",
    "address_councildis": "D",
    "status": "Pending",
    "rowid": "1008729",
    "final_x": "3689775.32514",
    "final_y": "542078.717467",
    "longitude": "-90.04156404317793",
    "latitude": "29.98427458965823",
    "geocoded_column": {
      "latitude": "29.98427458965823",
      "longitude": "-90.04156404317793"
    }
  },
  {
    "service_request": "2023-1008728",
    "request_type": "Trash/Recycling",
    "request_reason": "MIssed Recycling Pick-Up",
    "date_created": "2023-06-14T17:44:13.000",
    "date_modified": "2023-06-14T17:44:13.000",
    "request_status": "Pending",
    "responsible_agency": "Department of Sanitation",
    "final_address": "11404 Campbell Ln",
    "address_councildis": "E",
    "status": "Assigned to Contractor",
    "contractor": "Waste Pro",
    "rowid": "1008728",
    "final_x": "3717895.14885",
    "final_y": "561241.646558",
    "longitude": "-89.95201758734513",
    "latitude": "30.036063480430986",
    "geocoded_column": {
      "latitude": "30.036063480430986",
      "longitude": "-89.95201758734513"
    }
  },
  {
    "service_request": "2023-1008727",
    "request_type": "Trash/Recycling",
    "request_reason": "Replace Trash Cart",
    "date_created": "2023-06-14T17:43:37.000",
    "date_modified": "2023-06-14T17:43:38.000",
    "request_status": "Pending",
    "responsible_agency": "Department of Sanitation",
    "final_address": "1719 Toledano St",
    "address_councildis": "B",
    "status": "Assigned to Contractor",
    "contractor": "Richards Disposal",
    "rowid": "1008727",
    "final_x": "3674403.64788",
    "final_y": "522246.697082",
    "longitude": "-90.09079560780958",
    "latitude": "29.930210700280217",
    "geocoded_column": {
      "latitude": "29.930210700280217",
      "longitude": "-90.09079560780958"
    }
  },
  {
    "service_request": "2023-1008726",
    "request_type": "Trash/Recycling",
    "request_reason": "Illegal Dumping",
    "date_created": "2023-06-14T17:43:12.000",
    "date_modified": "2023-06-14T17:43:12.000",
    "request_status": "Pending",
    "responsible_agency": "Department of Sanitation",
    "final_address": "2900 BLK Laussat Pl",
    "address_councildis": "D",
    "status": "Pending",
    "rowid": "1008726",
    "final_x": "3689775.32514",
    "final_y": "542078.717467",
    "longitude": "-90.04156404317793",
    "latitude": "29.98427458965823",
    "geocoded_column": {
      "latitude": "29.98427458965823",
      "longitude": "-90.04156404317793"
    }
  },
  {
    "service_request": "2023-1008725",
    "request_type": "Trash/Recycling",
    "request_reason": "Request a Large Item Pick Up",
    "date_created": "2023-06-14T17:41:28.000",
    "date_modified": "2023-06-14T17:41:29.000",
    "request_status": "Pending",
    "responsible_agency": "Department of Sanitation",
    "final_address": "1315 St Andrew St",
    "address_councildis": "B",
    "status": "Assigned to Contractor",
    "contractor": "Richards Disposal",
    "rowid": "1008725",
    "final_x": "3678976.02146",
    "final_y": "523267.033787",
    "longitude": "-90.07632601935202",
    "latitude": "29.93287916439355",
    "geocoded_column": {
      "latitude": "29.93287916439355",
      "longitude": "-90.07632601935202"
    }
  },
  {
    "service_request": "2023-1008724",
    "request_type": "Trash/Recycling",
    "request_reason": "Missed Trash Pick-Up",
    "date_created": "2023-06-14T17:40:17.000",
    "date_modified": "2023-06-14T17:40:17.000",
    "request_status": "Pending",
    "responsible_agency": "Department of Sanitation",
    "final_address": "127 Alvin Callender St",
    "address_councildis": "A",
    "status": "Assigned to Contractor",
    "contractor": "Richards Disposal",
    "rowid": "1008724",
    "final_x": "3661079.35078",
    "final_y": "523318.053627",
    "longitude": "-90.13282307405838",
    "latitude": "29.933547163249973",
    "geocoded_column": {
      "latitude": "29.933547163249973",
      "longitude": "-90.13282307405838"
    }
  },
  {
    "service_request": "2023-1008723",
    "request_type": "Roads/Drainage",
    "request_reason": "Damaged Sidewalk",
    "date_created": "2023-06-14T17:34:49.000",
    "date_modified": "2023-06-14T17:34:49.000",
    "request_status": "Pending",
    "responsible_agency": "Department of Public Works",
    "final_address": "7441 Lake Barrington Dr",
    "address_councildis": "E",
    "status": "Pending",
    "rowid": "1008723",
    "final_x": "3712706.10328",
    "final_y": "565128.507682",
    "longitude": "-89.9682694578289",
    "latitude": "30.04692176375646",
    "geocoded_column": {
      "latitude": "30.04692176375646",
      "longitude": "-89.9682694578289"
    }
  },
  {
    "service_request": "2023-1008722",
    "request_type": "Trash/Recycling",
    "request_reason": "Repair Trash Cart",
    "date_created": "2023-06-14T17:32:33.000",
    "date_modified": "2023-06-14T17:32:34.000",
    "request_status": "Pending",
    "responsible_agency": "Department of Sanitation",
    "final_address": "2024 General Collins Ave",
    "address_councildis": "C",
    "status": "Assigned to Contractor",
    "contractor": "Richards Disposal",
    "rowid": "1008722",
    "final_x": "3698537.40624",
    "final_y": "523431.049211",
    "longitude": "-90.01456661298222",
    "latitude": "29.932725599724634",
    "geocoded_column": {
      "latitude": "29.932725599724634",
      "longitude": "-90.01456661298222"
    }
  },
  {
    "service_request": "2023-1008721",
    "request_type": "Trash/Recycling",
    "request_reason": "Request a Large Item Pick Up",
    "date_created": "2023-06-14T17:30:30.000",
    "date_modified": "2023-06-14T17:30:31.000",
    "request_status": "Pending",
    "responsible_agency": "Department of Sanitation",
    "final_address": "1900 Deslonde St",
    "address_councildis": "E",
    "status": "Assigned to Contractor",
    "contractor": "Waste Pro",
    "rowid": "1008721",
    "final_x": "3696196.5441",
    "final_y": "537440.014344",
    "longitude": "-90.02145015021996",
    "latitude": "29.97131921809821",
    "geocoded_column": {
      "latitude": "29.97131921809821",
      "longitude": "-90.02145015021996"
    }
  },
  {
    "service_request": "2023-1008720",
    "request_type": "Parks & Parkways",
    "request_reason": "Request Tree Service (Right of Way/Public Property)",
    "date_created": "2023-06-14T17:30:01.000",
    "date_modified": "2023-06-14T17:30:01.000",
    "request_status": "Pending",
    "responsible_agency": "Department of Parks & Parkway",
    "final_address": "2504 N Rampart St",
    "address_councildis": "C",
    "status": "Pending",
    "rowid": "1008720",
    "final_x": "3686590.63062",
    "final_y": "536036.062023",
    "longitude": "-90.05183649619796",
    "latitude": "29.96775774661229",
    "geocoded_column": {
      "latitude": "29.96775774661229",
      "longitude": "-90.05183649619796"
    }
  },
  {
    "service_request": "2023-1008719",
    "request_type": "Trash/Recycling",
    "request_reason": "Request a Large Item Pick Up",
    "date_created": "2023-06-14T17:29:27.000",
    "date_modified": "2023-06-14T17:29:41.000",
    "request_status": "Pending",
    "responsible_agency": "Department of Sanitation",
    "final_address": "6519 E Hermes St",
    "address_councildis": "D",
    "status": "Assigned to Contractor",
    "contractor": "Waste Pro",
    "rowid": "1008719",
    "final_x": "3698031.80682",
    "final_y": "555458.326873",
    "longitude": "-90.0149994610959",
    "latitude": "30.02080501578286",
    "geocoded_column": {
      "latitude": "30.02080501578286",
      "longitude": "-90.0149994610959"
    }
  },
  {
    "service_request": "2023-1008718",
    "request_type": "Trash/Recycling",
    "request_reason": "Request a Large Item Pick Up",
    "date_created": "2023-06-14T17:18:59.000",
    "date_modified": "2023-06-14T17:19:00.000",
    "request_status": "Pending",
    "responsible_agency": "Department of Sanitation",
    "final_address": "1013 Royal St",
    "address_councildis": "C",
    "status": "Assigned to Contractor",
    "contractor": "Empire Services",
    "rowid": "1008718",
    "final_x": "3683278.96968",
    "final_y": "533463.018564",
    "longitude": "-90.06238493054225",
    "latitude": "29.960784186479728",
    "geocoded_column": {
      "latitude": "29.960784186479728",
      "longitude": "-90.06238493054225"
    }
  },
  {
    "service_request": "2023-1008717",
    "request_type": "Trash/Recycling",
    "request_reason": "Request a Large Item Pick Up",
    "date_created": "2023-06-14T17:18:01.000",
    "date_modified": "2023-06-14T17:18:02.000",
    "request_status": "Pending",
    "responsible_agency": "Department of Sanitation",
    "final_address": "3207 Kabel Dr",
    "address_councildis": "C",
    "status": "Assigned to Contractor",
    "contractor": "Richards Disposal",
    "rowid": "1008717",
    "final_x": "3700532.66877",
    "final_y": "519453.897975",
    "longitude": "-90.00841294904893",
    "latitude": "29.92172651185144",
    "geocoded_column": {
      "latitude": "29.92172651185144",
      "longitude": "-90.00841294904893"
    }
  },
  {
    "service_request": "2023-1008716",
    "request_type": "Property Maintenance",
    "request_reason": "Property Maintenance",
    "date_created": "2023-06-14T17:15:20.000",
    "date_modified": "2023-06-14T17:15:20.000",
    "request_status": "Pending",
    "responsible_agency": "Department of Code Enforcement",
    "final_address": "8834 Hickory St",
    "address_councildis": "A",
    "status": "Pending",
    "rowid": "1008716",
    "final_x": "3661315.28518",
    "final_y": "531749.647107",
    "longitude": "-90.13179911901679",
    "latitude": "29.95672455900054",
    "geocoded_column": {
      "latitude": "29.95672455900054",
      "longitude": "-90.13179911901679"
    }
  },
  {
    "service_request": "2023-1008715",
    "request_type": "Trash/Recycling",
    "request_reason": "Request a Large Item Pick Up",
    "date_created": "2023-06-14T17:11:02.000",
    "date_modified": "2023-06-14T17:11:02.000",
    "request_status": "Pending",
    "responsible_agency": "Department of Sanitation",
    "final_address": "4760 Camelia St",
    "address_councildis": "E",
    "status": "Assigned to Contractor",
    "contractor": "Waste Pro",
    "rowid": "1008715",
    "final_x": "3701444.20241",
    "final_y": "554411.312856",
    "longitude": "-90.00425573590724",
    "latitude": "30.017817733060742",
    "geocoded_column": {
      "latitude": "30.017817733060742",
      "longitude": "-90.00425573590724"
    }
  },
  {
    "service_request": "2023-1008714",
    "request_type": "Trash/Recycling",
    "request_reason": "MIssed Recycling Pick-Up",
    "date_created": "2023-06-14T17:06:26.000",
    "date_modified": "2023-06-14T17:06:27.000",
    "request_status": "Pending",
    "responsible_agency": "Department of Sanitation",
    "final_address": "1015 Louisiana Ave",
    "address_councildis": "B",
    "status": "Assigned to Contractor",
    "contractor": "Richards Disposal",
    "rowid": "1008714",
    "final_x": "3675199.70267",
    "final_y": "519448.536567",
    "longitude": "-90.08837856136961",
    "latitude": "29.922492902670886",
    "geocoded_column": {
      "latitude": "29.922492902670886",
      "longitude": "-90.08837856136961"
    }
  },
  {
    "service_request": "2023-1008713",
    "request_type": "Roads/Drainage",
    "request_reason": "WaterMain Break",
    "date_created": "2023-06-14T17:05:29.000",
    "date_modified": "2023-06-14T17:05:29.000",
    "request_status": "Pending",
    "responsible_agency": "Department of Public Works",
    "final_address": "2400 BLK Feliciana St",
    "address_councildis": "D",
    "status": "Pending",
    "rowid": "1008713",
    "final_x": "3690007.19705",
    "final_y": "541150.074312",
    "longitude": "-90.04086475147751",
    "latitude": "29.981713962958676",
    "geocoded_column": {
      "latitude": "29.981713962958676",
      "longitude": "-90.04086475147751"
    }
  },
  {
    "service_request": "2023-1008712",
    "request_type": "Trash/Recycling",
    "request_reason": "Order Trash Cart",
    "date_created": "2023-06-14T17:03:04.000",
    "date_modified": "2023-06-14T17:03:04.000",
    "request_status": "Pending",
    "responsible_agency": "Department of Sanitation",
    "final_address": "1935 Lizardi St",
    "address_councildis": "E",
    "status": "Assigned to Contractor",
    "contractor": "Waste Pro",
    "rowid": "1008712",
    "final_x": "3697529.41859",
    "final_y": "537371.96788",
    "longitude": "-90.01724323728395",
    "latitude": "29.97109008718636",
    "geocoded_column": {
      "latitude": "29.97109008718636",
      "longitude": "-90.01724323728395"
    }
  },
  {
    "service_request": "2023-1008711",
    "request_type": "Traffic Signals/Signs/Striping/Streetlights",
    "request_reason": "Traffic Sign Missing/Damaged",
    "date_created": "2023-06-14T17:02:10.000",
    "date_modified": "2023-06-14T17:02:11.000",
    "request_status": "Pending",
    "responsible_agency": "Department of Public Works",
    "final_address": "COLISEUM ST & FELICITY ST",
    "address_councildis": "B",
    "status": "Pending",
    "rowid": "1008711",
    "final_x": "3679281.9",
    "final_y": "523776.58",
    "longitude": "-90.0753427235148",
    "latitude": "29.934271018641983",
    "geocoded_column": {
      "latitude": "29.934271018641983",
      "longitude": "-90.0753427235148"
    }
  },
  {
    "service_request": "2023-1008710",
    "request_type": "Trash/Recycling",
    "request_reason": "Missed Trash Pick-Up",
    "date_created": "2023-06-14T17:00:12.000",
    "date_modified": "2023-06-14T17:00:13.000",
    "request_status": "Pending",
    "responsible_agency": "Department of Sanitation",
    "final_address": "1019 N Rendon St",
    "address_councildis": "A",
    "status": "Assigned to Contractor",
    "contractor": "Richards Disposal",
    "rowid": "1008710",
    "final_x": "3675768.18945",
    "final_y": "539386.072458",
    "longitude": "-90.08589892887896",
    "latitude": "29.977297505447417",
    "geocoded_column": {
      "latitude": "29.977297505447417",
      "longitude": "-90.08589892887896"
    }
  },
  {
    "service_request": "2023-1008709",
    "request_type": "Trash/Recycling",
    "request_reason": "Request a Large Item Pick Up",
    "date_created": "2023-06-14T16:55:44.000",
    "date_modified": "2023-06-14T16:55:44.000",
    "request_status": "Pending",
    "responsible_agency": "Department of Sanitation",
    "final_address": "6315 Hewes St, New Orleans, Louisiana, 70125",
    "address_councildis": "A",
    "status": "Assigned to Contractor",
    "contractor": "Richards Disposal",
    "rowid": "1008709",
    "final_x": "3667750.40781",
    "final_y": "529870.059457",
    "longitude": "-90.11154228460433",
    "latitude": "29.951369194172013",
    "geocoded_column": {
      "latitude": "29.951369194172013",
      "longitude": "-90.11154228460433"
    }
  },
  {
    "service_request": "2023-1008708",
    "request_type": "Trash/Recycling",
    "request_reason": "Return Recycling Cart",
    "date_created": "2023-06-14T16:55:00.000",
    "date_modified": "2023-06-14T16:55:01.000",
    "request_status": "Pending",
    "responsible_agency": "Department of Sanitation",
    "final_address": "866 Homedale St",
    "address_councildis": "A",
    "status": "Pending",
    "rowid": "1008708",
    "final_x": "3669325.42183",
    "final_y": "544591.618383",
    "longitude": "-90.10607128319664",
    "latitude": "29.991802271843426",
    "geocoded_column": {
      "latitude": "29.991802271843426",
      "longitude": "-90.10607128319664"
    }
  },
  {
    "service_request": "2023-1008707",
    "request_type": "Trash/Recycling",
    "request_reason": "Replace Recycling Cart",
    "date_created": "2023-06-14T16:48:44.000",
    "date_modified": "2023-06-14T16:48:45.000",
    "request_status": "Pending",
    "responsible_agency": "Department of Sanitation",
    "final_address": "2117 N Claiborne Ave",
    "address_councildis": "D",
    "status": "Pending",
    "rowid": "1008707",
    "final_x": "3684590.45257",
    "final_y": "538165.246281",
    "longitude": "-90.05807826944317",
    "latitude": "29.97367362083126",
    "geocoded_column": {
      "latitude": "29.97367362083126",
      "longitude": "-90.05807826944317"
    }
  },
  {
    "service_request": "2023-1008706",
    "request_type": "Roads/Drainage",
    "request_reason": "Debris in Roadway",
    "date_created": "2023-06-14T16:38:41.000",
    "date_modified": "2023-06-14T16:38:41.000",
    "request_status": "Pending",
    "responsible_agency": "Department of Public Works",
    "final_address": "3322 Fern St",
    "address_councildis": "B",
    "status": "Pending",
    "rowid": "1008706",
    "final_x": "3667684.29863",
    "final_y": "533557.971205",
    "longitude": "-90.11162686948364",
    "latitude": "29.96151167963254",
    "geocoded_column": {
      "latitude": "29.96151167963254",
      "longitude": "-90.11162686948364"
    }
  },
  {
    "service_request": "2023-1008705",
    "request_type": "Trash/Recycling",
    "request_reason": "Request a Large Item Pick Up",
    "date_created": "2023-06-14T16:37:45.000",
    "date_modified": "2023-06-14T16:37:46.000",
    "request_status": "Pending",
    "responsible_agency": "Department of Sanitation",
    "final_address": "5346 Coliseum St",
    "address_councildis": "B",
    "status": "Assigned to Contractor",
    "contractor": "Richards Disposal",
    "rowid": "1008705",
    "final_x": "3667229.47463",
    "final_y": "519724.148472",
    "longitude": "-90.11352817970793",
    "latitude": "29.923486454836343",
    "geocoded_column": {
      "latitude": "29.923486454836343",
      "longitude": "-90.11352817970793"
    }
  },
  {
    "service_request": "2023-1008704",
    "request_type": "Trash/Recycling",
    "request_reason": "Request a Large Item Pick Up",
    "date_created": "2023-06-14T16:36:39.000",
    "date_modified": "2023-06-14T16:36:40.000",
    "request_status": "Pending",
    "responsible_agency": "Department of Sanitation",
    "final_address": "2624 Dante St",
    "address_councildis": "A",
    "status": "Assigned to Contractor",
    "contractor": "Richards Disposal",
    "rowid": "1008704",
    "final_x": "3664924.9074",
    "final_y": "532764.265028",
    "longitude": "-90.1203671278611",
    "latitude": "29.95940985662608",
    "geocoded_column": {
      "latitude": "29.95940985662608",
      "longitude": "-90.1203671278611"
    }
  },
  {
    "service_request": "2023-1008703",
    "request_type": "Trash/Recycling",
    "request_reason": "Missed Trash Pick-Up",
    "date_created": "2023-06-14T16:29:54.000",
    "date_modified": "2023-06-14T16:29:54.000",
    "request_status": "Pending",
    "responsible_agency": "Department of Sanitation",
    "final_address": "136 Alvin Callender St",
    "address_councildis": "A",
    "status": "Assigned to Contractor",
    "contractor": "Richards Disposal",
    "rowid": "1008703",
    "final_x": "3661052.99917",
    "final_y": "523383.265851",
    "longitude": "-90.13290410830635",
    "latitude": "29.93372723550225",
    "geocoded_column": {
      "latitude": "29.93372723550225",
      "longitude": "-90.13290410830635"
    }
  },
  {
    "service_request": "2023-1008702",
    "request_type": "Abandoned Vehicles",
    "request_reason": "Abandoned/Junk Vehicles",
    "date_created": "2023-06-14T16:26:55.000",
    "date_modified": "2023-06-14T16:26:55.000",
    "request_status": "Pending",
    "responsible_agency": "Department of Public Works",
    "final_address": "325 S Pierce St",
    "address_councildis": "A",
    "status": "Pending",
    "rowid": "1008702",
    "final_x": "3670838.56571",
    "final_y": "537270.906824",
    "longitude": "-90.10154016115574",
    "latitude": "29.97162815919505",
    "geocoded_column": {
      "latitude": "29.97162815919505",
      "longitude": "-90.10154016115574"
    }
  },
  {
    "service_request": "2023-1008701",
    "request_type": "Trash/Recycling",
    "request_reason": "MIssed Recycling Pick-Up",
    "date_created": "2023-06-14T16:26:28.000",
    "date_modified": "2023-06-14T16:26:29.000",
    "request_status": "Pending",
    "responsible_agency": "Department of Sanitation",
    "final_address": "2118 Freret St",
    "address_councildis": "B",
    "status": "Assigned to Contractor",
    "contractor": "Richards Disposal",
    "rowid": "1008701",
    "final_x": "3675801.34357",
    "final_y": "526418.156094",
    "longitude": "-90.08623997872645",
    "latitude": "29.941639099133855",
    "geocoded_column": {
      "latitude": "29.941639099133855",
      "longitude": "-90.08623997872645"
    }
  },
  {
    "service_request": "2023-1008700",
    "request_type": "Trash/Recycling",
    "request_reason": "Request a Large Item Pick Up",
    "date_created": "2023-06-14T16:25:09.000",
    "date_modified": "2023-06-14T16:25:10.000",
    "request_status": "Pending",
    "responsible_agency": "Department of Sanitation",
    "final_address": "2323 Lowerline St",
    "address_councildis": "A",
    "status": "Assigned to Contractor",
    "contractor": "Richards Disposal",
    "rowid": "1008700",
    "final_x": "3666034.26912",
    "final_y": "530191.873153",
    "longitude": "-90.11695024289656",
    "latitude": "29.952304281583853",
    "geocoded_column": {
      "latitude": "29.952304281583853",
      "longitude": "-90.11695024289656"
    }
  },
  {
    "service_request": "2023-1008699",
    "request_type": "Trash/Recycling",
    "request_reason": "Missed Trash Pick-Up",
    "date_created": "2023-06-14T16:24:25.000",
    "date_modified": "2023-06-14T16:24:26.000",
    "request_status": "Pending",
    "responsible_agency": "Department of Sanitation",
    "final_address": "2323 Lowerline St",
    "address_councildis": "A",
    "status": "Assigned to Contractor",
    "contractor": "Richards Disposal",
    "rowid": "1008699",
    "final_x": "3666034.26912",
    "final_y": "530191.873153",
    "longitude": "-90.11695024289656",
    "latitude": "29.952304281583853",
    "geocoded_column": {
      "latitude": "29.952304281583853",
      "longitude": "-90.11695024289656"
    }
  },
  {
    "service_request": "2023-1008698",
    "request_type": "Trash/Recycling",
    "request_reason": "Repair Trash Cart",
    "date_created": "2023-06-14T16:23:22.000",
    "date_modified": "2023-06-14T16:23:23.000",
    "request_status": "Pending",
    "responsible_agency": "Department of Sanitation",
    "final_address": "2323 Lowerline St",
    "address_councildis": "A",
    "status": "Assigned to Contractor",
    "contractor": "Richards Disposal",
    "rowid": "1008698",
    "final_x": "3666034.26912",
    "final_y": "530191.873153",
    "longitude": "-90.11695024289656",
    "latitude": "29.952304281583853",
    "geocoded_column": {
      "latitude": "29.952304281583853",
      "longitude": "-90.11695024289656"
    }
  },
  {
    "service_request": "2023-1008697",
    "request_type": "Trash/Recycling",
    "request_reason": "Repair Recycling Cart",
    "date_created": "2023-06-14T16:22:48.000",
    "date_modified": "2023-06-14T16:22:48.000",
    "request_status": "Pending",
    "responsible_agency": "Department of Sanitation",
    "final_address": "4306 Orleans Ave",
    "address_councildis": "A",
    "status": "Pending",
    "rowid": "1008697",
    "final_x": "3671612.10695",
    "final_y": "540810.061387",
    "longitude": "-90.09897678973829",
    "latitude": "29.981336746077286",
    "geocoded_column": {
      "latitude": "29.981336746077286",
      "longitude": "-90.09897678973829"
    }
  },
  {
    "service_request": "2023-1008696",
    "request_type": "Abandoned Vehicles",
    "request_reason": "Abandoned/Junk Vehicles",
    "date_created": "2023-06-14T16:22:32.000",
    "date_modified": "2023-06-14T16:22:32.000",
    "request_status": "Pending",
    "responsible_agency": "Department of Public Works",
    "final_address": "3000 BLK General Collins Ave",
    "address_councildis": "C",
    "status": "Pending",
    "rowid": "1008696",
    "final_x": "3698327.99799",
    "final_y": "519984.72327",
    "longitude": "-90.01535283629698",
    "latitude": "29.923256011624034",
    "geocoded_column": {
      "latitude": "29.923256011624034",
      "longitude": "-90.01535283629698"
    }
  },
  {
    "service_request": "2023-1008695",
    "request_type": "Trash/Recycling",
    "request_reason": "MIssed Recycling Pick-Up",
    "date_created": "2023-06-14T16:17:33.000",
    "date_modified": "2023-06-14T16:17:33.000",
    "request_status": "Pending",
    "responsible_agency": "Department of Sanitation",
    "final_address": "332 S Diamond St, New Orleans, Louisiana, 70130",
    "address_councildis": "B",
    "status": "Assigned to Contractor",
    "contractor": "Empire Services",
    "rowid": "1008695",
    "final_x": "3681996.4612",
    "final_y": "526765.101374",
    "longitude": "-90.06666865160659",
    "latitude": "29.942406230937358",
    "geocoded_column": {
      "latitude": "29.942406230937358",
      "longitude": "-90.06666865160659"
    }
  },
  {
    "service_request": "2023-1008694",
    "request_type": "Trash/Recycling",
    "request_reason": "MIssed Recycling Pick-Up",
    "date_created": "2023-06-14T16:17:16.000",
    "date_modified": "2023-06-14T16:17:17.000",
    "request_status": "Pending",
    "responsible_agency": "Department of Sanitation",
    "final_address": "830 N White St",
    "address_councildis": "A",
    "status": "Assigned to Contractor",
    "contractor": "Richards Disposal",
    "rowid": "1008694",
    "final_x": "3676664.62344",
    "final_y": "537749.215304",
    "longitude": "-90.08312409864254",
    "latitude": "29.9727698444857",
    "geocoded_column": {
      "latitude": "29.9727698444857",
      "longitude": "-90.08312409864254"
    }
  },
  {
    "service_request": "2023-1008691",
    "request_type": "Parks & Parkways",
    "request_reason": "Request Tree Service (Right of Way/Public Property)",
    "date_created": "2023-06-14T16:17:05.000",
    "date_modified": "2023-06-14T16:17:06.000",
    "request_status": "Pending",
    "responsible_agency": "Department of Parks & Parkway",
    "final_address": "5305 St Anthony Ave",
    "address_councildis": "D",
    "status": "Pending",
    "rowid": "1008691",
    "final_x": "3682310.49845",
    "final_y": "552274.297814",
    "longitude": "-90.06478553556252",
    "latitude": "30.01253808050928",
    "geocoded_column": {
      "latitude": "30.01253808050928",
      "longitude": "-90.06478553556252"
    }
  },
  {
    "service_request": "2023-1008690",
    "request_type": "Trash/Recycling",
    "request_reason": "Repair Trash Cart",
    "date_created": "2023-06-14T16:12:25.000",
    "date_modified": "2023-06-14T16:12:25.000",
    "request_status": "Pending",
    "responsible_agency": "Department of Sanitation",
    "final_address": "4750 Read Blvd",
    "address_councildis": "E",
    "status": "Assigned to Contractor",
    "contractor": "Waste Pro",
    "rowid": "1008690",
    "final_x": "3712659.25381",
    "final_y": "556254.207834",
    "longitude": "-89.96875154276063",
    "latitude": "30.022522516677444",
    "geocoded_column": {
      "latitude": "30.022522516677444",
      "longitude": "-89.96875154276063"
    }
  },
  {
    "service_request": "2023-1008689",
    "request_type": "Trash/Recycling",
    "request_reason": "Order Recycling Cart",
    "date_created": "2023-06-14T16:09:21.000",
    "date_modified": "2023-06-14T16:09:21.000",
    "request_status": "Pending",
    "responsible_agency": "Department of Sanitation",
    "final_address": "4490 Lennox Blvd",
    "address_councildis": "C",
    "status": "Pending",
    "rowid": "1008689",
    "final_x": "3700891.74289",
    "final_y": "514639.866035",
    "longitude": "-90.00745534751286",
    "latitude": "29.908478143798433",
    "geocoded_column": {
      "latitude": "29.908478143798433",
      "longitude": "-90.00745534751286"
    }
  },
  {
    "service_request": "2023-1008688",
    "request_type": "Trash/Recycling",
    "request_reason": "Missed Trash Pick-Up",
    "date_created": "2023-06-14T16:08:45.000",
    "date_modified": "2023-06-14T16:08:46.000",
    "request_status": "Pending",
    "responsible_agency": "Department of Sanitation",
    "final_address": "4308 S. Robertson St, NO, 70115",
    "status": "Assigned to Contractor",
    "rowid": "1008688",
    "longitude": "0.0",
    "latitude": "0.0",
    "geocoded_column": {
      "latitude": "0.0",
      "longitude": "0.0"
    }
  },
  {
    "service_request": "2023-1008687",
    "request_type": "Trash/Recycling",
    "request_reason": "Repair Trash Cart",
    "date_created": "2023-06-14T16:07:21.000",
    "date_modified": "2023-06-14T16:07:22.000",
    "request_status": "Pending",
    "responsible_agency": "Department of Sanitation",
    "final_address": "4490 Lennox Blvd",
    "address_councildis": "C",
    "status": "Assigned to Contractor",
    "contractor": "Richards Disposal",
    "rowid": "1008687",
    "final_x": "3700891.74289",
    "final_y": "514639.866035",
    "longitude": "-90.00745534751286",
    "latitude": "29.908478143798433",
    "geocoded_column": {
      "latitude": "29.908478143798433",
      "longitude": "-90.00745534751286"
    }
  },
  {
    "service_request": "2023-1008686",
    "request_type": "Trash/Recycling",
    "request_reason": "MIssed Recycling Pick-Up",
    "date_created": "2023-06-14T16:03:10.000",
    "date_modified": "2023-06-14T16:03:11.000",
    "request_status": "Pending",
    "responsible_agency": "Department of Sanitation",
    "final_address": "7507 Scottwood Dr",
    "address_councildis": "E",
    "status": "Assigned to Contractor",
    "contractor": "Waste Pro",
    "rowid": "1008686",
    "final_x": "3717783.20146",
    "final_y": "570185.366375",
    "longitude": "-89.95203064061042",
    "latitude": "30.060658752170845",
    "geocoded_column": {
      "latitude": "30.060658752170845",
      "longitude": "-89.95203064061042"
    }
  },
  {
    "service_request": "2023-1008685",
    "request_type": "Roads/Drainage",
    "request_reason": "Catch Basin - Clogged",
    "date_created": "2023-06-14T16:00:29.000",
    "date_modified": "2023-06-14T16:00:29.000",
    "request_status": "Pending",
    "responsible_agency": "Department of Public Works",
    "final_address": "3823 St Charles Ave",
    "address_councildis": "B",
    "status": "Pending",
    "rowid": "1008685",
    "final_x": "3672661.70804",
    "final_y": "521117.682297",
    "longitude": "-90.0963331208186",
    "latitude": "29.927158097750944",
    "geocoded_column": {
      "latitude": "29.927158097750944",
      "longitude": "-90.0963331208186"
    }
  },
  {
    "service_request": "2023-1008684",
    "request_type": "Trash/Recycling",
    "request_reason": "Request a Large Item Pick Up",
    "date_created": "2023-06-14T15:58:16.000",
    "date_modified": "2023-06-14T15:58:17.000",
    "request_status": "Pending",
    "responsible_agency": "Department of Sanitation",
    "final_address": "2858 Chestnut St",
    "address_councildis": "B",
    "status": "Assigned to Contractor",
    "contractor": "Richards Disposal",
    "rowid": "1008684",
    "final_x": "3676308.80769",
    "final_y": "521156.164921",
    "longitude": "-90.08481882889659",
    "latitude": "29.927155147057988",
    "geocoded_column": {
      "latitude": "29.927155147057988",
      "longitude": "-90.08481882889659"
    }
  },
  {
    "service_request": "2023-1008683",
    "request_type": "Trash/Recycling",
    "request_reason": "Order Recycling Cart",
    "date_created": "2023-06-14T15:58:15.000",
    "date_modified": "2023-06-14T15:58:32.000",
    "request_status": "Pending",
    "responsible_agency": "Department of Sanitation",
    "final_address": "1822 St Roch Ave",
    "address_councildis": "D",
    "status": "Pending",
    "rowid": "1008683",
    "final_x": "3686053.58332",
    "final_y": "539177.68833",
    "longitude": "-90.05342168099854",
    "latitude": "29.97641262557997",
    "geocoded_column": {
      "latitude": "29.97641262557997",
      "longitude": "-90.05342168099854"
    }
  },
  {
    "service_request": "2023-1008682",
    "request_type": "Trash/Recycling",
    "request_reason": "Order Recycling Cart",
    "date_created": "2023-06-14T15:56:19.000",
    "date_modified": "2023-06-14T15:56:20.000",
    "request_status": "Pending",
    "responsible_agency": "Department of Sanitation",
    "final_address": "4742 Corinne St",
    "address_councildis": "E",
    "status": "Pending",
    "rowid": "1008682",
    "final_x": "3714948.57707",
    "final_y": "556923.433818",
    "longitude": "-89.96149259107838",
    "latitude": "30.02428745970195",
    "geocoded_column": {
      "latitude": "30.02428745970195",
      "longitude": "-89.96149259107838"
    }
  },
  {
    "service_request": "2023-1008681",
    "request_type": "Trash/Recycling",
    "request_reason": "Missed Trash Pick-Up",
    "date_created": "2023-06-14T15:53:43.000",
    "date_modified": "2023-06-14T15:54:29.000",
    "case_close_date": "2023-06-14T10:54:29.000",
    "request_status": "Closed",
    "responsible_agency": "Department of Sanitation",
    "final_address": "1300 Perdido St",
    "address_councildis": "B",
    "status": "Invalid Request",
    "contractor": "Empire Services",
    "contractor_action": "Invalid Pick-Up",
    "rowid": "1008681",
    "final_x": "3678683.48347",
    "final_y": "530227.987073",
    "longitude": "-90.07700859883013",
    "latitude": "29.952028297123956",
    "geocoded_column": {
      "latitude": "29.952028297123956",
      "longitude": "-90.07700859883013"
    }
  },
  {
    "service_request": "2023-1008680",
    "request_type": "Trash/Recycling",
    "request_reason": "Return Trash Cart",
    "date_created": "2023-06-14T15:48:07.000",
    "date_modified": "2023-06-14T15:48:07.000",
    "request_status": "Pending",
    "responsible_agency": "Department of Sanitation",
    "final_address": "2615 Orleans Ave",
    "address_councildis": "D",
    "status": "Assigned to Contractor",
    "contractor": "Richards Disposal",
    "rowid": "1008680",
    "final_x": "3677143.9595",
    "final_y": "536815.478024",
    "longitude": "-90.08164247830935",
    "latitude": "29.970187996699345",
    "geocoded_column": {
      "latitude": "29.970187996699345",
      "longitude": "-90.08164247830935"
    }
  },
  {
    "service_request": "2023-1008679",
    "request_type": "Trash/Recycling",
    "request_reason": "Request a Large Item Pick Up",
    "date_created": "2023-06-14T15:43:24.000",
    "date_modified": "2023-06-14T15:43:26.000",
    "request_status": "Pending",
    "responsible_agency": "Department of Sanitation",
    "final_address": "1311 St Maurice Ave",
    "address_councildis": "E",
    "status": "Assigned to Contractor",
    "contractor": "Waste Pro",
    "rowid": "1008679",
    "final_x": "3700209.66807",
    "final_y": "533928.561093",
    "longitude": "-90.00890440325131",
    "latitude": "29.961537035956937",
    "geocoded_column": {
      "latitude": "29.961537035956937",
      "longitude": "-90.00890440325131"
    }
  },
  {
    "service_request": "2023-1008677",
    "request_type": "Parks & Parkways",
    "request_reason": "Request Tree Service (Right of Way/Public Property)",
    "date_created": "2023-06-14T15:38:47.000",
    "date_modified": "2023-06-14T15:38:47.000",
    "request_status": "Pending",
    "responsible_agency": "Department of Parks & Parkway",
    "final_address": "500 BLK S Norman C Francis Pkwy",
    "address_councildis": "B",
    "status": "Pending",
    "rowid": "1008677",
    "final_x": "3672199.99677",
    "final_y": "535248.008688",
    "longitude": "-90.0973094623752",
    "latitude": "29.9660255571327",
    "geocoded_column": {
      "latitude": "29.9660255571327",
      "longitude": "-90.0973094623752"
    }
  },
  {
    "service_request": "2023-1008676",
    "request_type": "Abandoned Vehicles",
    "request_reason": "Abandoned/Junk Vehicles",
    "date_created": "2023-06-14T15:35:25.000",
    "date_modified": "2023-06-14T15:35:26.000",
    "request_status": "Pending",
    "responsible_agency": "Department of Public Works",
    "final_address": "1328 Gallier St",
    "address_councildis": "C",
    "status": "Pending",
    "rowid": "1008676",
    "final_x": "3690671.5311",
    "final_y": "536623.089927",
    "longitude": "-90.03892800174258",
    "latitude": "29.969245740396474",
    "geocoded_column": {
      "latitude": "29.969245740396474",
      "longitude": "-90.03892800174258"
    }
  },
  {
    "service_request": "2023-1008675",
    "request_type": "Trash/Recycling",
    "request_reason": "Replace Trash Cart",
    "date_created": "2023-06-14T15:27:15.000",
    "date_modified": "2023-06-14T15:27:15.000",
    "request_status": "Pending",
    "responsible_agency": "Department of Sanitation",
    "final_address": "1827 Short St",
    "address_councildis": "A",
    "status": "Assigned to Contractor",
    "contractor": "Richards Disposal",
    "rowid": "1008675",
    "final_x": "3663893.25472",
    "final_y": "529762.444417",
    "longitude": "-90.12372492393628",
    "latitude": "29.95118581281979",
    "geocoded_column": {
      "latitude": "29.95118581281979",
      "longitude": "-90.12372492393628"
    }
  },
  {
    "service_request": "2023-1008674",
    "request_type": "Trash/Recycling",
    "request_reason": "Replace Trash Cart",
    "date_created": "2023-06-14T15:26:57.000",
    "date_modified": "2023-06-14T15:26:58.000",
    "request_status": "Pending",
    "responsible_agency": "Department of Sanitation",
    "final_address": "825 Short St",
    "address_councildis": "A",
    "status": "Assigned to Contractor",
    "contractor": "Richards Disposal",
    "rowid": "1008674",
    "final_x": "3661540.01466",
    "final_y": "527184.397631",
    "longitude": "-90.13124072493488",
    "latitude": "29.94416510624933",
    "geocoded_column": {
      "latitude": "29.94416510624933",
      "longitude": "-90.13124072493488"
    }
  },
  {
    "service_request": "2023-1008673",
    "request_type": "Trash/Recycling",
    "request_reason": "Order Recycling Cart",
    "date_created": "2023-06-14T15:25:56.000",
    "date_modified": "2023-06-14T15:25:57.000",
    "request_status": "Pending",
    "responsible_agency": "Department of Sanitation",
    "final_address": "818 Fern St",
    "address_councildis": "A",
    "status": "Pending",
    "rowid": "1008673",
    "final_x": "3661670.46675",
    "final_y": "526964.745406",
    "longitude": "-90.13083612679506",
    "latitude": "29.943557368845862",
    "geocoded_column": {
      "latitude": "29.943557368845862",
      "longitude": "-90.13083612679506"
    }
  },
  {
    "service_request": "2023-1008672",
    "request_type": "Trash/Recycling",
    "request_reason": "Replace Trash Cart",
    "date_created": "2023-06-14T15:25:34.000",
    "date_modified": "2023-06-14T15:25:34.000",
    "request_status": "Pending",
    "responsible_agency": "Department of Sanitation",
    "final_address": "818 Fern St",
    "address_councildis": "A",
    "status": "Assigned to Contractor",
    "contractor": "Richards Disposal",
    "rowid": "1008672",
    "final_x": "3661670.46675",
    "final_y": "526964.745406",
    "longitude": "-90.13083612679506",
    "latitude": "29.943557368845862",
    "geocoded_column": {
      "latitude": "29.943557368845862",
      "longitude": "-90.13083612679506"
    }
  },
  {
    "service_request": "2023-1008671",
    "request_type": "Roads/Drainage",
    "request_reason": "Pothole",
    "date_created": "2023-06-14T15:21:38.000",
    "date_modified": "2023-06-14T15:21:38.000",
    "request_status": "Pending",
    "responsible_agency": "Department of Public Works",
    "final_address": "MARCONI DR & FILMORE AVE",
    "address_councildis": "A",
    "status": "Pending",
    "rowid": "1008671",
    "final_x": "3671719.4",
    "final_y": "551758.48",
    "longitude": "-90.09826517909926",
    "latitude": "30.01143791529304",
    "geocoded_column": {
      "latitude": "30.01143791529304",
      "longitude": "-90.09826517909926"
    }
  },
  {
    "service_request": "2023-1008670",
    "request_type": "Trash/Recycling",
    "request_reason": "Order Trash Cart",
    "date_created": "2023-06-14T15:19:35.000",
    "date_modified": "2023-06-14T15:19:36.000",
    "request_status": "Pending",
    "responsible_agency": "Department of Sanitation",
    "final_address": "7231 Broad Pl",
    "address_councildis": "B",
    "status": "Assigned to Contractor",
    "contractor": "Richards Disposal",
    "rowid": "1008670",
    "final_x": "3666979.3369",
    "final_y": "531246.74509",
    "longitude": "-90.11393069735",
    "latitude": "29.955177215143628",
    "geocoded_column": {
      "latitude": "29.955177215143628",
      "longitude": "-90.11393069735"
    }
  },
  {
    "service_request": "2023-1008669",
    "request_type": "Trash/Recycling",
    "request_reason": "Missed Trash Pick-Up",
    "date_created": "2023-06-14T15:19:08.000",
    "date_modified": "2023-06-14T15:19:09.000",
    "request_status": "Pending",
    "responsible_agency": "Department of Sanitation",
    "final_address": " & FOREST ISLE DR",
    "address_councildis": "C",
    "status": "Assigned to Contractor",
    "contractor": "Richards Disposal",
    "rowid": "1008669",
    "final_x": "3706764.21",
    "final_y": "513486.84",
    "longitude": "-89.98896379919923",
    "latitude": "29.90511956714862",
    "geocoded_column": {
      "latitude": "29.90511956714862",
      "longitude": "-89.98896379919923"
    }
  },
  {
    "service_request": "2023-1008668",
    "request_type": "Roads/Drainage",
    "request_reason": "Pothole",
    "date_created": "2023-06-14T15:19:07.000",
    "date_modified": "2023-06-14T15:19:08.000",
    "request_status": "Pending",
    "responsible_agency": "Department of Public Works",
    "final_address": "7038 Milne Blvd",
    "address_councildis": "A",
    "status": "Pending",
    "rowid": "1008668",
    "final_x": "3667599.45057",
    "final_y": "554356.155928",
    "longitude": "-90.1111943012857",
    "latitude": "30.01870207170555",
    "geocoded_column": {
      "latitude": "30.01870207170555",
      "longitude": "-90.1111943012857"
    }
  },
  {
    "service_request": "2023-1008667",
    "request_type": "Traffic Signals/Signs/Striping/Streetlights",
    "request_reason": "Striping/Road Surface Markings",
    "date_created": "2023-06-14T15:18:39.000",
    "date_modified": "2023-06-14T15:18:39.000",
    "request_status": "Pending",
    "responsible_agency": "Department of Public Works",
    "final_address": "114 West Robert E Lee Blvd",
    "address_councildis": "A",
    "status": "Pending",
    "rowid": "1008667",
    "final_x": "3666280.91476",
    "final_y": "554800.666584",
    "longitude": "-90.11534548796853",
    "latitude": "30.01996292241464",
    "geocoded_column": {
      "latitude": "30.01996292241464",
      "longitude": "-90.11534548796853"
    }
  },
  {
    "service_request": "2023-1008666",
    "request_type": "Roads/Drainage",
    "request_reason": "Pothole",
    "date_created": "2023-06-14T15:15:16.000",
    "date_modified": "2023-06-14T15:15:16.000",
    "request_status": "Pending",
    "responsible_agency": "Department of Public Works",
    "final_address": "100 Duckhook Dr",
    "address_councildis": "A",
    "status": "Pending",
    "rowid": "1008666",
    "final_x": "3667282.3026",
    "final_y": "539245.129738",
    "longitude": "-90.1127049964496",
    "latitude": "29.97716125224992",
    "geocoded_column": {
      "latitude": "29.97716125224992",
      "longitude": "-90.1127049964496"
    }
  },
  {
    "service_request": "2023-1008665",
    "request_type": "Trash/Recycling",
    "request_reason": "Order Recycling Cart",
    "date_created": "2023-06-14T15:13:27.000",
    "date_modified": "2023-06-14T15:13:28.000",
    "request_status": "Pending",
    "responsible_agency": "Department of Sanitation",
    "final_address": "3524 Baronne St",
    "address_councildis": "B",
    "status": "Pending",
    "rowid": "1008665",
    "final_x": "3673341.85294",
    "final_y": "521964.53529",
    "longitude": "-90.094157163479",
    "latitude": "29.92946646345615",
    "geocoded_column": {
      "latitude": "29.92946646345615",
      "longitude": "-90.094157163479"
    }
  },
  {
    "service_request": "2023-1008664",
    "request_type": "Trash/Recycling",
    "request_reason": "Request a Large Item Pick Up",
    "date_created": "2023-06-14T15:10:45.000",
    "date_modified": "2023-06-14T15:10:46.000",
    "request_status": "Pending",
    "responsible_agency": "Department of Sanitation",
    "final_address": "7411 Farwood Dr",
    "address_councildis": "E",
    "status": "Assigned to Contractor",
    "contractor": "Waste Pro",
    "rowid": "1008664",
    "final_x": "3701538.31805",
    "final_y": "556971.87209",
    "longitude": "-90.00386450006715",
    "latitude": "30.02485528736384",
    "geocoded_column": {
      "latitude": "30.02485528736384",
      "longitude": "-90.00386450006715"
    }
  },
  {
    "service_request": "2023-1008663",
    "request_type": "Roads/Drainage",
    "request_reason": "Pothole",
    "date_created": "2023-06-14T15:09:17.000",
    "date_modified": "2023-06-14T15:09:17.000",
    "request_status": "Pending",
    "responsible_agency": "Department of Public Works",
    "final_address": "714 Cadiz St",
    "address_councildis": "B",
    "status": "Pending",
    "rowid": "1008663",
    "final_x": "3670329.79828",
    "final_y": "518108.207926",
    "longitude": "-90.10379632220355",
    "latitude": "29.918952015110982",
    "geocoded_column": {
      "latitude": "29.918952015110982",
      "longitude": "-90.10379632220355"
    }
  },
  {
    "service_request": "2023-1008662",
    "request_type": "Trash/Recycling",
    "request_reason": "Missed Trash Pick-Up",
    "date_created": "2023-06-14T15:08:35.000",
    "date_modified": "2023-06-14T15:08:36.000",
    "request_status": "Pending",
    "responsible_agency": "Department of Sanitation",
    "final_address": "4829 Nottingham Dr",
    "address_councildis": "E",
    "status": "Assigned to Contractor",
    "contractor": "Waste Pro",
    "rowid": "1008662",
    "final_x": "3716429.67973",
    "final_y": "557333.499483",
    "longitude": "-89.95679706538895",
    "latitude": "30.02536613670575",
    "geocoded_column": {
      "latitude": "30.02536613670575",
      "longitude": "-89.95679706538895"
    }
  },
  {
    "service_request": "2023-1008661",
    "request_type": "Abandoned Vehicles",
    "request_reason": "Abandoned/Junk Vehicles",
    "date_created": "2023-06-14T15:04:59.000",
    "date_modified": "2023-06-14T15:04:59.000",
    "request_status": "Pending",
    "responsible_agency": "Department of Public Works",
    "final_address": "4400 BLK Almonaster Ave",
    "address_councildis": "D",
    "status": "Pending",
    "rowid": "1008661",
    "final_x": "3691527.55228",
    "final_y": "548572.492866",
    "longitude": "-90.03579730299523",
    "latitude": "30.00207568479728",
    "geocoded_column": {
      "latitude": "30.00207568479728",
      "longitude": "-90.03579730299523"
    }
  },
  {
    "service_request": "2023-1008660",
    "request_type": "Trash/Recycling",
    "request_reason": "Missed Trash Pick-Up",
    "date_created": "2023-06-14T15:04:49.000",
    "date_modified": "2023-06-14T15:05:37.000",
    "case_close_date": "2023-06-14T10:05:37.000",
    "request_status": "Closed",
    "responsible_agency": "Department of Sanitation",
    "final_address": "1300 Perdido St",
    "address_councildis": "B",
    "status": "Invalid Request",
    "contractor": "Empire Services",
    "rowid": "1008660",
    "final_x": "3678683.48347",
    "final_y": "530227.987073",
    "longitude": "-90.07700859883013",
    "latitude": "29.952028297123956",
    "geocoded_column": {
      "latitude": "29.952028297123956",
      "longitude": "-90.07700859883013"
    }
  },
  {
    "service_request": "2023-1008659",
    "request_type": "Trash/Recycling",
    "request_reason": "Request a Large Item Pick Up",
    "date_created": "2023-06-14T15:04:30.000",
    "date_modified": "2023-06-14T15:04:31.000",
    "request_status": "Pending",
    "responsible_agency": "Department of Sanitation",
    "final_address": "10138 Hammond St",
    "address_councildis": "E",
    "status": "Assigned to Contractor",
    "contractor": "Waste Pro",
    "rowid": "1008659",
    "final_x": "3713115.06776",
    "final_y": "556352.927258",
    "longitude": "-89.96730757583401",
    "latitude": "30.022779022531825",
    "geocoded_column": {
      "latitude": "30.022779022531825",
      "longitude": "-89.96730757583401"
    }
  },
  {
    "service_request": "2023-1008658",
    "request_type": "Traffic Signals/Signs/Striping/Streetlights",
    "request_reason": "Street Light Outage/Malfunction",
    "date_created": "2023-06-14T15:02:09.000",
    "date_modified": "2023-06-14T15:02:10.000",
    "request_status": "Pending",
    "responsible_agency": "Department of Public Works",
    "final_address": "2051 Lauradale Dr",
    "address_councildis": "C",
    "status": "Assigned to Contractor",
    "contractor": "Legacy Professional Services",
    "rowid": "1008658",
    "final_x": "3692650.18128",
    "final_y": "523567.432251",
    "longitude": "-90.0331471465916",
    "latitude": "29.933285603144395",
    "geocoded_column": {
      "latitude": "29.933285603144395",
      "longitude": "-90.0331471465916"
    }
  },
  {
    "service_request": "2023-1008657",
    "request_type": "Trash/Recycling",
    "request_reason": "Order Recycling Cart",
    "date_created": "2023-06-14T14:59:55.000",
    "date_modified": "2023-06-14T15:00:33.000",
    "request_status": "Pending",
    "responsible_agency": "Department of Sanitation",
    "final_address": "1927 Martin Luther King, Jr. Blvd",
    "address_councildis": "B",
    "status": "Pending",
    "rowid": "1008657",
    "final_x": "3677870.42242",
    "final_y": "526460.25619",
    "longitude": "-90.0797060229713",
    "latitude": "29.941692778114174",
    "geocoded_column": {
      "latitude": "29.941692778114174",
      "longitude": "-90.0797060229713"
    }
  },
  {
    "service_request": "2023-1008656",
    "request_type": "Parks & Parkways",
    "request_reason": "Request Tree Service (Right of Way/Public Property)",
    "date_created": "2023-06-14T14:59:38.000",
    "date_modified": "2023-06-14T14:59:38.000",
    "request_status": "Pending",
    "responsible_agency": "Department of Parks & Parkway",
    "final_address": "6322 St Claude Ave",
    "address_councildis": "E",
    "status": "Pending",
    "rowid": "1008656",
    "final_x": "3700278.78698",
    "final_y": "532942.59802",
    "longitude": "-90.00872213140836",
    "latitude": "29.958823792539302",
    "geocoded_column": {
      "latitude": "29.958823792539302",
      "longitude": "-90.00872213140836"
    }
  },
  {
    "service_request": "2023-1008655",
    "request_type": "Abandoned Vehicles",
    "request_reason": "Abandoned/Junk Vehicles",
    "date_created": "2023-06-14T14:58:49.000",
    "date_modified": "2023-06-14T14:58:49.000",
    "request_status": "Pending",
    "responsible_agency": "Department of Public Works",
    "final_address": "1335 Atlantic Ave",
    "address_councildis": "C",
    "status": "Pending",
    "rowid": "1008655",
    "final_x": "3688596.60015",
    "final_y": "526442.147198",
    "longitude": "-90.04584203931907",
    "latitude": "29.94131594822395",
    "geocoded_column": {
      "latitude": "29.94131594822395",
      "longitude": "-90.04584203931907"
    }
  },
  {
    "service_request": "2023-1008654",
    "request_type": "Trash/Recycling",
    "request_reason": "Missed Trash Pick-Up",
    "date_created": "2023-06-14T14:55:18.000",
    "date_modified": "2023-06-14T14:55:19.000",
    "request_status": "Pending",
    "responsible_agency": "Department of Sanitation",
    "final_address": "11416 S St Andrews Cir",
    "address_councildis": "E",
    "status": "Assigned to Contractor",
    "contractor": "Waste Pro",
    "rowid": "1008654",
    "final_x": "3719665.28639",
    "final_y": "559436.948317",
    "longitude": "-89.94649271317121",
    "latitude": "30.03104249813467",
    "geocoded_column": {
      "latitude": "30.03104249813467",
      "longitude": "-89.94649271317121"
    }
  },
  {
    "service_request": "2023-1008653",
    "request_type": "Trash/Recycling",
    "request_reason": "Missed Trash Pick-Up",
    "date_created": "2023-06-14T14:54:25.000",
    "date_modified": "2023-06-14T15:08:18.000",
    "request_status": "Pending",
    "responsible_agency": "Department of Sanitation",
    "final_address": "6900 Edgefield Dr",
    "address_councildis": "E",
    "status": "Assigned to Contractor",
    "contractor": "Waste Pro",
    "rowid": "1008653",
    "final_x": "3719216.80876",
    "final_y": "568413.605221",
    "longitude": "-89.94756683869356",
    "latitude": "30.055739549275785",
    "geocoded_column": {
      "latitude": "30.055739549275785",
      "longitude": "-89.94756683869356"
    }
  },
  {
    "service_request": "2023-1008652",
    "request_type": "Trash/Recycling",
    "request_reason": "Request a Large Item Pick Up",
    "date_created": "2023-06-14T14:52:21.000",
    "date_modified": "2023-06-14T14:52:21.000",
    "request_status": "Pending",
    "responsible_agency": "Department of Sanitation",
    "final_address": "5910 Doral Ct",
    "address_councildis": "E",
    "status": "Assigned to Contractor",
    "contractor": "Waste Pro",
    "rowid": "1008652",
    "final_x": "3719948.61791",
    "final_y": "564872.616994",
    "longitude": "-89.94538932724157",
    "latitude": "30.04597893941798",
    "geocoded_column": {
      "latitude": "30.04597893941798",
      "longitude": "-89.94538932724157"
    }
  },
  {
    "service_request": "2023-1008651",
    "request_type": "Roads/Drainage",
    "request_reason": "Street Subsidence (Sinking)",
    "date_created": "2023-06-14T14:50:27.000",
    "date_modified": "2023-06-14T14:50:27.000",
    "request_status": "Pending",
    "responsible_agency": "Department of Public Works",
    "final_address": "1300 BLK Mithra St",
    "address_councildis": "D",
    "status": "Pending",
    "rowid": "1008651",
    "final_x": "3677287.22413",
    "final_y": "552071.149582",
    "longitude": "-90.08066332466275",
    "latitude": "30.012131452529644",
    "geocoded_column": {
      "latitude": "30.012131452529644",
      "longitude": "-90.08066332466275"
    }
  },
  {
    "service_request": "2023-1008650",
    "request_type": "Trash/Recycling",
    "request_reason": "Missed Trash Pick-Up",
    "date_created": "2023-06-14T14:49:14.000",
    "date_modified": "2023-06-14T14:49:15.000",
    "request_status": "Pending",
    "responsible_agency": "Department of Sanitation",
    "final_address": "3024 Esplanade Ave",
    "address_councildis": "A",
    "status": "Assigned to Contractor",
    "contractor": "Richards Disposal",
    "rowid": "1008650",
    "final_x": "3676639.90408",
    "final_y": "540004.102539",
    "longitude": "-90.08312446703064",
    "latitude": "29.978970752490426",
    "geocoded_column": {
      "latitude": "29.978970752490426",
      "longitude": "-90.08312446703064"
    }
  },
  {
    "service_request": "2023-1008649",
    "request_type": "Roads/Drainage",
    "request_reason": "Street Subsidence (Sinking)",
    "date_created": "2023-06-14T14:48:50.000",
    "date_modified": "2023-06-14T14:48:50.000",
    "request_status": "Pending",
    "responsible_agency": "Department of Public Works",
    "final_address": "1300 BLK Mithra St",
    "address_councildis": "D",
    "status": "Pending",
    "rowid": "1008649",
    "final_x": "3677287.22413",
    "final_y": "552071.149582",
    "longitude": "-90.08066332466275",
    "latitude": "30.012131452529644",
    "geocoded_column": {
      "latitude": "30.012131452529644",
      "longitude": "-90.08066332466275"
    }
  },
  {
    "service_request": "2023-1008648",
    "request_type": "Roads/Drainage",
    "request_reason": "Accessibility Ramps, Curbs and Sidewalk Repair",
    "date_created": "2023-06-14T14:42:05.000",
    "date_modified": "2023-06-14T14:42:06.000",
    "request_status": "Pending",
    "responsible_agency": "Department of Public Works",
    "final_address": "4012 Clermont Dr",
    "address_councildis": "D",
    "status": "Pending",
    "rowid": "1008648",
    "final_x": "3684997.44316",
    "final_y": "547089.589073",
    "longitude": "-90.05647883174254",
    "latitude": "29.99819994238771",
    "geocoded_column": {
      "latitude": "29.99819994238771",
      "longitude": "-90.05647883174254"
    }
  },
  {
    "service_request": "2023-1008647",
    "request_type": "Property Maintenance",
    "request_reason": "Property Maintenance",
    "date_created": "2023-06-14T14:41:39.000",
    "date_modified": "2023-06-14T14:41:40.000",
    "request_status": "Pending",
    "responsible_agency": "Department of Code Enforcement",
    "final_address": "2801 Abundance St",
    "address_councildis": "D",
    "status": "Pending",
    "rowid": "1008647",
    "final_x": "3689414.39759",
    "final_y": "543970.56987",
    "longitude": "-90.04263673835179",
    "latitude": "29.98948768927477",
    "geocoded_column": {
      "latitude": "29.98948768927477",
      "longitude": "-90.04263673835179"
    }
  },
  {
    "service_request": "2023-1008645",
    "request_type": "Tax and Revenue",
    "request_reason": "Sales Tax Question",
    "date_created": "2023-06-14T14:40:26.000",
    "date_modified": "2023-06-14T14:40:26.000",
    "request_status": "Pending",
    "responsible_agency": "Bureau of Revenue",
    "status": "Pending",
    "rowid": "1008645",
    "longitude": "0.0",
    "latitude": "0.0",
    "geocoded_column": {
      "latitude": "0.0",
      "longitude": "0.0"
    }
  },
  {
    "service_request": "2023-1008644",
    "request_type": "Trash/Recycling",
    "request_reason": "Request a Large Item Pick Up",
    "date_created": "2023-06-14T14:39:57.000",
    "date_modified": "2023-06-14T14:39:58.000",
    "request_status": "Pending",
    "responsible_agency": "Department of Sanitation",
    "final_address": "4125 Davey St",
    "address_councildis": "D",
    "status": "Assigned to Contractor",
    "contractor": "IV Waste",
    "rowid": "1008644",
    "final_x": "3676268.04949",
    "final_y": "547282.476689",
    "longitude": "-90.08404829512078",
    "latitude": "29.998994898948244",
    "geocoded_column": {
      "latitude": "29.998994898948244",
      "longitude": "-90.08404829512078"
    }
  },
  {
    "service_request": "2023-1008641",
    "request_type": "Roads/Drainage",
    "request_reason": "Damaged Sidewalk",
    "date_created": "2023-06-14T14:39:15.000",
    "date_modified": "2023-06-14T14:39:16.000",
    "request_status": "Pending",
    "responsible_agency": "Department of Public Works",
    "final_address": "8606 Pear St",
    "address_councildis": "A",
    "status": "Pending",
    "rowid": "1008641",
    "final_x": "3667694.85594",
    "final_y": "537478.855752",
    "longitude": "-90.11146150050556",
    "latitude": "29.97229250027616",
    "geocoded_column": {
      "latitude": "29.97229250027616",
      "longitude": "-90.11146150050556"
    }
  },
  {
    "service_request": "2023-1008638",
    "request_type": "Parks & Parkways",
    "request_reason": "Request Tree Service (Right of Way/Public Property)",
    "date_created": "2023-06-14T14:38:09.000",
    "date_modified": "2023-06-14T14:38:10.000",
    "request_status": "Pending",
    "responsible_agency": "Department of Parks & Parkway",
    "final_address": "8606 Pear St",
    "address_councildis": "A",
    "status": "Pending",
    "rowid": "1008638",
    "final_x": "3667694.85594",
    "final_y": "537478.855752",
    "longitude": "-90.11146150050556",
    "latitude": "29.97229250027616",
    "geocoded_column": {
      "latitude": "29.97229250027616",
      "longitude": "-90.11146150050556"
    }
  },
  {
    "service_request": "2023-1008637",
    "request_type": "Roads/Drainage",
    "request_reason": "Accessibility Ramps, Curbs and Sidewalk Repair",
    "date_created": "2023-06-14T14:33:40.000",
    "date_modified": "2023-06-14T16:46:16.000",
    "request_status": "Pending",
    "responsible_agency": "Department of Public Works",
    "final_address": "7500 Malvern Dr",
    "address_councildis": "E",
    "status": "Inspected",
    "rowid": "1008637",
    "final_x": "3702508.01751",
    "final_y": "561186.909534",
    "longitude": "-90.00064552471571",
    "latitude": "30.036414031842614",
    "geocoded_column": {
      "latitude": "30.036414031842614",
      "longitude": "-90.00064552471571"
    }
  },
  {
    "service_request": "2023-1008636",
    "request_type": "Trash/Recycling",
    "request_reason": "Missed Trash Pick-Up",
    "date_created": "2023-06-14T14:32:17.000",
    "date_modified": "2023-06-14T14:32:18.000",
    "request_status": "Pending",
    "responsible_agency": "Department of Sanitation",
    "final_address": "4012 Clermont Dr, New Orleans, Louisiana, 70122",
    "address_councildis": "D",
    "status": "Assigned to Contractor",
    "contractor": "IV Waste",
    "rowid": "1008636",
    "final_x": "3684997.44316",
    "final_y": "547089.589073",
    "longitude": "-90.05647883174254",
    "latitude": "29.99819994238771",
    "geocoded_column": {
      "latitude": "29.99819994238771",
      "longitude": "-90.05647883174254"
    }
  },
  {
    "service_request": "2023-1008635",
    "request_type": "Roads/Drainage",
    "request_reason": "Debris in Roadway",
    "date_created": "2023-06-14T14:30:21.000",
    "date_modified": "2023-06-14T16:35:38.000",
    "case_close_date": "2023-06-14T11:35:38.000",
    "request_status": "Closed",
    "responsible_agency": "Department of Public Works",
    "final_address": "6309 Wales St",
    "address_councildis": "E",
    "status": "Duplicate Request",
    "rowid": "1008635",
    "final_x": "3696120.75542",
    "final_y": "559877.221789",
    "longitude": "-90.02087786682937",
    "latitude": "30.033015611549956",
    "geocoded_column": {
      "latitude": "30.033015611549956",
      "longitude": "-90.02087786682937"
    }
  },
  {
    "service_request": "2023-1008634",
    "request_type": "Roads/Drainage",
    "request_reason": "Debris in Roadway",
    "date_created": "2023-06-14T14:30:05.000",
    "date_modified": "2023-06-14T16:28:30.000",
    "request_status": "Pending",
    "responsible_agency": "Department of Public Works",
    "final_address": "6309 Wales St",
    "address_councildis": "E",
    "status": "Inspected",
    "rowid": "1008634",
    "final_x": "3696120.75542",
    "final_y": "559877.221789",
    "longitude": "-90.02087786682937",
    "latitude": "30.033015611549956",
    "geocoded_column": {
      "latitude": "30.033015611549956",
      "longitude": "-90.02087786682937"
    }
  },
  {
    "service_request": "2023-1008633",
    "request_type": "Abandoned Vehicles",
    "request_reason": "Abandoned/Junk Vehicles",
    "date_created": "2023-06-14T14:23:32.000",
    "date_modified": "2023-06-14T14:23:32.000",
    "request_status": "Pending",
    "responsible_agency": "Department of Public Works",
    "final_address": "1420 Euterpe St",
    "address_councildis": "B",
    "status": "Pending",
    "rowid": "1008633",
    "final_x": "3679554.70511",
    "final_y": "524551.345916",
    "longitude": "-90.07445461444732",
    "latitude": "29.936393131063696",
    "geocoded_column": {
      "latitude": "29.936393131063696",
      "longitude": "-90.07445461444732"
    }
  },
  {
    "service_request": "2023-1008632",
    "request_type": "Roads/Drainage",
    "request_reason": "Alley Way",
    "date_created": "2023-06-14T14:17:19.000",
    "date_modified": "2023-06-14T14:17:46.000",
    "case_close_date": "2023-06-14T09:17:46.000",
    "request_status": "Closed",
    "responsible_agency": "Department of Public Works",
    "final_address": "6200 BLK Louis XIV St",
    "address_councildis": "A",
    "status": "Resolved",
    "rowid": "1008632",
    "final_x": "3668225.8036",
    "final_y": "548949.345787",
    "longitude": "-90.10939772335963",
    "latitude": "30.003816856557666",
    "geocoded_column": {
      "latitude": "30.003816856557666",
      "longitude": "-90.10939772335963"
    }
  },
  {
    "service_request": "2023-1008631",
    "request_type": "Trash/Recycling",
    "request_reason": "Order Recycling Cart",
    "date_created": "2023-06-14T14:11:17.000",
    "date_modified": "2023-06-14T14:11:17.000",
    "request_status": "Pending",
    "responsible_agency": "Department of Sanitation",
    "final_address": "2107 Broadway St",
    "address_councildis": "A",
    "status": "Pending",
    "rowid": "1008631",
    "final_x": "3666025.66381",
    "final_y": "529180.698944",
    "longitude": "-90.11701130679806",
    "latitude": "29.949524131955737",
    "geocoded_column": {
      "latitude": "29.949524131955737",
      "longitude": "-90.11701130679806"
    }
  },
  {
    "service_request": "2023-1008630",
    "request_type": "Roads/Drainage",
    "request_reason": "Alley Way",
    "date_created": "2023-06-14T14:11:04.000",
    "date_modified": "2023-06-14T14:11:37.000",
    "case_close_date": "2023-06-14T09:11:37.000",
    "request_status": "Closed",
    "responsible_agency": "Department of Public Works",
    "final_address": "6400 BLK Milne Blvd",
    "address_councildis": "A",
    "status": "Resolved",
    "rowid": "1008630",
    "final_x": "3667304.52428",
    "final_y": "550551.631952",
    "longitude": "-90.11225426852216",
    "latitude": "30.008249612413604",
    "geocoded_column": {
      "latitude": "30.008249612413604",
      "longitude": "-90.11225426852216"
    }
  },
  {
    "service_request": "2023-1008629",
    "request_type": "Trash/Recycling",
    "request_reason": "Order Trash Cart",
    "date_created": "2023-06-14T14:10:53.000",
    "date_modified": "2023-06-14T14:10:54.000",
    "request_status": "Pending",
    "responsible_agency": "Department of Sanitation",
    "final_address": "2107 Broadway St",
    "address_councildis": "A",
    "status": "Assigned to Contractor",
    "contractor": "Richards Disposal",
    "rowid": "1008629",
    "final_x": "3666025.66381",
    "final_y": "529180.698944",
    "longitude": "-90.11701130679806",
    "latitude": "29.949524131955737",
    "geocoded_column": {
      "latitude": "29.949524131955737",
      "longitude": "-90.11701130679806"
    }
  },
  {
    "service_request": "2023-1008628",
    "request_type": "Roads/Drainage",
    "request_reason": "Alley Way",
    "date_created": "2023-06-14T14:09:30.000",
    "date_modified": "2023-06-14T14:10:03.000",
    "case_close_date": "2023-06-14T09:10:03.000",
    "request_status": "Closed",
    "responsible_agency": "Department of Public Works",
    "final_address": "7000 BLK Catina St",
    "address_councildis": "A",
    "status": "Resolved",
    "rowid": "1008628",
    "final_x": "3667153.79492",
    "final_y": "554321.342588",
    "longitude": "-90.1126035901266",
    "latitude": "30.01861940967085",
    "geocoded_column": {
      "latitude": "30.01861940967085",
      "longitude": "-90.1126035901266"
    }
  },
  {
    "service_request": "2023-1008627",
    "request_type": "Abandoned Vehicles",
    "request_reason": "Abandoned/Junk Vehicles",
    "date_created": "2023-06-14T14:09:07.000",
    "date_modified": "2023-06-14T14:09:08.000",
    "request_status": "Pending",
    "responsible_agency": "Department of Public Works",
    "final_address": "ST MARIE DR & ST MARIE CT",
    "address_councildis": "E",
    "status": "Pending",
    "rowid": "1008627",
    "final_x": "3724140.52",
    "final_y": "569242.17",
    "longitude": "-89.9319720931763",
    "latitude": "30.057853104797697",
    "geocoded_column": {
      "latitude": "30.057853104797697",
      "longitude": "-89.9319720931763"
    }
  },
  {
    "service_request": "2023-1008626",
    "request_type": "Property Maintenance",
    "request_reason": "Property Maintenance",
    "date_created": "2023-06-14T14:07:08.000",
    "date_modified": "2023-06-14T14:07:08.000",
    "request_status": "Pending",
    "responsible_agency": "Department of Code Enforcement",
    "final_address": "2559 Industry St",
    "address_councildis": "D",
    "status": "Pending",
    "rowid": "1008626",
    "final_x": "3687183.22607",
    "final_y": "543186.384717",
    "longitude": "-90.04971210657808",
    "latitude": "29.987400376433435",
    "geocoded_column": {
      "latitude": "29.987400376433435",
      "longitude": "-90.04971210657808"
    }
  },
  {
    "service_request": "2023-1008625",
    "request_type": "Trash/Recycling",
    "request_reason": "Order Trash Cart",
    "date_created": "2023-06-14T14:06:42.000",
    "date_modified": "2023-06-14T14:06:43.000",
    "request_status": "Pending",
    "responsible_agency": "Department of Sanitation",
    "final_address": "2402 Felicity St",
    "address_councildis": "B",
    "status": "Assigned to Contractor",
    "contractor": "Richards Disposal",
    "rowid": "1008625",
    "final_x": "3676106.78958",
    "final_y": "526905.52019",
    "longitude": "-90.08525886328498",
    "latitude": "29.942970045305533",
    "geocoded_column": {
      "latitude": "29.942970045305533",
      "longitude": "-90.08525886328498"
    }
  },
  {
    "service_request": "2023-1008624",
    "request_type": "Property Maintenance",
    "request_reason": "Property Maintenance",
    "date_created": "2023-06-14T14:04:44.000",
    "date_modified": "2023-06-14T14:04:44.000",
    "request_status": "Pending",
    "responsible_agency": "Department of Code Enforcement",
    "final_address": "3400 BLK Robert St",
    "address_councildis": "B",
    "status": "Pending",
    "rowid": "1008624",
    "final_x": "3668939.95539",
    "final_y": "527666.498589",
    "longitude": "-90.10786067860397",
    "latitude": "29.945275189897842",
    "geocoded_column": {
      "latitude": "29.945275189897842",
      "longitude": "-90.10786067860397"
    }
  },
  {
    "service_request": "2023-1008623",
    "request_type": "Trash/Recycling",
    "request_reason": "Missed Trash Pick-Up",
    "date_created": "2023-06-14T14:02:23.000",
    "date_modified": "2023-06-14T14:02:24.000",
    "request_status": "Pending",
    "responsible_agency": "Department of Sanitation",
    "final_address": "1033 Joliet St",
    "address_councildis": "A",
    "status": "Assigned to Contractor",
    "contractor": "Richards Disposal",
    "rowid": "1008623",
    "final_x": "3660623.50976",
    "final_y": "528956.252672",
    "longitude": "-90.13407585421486",
    "latitude": "29.949063549142718",
    "geocoded_column": {
      "latitude": "29.949063549142718",
      "longitude": "-90.13407585421486"
    }
  },
  {
    "service_request": "2023-1008622",
    "request_type": "Trash/Recycling",
    "request_reason": "Order Trash Cart",
    "date_created": "2023-06-14T14:01:31.000",
    "date_modified": "2023-06-14T14:01:31.000",
    "request_status": "Pending",
    "responsible_agency": "Department of Sanitation",
    "final_address": "2517 St Andrew St",
    "address_councildis": "B",
    "status": "Assigned to Contractor",
    "contractor": "Richards Disposal",
    "rowid": "1008622",
    "final_x": "3675985.66491",
    "final_y": "526825.350142",
    "longitude": "-90.08564403989719",
    "latitude": "29.942753231234406",
    "geocoded_column": {
      "latitude": "29.942753231234406",
      "longitude": "-90.08564403989719"
    }
  },
  {
    "service_request": "2023-1008621",
    "request_type": "Trash/Recycling",
    "request_reason": "Repair Trash Cart",
    "date_created": "2023-06-14T13:55:16.000",
    "date_modified": "2023-06-14T13:55:17.000",
    "request_status": "Pending",
    "responsible_agency": "Department of Sanitation",
    "final_address": "2719 S Robertson St",
    "address_councildis": "B",
    "status": "Assigned to Contractor",
    "contractor": "Richards Disposal",
    "rowid": "1008621",
    "final_x": "3674035.50312",
    "final_y": "525661.724733",
    "longitude": "-90.09184097725526",
    "latitude": "29.939611887690873",
    "geocoded_column": {
      "latitude": "29.939611887690873",
      "longitude": "-90.09184097725526"
    }
  },
  {
    "service_request": "2023-1008620",
    "request_type": "Abandoned Vehicles",
    "request_reason": "Abandoned/Junk Vehicles",
    "date_created": "2023-06-14T13:51:43.000",
    "date_modified": "2023-06-14T13:51:43.000",
    "request_status": "Pending",
    "responsible_agency": "Department of Public Works",
    "final_address": "7200 BLK Olive St",
    "address_councildis": "B",
    "status": "Pending",
    "rowid": "1008620",
    "final_x": "3668429.59617",
    "final_y": "533095.163912",
    "longitude": "-90.10928895092113",
    "latitude": "29.9602172414098",
    "geocoded_column": {
      "latitude": "29.9602172414098",
      "longitude": "-90.10928895092113"
    }
  },