[
  {
    "service_request": "2023-976236",
    "request_type": "Traffic Signals/Signs/Striping/Streetlights",
    "request_reason": "Street Light Outage/Malfunction",
    "date_created": "2023-02-18T01:41:18.000",
    "date_modified": "2023-02-18T01:41:19.000",
    "request_status": "Pending",
    "responsible_agency": "Department of Public Works",
    "final_address": "109 Lark St",
    "address_councildis": "D",
    "status": "Assigned to Contractor",
    "contractor": "Legacy Professional Services",
    "rowid": "976236",
    "final_x": "3674864.29409",
    "final_y": "556196.748954",
    "longitude": "-90.08817677621316",
    "latitude": "30.023547979881883",
    "geocoded_column": {
      "latitude": "30.023547979881883",
      "longitude": "-90.08817677621316"
    }
  },
  {
    "service_request": "2023-976234",
    "request_type": "Traffic Signals/Signs/Striping/Streetlights",
    "request_reason": "Street Light Outage/Malfunction",
    "date_created": "2023-02-17T22:20:32.000",
    "date_modified": "2023-02-17T22:20:33.000",
    "request_status": "Pending",
    "responsible_agency": "Department of Public Works",
    "final_address": "345 Bellaire Dr",
    "address_councildis": "A",
    "status": "Assigned to Contractor",
    "contractor": "Legacy Professional Services",
    "rowid": "976234",
    "final_x": "3663986.46522",
    "final_y": "541876.704012",
    "longitude": "-90.12302658101453",
    "latitude": "29.98449332818907",
    "geocoded_column": {
      "latitude": "29.98449332818907",
      "longitude": "-90.12302658101453"
    }
  },
  {
    "service_request": "2023-976233",
    "request_type": "Health Related Request",
    "request_reason": "Noise Ordinance Complaint",
    "date_created": "2023-02-17T22:17:20.000",
    "date_modified": "2023-02-17T22:17:20.000",
    "request_status": "Pending",
    "responsible_agency": "Health Department",
    "final_address": "525 Frenchmen St",
    "address_councildis": "C",
    "status": "Pending",
    "rowid": "976233",
    "final_x": "3684776.90357",
    "final_y": "534376.138501",
    "longitude": "-90.05762264942118",
    "latitude": "29.96324918168695",
    "geocoded_column": {
      "latitude": "29.96324918168695",
      "longitude": "-90.05762264942118"
    }
  },
  {
    "service_request": "2023-976232",
    "request_type": "Trash/Recycling",
    "request_reason": "Request a Large Item Pick Up",
    "date_created": "2023-02-17T20:57:10.000",
    "date_modified": "2023-02-17T20:57:37.000",
    "request_status": "Pending",
    "responsible_agency": "Department of Sanitation",
    "final_address": "7631 Crestmont Rd",
    "address_councildis": "E",
    "status": "Assigned to Contractor",
    "contractor": "Waste Pro",
    "rowid": "976232",
    "final_x": "3699657.76964",
    "final_y": "560389.539614",
    "longitude": "-90.00968193620962",
    "latitude": "30.03431241658454",
    "geocoded_column": {
      "latitude": "30.03431241658454",
      "longitude": "-90.00968193620962"
    }
  },
  {
    "service_request": "2023-976231",
    "request_type": "Traffic Signals/Signs/Striping/Streetlights",
    "request_reason": "Street Light Outage/Malfunction",
    "date_created": "2023-02-17T20:53:46.000",
    "date_modified": "2023-02-17T20:53:47.000",
    "request_status": "Pending",
    "responsible_agency": "Department of Public Works",
    "final_address": "4641 Dreux Ave",
    "address_councildis": "D",
    "status": "Assigned to Contractor",
    "contractor": "Legacy Professional Services",
    "rowid": "976231",
    "final_x": "3690868.91964",
    "final_y": "553150.099031",
    "longitude": "-90.03771447684453",
    "latitude": "30.014682906157653",
    "geocoded_column": {
      "latitude": "30.014682906157653",
      "longitude": "-90.03771447684453"
    }
  },
  {
    "service_request": "2023-976229",
    "request_type": "Trash/Recycling",
    "request_reason": "MIssed Recycling Pick-Up",
    "date_created": "2023-02-17T20:24:35.000",
    "date_modified": "2023-02-17T20:24:36.000",
    "request_status": "Pending",
    "responsible_agency": "Department of Sanitation",
    "final_address": "2831 Audubon St",
    "address_councildis": "B",
    "status": "Assigned to Contractor",
    "contractor": "Richards Disposal",
    "rowid": "976229",
    "final_x": "3667694.17434",
    "final_y": "531295.870018",
    "longitude": "-90.11167184375363",
    "latitude": "29.955291355719048",
    "geocoded_column": {
      "latitude": "29.955291355719048",
      "longitude": "-90.11167184375363"
    }
  },
  {
    "service_request": "2023-976228",
    "request_type": "Trash/Recycling",
    "request_reason": "MIssed Recycling Pick-Up",
    "date_created": "2023-02-17T20:22:47.000",
    "date_modified": "2023-02-17T20:22:47.000",
    "request_status": "Pending",
    "responsible_agency": "Department of Sanitation",
    "final_address": "7364 Canterbury St",
    "address_councildis": "E",
    "status": "Assigned to Contractor",
    "contractor": "Waste Pro",
    "rowid": "976228",
    "final_x": "3698740.93514",
    "final_y": "559402.014813",
    "longitude": "-90.01261520998483",
    "latitude": "30.031626194263133",
    "geocoded_column": {
      "latitude": "30.031626194263133",
      "longitude": "-90.01261520998483"
    }
  },
  {
    "service_request": "2023-976227",
    "request_type": "Roads/Drainage",
    "request_reason": "Street Subsidence (Sinking)",
    "date_created": "2023-02-17T19:24:24.000",
    "date_modified": "2023-02-17T19:24:25.000",
    "request_status": "Pending",
    "responsible_agency": "Department of Public Works",
    "final_address": "N RAMPART ST & JOURDAN AVE",
    "address_councildis": "E",
    "status": "Pending",
    "rowid": "976227",
    "final_x": "3694895.7",
    "final_y": "534074.08",
    "longitude": "-90.02567969135598",
    "latitude": "29.962104980804",
    "geocoded_column": {
      "latitude": "29.962104980804",
      "longitude": "-90.02567969135598"
    }
  },
  {
    "service_request": "2023-976226",
    "request_type": "Trash/Recycling",
    "request_reason": "Order Recycling Cart",
    "date_created": "2023-02-17T19:05:50.000",
    "date_modified": "2023-02-17T19:05:50.000",
    "request_status": "Pending",
    "responsible_agency": "Department of Sanitation",
    "final_address": "6850 Norwood Ct",
    "address_councildis": "E",
    "status": "Pending",
    "rowid": "976226",
    "final_x": "3700997.42961",
    "final_y": "557229.896091",
    "longitude": "-90.00556415965184",
    "latitude": "30.025581998864517",
    "geocoded_column": {
      "latitude": "30.025581998864517",
      "longitude": "-90.00556415965184"
    }
  },
  {
    "service_request": "2023-976225",
    "request_type": "Abandoned Vehicles",
    "request_reason": "Abandoned/Junk Vehicles",
    "date_created": "2023-02-17T18:57:44.000",
    "date_modified": "2023-02-17T18:57:44.000",
    "request_status": "Pending",
    "responsible_agency": "Department of Public Works",
    "final_address": "820 Spain St Unit 6",
    "address_councildis": "C",
    "status": "Pending",
    "rowid": "976225",
    "final_x": "3686149.70294",
    "final_y": "535481.288198",
    "longitude": "-90.05324852767511",
    "latitude": "29.966245863348405",
    "geocoded_column": {
      "latitude": "29.966245863348405",
      "longitude": "-90.05324852767511"
    }
  },
  {
    "service_request": "2023-976224",
    "request_type": "Abandoned Vehicles",
    "request_reason": "Abandoned/Junk Vehicles",
    "date_created": "2023-02-17T18:52:08.000",
    "date_modified": "2023-02-17T18:52:08.000",
    "request_status": "Pending",
    "responsible_agency": "Department of Public Works",
    "final_address": "821 Dearmas St",
    "address_councildis": "C",
    "status": "Pending",
    "rowid": "976224",
    "final_x": "3687924.29667",
    "final_y": "527132.871679",
    "longitude": "-90.04794016093365",
    "latitude": "29.943235960298452",
    "geocoded_column": {
      "latitude": "29.943235960298452",
      "longitude": "-90.04794016093365"
    }
  },
  {
    "service_request": "2023-976223",
    "request_type": "Traffic Signals/Signs/Striping/Streetlights",
    "request_reason": "Traffic Signal Malfunctioning/Damaged",
    "date_created": "2023-02-17T18:12:52.000",
    "date_modified": "2023-02-17T18:12:52.000",
    "request_status": "Pending",
    "responsible_agency": "Department of Public Works",
    "final_address": "CONVENTION CENTER BLVD & POYDRAS ST",
    "address_councildis": "B",
    "status": "Pending",
    "rowid": "976223",
    "final_x": "3682750.2",
    "final_y": "528853.18",
    "longitude": "-90.06421591259999",
    "latitude": "29.94812481281751",
    "geocoded_column": {
      "latitude": "29.94812481281751",
      "longitude": "-90.06421591259999"
    }
  },
  {
    "service_request": "2023-976222",
    "request_type": "Trash/Recycling",
    "request_reason": "Order Trash Cart",
    "date_created": "2023-02-17T17:56:58.000",
    "date_modified": "2023-02-17T17:56:58.000",
    "request_status": "Pending",
    "responsible_agency": "Department of Sanitation",
    "final_address": "7705 Plum St",
    "address_councildis": "A",
    "status": "Assigned to Contractor",
    "contractor": "Richards Disposal",
    "rowid": "976222",
    "final_x": "3663278.89735",
    "final_y": "527697.562175",
    "longitude": "-90.12573348164695",
    "latitude": "29.945525869063065",
    "geocoded_column": {
      "latitude": "29.945525869063065",
      "longitude": "-90.12573348164695"
    }
  },
  {
    "service_request": "2023-976221",
    "request_type": "Trash/Recycling",
    "request_reason": "Repair Trash Cart",
    "date_created": "2023-02-17T17:54:08.000",
    "date_modified": "2023-02-17T17:54:09.000",
    "request_status": "Pending",
    "responsible_agency": "Department of Sanitation",
    "final_address": "7703 Plum St",
    "address_councildis": "A",
    "status": "Assigned to Contractor",
    "contractor": "Richards Disposal",
    "rowid": "976221",
    "final_x": "3663290.71533",
    "final_y": "527687.299711",
    "longitude": "-90.12569650976789",
    "latitude": "29.945497308099696",
    "geocoded_column": {
      "latitude": "29.945497308099696",
      "longitude": "-90.12569650976789"
    }
  },
  {
    "service_request": "2023-976220",
    "request_type": "Abandoned Vehicles",
    "request_reason": "Abandoned/Junk Vehicles",
    "date_created": "2023-02-17T17:53:41.000",
    "date_modified": "2023-02-17T17:53:41.000",
    "request_status": "Pending",
    "responsible_agency": "Department of Public Works",
    "final_address": "Marigny St & Saint Claude Ave, New Orleans, Louisiana, 70117",
    "status": "Pending",
    "rowid": "976220",
    "longitude": "0.0",
    "latitude": "0.0",
    "geocoded_column": {
      "latitude": "0.0",
      "longitude": "0.0"
    }
  },
  {
    "service_request": "2023-976219",
    "request_type": "Trash/Recycling",
    "request_reason": "Missed Trash Pick-Up",
    "date_created": "2023-02-17T17:37:44.000",
    "date_modified": "2023-02-17T17:37:45.000",
    "request_status": "Pending",
    "responsible_agency": "Department of Sanitation",
    "final_address": "1315 Exposition Blvd",
    "address_councildis": "A",
    "status": "Assigned to Contractor",
    "contractor": "Richards Disposal",
    "rowid": "976219",
    "final_x": "3663926.68647",
    "final_y": "521499.865593",
    "longitude": "-90.12389473459156",
    "latitude": "29.92846538485931",
    "geocoded_column": {
      "latitude": "29.92846538485931",
      "longitude": "-90.12389473459156"
    }
  },
  {
    "service_request": "2023-976218",
    "request_type": "Trash/Recycling",
    "request_reason": "Request a Large Item Pick Up",
    "date_created": "2023-02-17T17:23:48.000",
    "date_modified": "2023-02-17T17:23:48.000",
    "request_status": "Pending",
    "responsible_agency": "Department of Sanitation",
    "final_address": "1439 Louisiana Ave",
    "address_councildis": "B",
    "status": "Assigned to Contractor",
    "contractor": "Richards Disposal",
    "rowid": "976218",
    "final_x": "3674567.20648",
    "final_y": "520902.567993",
    "longitude": "-90.0903253090172",
    "latitude": "29.926509901896985",
    "geocoded_column": {
      "latitude": "29.926509901896985",
      "longitude": "-90.0903253090172"
    }
  },
  {
    "service_request": "2023-976217",
    "request_type": "Trash/Recycling",
    "request_reason": "Order Trash Cart",
    "date_created": "2023-02-17T16:57:30.000",
    "date_modified": "2023-02-17T16:57:31.000",
    "request_status": "Pending",
    "responsible_agency": "Department of Sanitation",
    "final_address": "7153 Bunker Hill Rd",
    "address_councildis": "E",
    "status": "Assigned to Contractor",
    "contractor": "Waste Pro",
    "rowid": "976217",
    "final_x": "3705661.63249",
    "final_y": "561021.870366",
    "longitude": "-89.99068565718676",
    "latitude": "30.035859009657194",
    "geocoded_column": {
      "latitude": "30.035859009657194",
      "longitude": "-89.99068565718676"
    }
  },
  {
    "service_request": "2023-976216",
    "request_type": "Trash/Recycling",
    "request_reason": "Order Recycling Cart",
    "date_created": "2023-02-17T16:54:05.000",
    "date_modified": "2023-02-17T16:54:05.000",
    "request_status": "Pending",
    "responsible_agency": "Department of Sanitation",
    "final_address": "7424 Dogwood Dr",
    "address_councildis": "E",
    "status": "Pending",
    "rowid": "976216",
    "final_x": "3701419.47351",
    "final_y": "560484.67587",
    "longitude": "-90.00411126379704",
    "latitude": "30.034517929435506",
    "geocoded_column": {
      "latitude": "30.034517929435506",
      "longitude": "-90.00411126379704"
    }
  },
  {
    "service_request": "2023-976215",
    "request_type": "Trash/Recycling",
    "request_reason": "Order Trash Cart",
    "date_created": "2023-02-17T16:52:23.000",
    "date_modified": "2023-02-17T16:52:23.000",
    "request_status": "Pending",
    "responsible_agency": "Department of Sanitation",
    "final_address": "7424 Dogwood Dr",
    "address_councildis": "E",
    "status": "Assigned to Contractor",
    "contractor": "Waste Pro",
    "rowid": "976215",
    "final_x": "3701419.47351",
    "final_y": "560484.67587",
    "longitude": "-90.00411126379704",
    "latitude": "30.034517929435506",
    "geocoded_column": {
      "latitude": "30.034517929435506",
      "longitude": "-90.00411126379704"
    }
  },
  {
    "service_request": "2023-976214",
    "request_type": "Trash/Recycling",
    "request_reason": "Order Trash Cart",
    "date_created": "2023-02-17T16:45:58.000",
    "date_modified": "2023-02-17T16:45:59.000",
    "request_status": "Pending",
    "responsible_agency": "Department of Sanitation",
    "final_address": "442 Belleville St",
    "address_councildis": "C",
    "status": "Assigned to Contractor",
    "contractor": "Richards Disposal",
    "rowid": "976214",
    "final_x": "3687900.39439",
    "final_y": "529990.831233",
    "longitude": "-90.04791440179312",
    "latitude": "29.951095110854872",
    "geocoded_column": {
      "latitude": "29.951095110854872",
      "longitude": "-90.04791440179312"
    }
  },
  {
    "service_request": "2023-976213",
    "request_type": "Traffic Signals/Signs/Striping/Streetlights",
    "request_reason": "Traffic Sign Missing/Damaged",
    "date_created": "2023-02-17T16:34:22.000",
    "date_modified": "2023-02-17T16:34:23.000",
    "request_status": "Pending",
    "responsible_agency": "Department of Public Works",
    "final_address": "ST PHILIP ST & N VILLERE ST",
    "address_councildis": "C",
    "status": "Pending",
    "rowid": "976213",
    "final_x": "3680997.1",
    "final_y": "535063.58",
    "longitude": "-90.06953488547543",
    "latitude": "29.96525458070901",
    "geocoded_column": {
      "latitude": "29.96525458070901",
      "longitude": "-90.06953488547543"
    }
  },
  {
    "service_request": "2023-976212",
    "request_type": "Trash/Recycling",
    "request_reason": "Missed Trash Pick-Up",
    "date_created": "2023-02-17T16:29:20.000",
    "date_modified": "2023-02-17T16:29:21.000",
    "request_status": "Pending",
    "responsible_agency": "Department of Sanitation",
    "final_address": "6055 Erin Dr",
    "address_councildis": "E",
    "status": "Assigned to Contractor",
    "contractor": "Waste Pro",
    "rowid": "976212",
    "final_x": "3695764.56605",
    "final_y": "558552.472924",
    "longitude": "-90.02205136083707",
    "latitude": "30.029384272299712",
    "geocoded_column": {
      "latitude": "30.029384272299712",
      "longitude": "-90.02205136083707"
    }
  },
  {
    "service_request": "2023-976210",
    "request_type": "Trash/Recycling",
    "request_reason": "Request a Large Item Pick Up",
    "date_created": "2023-02-17T16:08:51.000",
    "date_modified": "2023-02-17T16:09:51.000",
    "request_status": "Pending",
    "responsible_agency": "Department of Sanitation",
    "final_address": "7341 Sheffield St",
    "address_councildis": "E",
    "status": "Assigned to Contractor",
    "contractor": "Waste Pro",
    "rowid": "976210",
    "final_x": "3699565.1896",
    "final_y": "559531.889117",
    "longitude": "-90.0100058008644",
    "latitude": "30.03195714980781",
    "geocoded_column": {
      "latitude": "30.03195714980781",
      "longitude": "-90.0100058008644"
    }
  },
  {
    "service_request": "2023-976209",
    "request_type": "Trash/Recycling",
    "request_reason": "Request a Large Item Pick Up",
    "date_created": "2023-02-17T16:08:38.000",
    "date_modified": "2023-02-17T16:08:39.000",
    "request_status": "Pending",
    "responsible_agency": "Department of Sanitation",
    "final_address": "4611 Nighthart St",
    "address_councildis": "E",
    "status": "Assigned to Contractor",
    "contractor": "Waste Pro",
    "rowid": "976209",
    "final_x": "3716251.56818",
    "final_y": "556490.76617",
    "longitude": "-89.9573918414705",
    "latitude": "30.023054837525773",
    "geocoded_column": {
      "latitude": "30.023054837525773",
      "longitude": "-89.9573918414705"
    }
  },
  {
    "service_request": "2023-976208",
    "request_type": "Traffic Signals/Signs/Striping/Streetlights",
    "request_reason": "Street Light Outage/Malfunction",
    "date_created": "2023-02-17T16:08:09.000",
    "date_modified": "2023-02-17T16:08:09.000",
    "request_status": "Pending",
    "responsible_agency": "Department of Public Works",
    "final_address": "4116 Vincennes Pl",
    "address_councildis": "B",
    "status": "Assigned to Contractor",
    "contractor": "Legacy Professional Services",
    "rowid": "976208",
    "final_x": "3668511.91751",
    "final_y": "530680.10829",
    "longitude": "-90.10911047590277",
    "latitude": "29.953574214522018",
    "geocoded_column": {
      "latitude": "29.953574214522018",
      "longitude": "-90.10911047590277"
    }
  },
  {
    "service_request": "2023-976207",
    "request_type": "Trash/Recycling",
    "request_reason": "Missed Trash Pick-Up",
    "date_created": "2023-02-17T16:01:24.000",
    "date_modified": "2023-02-17T16:01:30.000",
    "request_status": "Pending",
    "responsible_agency": "Department of Sanitation",
    "final_address": "8830 Palmetto St",
    "address_councildis": "A",
    "status": "Assigned to Contractor",
    "contractor": "Richards Disposal",
    "rowid": "976207",
    "final_x": "3666077.50682",
    "final_y": "536903.405832",
    "longitude": "-90.11658868461363",
    "latitude": "29.970757527790656",
    "geocoded_column": {
      "latitude": "29.970757527790656",
      "longitude": "-90.11658868461363"
    }
  },
  {
    "service_request": "2023-976206",
    "request_type": "Trash/Recycling",
    "request_reason": "MIssed Recycling Pick-Up",
    "date_created": "2023-02-17T15:56:42.000",
    "date_modified": "2023-02-17T15:56:43.000",
    "request_status": "Pending",
    "responsible_agency": "Department of Sanitation",
    "final_address": "7217 Lake Willow Dr",
    "address_councildis": "E",
    "status": "Assigned to Contractor",
    "contractor": "Waste Pro",
    "rowid": "976206",
    "final_x": "3702503.82052",
    "final_y": "559935.892125",
    "longitude": "-90.00070476723864",
    "latitude": "30.032974356256556",
    "geocoded_column": {
      "latitude": "30.032974356256556",
      "longitude": "-90.00070476723864"
    }
  },
  {
    "service_request": "2023-976205",
    "request_type": "Abandoned Vehicles",
    "request_reason": "Abandoned/Junk Vehicles",
    "date_created": "2023-02-17T15:45:08.000",
    "date_modified": "2023-02-17T15:53:06.000",
    "request_status": "Pending",
    "responsible_agency": "Department of Public Works",
    "final_address": "7866 Darleen Ct",
    "address_councildis": "E",
    "status": "Inspected",
    "rowid": "976205",
    "final_x": "3716671.61701",
    "final_y": "572231.655337",
    "longitude": "-89.95546650473769",
    "latitude": "30.06632199327146",
    "geocoded_column": {
      "latitude": "30.06632199327146",
      "longitude": "-89.95546650473769"
    }
  },
  {
    "service_request": "2023-976204",
    "request_type": "Property Maintenance",
    "request_reason": "Property Maintenance",
    "date_created": "2023-02-17T15:43:00.000",
    "date_modified": "2023-02-17T15:43:01.000",
    "request_status": "Pending",
    "responsible_agency": "Department of Code Enforcement",
    "final_address": "2121 Rev. John Raphael, Jr. Way",
    "address_councildis": "B",
    "status": "Pending",
    "rowid": "976204",
    "final_x": "3675941.02958",
    "final_y": "526210.889854",
    "longitude": "-90.08580608594976",
    "latitude": "29.941065004144907",
    "geocoded_column": {
      "latitude": "29.941065004144907",
      "longitude": "-90.08580608594976"
    }
  },
  {
    "service_request": "2023-976203",
    "request_type": "Trash/Recycling",
    "request_reason": "Missed Trash Pick-Up",
    "date_created": "2023-02-17T15:39:45.000",
    "date_modified": "2023-02-17T15:39:46.000",
    "request_status": "Pending",
    "responsible_agency": "Department of Sanitation",
    "final_address": "7626 Hayne Blvd",
    "address_councildis": "E",
    "status": "Assigned to Contractor",
    "contractor": "Waste Pro",
    "rowid": "976203",
    "final_x": "3700548.55581",
    "final_y": "562162.727839",
    "longitude": "-90.0068020783592",
    "latitude": "30.039159669630823",
    "geocoded_column": {
      "latitude": "30.039159669630823",
      "longitude": "-90.0068020783592"
    }
  },
  {
    "service_request": "2023-976202",
    "request_type": "Trash/Recycling",
    "request_reason": "Replace Trash Cart",
    "date_created": "2023-02-17T15:34:53.000",
    "date_modified": "2023-02-17T15:34:54.000",
    "request_status": "Pending",
    "responsible_agency": "Department of Sanitation",
    "final_address": "3016 Marais St",
    "address_councildis": "C",
    "status": "Assigned to Contractor",
    "contractor": "IV Waste",
    "rowid": "976202",
    "final_x": "3688655.09942",
    "final_y": "536422.033351",
    "longitude": "-90.04530316329189",
    "latitude": "29.96875538485169",
    "geocoded_column": {
      "latitude": "29.96875538485169",
      "longitude": "-90.04530316329189"
    }
  },
  {
    "service_request": "2023-976201",
    "request_type": "Property Maintenance",
    "request_reason": "Property Maintenance",
    "date_created": "2023-02-17T15:34:35.000",
    "date_modified": "2023-02-17T15:34:35.000",
    "request_status": "Pending",
    "responsible_agency": "Department of Code Enforcement",
    "final_address": "6611 Chef Menteur Hwy",
    "address_councildis": "E",
    "status": "Pending",
    "rowid": "976201",
    "final_x": "3699268.81591",
    "final_y": "552063.299222",
    "longitude": "-90.01121467399435",
    "latitude": "30.011430785208734",
    "geocoded_column": {
      "latitude": "30.011430785208734",
      "longitude": "-90.01121467399435"
    }
  },
  {
    "service_request": "2023-976200",
    "request_type": "Property Maintenance",
    "request_reason": "Property Maintenance",
    "date_created": "2023-02-17T15:33:35.000",
    "date_modified": "2023-02-17T15:33:35.000",
    "request_status": "Pending",
    "responsible_agency": "Department of Code Enforcement",
    "final_address": "4259 Reynes St",
    "address_councildis": "E",
    "status": "Pending",
    "rowid": "976200",
    "final_x": "3699433.20208",
    "final_y": "552432.690262",
    "longitude": "-90.01068184242258",
    "latitude": "30.01244125474566",
    "geocoded_column": {
      "latitude": "30.01244125474566",
      "longitude": "-90.01068184242258"
    }
  },
  {
    "service_request": "2023-976199",
    "request_type": "Trash/Recycling",
    "request_reason": "Request a Large Item Pick Up",
    "date_created": "2023-02-17T15:33:23.000",
    "date_modified": "2023-02-17T15:33:23.000",
    "request_status": "Pending",
    "responsible_agency": "Department of Sanitation",
    "final_address": "1607 Joliet St",
    "address_councildis": "A",
    "status": "Assigned to Contractor",
    "contractor": "Richards Disposal",
    "rowid": "976199",
    "final_x": "3661931.76051",
    "final_y": "530402.019138",
    "longitude": "-90.1298971707884",
    "latitude": "29.95300122785835",
    "geocoded_column": {
      "latitude": "29.95300122785835",
      "longitude": "-90.1298971707884"
    }
  },
  {
    "service_request": "2023-976198",
    "request_type": "Property Maintenance",
    "request_reason": "Property Maintenance",
    "date_created": "2023-02-17T15:32:41.000",
    "date_modified": "2023-02-17T15:32:41.000",
    "request_status": "Pending",
    "responsible_agency": "Department of Code Enforcement",
    "final_address": "4265 Reynes St",
    "address_councildis": "E",
    "status": "Pending",
    "rowid": "976198",
    "final_x": "3699444.85066",
    "final_y": "552481.003862",
    "longitude": "-90.01064327760372",
    "latitude": "30.012573729177248",
    "geocoded_column": {
      "latitude": "30.012573729177248",
      "longitude": "-90.01064327760372"
    }
  },
  {
    "service_request": "2023-976197",
    "request_type": "Traffic Signals/Signs/Striping/Streetlights",
    "request_reason": "Street Light Outage/Malfunction",
    "date_created": "2023-02-17T15:31:33.000",
    "date_modified": "2023-02-17T15:31:34.000",
    "request_status": "Pending",
    "responsible_agency": "Department of Public Works",
    "final_address": "4315 Reynes St",
    "address_councildis": "E",
    "status": "Assigned to Contractor",
    "contractor": "Legacy Professional Services",
    "rowid": "976197",
    "final_x": "3699429.0584",
    "final_y": "552663.791766",
    "longitude": "-90.01068650591293",
    "latitude": "30.0130768280966",
    "geocoded_column": {
      "latitude": "30.0130768280966",
      "longitude": "-90.01068650591293"
    }
  },
  {
    "service_request": "2023-976196",
    "request_type": "Trash/Recycling",
    "request_reason": "Missed Trash Pick-Up",
    "date_created": "2023-02-17T15:31:12.000",
    "date_modified": "2023-02-17T15:31:13.000",
    "request_status": "Pending",
    "responsible_agency": "Department of Sanitation",
    "final_address": "4437 Flake Ave",
    "address_councildis": "E",
    "status": "Assigned to Contractor",
    "contractor": "Waste Pro",
    "rowid": "976196",
    "final_x": "3706309.53662",
    "final_y": "553716.216855",
    "longitude": "-89.9889090612578",
    "latitude": "30.015750417732416",
    "geocoded_column": {
      "latitude": "30.015750417732416",
      "longitude": "-89.9889090612578"
    }
  },
  {
    "service_request": "2023-976195",
    "request_type": "Trash/Recycling",
    "request_reason": "Request a Large Item Pick Up",
    "date_created": "2023-02-17T15:27:15.000",
    "date_modified": "2023-02-17T15:27:16.000",
    "request_status": "Pending",
    "responsible_agency": "Department of Sanitation",
    "final_address": "4527 Tchoupitoulas St",
    "address_councildis": "B",
    "status": "Assigned to Contractor",
    "contractor": "Richards Disposal",
    "rowid": "976195",
    "final_x": "3670566.90894",
    "final_y": "517432.301558",
    "longitude": "-90.10307079103829",
    "latitude": "29.917086488242536",
    "geocoded_column": {
      "latitude": "29.917086488242536",
      "longitude": "-90.10307079103829"
    }
  },
  {
    "service_request": "2023-976194",
    "request_type": "Trash/Recycling",
    "request_reason": "Order Trash Cart",
    "date_created": "2023-02-17T15:26:38.000",
    "date_modified": "2023-02-17T15:26:39.000",
    "request_status": "Pending",
    "responsible_agency": "Department of Sanitation",
    "final_address": "316 N Dorgenois St",
    "address_councildis": "B",
    "status": "Assigned to Contractor",
    "contractor": "Richards Disposal",
    "rowid": "976194",
    "final_x": "3676401.71477",
    "final_y": "535518.610694",
    "longitude": "-90.08403122151593",
    "latitude": "29.966644325978795",
    "geocoded_column": {
      "latitude": "29.966644325978795",
      "longitude": "-90.08403122151593"
    }
  },
  {
    "service_request": "2023-976193",
    "request_type": "Trash/Recycling",
    "request_reason": "Order Trash Cart",
    "date_created": "2023-02-17T15:26:06.000",
    "date_modified": "2023-02-17T15:26:06.000",
    "request_status": "Pending",
    "responsible_agency": "Department of Sanitation",
    "final_address": "314 N Dorgenois St",
    "address_councildis": "B",
    "status": "Assigned to Contractor",
    "contractor": "Richards Disposal",
    "rowid": "976193",
    "final_x": "3676394.65781",
    "final_y": "535506.64263",
    "longitude": "-90.08405391943258",
    "latitude": "29.966611629422957",
    "geocoded_column": {
      "latitude": "29.966611629422957",
      "longitude": "-90.08405391943258"
    }
  },
  {
    "service_request": "2023-976192",
    "request_type": "Roads/Drainage",
    "request_reason": "Pothole",
    "date_created": "2023-02-17T15:20:25.000",
    "date_modified": "2023-02-17T15:20:26.000",
    "request_status": "Pending",
    "responsible_agency": "Department of Public Works",
    "final_address": "5300 BLK Cameron Blvd",
    "address_councildis": "D",
    "status": "Pending",
    "rowid": "976192",
    "final_x": "3682559.4498",
    "final_y": "552572.214525",
    "longitude": "-90.06398856102095",
    "latitude": "30.013349662542122",
    "geocoded_column": {
      "latitude": "30.013349662542122",
      "longitude": "-90.06398856102095"
    }
  },
  {
    "service_request": "2023-976191",
    "request_type": "Roads/Drainage",
    "request_reason": "Street Subsidence (Sinking)",
    "date_created": "2023-02-17T15:16:52.000",
    "date_modified": "2023-02-17T16:22:31.000",
    "case_close_date": "2023-02-17T10:22:31.000",
    "request_status": "Closed",
    "responsible_agency": "Department of Public Works",
    "final_address": "5300 BLK Cameron Blvd",
    "address_councildis": "D",
    "status": "Duplicate Request",
    "rowid": "976191",
    "final_x": "3682559.4498",
    "final_y": "552572.214525",
    "longitude": "-90.06398856102095",
    "latitude": "30.013349662542122",
    "geocoded_column": {
      "latitude": "30.013349662542122",
      "longitude": "-90.06398856102095"
    }
  },
  {
    "service_request": "2023-976190",
    "request_type": "Abandoned Vehicles",
    "request_reason": "Vehicle Blocking Your Driveway",
    "date_created": "2023-02-17T15:16:25.000",
    "date_modified": "2023-02-17T15:16:26.000",
    "request_status": "Pending",
    "responsible_agency": "Department of Public Works",
    "final_address": "4007 St Charles Ave",
    "address_councildis": "B",
    "status": "Pending",
    "rowid": "976190",
    "final_x": "3672200.40097",
    "final_y": "521068.107193",
    "longitude": "-90.09779103945499",
    "latitude": "29.927035467644565",
    "geocoded_column": {
      "latitude": "29.927035467644565",
      "longitude": "-90.09779103945499"
    }
  },
  {
    "service_request": "2023-976189",
    "request_type": "Trash/Recycling",
    "request_reason": "MIssed Recycling Pick-Up",
    "date_created": "2023-02-17T15:13:40.000",
    "date_modified": "2023-02-17T15:13:40.000",
    "request_status": "Pending",
    "responsible_agency": "Department of Sanitation",
    "final_address": "2423 Burgundy St",
    "address_councildis": "C",
    "status": "Assigned to Contractor",
    "contractor": "IV Waste",
    "rowid": "976189",
    "final_x": "3686029.5821",
    "final_y": "535695.648135",
    "longitude": "-90.05362030576845",
    "latitude": "29.96683896808017",
    "geocoded_column": {
      "latitude": "29.96683896808017",
      "longitude": "-90.05362030576845"
    }
  },
  {
    "service_request": "2023-976187",
    "request_type": "Trash/Recycling",
    "request_reason": "Repair Trash Cart",
    "date_created": "2023-02-17T15:01:33.000",
    "date_modified": "2023-02-17T15:01:34.000",
    "request_status": "Pending",
    "responsible_agency": "Department of Sanitation",
    "final_address": "7935 Jahncke Rd",
    "address_councildis": "E",
    "status": "Assigned to Contractor",
    "contractor": "Waste Pro",
    "rowid": "976187",
    "final_x": "3713532.49343",
    "final_y": "569319.718502",
    "longitude": "-89.96549952325599",
    "latitude": "30.058418786811792",
    "geocoded_column": {
      "latitude": "30.058418786811792",
      "longitude": "-89.96549952325599"
    }
  },
  {
    "service_request": "2023-976186",
    "request_type": "Trash/Recycling",
    "request_reason": "Order Recycling Cart",
    "date_created": "2023-02-17T15:00:58.000",
    "date_modified": "2023-02-17T15:00:59.000",
    "request_status": "Pending",
    "responsible_agency": "Department of Sanitation",
    "final_address": "7935 Jahncke Rd",
    "address_councildis": "E",
    "status": "Pending",
    "rowid": "976186",
    "final_x": "3713532.49343",
    "final_y": "569319.718502",
    "longitude": "-89.96549952325599",
    "latitude": "30.058418786811792",
    "geocoded_column": {
      "latitude": "30.058418786811792",
      "longitude": "-89.96549952325599"
    }
  },
  {
    "service_request": "2023-976185",
    "request_type": "Trash/Recycling",
    "request_reason": "Missed Trash Pick-Up",
    "date_created": "2023-02-17T14:52:14.000",
    "date_modified": "2023-02-17T14:52:14.000",
    "request_status": "Pending",
    "responsible_agency": "Department of Sanitation",
    "final_address": "7041 Coventry St",
    "address_councildis": "E",
    "status": "Assigned to Contractor",
    "contractor": "Waste Pro",
    "rowid": "976185",
    "final_x": "3699326.47408",
    "final_y": "559763.138205",
    "longitude": "-90.01075171701125",
    "latitude": "30.032600573808224",
    "geocoded_column": {
      "latitude": "30.032600573808224",
      "longitude": "-90.01075171701125"
    }
  },
  {
    "service_request": "2023-976184",
    "request_type": "Trash/Recycling",
    "request_reason": "Missed Trash Pick-Up",
    "date_created": "2023-02-17T14:47:58.000",
    "date_modified": "2023-02-17T14:47:59.000",
    "request_status": "Pending",
    "responsible_agency": "Department of Sanitation",
    "final_address": "8250 Colony Ct",
    "address_councildis": "E",
    "status": "Assigned to Contractor",
    "contractor": "Waste Pro",
    "rowid": "976184",
    "final_x": "3703305.26615",
    "final_y": "560344.246365",
    "longitude": "-89.9981571066835",
    "latitude": "30.034071517636935",
    "geocoded_column": {
      "latitude": "30.034071517636935",
      "longitude": "-89.9981571066835"
    }
  },
  {
    "service_request": "2023-976183",
    "request_type": "Trash/Recycling",
    "request_reason": "Illegal Dumping",
    "date_created": "2023-02-17T14:41:41.000",
    "date_modified": "2023-02-17T14:41:41.000",
    "request_status": "Pending",
    "responsible_agency": "Department of Sanitation",
    "final_address": "11100 Woodvine Ln",
    "address_councildis": "E",
    "status": "Pending",
    "rowid": "976183",
    "final_x": "3716023.99692",
    "final_y": "559426.331997",
    "longitude": "-89.95799957319079",
    "latitude": "30.03113398463055",
    "geocoded_column": {
      "latitude": "30.03113398463055",
      "longitude": "-89.95799957319079"
    }
  },
  {
    "service_request": "2023-976182",
    "request_type": "Trash/Recycling",
    "request_reason": "MIssed Recycling Pick-Up",
    "date_created": "2023-02-17T14:40:24.000",
    "date_modified": "2023-02-17T14:40:24.000",
    "request_status": "Pending",
    "responsible_agency": "Department of Sanitation",
    "final_address": "542 Lowerline St",
    "address_councildis": "A",
    "status": "Assigned to Contractor",
    "contractor": "Richards Disposal",
    "rowid": "976182",
    "final_x": "3662259.49933",
    "final_y": "524837.201276",
    "longitude": "-90.12904698566342",
    "latitude": "29.937690288094615",
    "geocoded_column": {
      "latitude": "29.937690288094615",
      "longitude": "-90.12904698566342"
    }
  },
  {
    "service_request": "2023-976181",
    "request_type": "Abandoned Vehicles",
    "request_reason": "Abandoned/Junk Vehicles",
    "date_created": "2023-02-17T14:38:50.000",
    "date_modified": "2023-02-17T14:40:14.000",
    "request_status": "Pending",
    "responsible_agency": "Department of Public Works",
    "final_address": "2226 Ap Tureaud Ave",
    "address_councildis": "D",
    "status": "Pending",
    "rowid": "976181",
    "final_x": "3681569.74044",
    "final_y": "540329.210571",
    "longitude": "-90.0675428244836",
    "latitude": "29.979715865039626",
    "geocoded_column": {
      "latitude": "29.979715865039626",
      "longitude": "-90.0675428244836"
    }
  },
  {
    "service_request": "2023-976180",
    "request_type": "Trash/Recycling",
    "request_reason": "Repair Trash Cart",
    "date_created": "2023-02-17T14:35:37.000",
    "date_modified": "2023-02-17T14:36:21.000",
    "request_status": "Pending",
    "responsible_agency": "Department of Sanitation",
    "final_address": "3017 Jefferson Ave",
    "address_councildis": "B",
    "status": "Assigned to Contractor",
    "contractor": "Richards Disposal",
    "rowid": "976180",
    "final_x": "3668539.96167",
    "final_y": "526488.882238",
    "longitude": "-90.10916331223227",
    "latitude": "29.94204888321543",
    "geocoded_column": {
      "latitude": "29.94204888321543",
      "longitude": "-90.10916331223227"
    }
  },
  {
    "service_request": "2023-976179",
    "request_type": "Roads/Drainage",
    "request_reason": "Man hole cover issue",
    "date_created": "2023-02-17T14:34:11.000",
    "date_modified": "2023-02-17T14:34:12.000",
    "request_status": "Pending",
    "responsible_agency": "Department of Public Works",
    "final_address": "OAK ST & LEONIDAS ST",
    "address_councildis": "A",
    "status": "Pending",
    "rowid": "976179",
    "final_x": "3660646.1",
    "final_y": "529568.08",
    "longitude": "-90.13398430636596",
    "latitude": "29.950745228402212",
    "geocoded_column": {
      "latitude": "29.950745228402212",
      "longitude": "-90.13398430636596"
    }
  },
  {
    "service_request": "2023-976178",
    "request_type": "Trash/Recycling",
    "request_reason": "Request a Large Item Pick Up",
    "date_created": "2023-02-17T14:31:53.000",
    "date_modified": "2023-02-17T14:31:54.000",
    "request_status": "Pending",
    "responsible_agency": "Department of Sanitation",
    "final_address": "5650 Clements Dr",
    "address_councildis": "E",
    "status": "Assigned to Contractor",
    "contractor": "Waste Pro",
    "rowid": "976178",
    "final_x": "3702469.66884",
    "final_y": "556458.751578",
    "longitude": "-90.00094045906576",
    "latitude": "30.023414658185505",
    "geocoded_column": {
      "latitude": "30.023414658185505",
      "longitude": "-90.00094045906576"
    }
  },
  {
    "service_request": "2023-976177",
    "request_type": "Abandoned Vehicles",
    "request_reason": "Abandoned/Junk Vehicles",
    "date_created": "2023-02-17T14:27:20.000",
    "date_modified": "2023-02-17T14:27:21.000",
    "request_status": "Pending",
    "responsible_agency": "Department of Public Works",
    "final_address": "7330 Hansbrough Ave",
    "address_councildis": "E",
    "status": "Pending",
    "rowid": "976177",
    "final_x": "3708108.51044",
    "final_y": "563544.047008",
    "longitude": "-89.98285920144167",
    "latitude": "30.042714930924113",
    "geocoded_column": {
      "latitude": "30.042714930924113",
      "longitude": "-89.98285920144167"
    }
  },
  {
    "service_request": "2023-976176",
    "request_type": "Trash/Recycling",
    "request_reason": "Repair Trash Cart",
    "date_created": "2023-02-17T14:25:59.000",
    "date_modified": "2023-02-17T14:26:19.000",
    "request_status": "Pending",
    "responsible_agency": "Department of Sanitation",
    "final_address": "5960 Patton St",
    "address_councildis": "A",
    "status": "Assigned to Contractor",
    "contractor": "Richards Disposal",
    "rowid": "976176",
    "final_x": "3664617.97927",
    "final_y": "518496.116726",
    "longitude": "-90.12181271974207",
    "latitude": "29.920185936373226",
    "geocoded_column": {
      "latitude": "29.920185936373226",
      "longitude": "-90.12181271974207"
    }
  },
  {
    "service_request": "2023-976175",
    "request_type": "Trash/Recycling",
    "request_reason": "Missed Trash Pick-Up",
    "date_created": "2023-02-17T14:25:57.000",
    "date_modified": "2023-02-17T14:44:22.000",
    "request_status": "Pending",
    "responsible_agency": "Department of Sanitation",
    "final_address": "7421 Sheffield St",
    "address_councildis": "E",
    "status": "Assigned to Contractor",
    "contractor": "Waste Pro",
    "rowid": "976175",
    "final_x": "3699493.3537",
    "final_y": "559711.864925",
    "longitude": "-90.01022623807616",
    "latitude": "30.032454294719255",
    "geocoded_column": {
      "latitude": "30.032454294719255",
      "longitude": "-90.01022623807616"
    }
  },
  {
    "service_request": "2023-976174",
    "request_type": "Abandoned Vehicles",
    "request_reason": "Abandoned/Junk Vehicles",
    "date_created": "2023-02-17T14:23:05.000",
    "date_modified": "2023-02-17T14:25:36.000",
    "request_status": "Pending",
    "responsible_agency": "Department of Public Works",
    "final_address": "7310 Hansbrough Ave",
    "address_councildis": "E",
    "status": "Pending",
    "rowid": "976174",
    "final_x": "3708157.13304",
    "final_y": "563460.108704",
    "longitude": "-89.98270866275847",
    "latitude": "30.042482558271484",
    "geocoded_column": {
      "latitude": "30.042482558271484",
      "longitude": "-89.98270866275847"
    }
  },
  {
    "service_request": "2023-976173",
    "request_type": "Trash/Recycling",
    "request_reason": "MIssed Recycling Pick-Up",
    "date_created": "2023-02-17T14:20:00.000",
    "date_modified": "2023-02-17T14:20:00.000",
    "request_status": "Pending",
    "responsible_agency": "Department of Sanitation",
    "final_address": "7163 Parkside Ct",
    "address_councildis": "E",
    "status": "Assigned to Contractor",
    "contractor": "Waste Pro",
    "rowid": "976173",
    "final_x": "3704475.22775",
    "final_y": "560478.020702",
    "longitude": "-89.99445496774877",
    "latitude": "30.034401807621112",
    "geocoded_column": {
      "latitude": "30.034401807621112",
      "longitude": "-89.99445496774877"
    }
  },
  {
    "service_request": "2023-976172",
    "request_type": "Trash/Recycling",
    "request_reason": "Order Recycling Cart",
    "date_created": "2023-02-17T14:09:36.000",
    "date_modified": "2023-02-17T14:09:36.000",
    "request_status": "Pending",
    "responsible_agency": "Department of Sanitation",
    "final_address": "3073 Dauphine St",
    "address_councildis": "C",
    "status": "Pending",
    "rowid": "976172",
    "final_x": "3688692.95907",
    "final_y": "534889.988806",
    "longitude": "-90.04523799012016",
    "latitude": "29.964541627530636",
    "geocoded_column": {
      "latitude": "29.964541627530636",
      "longitude": "-90.04523799012016"
    }
  },
  {
    "service_request": "2023-976171",
    "request_type": "Trash/Recycling",
    "request_reason": "Missed Trash Pick-Up",
    "date_created": "2023-02-17T14:08:15.000",
    "date_modified": "2023-02-17T14:08:16.000",
    "request_status": "Pending",
    "responsible_agency": "Department of Sanitation",
    "final_address": "3073 Dauphine St",
    "address_councildis": "C",
    "status": "Assigned to Contractor",
    "contractor": "IV Waste",
    "rowid": "976171",
    "final_x": "3688692.95907",
    "final_y": "534889.988806",
    "longitude": "-90.04523799012016",
    "latitude": "29.964541627530636",
    "geocoded_column": {
      "latitude": "29.964541627530636",
      "longitude": "-90.04523799012016"
    }
  },
  {
    "service_request": "2023-976170",
    "request_type": "Trash/Recycling",
    "request_reason": "Missed Trash Pick-Up",
    "date_created": "2023-02-17T14:07:02.000",
    "date_modified": "2023-02-17T17:40:16.000",
    "case_close_date": "2023-02-17T11:40:16.000",
    "request_status": "Closed",
    "responsible_agency": "Department of Sanitation",
    "final_address": "4500 BLK Virgilian St",
    "address_councildis": "D",
    "status": "Assigned to Contractor",
    "contractor": "Waste Pro",
    "contractor_action": "Completed",
    "rowid": "976170",
    "final_x": "3697586.29377",
    "final_y": "552635.34268",
    "longitude": "-90.01650965217888",
    "latitude": "30.013056962781384",
    "geocoded_column": {
      "latitude": "30.013056962781384",
      "longitude": "-90.01650965217888"
    }
  },
  {
    "service_request": "2023-976169",
    "request_type": "Roads/Drainage",
    "request_reason": "Street Subsidence (Sinking)",
    "date_created": "2023-02-17T14:00:40.000",
    "date_modified": "2023-02-17T14:00:40.000",
    "request_status": "Pending",
    "responsible_agency": "Department of Public Works",
    "final_address": "6900 Dorian St",
    "address_councildis": "D",
    "status": "Pending",
    "rowid": "976169",
    "final_x": "3696272.60106",
    "final_y": "556205.904538",
    "longitude": "-90.02053094464333",
    "latitude": "30.02291610719101",
    "geocoded_column": {
      "latitude": "30.02291610719101",
      "longitude": "-90.02053094464333"
    }
  },
  {
    "service_request": "2023-976168",
    "request_type": "Trash/Recycling",
    "request_reason": "Order Recycling Cart",
    "date_created": "2023-02-17T13:57:33.000",
    "date_modified": "2023-02-17T13:57:33.000",
    "request_status": "Pending",
    "responsible_agency": "Department of Sanitation",
    "final_address": "2807 Conti St A",
    "address_councildis": "B",
    "status": "Pending",
    "rowid": "976168",
    "final_x": "3675557.16891",
    "final_y": "536468.897095",
    "longitude": "-90.0866656434081",
    "latitude": "29.969282583351493",
    "geocoded_column": {
      "latitude": "29.969282583351493",
      "longitude": "-90.0866656434081"
    }
  },
  {
    "service_request": "2023-976167",
    "request_type": "Parks & Parkways",
    "request_reason": "Request Tree Service (Right of Way/Public Property)",
    "date_created": "2023-02-17T13:56:32.000",
    "date_modified": "2023-02-17T13:56:33.000",
    "request_status": "Pending",
    "responsible_agency": "Department of Parks & Parkway",
    "final_address": "DREUX AVE & MUSIC ST",
    "address_councildis": "D",
    "status": "Pending",
    "rowid": "976167",
    "final_x": "3685500.3",
    "final_y": "552131.98",
    "longitude": "-90.05471256722169",
    "latitude": "30.01204927223271",
    "geocoded_column": {
      "latitude": "30.01204927223271",
      "longitude": "-90.05471256722169"
    }
  },
  {
    "service_request": "2023-976166",
    "request_type": "Roads/Drainage",
    "request_reason": "Street Flooding / Drainage",
    "date_created": "2023-02-17T13:54:58.000",
    "date_modified": "2023-02-17T13:54:58.000",
    "request_status": "Pending",
    "responsible_agency": "Department of Public Works",
    "final_address": "6900 Dorian St",
    "address_councildis": "D",
    "status": "Pending",
    "rowid": "976166",
    "final_x": "3696272.60106",
    "final_y": "556205.904538",
    "longitude": "-90.02053094464333",
    "latitude": "30.02291610719101",
    "geocoded_column": {
      "latitude": "30.02291610719101",
      "longitude": "-90.02053094464333"
    }
  },
  {
    "service_request": "2023-976165",
    "request_type": "Traffic Signals/Signs/Striping/Streetlights",
    "request_reason": "Traffic Signal Malfunctioning/Damaged",
    "date_created": "2023-02-17T13:51:11.000",
    "date_modified": "2023-02-17T13:51:11.000",
    "request_status": "Pending",
    "responsible_agency": "Department of Public Works",
    "final_address": "2646 Westbend Prkwy",
    "address_councildis": "C",
    "status": "Pending",
    "rowid": "976165",
    "final_x": "3696930.70871",
    "final_y": "521531.356921",
    "longitude": "-90.01970755342934",
    "latitude": "29.927552845486556",
    "geocoded_column": {
      "latitude": "29.927552845486556",
      "longitude": "-90.01970755342934"
    }
  },
  {
    "service_request": "2023-976164",
    "request_type": "Trash/Recycling",
    "request_reason": "Missed Trash Pick-Up",
    "date_created": "2023-02-17T13:42:59.000",
    "date_modified": "2023-02-17T13:43:00.000",
    "request_status": "Pending",
    "responsible_agency": "Department of Sanitation",
    "final_address": "303 Neil Ave",
    "address_councildis": "C",
    "status": "Assigned to Contractor",
    "contractor": "Richards Disposal",
    "rowid": "976164",
    "final_x": "3707212.5644",
    "final_y": "518677.056119",
    "longitude": "-89.98735636823662",
    "latitude": "29.91937639643333",
    "geocoded_column": {
      "latitude": "29.91937639643333",
      "longitude": "-89.98735636823662"
    }
  },
  {
    "service_request": "2023-976162",
    "request_type": "Trash/Recycling",
    "request_reason": "Repair Trash Cart",
    "date_created": "2023-02-17T13:31:53.000",
    "date_modified": "2023-02-17T13:31:53.000",
    "request_status": "Pending",
    "responsible_agency": "Department of Sanitation",
    "final_address": "4539 Marque Dr",
    "address_councildis": "E",
    "status": "Assigned to Contractor",
    "contractor": "Waste Pro",
    "rowid": "976162",
    "final_x": "3710296.66417",
    "final_y": "554454.384088",
    "longitude": "-89.9762840436591",
    "latitude": "30.0176508564984",
    "geocoded_column": {
      "latitude": "30.0176508564984",
      "longitude": "-89.9762840436591"
    }
  },
  {
    "service_request": "2023-976161",
    "request_type": "Safety & Permits",
    "request_reason": "Licenses & Permits",
    "date_created": "2023-02-17T13:31:30.000",
    "date_modified": "2023-02-17T13:31:30.000",
    "request_status": "Pending",
    "responsible_agency": "Safety and Permits",
    "final_address": "1762 Duels St",
    "address_councildis": "D",
    "status": "Pending",
    "rowid": "976161",
    "final_x": "3681273.17845",
    "final_y": "542271.558285",
    "longitude": "-90.06841176447554",
    "latitude": "29.985065647112776",
    "geocoded_column": {
      "latitude": "29.985065647112776",
      "longitude": "-90.06841176447554"
    }
  },
  {
    "service_request": "2023-976160",
    "request_type": "Trash/Recycling",
    "request_reason": "Request a Large Item Pick Up",
    "date_created": "2023-02-17T13:29:05.000",
    "date_modified": "2023-02-17T13:29:06.000",
    "request_status": "Pending",
    "responsible_agency": "Department of Sanitation",
    "final_address": "4608 Werner Dr",
    "address_councildis": "E",
    "status": "Assigned to Contractor",
    "contractor": "Waste Pro",
    "rowid": "976160",
    "final_x": "3704774.14532",
    "final_y": "554416.980504",
    "longitude": "-89.99373427947175",
    "latitude": "30.017726693417362",
    "geocoded_column": {
      "latitude": "30.017726693417362",
      "longitude": "-89.99373427947175"
    }
  },
  {
    "service_request": "2023-976159",
    "request_type": "Trash/Recycling",
    "request_reason": "Request a Large Item Pick Up",
    "date_created": "2023-02-17T13:17:51.000",
    "date_modified": "2023-02-17T13:17:51.000",
    "request_status": "Pending",
    "responsible_agency": "Department of Sanitation",
    "final_address": "7631 Crestmont Rd",
    "address_councildis": "E",
    "status": "Assigned to Contractor",
    "contractor": "Waste Pro",
    "rowid": "976159",
    "final_x": "3699657.76964",
    "final_y": "560389.539614",
    "longitude": "-90.00968193620962",
    "latitude": "30.03431241658454",
    "geocoded_column": {
      "latitude": "30.03431241658454",
      "longitude": "-90.00968193620962"
    }
  },
  {
    "service_request": "2023-976158",
    "request_type": "Roads/Drainage",
    "request_reason": "Accessibility Ramps, Curbs and Sidewalk Repair",
    "date_created": "2023-02-17T13:10:15.000",
    "date_modified": "2023-02-17T15:49:58.000",
    "case_close_date": "2023-02-17T09:49:58.000",
    "request_status": "Closed",
    "responsible_agency": "Department of Public Works",
    "final_address": "2212 Governor Nicholls St",
    "address_councildis": "D",
    "status": "Resolved",
    "rowid": "976158",
    "final_x": "3679326.51451",
    "final_y": "537183.334728",
    "longitude": "-90.07473698050525",
    "latitude": "29.9711337392553",
    "geocoded_column": {
      "latitude": "29.9711337392553",
      "longitude": "-90.07473698050525"
    }
  },
  {
    "service_request": "2023-976156",
    "request_type": "Trash/Recycling",
    "request_reason": "Order Recycling Cart",
    "date_created": "2023-02-17T13:04:58.000",
    "date_modified": "2023-02-17T13:04:58.000",
    "request_status": "Pending",
    "responsible_agency": "Department of Sanitation",
    "final_address": "4953 Eastern St",
    "address_councildis": "D",
    "status": "Pending",
    "rowid": "976156",
    "final_x": "3687990.05699",
    "final_y": "551447.596565",
    "longitude": "-90.04687065079466",
    "latitude": "30.010090841684946",
    "geocoded_column": {
      "latitude": "30.010090841684946",
      "longitude": "-90.04687065079466"
    }
  },
  {
    "service_request": "2023-976155",
    "request_type": "Trash/Recycling",
    "request_reason": "Missed Trash Pick-Up",
    "date_created": "2023-02-17T13:04:39.000",
    "date_modified": "2023-02-17T14:33:12.000",
    "request_status": "Pending",
    "responsible_agency": "Department of Sanitation",
    "final_address": "8250 Colony Ct",
    "address_councildis": "E",
    "status": "Assigned to Contractor",
    "contractor": "Waste Pro",
    "rowid": "976155",
    "final_x": "3703305.26615",
    "final_y": "560344.246365",
    "longitude": "-89.9981571066835",
    "latitude": "30.034071517636935",
    "geocoded_column": {
      "latitude": "30.034071517636935",
      "longitude": "-89.9981571066835"
    }
  },
  {
    "service_request": "2023-976154",
    "request_type": "Mosquito, Termite & Rodent Control",
    "request_reason": "Non-Rodent Complaint (Mice, Possums, Snakes)",
    "date_created": "2023-02-17T12:39:29.000",
    "date_modified": "2023-02-17T12:39:29.000",
    "request_status": "Pending",
    "responsible_agency": "Mosquito, Termite & Rodent Control Board",
    "final_address": "4415 San Marco Rd",
    "address_councildis": "E",
    "status": "Pending",
    "rowid": "976154",
    "final_x": "3762504.84573",
    "final_y": "572680.008873",
    "longitude": "-89.81056593964125",
    "latitude": "30.065959666919877",
    "geocoded_column": {
      "latitude": "30.065959666919877",
      "longitude": "-89.81056593964125"
    }
  },
  {
    "service_request": "2023-976153",
    "request_type": "Trash/Recycling",
    "request_reason": "Request a Large Item Pick Up",
    "date_created": "2023-02-17T12:23:38.000",
    "date_modified": "2023-02-17T12:23:39.000",
    "request_status": "Pending",
    "responsible_agency": "Department of Sanitation",
    "final_address": "1241 Terry St",
    "address_councildis": "C",
    "status": "Assigned to Contractor",
    "contractor": "Richards Disposal",
    "rowid": "976153",
    "final_x": "3696915.35895",
    "final_y": "526615.657342",
    "longitude": "-90.01957198915673",
    "latitude": "29.941533404549393",
    "geocoded_column": {
      "latitude": "29.941533404549393",
      "longitude": "-90.01957198915673"
    }
  },
  {
    "service_request": "2023-976152",
    "request_type": "Trash/Recycling",
    "request_reason": "Replace Trash Cart",
    "date_created": "2023-02-17T12:22:58.000",
    "date_modified": "2023-02-17T13:39:34.000",
    "case_close_date": "2023-02-17T07:39:34.000",
    "request_status": "Closed",
    "responsible_agency": "Department of Sanitation",
    "final_address": "9600 Chef Menteur Hwy",
    "address_councildis": "E",
    "status": "Assigned to Contractor",
    "contractor": "Waste Pro",
    "contractor_action": "Completed",
    "rowid": "976152",
    "final_x": "3711241.88088",
    "final_y": "554093.356632",
    "longitude": "-89.97331109894685",
    "latitude": "30.0166273573917",
    "geocoded_column": {
      "latitude": "30.0166273573917",
      "longitude": "-89.97331109894685"
    }
  },
  {
    "service_request": "2023-976151",
    "request_type": "Abandoned Vehicles",
    "request_reason": "Abandoned/Junk Vehicles",
    "date_created": "2023-02-17T12:21:29.000",
    "date_modified": "2023-02-17T12:30:44.000",
    "request_status": "Pending",
    "responsible_agency": "Department of Public Works",
    "final_address": "4732 Deanne St",
    "address_councildis": "D",
    "status": "Pending",
    "rowid": "976151",
    "final_x": "3696261.83415",
    "final_y": "554126.352408",
    "longitude": "-90.02064024280506",
    "latitude": "30.017198464452857",
    "geocoded_column": {
      "latitude": "30.017198464452857",
      "longitude": "-90.02064024280506"
    }
  },
  {
    "service_request": "2023-976150",
    "request_type": "Property Maintenance",
    "request_reason": "Property Maintenance",
    "date_created": "2023-02-17T12:20:05.000",
    "date_modified": "2023-02-17T12:20:05.000",
    "request_status": "Pending",
    "responsible_agency": "Department of Code Enforcement",
    "final_address": "8308 Nelson St",
    "address_councildis": "A",
    "status": "Pending",
    "rowid": "976150",
    "final_x": "3664486.03322",
    "final_y": "532374.189955",
    "longitude": "-90.1217660191241",
    "latitude": "29.958350044732196",
    "geocoded_column": {
      "latitude": "29.958350044732196",
      "longitude": "-90.1217660191241"
    }
  },
  {
    "service_request": "2023-976149",
    "request_type": "Property Maintenance",
    "request_reason": "Property Maintenance",
    "date_created": "2023-02-17T12:14:56.000",
    "date_modified": "2023-02-17T12:14:57.000",
    "request_status": "Pending",
    "responsible_agency": "Department of Code Enforcement",
    "final_address": "4815 Shalimar Dr",
    "address_councildis": "D",
    "status": "Pending",
    "rowid": "976149",
    "final_x": "3697187.07357",
    "final_y": "554597.509272",
    "longitude": "-90.01769978612694",
    "latitude": "30.018464790023014",
    "geocoded_column": {
      "latitude": "30.018464790023014",
      "longitude": "-90.01769978612694"
    }
  },
  {
    "service_request": "2023-976148",
    "request_type": "Trash/Recycling",
    "request_reason": "Repair Trash Cart",
    "date_created": "2023-02-17T12:11:52.000",
    "date_modified": "2023-02-17T14:41:05.000",
    "request_status": "Pending",
    "responsible_agency": "Department of Sanitation",
    "final_address": "6443 Avenue A",
    "address_councildis": "A",
    "status": "Assigned to Contractor",
    "contractor": "IV Waste",
    "rowid": "976148",
    "final_x": "3666035.87789",
    "final_y": "551024.298133",
    "longitude": "-90.11624646992725",
    "latitude": "30.00958639267541",
    "geocoded_column": {
      "latitude": "30.00958639267541",
      "longitude": "-90.11624646992725"
    }
  },
  {
    "service_request": "2023-976147",
    "request_type": "Trash/Recycling",
    "request_reason": "Order Recycling Cart",
    "date_created": "2023-02-17T12:11:17.000",
    "date_modified": "2023-02-17T12:11:17.000",
    "request_status": "Pending",
    "responsible_agency": "Department of Sanitation",
    "final_address": "1953 Rosary Dr",
    "address_councildis": "D",
    "status": "Pending",
    "rowid": "976147",
    "final_x": "3681914.94728",
    "final_y": "555167.930009",
    "longitude": "-90.06593413553558",
    "latitude": "30.020506549663402",
    "geocoded_column": {
      "latitude": "30.020506549663402",
      "longitude": "-90.06593413553558"
    }
  },
  {
    "service_request": "2023-976146",
    "request_type": "Trash/Recycling",
    "request_reason": "Missed Trash Pick-Up",
    "date_created": "2023-02-17T12:10:39.000",
    "date_modified": "2023-02-17T12:10:40.000",
    "request_status": "Pending",
    "responsible_agency": "Department of Sanitation",
    "final_address": "10 Seaward Ct",
    "address_councildis": "C",
    "status": "Assigned to Contractor",
    "contractor": "Richards Disposal",
    "rowid": "976146",
    "final_x": "3704447.63351",
    "final_y": "522441.177082",
    "longitude": "-89.99594512077448",
    "latitude": "29.92981543736486",
    "geocoded_column": {
      "latitude": "29.92981543736486",
      "longitude": "-89.99594512077448"
    }
  },
  {
    "service_request": "2023-976145",
    "request_type": "Abandoned Vehicles",
    "request_reason": "Abandoned/Junk Vehicles",
    "date_created": "2023-02-17T12:08:13.000",
    "date_modified": "2023-02-17T12:08:14.000",
    "request_status": "Pending",
    "responsible_agency": "Department of Public Works",
    "final_address": "4423 Shalimar Dr",
    "address_councildis": "D",
    "status": "Pending",
    "rowid": "976145",
    "final_x": "3697397.94986",
    "final_y": "552579.836502",
    "longitude": "-90.01710672876803",
    "latitude": "30.01291029187105",
    "geocoded_column": {
      "latitude": "30.01291029187105",
      "longitude": "-90.01710672876803"
    }
  },
  {
    "service_request": "2023-976144",
    "request_type": "Trash/Recycling",
    "request_reason": "Order Trash Cart",
    "date_created": "2023-02-17T12:08:12.000",
    "date_modified": "2023-02-17T12:08:12.000",
    "request_status": "Pending",
    "responsible_agency": "Department of Sanitation",
    "final_address": "6240 Curie St",
    "address_councildis": "D",
    "status": "Assigned to Contractor",
    "contractor": "IV Waste",
    "rowid": "976144",
    "final_x": "3682410.06031",
    "final_y": "556203.970906",
    "longitude": "-90.06433347495887",
    "latitude": "30.023340214397084",
    "geocoded_column": {
      "latitude": "30.023340214397084",
      "longitude": "-90.06433347495887"
    }
  },
  {
    "service_request": "2023-976143",
    "request_type": "Trash/Recycling",
    "request_reason": "Order Trash Cart",
    "date_created": "2023-02-17T12:07:41.000",
    "date_modified": "2023-02-17T16:17:28.000",
    "case_close_date": "2023-02-17T10:17:28.000",
    "request_status": "Closed",
    "responsible_agency": "Department of Sanitation",
    "final_address": "6238 Curie St",
    "address_councildis": "D",
    "status": "Assigned to Contractor",
    "contractor": "IV Waste",
    "contractor_action": "Completed",
    "rowid": "976143",
    "final_x": "3682412.14364",
    "final_y": "556184.439642",
    "longitude": "-90.0643275755669",
    "latitude": "30.023286447162942",
    "geocoded_column": {
      "latitude": "30.023286447162942",
      "longitude": "-90.0643275755669"
    }
  },
  {
    "service_request": "2023-976142",
    "request_type": "Trash/Recycling",
    "request_reason": "Order Trash Cart",
    "date_created": "2023-02-17T12:07:07.000",
    "date_modified": "2023-02-17T12:07:08.000",
    "request_status": "Pending",
    "responsible_agency": "Department of Sanitation",
    "final_address": "6238 Curie St",
    "address_councildis": "D",
    "status": "Assigned to Contractor",
    "contractor": "IV Waste",
    "rowid": "976142",
    "final_x": "3682412.14364",
    "final_y": "556184.439642",
    "longitude": "-90.0643275755669",
    "latitude": "30.023286447162942",
    "geocoded_column": {
      "latitude": "30.023286447162942",
      "longitude": "-90.0643275755669"
    }
  },
  {
    "service_request": "2023-976141",
    "request_type": "Trash/Recycling",
    "request_reason": "Order Trash Cart",
    "date_created": "2023-02-17T12:03:53.000",
    "date_modified": "2023-02-17T12:03:54.000",
    "request_status": "Pending",
    "responsible_agency": "Department of Sanitation",
    "final_address": "1817 Alvar St",
    "address_councildis": "D",
    "status": "Assigned to Contractor",
    "contractor": "IV Waste",
    "rowid": "976141",
    "final_x": "3692231.44157",
    "final_y": "538152.919817",
    "longitude": "-90.03394691999594",
    "latitude": "29.97340368494384",
    "geocoded_column": {
      "latitude": "29.97340368494384",
      "longitude": "-90.03394691999594"
    }
  },
  {
    "service_request": "2023-976140",
    "request_type": "Trash/Recycling",
    "request_reason": "Repair Trash Cart",
    "date_created": "2023-02-17T11:58:31.000",
    "date_modified": "2023-02-17T11:58:32.000",
    "request_status": "Pending",
    "responsible_agency": "Department of Sanitation",
    "final_address": "2425 Danneel St",
    "address_councildis": "B",
    "status": "Assigned to Contractor",
    "contractor": "Richards Disposal",
    "rowid": "976140",
    "final_x": "3675954.12417",
    "final_y": "524317.502524",
    "longitude": "-90.08582982530851",
    "latitude": "29.935858418131993",
    "geocoded_column": {
      "latitude": "29.935858418131993",
      "longitude": "-90.08582982530851"
    }
  },
  {
    "service_request": "2023-976139",
    "request_type": "Trash/Recycling",
    "request_reason": "Repair Trash Cart",
    "date_created": "2023-02-17T11:58:00.000",
    "date_modified": "2023-02-17T13:37:54.000",
    "case_close_date": "2023-02-17T07:37:54.000",
    "request_status": "Closed",
    "responsible_agency": "Department of Sanitation",
    "final_address": "7500 Dalewood Rd",
    "address_councildis": "E",
    "status": "Assigned to Contractor",
    "contractor": "Waste Pro",
    "contractor_action": "Completed",
    "rowid": "976139",
    "final_x": "3699997.62884",
    "final_y": "560016.376733",
    "longitude": "-90.00862157523366",
    "latitude": "30.033275563912575",
    "geocoded_column": {
      "latitude": "30.033275563912575",
      "longitude": "-90.00862157523366"
    }
  },
  {
    "service_request": "2023-976138",
    "request_type": "Abandoned Vehicles",
    "request_reason": "Abandoned/Junk Vehicles",
    "date_created": "2023-02-17T11:57:52.000",
    "date_modified": "2023-02-17T11:57:52.000",
    "request_status": "Pending",
    "responsible_agency": "Department of Public Works",
    "final_address": "1835 St Philip St",
    "address_councildis": "D",
    "status": "Pending",
    "rowid": "976138",
    "final_x": "3679948.03567",
    "final_y": "535923.029575",
    "longitude": "-90.0728179188473",
    "latitude": "29.967649546567568",
    "geocoded_column": {
      "latitude": "29.967649546567568",
      "longitude": "-90.0728179188473"
    }
  },
  {
    "service_request": "2023-976137",
    "request_type": "Trash/Recycling",
    "request_reason": "MIssed Recycling Pick-Up",
    "date_created": "2023-02-17T11:55:27.000",
    "date_modified": "2023-02-17T11:55:28.000",
    "request_status": "Pending",
    "responsible_agency": "Department of Sanitation",
    "final_address": "4234 Canal St",
    "address_councildis": "A",
    "status": "Assigned to Contractor",
    "contractor": "Richards Disposal",
    "rowid": "976137",
    "final_x": "3670274.35169",
    "final_y": "538807.001097",
    "longitude": "-90.10326996064902",
    "latitude": "29.975868566494576",
    "geocoded_column": {
      "latitude": "29.975868566494576",
      "longitude": "-90.10326996064902"
    }
  },
  {
    "service_request": "2023-976136",
    "request_type": "Trash/Recycling",
    "request_reason": "Missed Trash Pick-Up",
    "date_created": "2023-02-17T11:55:17.000",
    "date_modified": "2023-02-17T11:55:18.000",
    "request_status": "Pending",
    "responsible_agency": "Department of Sanitation",
    "final_address": "1218 Race St",
    "address_councildis": "B",
    "status": "Assigned to Contractor",
    "contractor": "Richards Disposal",
    "rowid": "976136",
    "final_x": "3679562.20181",
    "final_y": "523954.95238",
    "longitude": "-90.07445163294042",
    "latitude": "29.93475301917532",
    "geocoded_column": {
      "latitude": "29.93475301917532",
      "longitude": "-90.07445163294042"
    }
  },
  {
    "service_request": "2023-976135",
    "request_type": "Trash/Recycling",
    "request_reason": "Missed Trash Pick-Up",
    "date_created": "2023-02-17T11:52:18.000",
    "date_modified": "2023-02-17T11:52:18.000",
    "request_status": "Pending",
    "responsible_agency": "Department of Sanitation",
    "final_address": "4234 Canal St",
    "address_councildis": "A",
    "status": "Assigned to Contractor",
    "contractor": "Richards Disposal",
    "rowid": "976135",
    "final_x": "3670274.35169",
    "final_y": "538807.001097",
    "longitude": "-90.10326996064902",
    "latitude": "29.975868566494576",
    "geocoded_column": {
      "latitude": "29.975868566494576",
      "longitude": "-90.10326996064902"
    }
  },
  {
    "service_request": "2023-976134",
    "request_type": "Abandoned Vehicles",
    "request_reason": "Abandoned/Junk Vehicles",
    "date_created": "2023-02-17T11:48:33.000",
    "date_modified": "2023-02-17T11:48:33.000",
    "request_status": "Pending",
    "responsible_agency": "Department of Public Works",
    "final_address": "2033 Constance St",
    "address_councildis": "B",
    "status": "Pending",
    "rowid": "976134",
    "final_x": "3679467.27131",
    "final_y": "522117.55609",
    "longitude": "-90.07481503739116",
    "latitude": "29.92970365077325",
    "geocoded_column": {
      "latitude": "29.92970365077325",
      "longitude": "-90.07481503739116"
    }
  },
  {
    "service_request": "2023-976133",
    "request_type": "Abandoned Vehicles",
    "request_reason": "Abandoned/Junk Vehicles",
    "date_created": "2023-02-17T11:47:29.000",
    "date_modified": "2023-02-17T11:47:29.000",
    "request_status": "Pending",
    "responsible_agency": "Department of Public Works",
    "final_address": "2033 Constance St",
    "address_councildis": "B",
    "status": "Pending",
    "rowid": "976133",
    "final_x": "3679467.27131",
    "final_y": "522117.55609",
    "longitude": "-90.07481503739116",
    "latitude": "29.92970365077325",
    "geocoded_column": {
      "latitude": "29.92970365077325",
      "longitude": "-90.07481503739116"
    }
  },
  {
    "service_request": "2023-976132",
    "request_type": "Trash/Recycling",
    "request_reason": "MIssed Recycling Pick-Up",
    "date_created": "2023-02-17T11:46:49.000",
    "date_modified": "2023-02-17T11:46:49.000",
    "request_status": "Pending",
    "responsible_agency": "Department of Sanitation",
    "final_address": "1124 Jackson Ave",
    "address_councildis": "B",
    "status": "Assigned to Contractor",
    "contractor": "Richards Disposal",
    "rowid": "976132",
    "final_x": "3678674.23976",
    "final_y": "522220.253882",
    "longitude": "-90.07731494512066",
    "latitude": "29.93000996235017",
    "geocoded_column": {
      "latitude": "29.93000996235017",
      "longitude": "-90.07731494512066"
    }
  },
  {
    "service_request": "2023-976131",
    "request_type": "Abandoned Vehicles",
    "request_reason": "Abandoned/Junk Vehicles",
    "date_created": "2023-02-17T11:45:08.000",
    "date_modified": "2023-02-17T11:45:08.000",
    "request_status": "Pending",
    "responsible_agency": "Department of Public Works",
    "final_address": "2050 Constance St",
    "address_councildis": "B",
    "status": "Pending",
    "rowid": "976131",
    "final_x": "3679638.15925",
    "final_y": "522124.668986",
    "longitude": "-90.07427532757933",
    "latitude": "29.929718046871503",
    "geocoded_column": {
      "latitude": "29.929718046871503",
      "longitude": "-90.07427532757933"
    }
  },
  {
    "service_request": "2023-976130",
    "request_type": "Roads/Drainage",
    "request_reason": "Street Flooding / Drainage",
    "date_created": "2023-02-17T11:44:14.000",
    "date_modified": "2023-02-17T11:44:14.000",
    "request_status": "Pending",
    "responsible_agency": "Department of Public Works",
    "final_address": "1722 Agriculture St",
    "address_councildis": "D",
    "status": "Pending",
    "rowid": "976130",
    "final_x": "3680863.87483",
    "final_y": "542972.751309",
    "longitude": "-90.06968015544678",
    "latitude": "29.98700609973914",
    "geocoded_column": {
      "latitude": "29.98700609973914",
      "longitude": "-90.06968015544678"
    }
  },
  {
    "service_request": "2023-976129",
    "request_type": "Roads/Drainage",
    "request_reason": "Street Flooding / Drainage",
    "date_created": "2023-02-17T11:43:34.000",
    "date_modified": "2023-02-17T11:43:35.000",
    "request_status": "Pending",
    "responsible_agency": "Department of Public Works",
    "final_address": "MENDEZ ST & PEOPLES AVE",
    "address_councildis": "D",
    "status": "Pending",
    "rowid": "976129",
    "final_x": "3687931.6",
    "final_y": "553751.98",
    "longitude": "-90.0469736053135",
    "latitude": "30.01642885247616",
    "geocoded_column": {
      "latitude": "30.01642885247616",
      "longitude": "-90.0469736053135"
    }
  },
  {
    "service_request": "2023-976128",
    "request_type": "Trash/Recycling",
    "request_reason": "Missed Trash Pick-Up",
    "date_created": "2023-02-17T11:43:16.000",
    "date_modified": "2023-02-17T14:21:39.000",
    "case_close_date": "2023-02-17T08:21:39.000",
    "request_status": "Closed",
    "responsible_agency": "Department of Sanitation",
    "final_address": "7700 BLK Marquis St",
    "address_councildis": "E",
    "status": "Assigned to Contractor",
    "contractor": "Waste Pro",
    "contractor_action": "Completed",
    "rowid": "976128",
    "final_x": "3710910.46889",
    "final_y": "566768.328521",
    "longitude": "-89.9738830785008",
    "latitude": "30.051489305006566",
    "geocoded_column": {
      "latitude": "30.051489305006566",
      "longitude": "-89.9738830785008"
    }
  },
  {
    "service_request": "2023-976127",
    "request_type": "Trash/Recycling",
    "request_reason": "Request a Large Item Pick Up",
    "date_created": "2023-02-17T11:42:35.000",
    "date_modified": "2023-02-17T11:42:36.000",
    "request_status": "Pending",
    "responsible_agency": "Department of Sanitation",
    "final_address": "326 S Dupre St",
    "address_councildis": "B",
    "status": "Assigned to Contractor",
    "contractor": "Richards Disposal",
    "rowid": "976127",
    "final_x": "3674039.78708",
    "final_y": "534797.744006",
    "longitude": "-90.09151485528533",
    "latitude": "29.964732783098288",
    "geocoded_column": {
      "latitude": "29.964732783098288",
      "longitude": "-90.09151485528533"
    }
  },
  {
    "service_request": "2023-976126",
    "request_type": "Trash/Recycling",
    "request_reason": "Request a Large Item Pick Up",
    "date_created": "2023-02-17T11:41:54.000",
    "date_modified": "2023-02-17T11:41:54.000",
    "request_status": "Pending",
    "responsible_agency": "Department of Sanitation",
    "final_address": "960 Wilson Dr",
    "address_councildis": "A",
    "status": "Assigned to Contractor",
    "contractor": "Richards Disposal",
    "rowid": "976126",
    "final_x": "3674191.07656",
    "final_y": "540339.370891",
    "longitude": "-90.09084733135188",
    "latitude": "29.97996586580779",
    "geocoded_column": {
      "latitude": "29.97996586580779",
      "longitude": "-90.09084733135188"
    }
  },
  {
    "service_request": "2023-976125",
    "request_type": "Trash/Recycling",
    "request_reason": "Return Trash Cart",
    "date_created": "2023-02-17T11:40:01.000",
    "date_modified": "2023-02-17T11:40:02.000",
    "request_status": "Pending",
    "responsible_agency": "Department of Sanitation",
    "final_address": "2915 Chestnut St",
    "address_councildis": "B",
    "status": "Assigned to Contractor",
    "contractor": "Richards Disposal",
    "rowid": "976125",
    "final_x": "3676088.20897",
    "final_y": "521114.736569",
    "longitude": "-90.08551662728699",
    "latitude": "29.92704783994378",
    "geocoded_column": {
      "latitude": "29.92704783994378",
      "longitude": "-90.08551662728699"
    }
  },
  {
    "service_request": "2023-976124",
    "request_type": "Trash/Recycling",
    "request_reason": "Missed Trash Pick-Up",
    "date_created": "2023-02-17T11:38:47.000",
    "date_modified": "2023-02-17T11:38:47.000",
    "request_status": "Pending",
    "responsible_agency": "Department of Sanitation",
    "final_address": "305 S Pierce St",
    "address_councildis": "A",
    "status": "Assigned to Contractor",
    "contractor": "Richards Disposal",
    "rowid": "976124",
    "final_x": "3670912.3419",
    "final_y": "537382.580808",
    "longitude": "-90.10130337214864",
    "latitude": "29.971933044081446",
    "geocoded_column": {
      "latitude": "29.971933044081446",
      "longitude": "-90.10130337214864"
    }
  },
  {
    "service_request": "2023-976123",
    "request_type": "Trash/Recycling",
    "request_reason": "Order Trash Cart",
    "date_created": "2023-02-17T11:38:36.000",
    "date_modified": "2023-02-17T11:38:37.000",
    "request_status": "Pending",
    "responsible_agency": "Department of Sanitation",
    "final_address": "6322 Debore Dr",
    "address_councildis": "D",
    "status": "Assigned to Contractor",
    "contractor": "IV Waste",
    "rowid": "976123",
    "final_x": "3690732.35376",
    "final_y": "556767.430234",
    "longitude": "-90.03801675789657",
    "latitude": "30.024633462060375",
    "geocoded_column": {
      "latitude": "30.024633462060375",
      "longitude": "-90.03801675789657"
    }
  },
  {
    "service_request": "2023-976122",
    "request_type": "Traffic Signals/Signs/Striping/Streetlights",
    "request_reason": "Street Light Outage/Malfunction",
    "date_created": "2023-02-17T11:38:17.000",
    "date_modified": "2023-02-17T11:38:17.000",
    "request_status": "Pending",
    "responsible_agency": "Department of Public Works",
    "final_address": "5116 N Rocheblave St",
    "address_councildis": "E",
    "status": "Assigned to Contractor",
    "contractor": "Legacy Professional Services",
    "rowid": "976122",
    "final_x": "3697748.31459",
    "final_y": "538995.469898",
    "longitude": "-90.01649301459541",
    "latitude": "29.97554721842125",
    "geocoded_column": {
      "latitude": "29.97554721842125",
      "longitude": "-90.01649301459541"
    }
  },
  {
    "service_request": "2023-976121",
    "request_type": "Trash/Recycling",
    "request_reason": "MIssed Recycling Pick-Up",
    "date_created": "2023-02-17T11:38:04.000",
    "date_modified": "2023-02-17T11:38:05.000",
    "request_status": "Pending",
    "responsible_agency": "Department of Sanitation",
    "final_address": "2822 Audubon St",
    "address_councildis": "B",
    "status": "Assigned to Contractor",
    "contractor": "Richards Disposal",
    "rowid": "976121",
    "final_x": "3667606.70849",
    "final_y": "531291.350978",
    "longitude": "-90.11194818190394",
    "latitude": "29.95528149371002",
    "geocoded_column": {
      "latitude": "29.95528149371002",
      "longitude": "-90.11194818190394"
    }
  },
  {
    "service_request": "2023-976120",
    "request_type": "Trash/Recycling",
    "request_reason": "Missed Trash Pick-Up",
    "date_created": "2023-02-17T11:38:03.000",
    "date_modified": "2023-02-17T11:38:03.000",
    "request_status": "Pending",
    "responsible_agency": "Department of Sanitation",
    "final_address": "307 S Pierce St",
    "address_councildis": "A",
    "status": "Assigned to Contractor",
    "contractor": "Richards Disposal",
    "rowid": "976120",
    "final_x": "3670901.54734",
    "final_y": "537369.43956",
    "longitude": "-90.10133790940915",
    "latitude": "29.971897229209855",
    "geocoded_column": {
      "latitude": "29.971897229209855",
      "longitude": "-90.10133790940915"
    }
  },
  {
    "service_request": "2023-976119",
    "request_type": "Abandoned Vehicles",
    "request_reason": "Abandoned/Junk Vehicles",
    "date_created": "2023-02-17T11:33:35.000",
    "date_modified": "2023-02-17T11:33:35.000",
    "request_status": "Pending",
    "responsible_agency": "Department of Public Works",
    "final_address": "939 St Andrew St",
    "address_councildis": "B",
    "status": "Pending",
    "rowid": "976119",
    "final_x": "3679801.52584",
    "final_y": "522289.438586",
    "longitude": "-90.07375389022299",
    "latitude": "29.9301661722992",
    "geocoded_column": {
      "latitude": "29.9301661722992",
      "longitude": "-90.07375389022299"
    }
  },
  {
    "service_request": "2023-976118",
    "request_type": "Trash/Recycling",
    "request_reason": "Request a Large Item Pick Up",
    "date_created": "2023-02-17T11:31:30.000",
    "date_modified": "2023-02-17T11:31:31.000",
    "request_status": "Pending",
    "responsible_agency": "Department of Sanitation",
    "final_address": "2445 forstall st",
    "address_councildis": "E",
    "status": "Assigned to Contractor",
    "contractor": "Waste Pro",
    "rowid": "976118",
    "final_x": "3697747.27658",
    "final_y": "539392.482506",
    "longitude": "-90.0164818828309",
    "latitude": "29.976638892560658",
    "geocoded_column": {
      "latitude": "29.976638892560658",
      "longitude": "-90.0164818828309"
    }
  },
  {
    "service_request": "2023-976117",
    "request_type": "Traffic Signals/Signs/Striping/Streetlights",
    "request_reason": "Additional signage",
    "date_created": "2023-02-17T11:30:41.000",
    "date_modified": "2023-02-17T11:30:41.000",
    "request_status": "Pending",
    "responsible_agency": "Department of Public Works",
    "final_address": "TULANE AVE & S GAYOSO ST",
    "address_councildis": "B",
    "status": "Pending",
    "rowid": "976117",
    "final_x": "3673161.6",
    "final_y": "534311.48",
    "longitude": "-90.09430472033291",
    "latitude": "29.963421860785456",
    "geocoded_column": {
      "latitude": "29.963421860785456",
      "longitude": "-90.09430472033291"
    }
  },
  {
    "service_request": "2023-976116",
    "request_type": "Trash/Recycling",
    "request_reason": "Request a Large Item Pick Up",
    "date_created": "2023-02-17T11:29:44.000",
    "date_modified": "2023-02-17T12:31:38.000",
    "case_close_date": "2023-02-17T06:31:38.000",
    "request_status": "Closed",
    "responsible_agency": "Department of Sanitation",
    "final_address": "920 Spain St ",
    "address_councildis": "C",
    "status": "Assigned to Contractor",
    "contractor": "IV Waste",
    "contractor_action": "Completed",
    "rowid": "976116",
    "final_x": "3686140.10678",
    "final_y": "535868.175687",
    "longitude": "-90.05326518303428",
    "latitude": "29.967309964323483",
    "geocoded_column": {
      "latitude": "29.967309964323483",
      "longitude": "-90.05326518303428"
    }
  },
  {
    "service_request": "2023-976115",
    "request_type": "Trash/Recycling",
    "request_reason": "Illegal Dumping",
    "date_created": "2023-02-17T11:28:07.000",
    "date_modified": "2023-02-17T11:28:07.000",
    "request_status": "Pending",
    "responsible_agency": "Department of Sanitation",
    "final_address": "2445 Forstall St",
    "address_councildis": "E",
    "status": "Pending",
    "rowid": "976115",
    "final_x": "3697747.27658",
    "final_y": "539392.482506",
    "longitude": "-90.0164818828309",
    "latitude": "29.976638892560658",
    "geocoded_column": {
      "latitude": "29.976638892560658",
      "longitude": "-90.0164818828309"
    }
  },
  {
    "service_request": "2023-976113",
    "request_type": "Trash/Recycling",
    "request_reason": "Dead Animal Pick Up",
    "date_created": "2023-02-17T11:21:45.000",
    "date_modified": "2023-02-17T11:21:58.000",
    "case_close_date": "2023-02-17T05:21:58.000",
    "request_status": "Closed",
    "responsible_agency": "Department of Sanitation",
    "final_address": "906 St Ann St",
    "address_councildis": "C",
    "status": "Assigned to Contractor",
    "contractor": "Empire Services",
    "contractor_action": "Completed",
    "rowid": "976113",
    "final_x": "3682134.91196",
    "final_y": "533221.51194",
    "longitude": "-90.06600607597201",
    "latitude": "29.960154968541563",
    "geocoded_column": {
      "latitude": "29.960154968541563",
      "longitude": "-90.06600607597201"
    }
  },
  {
    "service_request": "2023-976112",
    "request_type": "Trash/Recycling",
    "request_reason": "Dead Animal Pick Up",
    "date_created": "2023-02-17T11:18:23.000",
    "date_modified": "2023-02-17T11:19:39.000",
    "case_close_date": "2023-02-17T05:19:39.000",
    "request_status": "Closed",
    "responsible_agency": "Department of Sanitation",
    "final_address": "920 St Louis St",
    "address_councildis": "C",
    "status": "Assigned to Contractor",
    "contractor": "Empire Services",
    "contractor_action": "Completed",
    "rowid": "976112",
    "final_x": "3681373.24354",
    "final_y": "532377.667651",
    "longitude": "-90.06844067667576",
    "latitude": "29.9578578257421",
    "geocoded_column": {
      "latitude": "29.9578578257421",
      "longitude": "-90.06844067667576"
    }
  },
  {
    "service_request": "2023-976111",
    "request_type": "Trash/Recycling",
    "request_reason": "Illegal Dumping",
    "date_created": "2023-02-17T11:16:11.000",
    "date_modified": "2023-02-17T14:58:01.000",
    "case_close_date": "2023-02-17T08:58:01.000",
    "request_status": "Closed",
    "responsible_agency": "Department of Sanitation",
    "final_address": "200 BLK Decatur St",
    "address_councildis": "C",
    "status": "Resolved",
    "rowid": "976111",
    "final_x": "3682161.26851",
    "final_y": "530695.637215",
    "longitude": "-90.06601106571894",
    "latitude": "29.953208870498003",
    "geocoded_column": {
      "latitude": "29.953208870498003",
      "longitude": "-90.06601106571894"
    }
  },
  {
    "service_request": "2023-976110",
    "request_type": "Trash/Recycling",
    "request_reason": "Illegal Dumping",
    "date_created": "2023-02-17T11:15:11.000",
    "date_modified": "2023-02-17T14:57:01.000",
    "case_close_date": "2023-02-17T08:57:01.000",
    "request_status": "Closed",
    "responsible_agency": "Department of Sanitation",
    "final_address": "500 BLK Bienville St",
    "address_councildis": "C",
    "status": "Resolved",
    "rowid": "976110",
    "final_x": "3682110.32866",
    "final_y": "530960.572709",
    "longitude": "-90.06616266027575",
    "latitude": "29.9539389024061",
    "geocoded_column": {
      "latitude": "29.9539389024061",
      "longitude": "-90.06616266027575"
    }
  },
  {
    "service_request": "2023-976109",
    "request_type": "Trash/Recycling",
    "request_reason": "Illegal Dumping",
    "date_created": "2023-02-17T11:12:24.000",
    "date_modified": "2023-02-17T14:52:52.000",
    "case_close_date": "2023-02-17T08:52:52.000",
    "request_status": "Closed",
    "responsible_agency": "Department of Sanitation",
    "final_address": "612 St Philip St",
    "address_councildis": "C",
    "status": "Resolved",
    "rowid": "976109",
    "final_x": "3683391.22671",
    "final_y": "533161.426756",
    "longitude": "-90.06204101131112",
    "latitude": "29.959951488134514",
    "geocoded_column": {
      "latitude": "29.959951488134514",
      "longitude": "-90.06204101131112"
    }
  },
  {
    "service_request": "2023-976108",
    "request_type": "Trash/Recycling",
    "request_reason": "Illegal Dumping",
    "date_created": "2023-02-17T11:10:59.000",
    "date_modified": "2023-02-17T14:52:04.000",
    "case_close_date": "2023-02-17T08:52:04.000",
    "request_status": "Closed",
    "responsible_agency": "Department of Sanitation",
    "final_address": "619 Canal St",
    "address_councildis": "C",
    "status": "Resolved",
    "rowid": "976108",
    "final_x": "3681398.3428",
    "final_y": "530626.246466",
    "longitude": "-90.06842247232228",
    "latitude": "29.95304124930462",
    "geocoded_column": {
      "latitude": "29.95304124930462",
      "longitude": "-90.06842247232228"
    }
  },
  {
    "service_request": "2023-976107",
    "request_type": "Trash/Recycling",
    "request_reason": "Illegal Dumping",
    "date_created": "2023-02-17T11:10:41.000",
    "date_modified": "2023-02-17T11:10:41.000",
    "request_status": "Pending",
    "responsible_agency": "Department of Sanitation",
    "final_address": "906 St Ann St",
    "address_councildis": "C",
    "status": "Pending",
    "rowid": "976107",
    "final_x": "3682134.91196",
    "final_y": "533221.51194",
    "longitude": "-90.06600607597201",
    "latitude": "29.960154968541563",
    "geocoded_column": {
      "latitude": "29.960154968541563",
      "longitude": "-90.06600607597201"
    }
  },
  {
    "service_request": "2023-976106",
    "request_type": "Trash/Recycling",
    "request_reason": "Illegal Dumping",
    "date_created": "2023-02-17T11:09:36.000",
    "date_modified": "2023-02-17T14:51:07.000",
    "case_close_date": "2023-02-17T08:51:07.000",
    "request_status": "Closed",
    "responsible_agency": "Department of Sanitation",
    "final_address": "528 Dumaine St Unit 1",
    "address_councildis": "C",
    "status": "Resolved",
    "rowid": "976106",
    "final_x": "3683396.06921",
    "final_y": "532698.316548",
    "longitude": "-90.06204194486651",
    "latitude": "29.958677945780458",
    "geocoded_column": {
      "latitude": "29.958677945780458",
      "longitude": "-90.06204194486651"
    }
  },
  {
    "service_request": "2023-976105",
    "request_type": "Roads/Drainage",
    "request_reason": "Catch Basin - Clogged",
    "date_created": "2023-02-17T11:08:23.000",
    "date_modified": "2023-02-17T11:08:23.000",
    "request_status": "Pending",
    "responsible_agency": "Department of Public Works",
    "final_address": "1750 St Charles Ave",
    "address_councildis": "B",
    "status": "Pending",
    "rowid": "976105",
    "final_x": "3678708.23739",
    "final_y": "524583.7655",
    "longitude": "-90.07712582148702",
    "latitude": "29.93650781826905",
    "geocoded_column": {
      "latitude": "29.93650781826905",
      "longitude": "-90.07712582148702"
    }
  },
  {
    "service_request": "2023-976104",
    "request_type": "Trash/Recycling",
    "request_reason": "Illegal Dumping",
    "date_created": "2023-02-17T11:08:04.000",
    "date_modified": "2023-02-17T14:50:15.000",
    "case_close_date": "2023-02-17T08:50:15.000",
    "request_status": "Closed",
    "responsible_agency": "Department of Sanitation",
    "final_address": "1005 Decatur St",
    "address_councildis": "C",
    "status": "Resolved",
    "rowid": "976104",
    "final_x": "3683837.92149",
    "final_y": "532943.723844",
    "longitude": "-90.06063808471202",
    "latitude": "29.959339244818747",
    "geocoded_column": {
      "latitude": "29.959339244818747",
      "longitude": "-90.06063808471202"
    }
  },
  {
    "service_request": "2023-976103",
    "request_type": "Trash/Recycling",
    "request_reason": "Illegal Dumping",
    "date_created": "2023-02-17T11:01:07.000",
    "date_modified": "2023-02-17T14:49:05.000",
    "case_close_date": "2023-02-17T08:49:05.000",
    "request_status": "Closed",
    "responsible_agency": "Department of Sanitation",
    "final_address": "536 Royal St",
    "address_councildis": "C",
    "status": "Resolved",
    "rowid": "976103",
    "final_x": "3682307.50588",
    "final_y": "532092.507907",
    "longitude": "-90.06550050877917",
    "latitude": "29.95704534234693",
    "geocoded_column": {
      "latitude": "29.95704534234693",
      "longitude": "-90.06550050877917"
    }
  },
  {
    "service_request": "2023-976102",
    "request_type": "Trash/Recycling",
    "request_reason": "Illegal Dumping",
    "date_created": "2023-02-17T10:59:51.000",
    "date_modified": "2023-02-17T14:48:09.000",
    "case_close_date": "2023-02-17T08:48:09.000",
    "request_status": "Closed",
    "responsible_agency": "Department of Sanitation",
    "final_address": "1200 BLK Decatur St",
    "address_councildis": "C",
    "status": "Resolved",
    "rowid": "976102",
    "final_x": "3684373.93371",
    "final_y": "533579.935252",
    "longitude": "-90.05892314437494",
    "latitude": "29.961072226691",
    "geocoded_column": {
      "latitude": "29.961072226691",
      "longitude": "-90.05892314437494"
    }
  },
  {
    "service_request": "2023-976101",
    "request_type": "Trash/Recycling",
    "request_reason": "Illegal Dumping",
    "date_created": "2023-02-17T10:58:14.000",
    "date_modified": "2023-02-17T10:58:14.000",
    "request_status": "Pending",
    "responsible_agency": "Department of Sanitation",
    "final_address": "926 Chartres St",
    "address_councildis": "C",
    "status": "Pending",
    "rowid": "976101",
    "final_x": "3683444.16975",
    "final_y": "532986.24698",
    "longitude": "-90.0618799672208",
    "latitude": "29.959468188478247",
    "geocoded_column": {
      "latitude": "29.959468188478247",
      "longitude": "-90.0618799672208"
    }
  },
  {
    "service_request": "2023-976100",
    "request_type": "Trash/Recycling",
    "request_reason": "Order Recycling Cart",
    "date_created": "2023-02-17T10:57:05.000",
    "date_modified": "2023-02-17T10:57:05.000",
    "request_status": "Pending",
    "responsible_agency": "Department of Sanitation",
    "final_address": "2245 Oriole St",
    "address_councildis": "D",
    "status": "Pending",
    "rowid": "976100",
    "final_x": "3684007.73097",
    "final_y": "558152.258075",
    "longitude": "-90.05921672820823",
    "latitude": "30.028648534037533",
    "geocoded_column": {
      "latitude": "30.028648534037533",
      "longitude": "-90.05921672820823"
    }
  },
  {
    "service_request": "2023-976099",
    "request_type": "Abandoned Vehicles",
    "request_reason": "Abandoned/Junk Vehicles",
    "date_created": "2023-02-17T10:54:55.000",
    "date_modified": "2023-02-17T10:54:55.000",
    "request_status": "Pending",
    "responsible_agency": "Department of Public Works",
    "final_address": "3930 Prytania St",
    "address_councildis": "B",
    "status": "Pending",
    "rowid": "976099",
    "final_x": "3672507.38279",
    "final_y": "520441.962296",
    "longitude": "-90.09684330530885",
    "latitude": "29.925304664650184",
    "geocoded_column": {
      "latitude": "29.925304664650184",
      "longitude": "-90.09684330530885"
    }
  },
  {
    "service_request": "2023-976098",
    "request_type": "Trash/Recycling",
    "request_reason": "Missed Trash Pick-Up",
    "date_created": "2023-02-17T10:50:19.000",
    "date_modified": "2023-02-17T10:50:19.000",
    "request_status": "Pending",
    "responsible_agency": "Department of Sanitation",
    "final_address": "900 BLK N Rendon St",
    "address_councildis": "A",
    "status": "Assigned to Contractor",
    "contractor": "Richards Disposal",
    "rowid": "976098",
    "final_x": "3675541.29619",
    "final_y": "539021.854159",
    "longitude": "-90.08662804924809",
    "latitude": "29.976302819847753",
    "geocoded_column": {
      "latitude": "29.976302819847753",
      "longitude": "-90.08662804924809"
    }
  },
  {
    "service_request": "2023-976097",
    "request_type": "Roads/Drainage",
    "request_reason": "Catch Basin - Clogged",
    "date_created": "2023-02-17T10:45:30.000",
    "date_modified": "2023-02-17T10:45:30.000",
    "request_status": "Pending",
    "responsible_agency": "Department of Public Works",
    "final_address": "1750 St Charles Ave",
    "address_councildis": "B",
    "status": "Pending",
    "rowid": "976097",
    "final_x": "3678708.23739",
    "final_y": "524583.7655",
    "longitude": "-90.07712582148702",
    "latitude": "29.93650781826905",
    "geocoded_column": {
      "latitude": "29.93650781826905",
      "longitude": "-90.07712582148702"
    }
  },
  {
    "service_request": "2023-976096",
    "request_type": "Trash/Recycling",
    "request_reason": "Repair Trash Cart",
    "date_created": "2023-02-17T10:44:55.000",
    "date_modified": "2023-02-17T13:37:34.000",
    "case_close_date": "2023-02-17T07:37:34.000",
    "request_status": "Closed",
    "responsible_agency": "Department of Sanitation",
    "final_address": "4563 Flake Ave",
    "address_councildis": "E",
    "status": "Assigned to Contractor",
    "contractor": "Waste Pro",
    "contractor_action": "Completed",
    "rowid": "976096",
    "final_x": "3706307.46366",
    "final_y": "554339.402776",
    "longitude": "-89.98889250832426",
    "latitude": "30.017464005653512",
    "geocoded_column": {
      "latitude": "30.017464005653512",
      "longitude": "-89.98889250832426"
    }
  },
  {
    "service_request": "2023-976094",
    "request_type": "Abandoned Vehicles",
    "request_reason": "Abandoned/Junk Vehicles",
    "date_created": "2023-02-17T10:43:33.000",
    "date_modified": "2023-02-17T10:43:33.000",
    "request_status": "Pending",
    "responsible_agency": "Department of Public Works",
    "final_address": "883 Navarre St",
    "address_councildis": "A",
    "status": "Pending",
    "rowid": "976094",
    "final_x": "3669372.46785",
    "final_y": "543816.225614",
    "longitude": "-90.10594891040328",
    "latitude": "29.989668822165346",
    "geocoded_column": {
      "latitude": "29.989668822165346",
      "longitude": "-90.10594891040328"
    }
  },
  {
    "service_request": "2023-976093",
    "request_type": "Roads/Drainage",
    "request_reason": "Pothole",
    "date_created": "2023-02-17T10:43:22.000",
    "date_modified": "2023-02-17T10:43:40.000",
    "case_close_date": "2023-02-17T04:43:40.000",
    "request_status": "Closed",
    "responsible_agency": "Department of Public Works",
    "final_address": "3100 BLK Josephine St",
    "address_councildis": "B",
    "status": "Resolved",
    "rowid": "976093",
    "final_x": "3674532.39696",
    "final_y": "528343.103206",
    "longitude": "-90.09018036863752",
    "latitude": "29.9469699843134",
    "geocoded_column": {
      "latitude": "29.9469699843134",
      "longitude": "-90.09018036863752"
    }
  },
  {
    "service_request": "2023-976092",
    "request_type": "Trash/Recycling",
    "request_reason": "Missed Trash Pick-Up",
    "date_created": "2023-02-17T10:41:06.000",
    "date_modified": "2023-02-17T10:41:08.000",
    "request_status": "Pending",
    "responsible_agency": "Department of Sanitation",
    "final_address": "4563 Flake Ave",
    "address_councildis": "E",
    "status": "Assigned to Contractor",
    "contractor": "Waste Pro",
    "rowid": "976092",
    "final_x": "3706307.46366",
    "final_y": "554339.402776",
    "longitude": "-89.98889250832426",
    "latitude": "30.017464005653512",
    "geocoded_column": {
      "latitude": "30.017464005653512",
      "longitude": "-89.98889250832426"
    }
  },