[
  {
    "service_request": "2023-1053204",
    "request_type": "Property Maintenance",
    "request_reason": "Property Maintenance",
    "date_created": "2023-12-01T23:44:53.000",
    "date_modified": "2023-12-01T23:44:53.000",
    "request_status": "Pending",
    "responsible_agency": "Department of Code Enforcement",
    "final_address": "1328 Barracks St",
    "address_councildis": "C",
    "status": "Pending",
    "rowid": "1053204",
    "final_x": "3681918.81045",
    "final_y": "535674.568647",
    "longitude": "-90.06660284319018",
    "latitude": "29.966906604501933",
    "geocoded_column": {
      "latitude": "29.966906604501933",
      "longitude": "-90.06660284319018"
    }
  },
  {
    "service_request": "2023-1053203",
    "request_type": "Roads/Drainage",
    "request_reason": "Pothole",
    "date_created": "2023-12-01T23:15:37.000",
    "date_modified": "2023-12-01T23:15:37.000",
    "request_status": "Pending",
    "responsible_agency": "Department of Public Works",
    "final_address": "3709 Martin Luther King, Jr. Blvd",
    "address_councildis": "B",
    "status": "Pending",
    "rowid": "1053203",
    "final_x": "3672641.05876",
    "final_y": "529763.400385",
    "longitude": "-90.09610361445779",
    "latitude": "29.950931620547312",
    "geocoded_column": {
      "latitude": "29.950931620547312",
      "longitude": "-90.09610361445779"
    }
  },
  {
    "service_request": "2023-1053202",
    "request_type": "Roads/Drainage",
    "request_reason": "Pothole",
    "date_created": "2023-12-01T22:30:11.000",
    "date_modified": "2023-12-01T22:30:11.000",
    "request_status": "Pending",
    "responsible_agency": "Department of Public Works",
    "final_address": "6034 Coliseum St",
    "address_councildis": "A",
    "status": "Pending",
    "rowid": "1053202",
    "final_x": "3664706.81639",
    "final_y": "520252.26892",
    "longitude": "-90.12147367481832",
    "latitude": "29.925012221859177",
    "geocoded_column": {
      "latitude": "29.925012221859177",
      "longitude": "-90.12147367481832"
    }
  },
  {
    "service_request": "2023-1053201",
    "request_type": "Roads/Drainage",
    "request_reason": "Pothole",
    "date_created": "2023-12-01T22:24:35.000",
    "date_modified": "2023-12-01T22:24:35.000",
    "request_status": "Pending",
    "responsible_agency": "Department of Public Works",
    "final_address": "6025 Coliseum St",
    "address_councildis": "A",
    "status": "Pending",
    "rowid": "1053201",
    "final_x": "3664796.34074",
    "final_y": "520310.32268",
    "longitude": "-90.12118913565936",
    "latitude": "29.92516924769698",
    "geocoded_column": {
      "latitude": "29.92516924769698",
      "longitude": "-90.12118913565936"
    }
  },
  {
    "service_request": "2023-1053200",
    "request_type": "Roads/Drainage",
    "request_reason": "Pothole",
    "date_created": "2023-12-01T22:21:50.000",
    "date_modified": "2023-12-01T22:21:50.000",
    "request_status": "Pending",
    "responsible_agency": "Department of Public Works",
    "final_address": "1033 Calhoun St",
    "address_councildis": "A",
    "status": "Pending",
    "rowid": "1053200",
    "final_x": "3663789.05037",
    "final_y": "520390.254264",
    "longitude": "-90.124366182001",
    "latitude": "29.925418296006622",
    "geocoded_column": {
      "latitude": "29.925418296006622",
      "longitude": "-90.124366182001"
    }
  },
  {
    "service_request": "2023-1053199",
    "request_type": "Traffic Signals/Signs/Striping/Streetlights",
    "request_reason": "Traffic Sign Missing/Damaged",
    "date_created": "2023-12-01T21:20:05.000",
    "date_modified": "2023-12-01T21:20:05.000",
    "request_status": "Pending",
    "responsible_agency": "Department of Public Works",
    "final_address": "2000 BLK Elysian Fields Ave",
    "address_councildis": "D",
    "status": "Pending",
    "rowid": "1053199",
    "final_x": "3684682.22345",
    "final_y": "539831.886003",
    "longitude": "-90.05772984082775",
    "latitude": "29.97825348841634",
    "geocoded_column": {
      "latitude": "29.97825348841634",
      "longitude": "-90.05772984082775"
    }
  },
  {
    "service_request": "2023-1053198",
    "request_type": "Trash/Recycling",
    "request_reason": "Missed Trash Pick-Up",
    "date_created": "2023-12-01T21:03:51.000",
    "date_modified": "2023-12-01T21:04:22.000",
    "request_status": "Pending",
    "responsible_agency": "Department of Sanitation",
    "final_address": "7810 Exeter St",
    "address_councildis": "E",
    "status": "Assigned to Contractor",
    "contractor": "Waste Pro",
    "rowid": "1053198",
    "final_x": "3697480.08099",
    "final_y": "559995.223965",
    "longitude": "-90.01657800852742",
    "latitude": "30.033297190830837",
    "geocoded_column": {
      "latitude": "30.033297190830837",
      "longitude": "-90.01657800852742"
    }
  },
  {
    "service_request": "2023-1053197",
    "request_type": "Trash/Recycling",
    "request_reason": "Missed Trash Pick-Up",
    "date_created": "2023-12-01T20:59:14.000",
    "date_modified": "2023-12-01T20:59:15.000",
    "request_status": "Pending",
    "responsible_agency": "Department of Sanitation",
    "final_address": "7832 Ebbtide Dr",
    "address_councildis": "E",
    "status": "Assigned to Contractor",
    "contractor": "Waste Pro",
    "rowid": "1053197",
    "final_x": "3701881.58589",
    "final_y": "562091.678943",
    "longitude": "-90.002591955026",
    "latitude": "30.03892181236324",
    "geocoded_column": {
      "latitude": "30.03892181236324",
      "longitude": "-90.002591955026"
    }
  },
  {
    "service_request": "2023-1053196",
    "request_type": "Roads/Drainage",
    "request_reason": "Debris in Roadway",
    "date_created": "2023-12-01T19:27:55.000",
    "date_modified": "2023-12-01T19:27:55.000",
    "request_status": "Pending",
    "responsible_agency": "Department of Public Works",
    "final_address": "423 S Bernadotte St",
    "address_councildis": "A",
    "status": "Pending",
    "rowid": "1053196",
    "final_x": "3667931.70401",
    "final_y": "538956.189962",
    "longitude": "-90.11066370601611",
    "latitude": "29.97634772726156",
    "geocoded_column": {
      "latitude": "29.97634772726156",
      "longitude": "-90.11066370601611"
    }
  },
  {
    "service_request": "2023-1053195",
    "request_type": "Roads/Drainage",
    "request_reason": "Pothole",
    "date_created": "2023-12-01T19:03:37.000",
    "date_modified": "2023-12-01T19:03:37.000",
    "request_status": "Pending",
    "responsible_agency": "Department of Public Works",
    "final_address": "4216 Chestnut St",
    "address_councildis": "B",
    "status": "Pending",
    "rowid": "1053195",
    "final_x": "3671574.31393",
    "final_y": "519539.203703",
    "longitude": "-90.09981939416457",
    "latitude": "29.922850019854593",
    "geocoded_column": {
      "latitude": "29.922850019854593",
      "longitude": "-90.09981939416457"
    }
  },
  {
    "service_request": "2023-1053194",
    "request_type": "Roads/Drainage",
    "request_reason": "Pothole",
    "date_created": "2023-12-01T18:48:37.000",
    "date_modified": "2023-12-01T18:48:37.000",
    "request_status": "Pending",
    "responsible_agency": "Department of Public Works",
    "final_address": "1312 Milan St",
    "address_councildis": "B",
    "status": "Pending",
    "rowid": "1053194",
    "final_x": "3671625.82823",
    "final_y": "520286.919608",
    "longitude": "-90.09963137110304",
    "latitude": "29.92490447494246",
    "geocoded_column": {
      "latitude": "29.92490447494246",
      "longitude": "-90.09963137110304"
    }
  },
  {
    "service_request": "2023-1053193",
    "request_type": "Graffiti Removal",
    "request_reason": "Graffiti Removal",
    "date_created": "2023-12-01T18:39:29.000",
    "date_modified": "2023-12-01T18:39:29.000",
    "request_status": "Pending",
    "responsible_agency": "Department of Code Enforcement",
    "final_address": "1137 St Charles Ave",
    "address_councildis": "B",
    "status": "Pending",
    "rowid": "1053193",
    "final_x": "3679694.24309",
    "final_y": "526456.71379",
    "longitude": "-90.07394797424702",
    "latitude": "29.941628045255026",
    "geocoded_column": {
      "latitude": "29.941628045255026",
      "longitude": "-90.07394797424702"
    }
  },
  {
    "service_request": "2023-1053191",
    "request_type": "Property Maintenance",
    "request_reason": "Property Maintenance",
    "date_created": "2023-12-01T18:35:30.000",
    "date_modified": "2023-12-01T18:35:30.000",
    "request_status": "Pending",
    "responsible_agency": "Department of Code Enforcement",
    "final_address": "4700 Chantilly Dr",
    "address_councildis": "E",
    "status": "Pending",
    "rowid": "1053191",
    "final_x": "3700835.13783",
    "final_y": "553824.681431",
    "longitude": "-90.00620159920332",
    "latitude": "30.016224131127814",
    "geocoded_column": {
      "latitude": "30.016224131127814",
      "longitude": "-90.00620159920332"
    }
  },
  {
    "service_request": "2023-1053190",
    "request_type": "Trash/Recycling",
    "request_reason": "Request a Large Item Pick Up",
    "date_created": "2023-12-01T18:33:47.000",
    "date_modified": "2023-12-01T18:33:48.000",
    "request_status": "Pending",
    "responsible_agency": "Department of Sanitation",
    "final_address": "1438 N Prieur St",
    "address_councildis": "D",
    "status": "Assigned to Contractor",
    "contractor": "IV Waste",
    "rowid": "1053190",
    "final_x": "3680669.24751",
    "final_y": "537488.344968",
    "longitude": "-90.07048583433115",
    "latitude": "29.971931790286245",
    "geocoded_column": {
      "latitude": "29.971931790286245",
      "longitude": "-90.07048583433115"
    }
  },
  {
    "service_request": "2023-1053189",
    "request_type": "Traffic Signals/Signs/Striping/Streetlights",
    "request_reason": "Street Light Outage/Malfunction",
    "date_created": "2023-12-01T17:48:12.000",
    "date_modified": "2023-12-01T17:48:13.000",
    "request_status": "Pending",
    "responsible_agency": "Department of Public Works",
    "final_address": "3601 Gentilly Blvd",
    "address_councildis": "D",
    "status": "Assigned to Contractor",
    "contractor": "Legacy Professional Services",
    "rowid": "1053189",
    "final_x": "3686104.67804",
    "final_y": "548962.157139",
    "longitude": "-90.05291499150836",
    "latitude": "30.00331485573645",
    "geocoded_column": {
      "latitude": "30.00331485573645",
      "longitude": "-90.05291499150836"
    }
  },
  {
    "service_request": "2023-1053188",
    "request_type": "Safety & Permits",
    "request_reason": "Licenses & Permits",
    "date_created": "2023-12-01T17:08:51.000",
    "date_modified": "2023-12-01T17:08:51.000",
    "request_status": "Pending",
    "responsible_agency": "Safety and Permits",
    "final_address": "1110 Jena St",
    "address_councildis": "B",
    "status": "Pending",
    "rowid": "1053188",
    "final_x": "3670537.78363",
    "final_y": "519583.702968",
    "longitude": "-90.10308981361733",
    "latitude": "29.923003019984787",
    "geocoded_column": {
      "latitude": "29.923003019984787",
      "longitude": "-90.10308981361733"
    }
  },
  {
    "service_request": "2023-1053187",
    "request_type": "Trash/Recycling",
    "request_reason": "Missed Trash Pick-Up",
    "date_created": "2023-12-01T16:39:20.000",
    "date_modified": "2023-12-01T16:39:21.000",
    "request_status": "Pending",
    "responsible_agency": "Department of Sanitation",
    "final_address": "4701 Eastview Dr",
    "address_councildis": "E",
    "status": "Assigned to Contractor",
    "contractor": "Waste Pro",
    "rowid": "1053187",
    "final_x": "3705240.04126",
    "final_y": "555058.057433",
    "longitude": "-89.99223853483586",
    "latitude": "30.019474423038808",
    "geocoded_column": {
      "latitude": "30.019474423038808",
      "longitude": "-89.99223853483586"
    }
  },
  {
    "service_request": "2023-1053186",
    "request_type": "Trash/Recycling",
    "request_reason": "Request a Large Item Pick Up",
    "date_created": "2023-12-01T16:33:46.000",
    "date_modified": "2023-12-01T16:33:47.000",
    "request_status": "Pending",
    "responsible_agency": "Department of Sanitation",
    "final_address": "4515 Baudin St",
    "address_councildis": "A",
    "status": "Assigned to Contractor",
    "contractor": "Richards Disposal",
    "rowid": "1053186",
    "final_x": "3668636.35956",
    "final_y": "538237.103497",
    "longitude": "-90.10846246282627",
    "latitude": "29.97434978770397",
    "geocoded_column": {
      "latitude": "29.97434978770397",
      "longitude": "-90.10846246282627"
    }
  },
  {
    "service_request": "2023-1053185",
    "request_type": "Trash/Recycling",
    "request_reason": "Missed Trash Pick-Up",
    "date_created": "2023-12-01T16:31:17.000",
    "date_modified": "2023-12-01T16:56:30.000",
    "case_close_date": "2023-12-01T10:56:30.000",
    "request_status": "Closed",
    "responsible_agency": "Department of Sanitation",
    "final_address": "5054 St Ferdinand Dr",
    "address_councildis": "D",
    "status": "Assigned to Contractor",
    "contractor": "IV Waste",
    "contractor_action": "Completed",
    "rowid": "1053185",
    "final_x": "3689105.6214",
    "final_y": "551638.113045",
    "longitude": "-90.0433394063067",
    "latitude": "30.01058020633937",
    "geocoded_column": {
      "latitude": "30.01058020633937",
      "longitude": "-90.0433394063067"
    }
  },
  {
    "service_request": "2023-1053184",
    "request_type": "Trash/Recycling",
    "request_reason": "Request a Large Item Pick Up",
    "date_created": "2023-12-01T16:22:45.000",
    "date_modified": "2023-12-01T16:22:46.000",
    "request_status": "Pending",
    "responsible_agency": "Department of Sanitation",
    "final_address": "7431 Spring Lake Dr",
    "address_councildis": "E",
    "status": "Assigned to Contractor",
    "contractor": "Waste Pro",
    "rowid": "1053184",
    "final_x": "3700901.6305",
    "final_y": "559263.855644",
    "longitude": "-90.00579240761229",
    "latitude": "30.031177654722576",
    "geocoded_column": {
      "latitude": "30.031177654722576",
      "longitude": "-90.00579240761229"
    }
  },
  {
    "service_request": "2023-1053183",
    "request_type": "Trash/Recycling",
    "request_reason": "Repair Recycling Cart",
    "date_created": "2023-12-01T16:21:59.000",
    "date_modified": "2023-12-01T16:21:59.000",
    "request_status": "Pending",
    "responsible_agency": "Department of Sanitation",
    "final_address": "4029 Camp St",
    "address_councildis": "B",
    "status": "Pending",
    "rowid": "1053183",
    "final_x": "3672216.52014",
    "final_y": "519319.148023",
    "longitude": "-90.09779968714359",
    "latitude": "29.92222591162771",
    "geocoded_column": {
      "latitude": "29.92222591162771",
      "longitude": "-90.09779968714359"
    }
  },
  {
    "service_request": "2023-1053182",
    "request_type": "Trash/Recycling",
    "request_reason": "Return Trash Cart",
    "date_created": "2023-12-01T16:20:49.000",
    "date_modified": "2023-12-01T16:20:50.000",
    "request_status": "Pending",
    "responsible_agency": "Department of Sanitation",
    "final_address": "4029 Camp St",
    "address_councildis": "B",
    "status": "Assigned to Contractor",
    "contractor": "Richards Disposal",
    "rowid": "1053182",
    "final_x": "3672216.52014",
    "final_y": "519319.148023",
    "longitude": "-90.09779968714359",
    "latitude": "29.92222591162771",
    "geocoded_column": {
      "latitude": "29.92222591162771",
      "longitude": "-90.09779968714359"
    }
  },
  {
    "service_request": "2023-1053181",
    "request_type": "Traffic Signals/Signs/Striping/Streetlights",
    "request_reason": "Street Light Outage/Malfunction",
    "date_created": "2023-12-01T16:17:15.000",
    "date_modified": "2023-12-01T16:17:58.000",
    "request_status": "Pending",
    "responsible_agency": "Department of Public Works",
    "final_address": "2400 BLK Comet St",
    "address_councildis": "C",
    "status": "Assigned to Contractor",
    "contractor": "Legacy Professional Services",
    "rowid": "1053181",
    "final_x": "3700029.82563",
    "final_y": "521923.862436",
    "longitude": "-90.00991015000922",
    "latitude": "29.928534043066886",
    "geocoded_column": {
      "latitude": "29.928534043066886",
      "longitude": "-90.00991015000922"
    }
  },
  {
    "service_request": "2023-1053180",
    "request_type": "Safety & Permits",
    "request_reason": "Licenses & Permits",
    "date_created": "2023-12-01T16:13:51.000",
    "date_modified": "2023-12-01T16:13:51.000",
    "request_status": "Pending",
    "responsible_agency": "Safety and Permits",
    "final_address": "612 Harmony St",
    "address_councildis": "B",
    "status": "Pending",
    "rowid": "1053180",
    "final_x": "3676548.45333",
    "final_y": "518472.556022",
    "longitude": "-90.08415468318634",
    "latitude": "29.91976890761388",
    "geocoded_column": {
      "latitude": "29.91976890761388",
      "longitude": "-90.08415468318634"
    }
  },
  {
    "service_request": "2023-1053179",
    "request_type": "Roads/Drainage",
    "request_reason": "Debris in Roadway",
    "date_created": "2023-12-01T16:11:32.000",
    "date_modified": "2023-12-01T16:11:33.000",
    "request_status": "Pending",
    "responsible_agency": "Department of Public Works",
    "final_address": "2303 Odin St",
    "address_councildis": "D",
    "status": "Pending",
    "rowid": "1053179",
    "final_x": "3684473.80245",
    "final_y": "553139.149527",
    "longitude": "-90.0579202903796",
    "latitude": "30.014850076344324",
    "geocoded_column": {
      "latitude": "30.014850076344324",
      "longitude": "-90.0579202903796"
    }
  },
  {
    "service_request": "2023-1053178",
    "request_type": "Trash/Recycling",
    "request_reason": "Request a Large Item Pick Up",
    "date_created": "2023-12-01T16:01:57.000",
    "date_modified": "2023-12-01T16:01:57.000",
    "request_status": "Pending",
    "responsible_agency": "Department of Sanitation",
    "final_address": "4407 Annette St",
    "address_councildis": "D",
    "status": "Assigned to Contractor",
    "contractor": "IV Waste",
    "rowid": "1053178",
    "final_x": "3682174.3661",
    "final_y": "548757.277843",
    "longitude": "-90.06533860223269",
    "latitude": "30.002871687850096",
    "geocoded_column": {
      "latitude": "30.002871687850096",
      "longitude": "-90.06533860223269"
    }
  },
  {
    "service_request": "2023-1053177",
    "request_type": "Trash/Recycling",
    "request_reason": "Order Trash Cart",
    "date_created": "2023-12-01T15:59:56.000",
    "date_modified": "2023-12-01T15:59:57.000",
    "request_status": "Pending",
    "responsible_agency": "Department of Sanitation",
    "final_address": "2021 Annette St",
    "address_councildis": "D",
    "status": "Assigned to Contractor",
    "contractor": "IV Waste",
    "rowid": "1053177",
    "final_x": "3682897.7942",
    "final_y": "539667.009226",
    "longitude": "-90.06337147622",
    "latitude": "29.977854636316483",
    "geocoded_column": {
      "latitude": "29.977854636316483",
      "longitude": "-90.06337147622"
    }
  },
  {
    "service_request": "2023-1053176",
    "request_type": "Trash/Recycling",
    "request_reason": "MIssed Recycling Pick-Up",
    "date_created": "2023-12-01T15:56:18.000",
    "date_modified": "2023-12-01T15:56:19.000",
    "request_status": "Pending",
    "responsible_agency": "Department of Sanitation",
    "final_address": "12951 Morrison Rd",
    "address_councildis": "E",
    "status": "Assigned to Contractor",
    "contractor": "Waste Pro",
    "rowid": "1053176",
    "final_x": "3716227.39512",
    "final_y": "569141.340902",
    "longitude": "-89.95698808140497",
    "latitude": "30.05783959156235",
    "geocoded_column": {
      "latitude": "30.05783959156235",
      "longitude": "-89.95698808140497"
    }
  },
  {
    "service_request": "2023-1053175",
    "request_type": "Abandoned Vehicles",
    "request_reason": "Abandoned/Junk Vehicles",
    "date_created": "2023-12-01T15:52:38.000",
    "date_modified": "2023-12-01T15:52:38.000",
    "request_status": "Pending",
    "responsible_agency": "Department of Public Works",
    "final_address": "1435 Henry Clay Ave",
    "address_councildis": "A",
    "status": "Pending",
    "rowid": "1053175",
    "final_x": "3664719.02317",
    "final_y": "521718.44569",
    "longitude": "-90.12138618913215",
    "latitude": "29.929043391472735",
    "geocoded_column": {
      "latitude": "29.929043391472735",
      "longitude": "-90.12138618913215"
    }
  },
  {
    "service_request": "2023-1053173",
    "request_type": "Trash/Recycling",
    "request_reason": "Return Trash Cart",
    "date_created": "2023-12-01T15:49:27.000",
    "date_modified": "2023-12-01T15:49:27.000",
    "request_status": "Pending",
    "responsible_agency": "Department of Sanitation",
    "final_address": "826 Ninth St",
    "address_councildis": "B",
    "status": "Assigned to Contractor",
    "contractor": "Richards Disposal",
    "rowid": "1053173",
    "final_x": "3676322.32014",
    "final_y": "519293.407479",
    "longitude": "-90.08484024395977",
    "latitude": "29.922032761546813",
    "geocoded_column": {
      "latitude": "29.922032761546813",
      "longitude": "-90.08484024395977"
    }
  },
  {
    "service_request": "2023-1053172",
    "request_type": "Trash/Recycling",
    "request_reason": "Illegal Dumping",
    "date_created": "2023-12-01T15:40:11.000",
    "date_modified": "2023-12-01T15:40:11.000",
    "request_status": "Pending",
    "responsible_agency": "Department of Sanitation",
    "final_address": "1324 France St",
    "address_councildis": "D",
    "status": "Pending",
    "rowid": "1053172",
    "final_x": "3692586.39165",
    "final_y": "536118.416391",
    "longitude": "-90.0328988416008",
    "latitude": "29.967798448975383",
    "geocoded_column": {
      "latitude": "29.967798448975383",
      "longitude": "-90.0328988416008"
    }
  },
  {
    "service_request": "2023-1053171",
    "request_type": "Trash/Recycling",
    "request_reason": "Illegal Dumping",
    "date_created": "2023-12-01T15:36:05.000",
    "date_modified": "2023-12-01T15:36:05.000",
    "request_status": "Pending",
    "responsible_agency": "Department of Sanitation",
    "final_address": "6500 BLK Old Gentilly Rd",
    "address_councildis": "E",
    "status": "Pending",
    "rowid": "1053171",
    "final_x": "3698385.49624",
    "final_y": "551022.536194",
    "longitude": "-90.01404328641856",
    "latitude": "30.00859707287628",
    "geocoded_column": {
      "latitude": "30.00859707287628",
      "longitude": "-90.01404328641856"
    }
  },
  {
    "service_request": "2023-1053170",
    "request_type": "Trash/Recycling",
    "request_reason": "Order Recycling Cart",
    "date_created": "2023-12-01T15:35:26.000",
    "date_modified": "2023-12-01T15:35:26.000",
    "request_status": "Pending",
    "responsible_agency": "Department of Sanitation",
    "final_address": "1621 Patterson St",
    "address_councildis": "C",
    "status": "Pending",
    "rowid": "1053170",
    "final_x": "3690538.94121",
    "final_y": "530912.216194",
    "longitude": "-90.03955036849995",
    "latitude": "29.953546948612274",
    "geocoded_column": {
      "latitude": "29.953546948612274",
      "longitude": "-90.03955036849995"
    }
  },
  {
    "service_request": "2023-1053167",
    "request_type": "Trash/Recycling",
    "request_reason": "Request a Large Item Pick Up",
    "date_created": "2023-12-01T15:27:21.000",
    "date_modified": "2023-12-01T15:27:22.000",
    "request_status": "Pending",
    "responsible_agency": "Department of Sanitation",
    "final_address": "4112 Dauphine St",
    "address_councildis": "C",
    "status": "Assigned to Contractor",
    "contractor": "IV Waste",
    "rowid": "1053167",
    "final_x": "3691935.98441",
    "final_y": "534025.251013",
    "longitude": "-90.03502773693542",
    "latitude": "29.96206326089895",
    "geocoded_column": {
      "latitude": "29.96206326089895",
      "longitude": "-90.03502773693542"
    }
  },
  {
    "service_request": "2023-1053166",
    "request_type": "Trash/Recycling",
    "request_reason": "Repair Trash Cart",
    "date_created": "2023-12-01T15:21:28.000",
    "date_modified": "2023-12-01T15:21:29.000",
    "request_status": "Pending",
    "responsible_agency": "Department of Sanitation",
    "final_address": "5901 N Tonti St",
    "address_councildis": "E",
    "status": "Assigned to Contractor",
    "contractor": "Waste Pro",
    "rowid": "1053166",
    "final_x": "3700182.87984",
    "final_y": "538076.683465",
    "longitude": "-90.00883758144236",
    "latitude": "29.972943731980045",
    "geocoded_column": {
      "latitude": "29.972943731980045",
      "longitude": "-90.00883758144236"
    }
  },
  {
    "service_request": "2023-1053165",
    "request_type": "Trash/Recycling",
    "request_reason": "Replace Trash Cart",
    "date_created": "2023-12-01T15:21:16.000",
    "date_modified": "2023-12-01T15:21:17.000",
    "request_status": "Pending",
    "responsible_agency": "Department of Sanitation",
    "final_address": "3528 Clematis St",
    "address_councildis": "D",
    "status": "Assigned to Contractor",
    "contractor": "IV Waste",
    "rowid": "1053165",
    "final_x": "3686403.68834",
    "final_y": "545946.01384",
    "longitude": "-90.05207691939151",
    "latitude": "29.995012359009692",
    "geocoded_column": {
      "latitude": "29.995012359009692",
      "longitude": "-90.05207691939151"
    }
  },
  {
    "service_request": "2023-1053164",
    "request_type": "Trash/Recycling",
    "request_reason": "Request a Large Item Pick Up",
    "date_created": "2023-12-01T15:14:56.000",
    "date_modified": "2023-12-01T15:14:56.000",
    "request_status": "Pending",
    "responsible_agency": "Department of Sanitation",
    "final_address": "501 Peniston St",
    "address_councildis": "B",
    "status": "Assigned to Contractor",
    "contractor": "Richards Disposal",
    "rowid": "1053164",
    "final_x": "3673758.25627",
    "final_y": "517807.718518",
    "longitude": "-90.09298469874456",
    "latitude": "29.91802416242078",
    "geocoded_column": {
      "latitude": "29.91802416242078",
      "longitude": "-90.09298469874456"
    }
  },
  {
    "service_request": "2023-1053163",
    "request_type": "Property Maintenance",
    "request_reason": "Property Maintenance",
    "date_created": "2023-12-01T15:09:46.000",
    "date_modified": "2023-12-01T15:09:46.000",
    "request_status": "Pending",
    "responsible_agency": "Department of Code Enforcement",
    "final_address": "3022 Deers St",
    "address_councildis": "D",
    "status": "Pending",
    "rowid": "1053163",
    "final_x": "3687981.62895",
    "final_y": "544141.277518",
    "longitude": "-90.04715638258548",
    "latitude": "29.990001372854245",
    "geocoded_column": {
      "latitude": "29.990001372854245",
      "longitude": "-90.04715638258548"
    }
  },
  {
    "service_request": "2023-1053162",
    "request_type": "Trash/Recycling",
    "request_reason": "Request a Large Item Pick Up",
    "date_created": "2023-12-01T15:05:29.000",
    "date_modified": "2023-12-01T15:05:51.000",
    "request_status": "Pending",
    "responsible_agency": "Department of Sanitation",
    "final_address": "1616 Spain St",
    "address_councildis": "D",
    "status": "Assigned to Contractor",
    "contractor": "IV Waste",
    "rowid": "1053162",
    "final_x": "3685944.60162",
    "final_y": "538376.898057",
    "longitude": "-90.0537941197977",
    "latitude": "29.9742140798663",
    "geocoded_column": {
      "latitude": "29.9742140798663",
      "longitude": "-90.0537941197977"
    }
  },
  {
    "service_request": "2023-1053161",
    "request_type": "Abandoned Vehicles",
    "request_reason": "Abandoned/Junk Vehicles",
    "date_created": "2023-12-01T15:04:46.000",
    "date_modified": "2023-12-01T15:04:46.000",
    "request_status": "Pending",
    "responsible_agency": "Department of Public Works",
    "final_address": "1617 Duels St",
    "address_councildis": "D",
    "status": "Pending",
    "rowid": "1053161",
    "final_x": "3680129.60239",
    "final_y": "542253.405197",
    "longitude": "-90.07202446630043",
    "latitude": "29.985050395097968",
    "geocoded_column": {
      "latitude": "29.985050395097968",
      "longitude": "-90.07202446630043"
    }
  },
  {
    "service_request": "2023-1053160",
    "request_type": "Trash/Recycling",
    "request_reason": "Illegal Dumping",
    "date_created": "2023-12-01T15:04:41.000",
    "date_modified": "2023-12-01T15:05:16.000",
    "request_status": "Pending",
    "responsible_agency": "Department of Sanitation",
    "final_address": "307 Lamarque St",
    "address_councildis": "C",
    "status": "Pending",
    "rowid": "1053160",
    "final_x": "3686365.9318",
    "final_y": "526709.455486",
    "longitude": "-90.05287523971538",
    "latitude": "29.942119685556097",
    "geocoded_column": {
      "latitude": "29.942119685556097",
      "longitude": "-90.05287523971538"
    }
  },
  {
    "service_request": "2023-1053159",
    "request_type": "Trash/Recycling",
    "request_reason": "Missed Trash Pick-Up",
    "date_created": "2023-12-01T15:02:34.000",
    "date_modified": "2023-12-01T15:02:35.000",
    "request_status": "Pending",
    "responsible_agency": "Department of Sanitation",
    "final_address": "8000 Wales St",
    "address_councildis": "E",
    "status": "Assigned to Contractor",
    "contractor": "Waste Pro",
    "rowid": "1053159",
    "final_x": "3701786.61233",
    "final_y": "562049.883167",
    "longitude": "-90.0028936297859",
    "latitude": "30.038809922805473",
    "geocoded_column": {
      "latitude": "30.038809922805473",
      "longitude": "-90.0028936297859"
    }
  },
  {
    "service_request": "2023-1053158",
    "request_type": "Traffic Signals/Signs/Striping/Streetlights",
    "request_reason": "Street Light Outage/Malfunction",
    "date_created": "2023-12-01T14:59:01.000",
    "date_modified": "2023-12-01T14:59:02.000",
    "request_status": "Pending",
    "responsible_agency": "Department of Public Works",
    "final_address": "6326 Cartwright Dr",
    "address_councildis": "D",
    "status": "Assigned to Contractor",
    "contractor": "Legacy Professional Services",
    "rowid": "1053158",
    "final_x": "3678699.70517",
    "final_y": "556769.77929",
    "longitude": "-90.0760377952173",
    "latitude": "30.02500844581126",
    "geocoded_column": {
      "latitude": "30.02500844581126",
      "longitude": "-90.0760377952173"
    }
  },
  {
    "service_request": "2023-1053157",
    "request_type": "Traffic Signals/Signs/Striping/Streetlights",
    "request_reason": "Street Light Knocked Down/Leaning",
    "date_created": "2023-12-01T14:50:35.000",
    "date_modified": "2023-12-01T14:50:36.000",
    "request_status": "Pending",
    "responsible_agency": "Department of Public Works",
    "final_address": "8801 Belfast St",
    "address_councildis": "A",
    "status": "Pending",
    "contractor": "Legacy Professional Services",
    "rowid": "1053157",
    "final_x": "3663759.67104",
    "final_y": "534079.999813",
    "longitude": "-90.1240028358639",
    "latitude": "29.96306156295618",
    "geocoded_column": {
      "latitude": "29.96306156295618",
      "longitude": "-90.1240028358639"
    }
  },
  {
    "service_request": "2023-1053156",
    "request_type": "Trash/Recycling",
    "request_reason": "Request a Large Item Pick Up",
    "date_created": "2023-12-01T14:50:30.000",
    "date_modified": "2023-12-01T14:50:31.000",
    "case_close_date": "2022-11-29T18:00:00.000",
    "request_status": "Pending",
    "responsible_agency": "Department of Sanitation",
    "final_address": "2139 Pauger St",
    "address_councildis": "C",
    "status": "Assigned to Contractor",
    "contractor": "IV Waste",
    "rowid": "1053156",
    "final_x": "3683828.79925",
    "final_y": "537654.127304",
    "longitude": "-90.06050166237708",
    "latitude": "29.97229150764455",
    "geocoded_column": {
      "latitude": "29.97229150764455",
      "longitude": "-90.06050166237708"
    }
  },
  {
    "service_request": "2023-1053155",
    "request_type": "Traffic Signals/Signs/Striping/Streetlights",
    "request_reason": "Street Light Outage/Malfunction",
    "date_created": "2023-12-01T14:39:14.000",
    "date_modified": "2023-12-01T14:39:14.000",
    "request_status": "Pending",
    "responsible_agency": "Department of Public Works",
    "final_address": "2124 Third St",
    "address_councildis": "B",
    "status": "Assigned to Contractor",
    "contractor": "Legacy Professional Services",
    "rowid": "1053155",
    "final_x": "3675311.03861",
    "final_y": "524524.281532",
    "longitude": "-90.08785296509178",
    "latitude": "29.936446228798825",
    "geocoded_column": {
      "latitude": "29.936446228798825",
      "longitude": "-90.08785296509178"
    }
  },
  {
    "service_request": "2023-1053154",
    "request_type": "Roads/Drainage",
    "request_reason": "Damaged Sidewalk",
    "date_created": "2023-12-01T14:32:32.000",
    "date_modified": "2023-12-01T14:32:32.000",
    "request_status": "Pending",
    "responsible_agency": "Department of Public Works",
    "final_address": "2743 Gallinghouse St",
    "address_councildis": "C",
    "status": "Pending",
    "rowid": "1053154",
    "final_x": "3700015.36996",
    "final_y": "520720.056825",
    "longitude": "-90.00999967119817",
    "latitude": "29.925224451185628",
    "geocoded_column": {
      "latitude": "29.925224451185628",
      "longitude": "-90.00999967119817"
    }
  },
  {
    "service_request": "2023-1053153",
    "request_type": "Trash/Recycling",
    "request_reason": "MIssed Recycling Pick-Up",
    "date_created": "2023-12-01T14:21:29.000",
    "date_modified": "2023-12-01T14:21:29.000",
    "request_status": "Pending",
    "responsible_agency": "Department of Sanitation",
    "final_address": "1029 Bordeaux St",
    "address_councildis": "B",
    "status": "Assigned to Contractor",
    "contractor": "Richards Disposal",
    "rowid": "1053153",
    "final_x": "3669686.41953",
    "final_y": "519237.920311",
    "longitude": "-90.10578894083294",
    "latitude": "29.92207733403813",
    "geocoded_column": {
      "latitude": "29.92207733403813",
      "longitude": "-90.10578894083294"
    }
  },
  {
    "service_request": "2023-1053152",
    "request_type": "Trash/Recycling",
    "request_reason": "Request a Large Item Pick Up",
    "date_created": "2023-12-01T14:20:11.000",
    "date_modified": "2023-12-01T14:20:12.000",
    "request_status": "Pending",
    "responsible_agency": "Department of Sanitation",
    "final_address": "2901 Pauger St",
    "address_councildis": "D",
    "status": "Assigned to Contractor",
    "contractor": "IV Waste",
    "rowid": "1053152",
    "final_x": "3683577.9501",
    "final_y": "540294.352779",
    "longitude": "-90.06120131288793",
    "latitude": "29.979558866237568",
    "geocoded_column": {
      "latitude": "29.979558866237568",
      "longitude": "-90.06120131288793"
    }
  },
  {
    "service_request": "2023-1053151",
    "request_type": "Trash/Recycling",
    "request_reason": "Request a Large Item Pick Up",
    "date_created": "2023-12-01T14:19:05.000",
    "date_modified": "2023-12-01T14:19:05.000",
    "request_status": "Pending",
    "responsible_agency": "Department of Sanitation",
    "final_address": "4810 Cardenas Dr",
    "address_councildis": "E",
    "status": "Assigned to Contractor",
    "contractor": "Waste Pro",
    "rowid": "1053151",
    "final_x": "3713589.26507",
    "final_y": "556591.486106",
    "longitude": "-89.96580024127309",
    "latitude": "30.023419412474926",
    "geocoded_column": {
      "latitude": "30.023419412474926",
      "longitude": "-89.96580024127309"
    }
  },
  {
    "service_request": "2023-1053150",
    "request_type": "Trash/Recycling",
    "request_reason": "Order Recycling Cart",
    "date_created": "2023-12-01T14:14:55.000",
    "date_modified": "2023-12-01T14:14:56.000",
    "request_status": "Pending",
    "responsible_agency": "Department of Sanitation",
    "final_address": "122 Polk St",
    "address_councildis": "A",
    "status": "Pending",
    "rowid": "1053150",
    "final_x": "3666654.36385",
    "final_y": "547461.230801",
    "longitude": "-90.11441219714577",
    "latitude": "29.999771114903126",
    "geocoded_column": {
      "latitude": "29.999771114903126",
      "longitude": "-90.11441219714577"
    }
  },
  {
    "service_request": "2023-1053149",
    "request_type": "Abandoned Vehicles",
    "request_reason": "Abandoned/Junk Vehicles",
    "date_created": "2023-12-01T14:10:50.000",
    "date_modified": "2023-12-01T14:10:50.000",
    "request_status": "Pending",
    "responsible_agency": "Department of Public Works",
    "final_address": "700 BLK Majestic Pl",
    "address_councildis": "C",
    "status": "Inspected",
    "rowid": "1053149",
    "final_x": "3688276.05025",
    "final_y": "526239.83904",
    "longitude": "-90.04686124503901",
    "latitude": "29.94076956920865",
    "geocoded_column": {
      "latitude": "29.94076956920865",
      "longitude": "-90.04686124503901"
    }
  },
  {
    "service_request": "2023-1053148",
    "request_type": "Trash/Recycling",
    "request_reason": "Replace Trash Cart",
    "date_created": "2023-12-01T14:08:43.000",
    "date_modified": "2023-12-01T14:08:44.000",
    "request_status": "Pending",
    "responsible_agency": "Department of Sanitation",
    "final_address": "2721 Philip St",
    "address_councildis": "B",
    "status": "Assigned to Contractor",
    "contractor": "Richards Disposal",
    "rowid": "1053148",
    "final_x": "3674893.28315",
    "final_y": "526813.829502",
    "longitude": "-90.08909334719887",
    "latitude": "29.942754214785268",
    "geocoded_column": {
      "latitude": "29.942754214785268",
      "longitude": "-90.08909334719887"
    }
  },
  {
    "service_request": "2023-1053147",
    "request_type": "Trash/Recycling",
    "request_reason": "MIssed Recycling Pick-Up",
    "date_created": "2023-12-01T14:07:36.000",
    "date_modified": "2023-12-01T14:07:36.000",
    "request_status": "Pending",
    "responsible_agency": "Department of Sanitation",
    "final_address": "4519 Majestic Oaks Dr",
    "address_councildis": "D",
    "status": "Assigned to Contractor",
    "contractor": "Waste Pro",
    "rowid": "1053147",
    "final_x": "3697943.79971",
    "final_y": "553195.540631",
    "longitude": "-90.01535977415654",
    "latitude": "30.01458599418889",
    "geocoded_column": {
      "latitude": "30.01458599418889",
      "longitude": "-90.01535977415654"
    }
  },
  {
    "service_request": "2023-1053146",
    "request_type": "Abandoned Vehicles",
    "request_reason": "Abandoned/Junk Vehicles",
    "date_created": "2023-12-01T14:05:48.000",
    "date_modified": "2023-12-01T14:05:49.000",
    "request_status": "Pending",
    "responsible_agency": "Department of Public Works",
    "final_address": "2636 Palmyra St",
    "address_councildis": "B",
    "status": "Pending",
    "rowid": "1053146",
    "final_x": "3675048.0619",
    "final_y": "534280.243461",
    "longitude": "-90.08834854412282",
    "latitude": "29.963279746116076",
    "geocoded_column": {
      "latitude": "29.963279746116076",
      "longitude": "-90.08834854412282"
    }
  },
  {
    "service_request": "2023-1053145",
    "request_type": "Parks & Parkways",
    "request_reason": "Request Tree Service (Right of Way/Public Property)",
    "date_created": "2023-12-01T14:01:52.000",
    "date_modified": "2023-12-01T14:43:34.000",
    "case_close_date": "2023-12-01T08:43:34.000",
    "request_status": "Closed",
    "responsible_agency": "Department of Parks & Parkway",
    "final_address": "400 BLK Andrew Higgins Dr",
    "address_councildis": "B",
    "status": "Referred to External Agency",
    "rowid": "1053145",
    "final_x": "3681481.2994",
    "final_y": "526755.240569",
    "longitude": "-90.06829547631921",
    "latitude": "29.942394765865274",
    "geocoded_column": {
      "latitude": "29.942394765865274",
      "longitude": "-90.06829547631921"
    }
  },
  {
    "service_request": "2023-1053144",
    "request_type": "Abandoned Vehicles",
    "request_reason": "Vehicle Blocking Your Driveway",
    "date_created": "2023-12-01T14:01:35.000",
    "date_modified": "2023-12-01T14:01:35.000",
    "request_status": "Pending",
    "responsible_agency": "Department of Public Works",
    "final_address": "5100 BLK Eastern St",
    "address_councildis": "D",
    "status": "Pending",
    "rowid": "1053144",
    "final_x": "3687900.39614",
    "final_y": "552000.502742",
    "longitude": "-90.04713431359501",
    "latitude": "30.011613898362143",
    "geocoded_column": {
      "latitude": "30.011613898362143",
      "longitude": "-90.04713431359501"
    }
  },
  {
    "service_request": "2023-1053143",
    "request_type": "Trash/Recycling",
    "request_reason": "Repair Trash Cart",
    "date_created": "2023-12-01T13:59:45.000",
    "date_modified": "2023-12-01T13:59:46.000",
    "request_status": "Pending",
    "responsible_agency": "Department of Sanitation",
    "final_address": "4454 Plum Orchard St",
    "address_councildis": "E",
    "status": "Assigned to Contractor",
    "contractor": "Waste Pro",
    "rowid": "1053143",
    "final_x": "3701749.57169",
    "final_y": "553009.523543",
    "longitude": "-90.00334230303127",
    "latitude": "30.013953603949815",
    "geocoded_column": {
      "latitude": "30.013953603949815",
      "longitude": "-90.00334230303127"
    }
  },
  {
    "service_request": "2023-1053142",
    "request_type": "Trash/Recycling",
    "request_reason": "Request a Large Item Pick Up",
    "date_created": "2023-12-01T13:58:08.000",
    "date_modified": "2023-12-01T13:58:09.000",
    "request_status": "Pending",
    "responsible_agency": "Department of Sanitation",
    "final_address": "3609 Eagle St",
    "address_councildis": "A",
    "status": "Assigned to Contractor",
    "contractor": "Richards Disposal",
    "rowid": "1053142",
    "final_x": "3666001.70196",
    "final_y": "536409.696135",
    "longitude": "-90.1168446399399",
    "latitude": "29.969402203193802",
    "geocoded_column": {
      "latitude": "29.969402203193802",
      "longitude": "-90.1168446399399"
    }
  },
  {
    "service_request": "2023-1053141",
    "request_type": "Traffic Signals/Signs/Striping/Streetlights",
    "request_reason": "Street Light Outage/Malfunction",
    "date_created": "2023-12-01T13:49:24.000",
    "date_modified": "2023-12-01T13:49:25.000",
    "request_status": "Pending",
    "responsible_agency": "Department of Public Works",
    "final_address": "2150 Timoleon St",
    "address_councildis": "D",
    "status": "Assigned to Contractor",
    "contractor": "Legacy Professional Services",
    "rowid": "1053141",
    "final_x": "3683496.12309",
    "final_y": "551051.480533",
    "longitude": "-90.06108252002572",
    "latitude": "30.00913963233658",
    "geocoded_column": {
      "latitude": "30.00913963233658",
      "longitude": "-90.06108252002572"
    }
  },
  {
    "service_request": "2023-1053140",
    "request_type": "Property Maintenance",
    "request_reason": "Property Maintenance",
    "date_created": "2023-12-01T13:39:21.000",
    "date_modified": "2023-12-01T13:42:38.000",
    "request_status": "Pending",
    "responsible_agency": "Department of Code Enforcement",
    "final_address": "3439 Live Oak Pl",
    "address_councildis": "D",
    "status": "Pending",
    "rowid": "1053140",
    "final_x": "3681588.13071",
    "final_y": "544952.434959",
    "longitude": "-90.06732340660052",
    "latitude": "29.992427549480766",
    "geocoded_column": {
      "latitude": "29.992427549480766",
      "longitude": "-90.06732340660052"
    }
  },
  {
    "service_request": "2023-1053139",
    "request_type": "Roads/Drainage",
    "request_reason": "Catch Basin - Clogged",
    "date_created": "2023-12-01T13:36:27.000",
    "date_modified": "2023-12-01T13:36:28.000",
    "request_status": "Pending",
    "responsible_agency": "Department of Public Works",
    "final_address": "82 N Wren St",
    "address_councildis": "D",
    "status": "Pending",
    "rowid": "1053139",
    "final_x": "3672993.71963",
    "final_y": "556444.75369",
    "longitude": "-90.09407894307815",
    "latitude": "30.024285662963226",
    "geocoded_column": {
      "latitude": "30.024285662963226",
      "longitude": "-90.09407894307815"
    }
  },
  {
    "service_request": "2023-1053138",
    "request_type": "Traffic Signals/Signs/Striping/Streetlights",
    "request_reason": "Street Light Outage/Malfunction",
    "date_created": "2023-12-01T13:34:59.000",
    "date_modified": "2023-12-01T13:35:00.000",
    "request_status": "Pending",
    "responsible_agency": "Department of Public Works",
    "final_address": "6125 Pratt Dr",
    "address_councildis": "D",
    "status": "Assigned to Contractor",
    "contractor": "Legacy Professional Services",
    "rowid": "1053138",
    "final_x": "3680255.90651",
    "final_y": "555209.354649",
    "longitude": "-90.07117476034962",
    "latitude": "30.02067080497346",
    "geocoded_column": {
      "latitude": "30.02067080497346",
      "longitude": "-90.07117476034962"
    }
  },
  {
    "service_request": "2023-1053137",
    "request_type": "Abandoned Vehicles",
    "request_reason": "Abandoned/Junk Vehicles",
    "date_created": "2023-12-01T13:28:02.000",
    "date_modified": "2023-12-01T13:30:14.000",
    "request_status": "Pending",
    "responsible_agency": "Department of Public Works",
    "final_address": "1443 Constance St",
    "address_councildis": "B",
    "status": "Pending",
    "rowid": "1053137",
    "final_x": "3680606.34216",
    "final_y": "524080.034172",
    "longitude": "-90.07115095050648",
    "latitude": "29.935065368650445",
    "geocoded_column": {
      "latitude": "29.935065368650445",
      "longitude": "-90.07115095050648"
    }
  },
  {
    "service_request": "2023-1053136",
    "request_type": "Roads/Drainage",
    "request_reason": "Damaged Sidewalk",
    "date_created": "2023-12-01T13:27:32.000",
    "date_modified": "2023-12-01T13:27:32.000",
    "request_status": "Pending",
    "responsible_agency": "Department of Public Works",
    "final_address": "5336 Dryades St",
    "address_councildis": "B",
    "status": "Pending",
    "rowid": "1053136",
    "final_x": "3667609.66049",
    "final_y": "521793.283898",
    "longitude": "-90.11225846699281",
    "latitude": "29.929164787498774",
    "geocoded_column": {
      "latitude": "29.929164787498774",
      "longitude": "-90.11225846699281"
    }
  },
  {
    "service_request": "2023-1053135",
    "request_type": "Roads/Drainage",
    "request_reason": "Pothole",
    "date_created": "2023-12-01T13:25:50.000",
    "date_modified": "2023-12-01T13:25:50.000",
    "request_status": "Pending",
    "responsible_agency": "Department of Public Works",
    "final_address": "6110 Patton St",
    "address_councildis": "A",
    "status": "Pending",
    "rowid": "1053135",
    "final_x": "3663764.07514",
    "final_y": "518800.228023",
    "longitude": "-90.12449797305516",
    "latitude": "29.9210469455179",
    "geocoded_column": {
      "latitude": "29.9210469455179",
      "longitude": "-90.12449797305516"
    }
  },
  {
    "service_request": "2023-1053134",
    "request_type": "Roads/Drainage",
    "request_reason": "Pothole",
    "date_created": "2023-12-01T13:17:58.000",
    "date_modified": "2023-12-01T13:18:53.000",
    "case_close_date": "2023-12-01T07:18:53.000",
    "request_status": "Closed",
    "responsible_agency": "Department of Public Works",
    "final_address": "1724 Constantinople St",
    "address_councildis": "B",
    "status": "Resolved",
    "rowid": "1053134",
    "final_x": "3672212.09447",
    "final_y": "521593.964409",
    "longitude": "-90.09773622577097",
    "latitude": "29.928481059427604",
    "geocoded_column": {
      "latitude": "29.928481059427604",
      "longitude": "-90.09773622577097"
    }
  },
  {
    "service_request": "2023-1053133",
    "request_type": "Trash/Recycling",
    "request_reason": "Repair Trash Cart",
    "date_created": "2023-12-01T13:16:53.000",
    "date_modified": "2023-12-01T13:16:54.000",
    "request_status": "Pending",
    "responsible_agency": "Department of Sanitation",
    "final_address": "4918 S Robertson St",
    "address_councildis": "B",
    "status": "Assigned to Contractor",
    "contractor": "Richards Disposal",
    "rowid": "1053133",
    "final_x": "3668954.38836",
    "final_y": "524230.761788",
    "longitude": "-90.10793111834928",
    "latitude": "29.935827599405272",
    "geocoded_column": {
      "latitude": "29.935827599405272",
      "longitude": "-90.10793111834928"
    }
  },
  {
    "service_request": "2023-1053132",
    "request_type": "Trash/Recycling",
    "request_reason": "Repair Trash Cart",
    "date_created": "2023-12-01T13:14:31.000",
    "date_modified": "2023-12-01T13:15:27.000",
    "request_status": "Closed",
    "responsible_agency": "Department of Sanitation",
    "final_address": "4918 S Robertson St",
    "address_councildis": "B",
    "status": "Resolved",
    "rowid": "1053132",
    "final_x": "3668954.38836",
    "final_y": "524230.761788",
    "longitude": "-90.10793111834928",
    "latitude": "29.935827599405272",
    "geocoded_column": {
      "latitude": "29.935827599405272",
      "longitude": "-90.10793111834928"
    }
  },
  {
    "service_request": "2023-1053131",
    "request_type": "Traffic Signals/Signs/Striping/Streetlights",
    "request_reason": "Street Light Outage/Malfunction",
    "date_created": "2023-12-01T13:12:55.000",
    "date_modified": "2023-12-01T13:12:55.000",
    "request_status": "Pending",
    "responsible_agency": "Department of Public Works",
    "final_address": "3500 BLK Royal St",
    "address_councildis": "C",
    "status": "Assigned to Contractor",
    "contractor": "Legacy Professional Services",
    "rowid": "1053131",
    "final_x": "3690220.48534",
    "final_y": "534107.278358",
    "longitude": "-90.04044208073582",
    "latitude": "29.962342142768374",
    "geocoded_column": {
      "latitude": "29.962342142768374",
      "longitude": "-90.04044208073582"
    }
  },
  {
    "service_request": "2023-1053130",
    "request_type": "Trash/Recycling",
    "request_reason": "Order Trash Cart",
    "date_created": "2023-12-01T13:12:34.000",
    "date_modified": "2023-12-01T13:12:35.000",
    "request_status": "Pending",
    "responsible_agency": "Department of Sanitation",
    "final_address": "8019 Lehigh St",
    "address_councildis": "E",
    "status": "Assigned to Contractor",
    "contractor": "Waste Pro",
    "rowid": "1053130",
    "final_x": "3709777.80261",
    "final_y": "567005.096996",
    "longitude": "-89.97745418468875",
    "latitude": "30.052177223755034",
    "geocoded_column": {
      "latitude": "30.052177223755034",
      "longitude": "-89.97745418468875"
    }
  },
  {
    "service_request": "2023-1053129",
    "request_type": "Trash/Recycling",
    "request_reason": "Missed Trash Pick-Up",
    "date_created": "2023-12-01T13:09:38.000",
    "date_modified": "2023-12-01T13:09:38.000",
    "request_status": "Pending",
    "responsible_agency": "Department of Sanitation",
    "final_address": "5614 N Dorgenois St",
    "address_councildis": "E",
    "status": "Assigned to Contractor",
    "contractor": "Waste Pro",
    "rowid": "1053129",
    "final_x": "3699586.97104",
    "final_y": "538904.671498",
    "longitude": "-90.0106893797219",
    "latitude": "29.975239326176325",
    "geocoded_column": {
      "latitude": "29.975239326176325",
      "longitude": "-90.0106893797219"
    }
  },
  {
    "service_request": "2023-1053128",
    "request_type": "Roads/Drainage",
    "request_reason": "Pothole",
    "date_created": "2023-12-01T13:09:01.000",
    "date_modified": "2023-12-01T13:09:21.000",
    "case_close_date": "2023-12-01T07:09:21.000",
    "request_status": "Closed",
    "responsible_agency": "Department of Public Works",
    "final_address": "1722 Foucher St",
    "address_councildis": "B",
    "status": "Resolved",
    "rowid": "1053128",
    "final_x": "3673263.74612",
    "final_y": "521833.881722",
    "longitude": "-90.0944081923764",
    "latitude": "29.92910953067496",
    "geocoded_column": {
      "latitude": "29.92910953067496",
      "longitude": "-90.0944081923764"
    }
  },
  {
    "service_request": "2023-1053127",
    "request_type": "Trash/Recycling",
    "request_reason": "MIssed Recycling Pick-Up",
    "date_created": "2023-12-01T13:06:50.000",
    "date_modified": "2023-12-01T13:06:50.000",
    "request_status": "Pending",
    "responsible_agency": "Department of Sanitation",
    "final_address": "2 Blanc Pl",
    "address_councildis": "B",
    "status": "Assigned to Contractor",
    "contractor": "Richards Disposal",
    "rowid": "1053127",
    "final_x": "3668055.16647",
    "final_y": "520834.185785",
    "longitude": "-90.11088438708313",
    "latitude": "29.926514510633858",
    "geocoded_column": {
      "latitude": "29.926514510633858",
      "longitude": "-90.11088438708313"
    }
  },
  {
    "service_request": "2023-1053126",
    "request_type": "Roads/Drainage",
    "request_reason": "Pothole",
    "date_created": "2023-12-01T13:06:36.000",
    "date_modified": "2023-12-01T13:07:22.000",
    "case_close_date": "2023-12-01T07:07:22.000",
    "request_status": "Closed",
    "responsible_agency": "Department of Public Works",
    "final_address": "1617 Foucher St",
    "address_councildis": "B",
    "status": "Resolved",
    "rowid": "1053126",
    "final_x": "3673500.12321",
    "final_y": "521436.794297",
    "longitude": "-90.09367555628937",
    "latitude": "29.928010638568235",
    "geocoded_column": {
      "latitude": "29.928010638568235",
      "longitude": "-90.09367555628937"
    }
  },
  {
    "service_request": "2023-1053125",
    "request_type": "Trash/Recycling",
    "request_reason": "Missed Trash Pick-Up",
    "date_created": "2023-12-01T13:05:39.000",
    "date_modified": "2023-12-01T13:05:40.000",
    "request_status": "Pending",
    "responsible_agency": "Department of Sanitation",
    "final_address": "4032 Martin Luther King, Jr. Blvd",
    "address_councildis": "B",
    "status": "Assigned to Contractor",
    "contractor": "Richards Disposal",
    "rowid": "1053125",
    "final_x": "3671488.83169",
    "final_y": "530287.967937",
    "longitude": "-90.09972394273144",
    "latitude": "29.952408167556136",
    "geocoded_column": {
      "latitude": "29.952408167556136",
      "longitude": "-90.09972394273144"
    }
  },
  {
    "service_request": "2023-1053124",
    "request_type": "Trash/Recycling",
    "request_reason": "Missed Trash Pick-Up",
    "date_created": "2023-12-01T13:05:10.000",
    "date_modified": "2023-12-01T13:05:11.000",
    "request_status": "Pending",
    "responsible_agency": "Department of Sanitation",
    "final_address": "2314 Delery St",
    "address_councildis": "E",
    "status": "Assigned to Contractor",
    "contractor": "Waste Pro",
    "rowid": "1053124",
    "final_x": "3702208.70065",
    "final_y": "537434.866696",
    "longitude": "-90.00246323893724",
    "latitude": "29.971114425544155",
    "geocoded_column": {
      "latitude": "29.971114425544155",
      "longitude": "-90.00246323893724"
    }
  },
  {
    "service_request": "2023-1053123",
    "request_type": "Traffic Signals/Signs/Striping/Streetlights",
    "request_reason": "Traffic Sign Missing/Damaged",
    "date_created": "2023-12-01T13:02:36.000",
    "date_modified": "2023-12-01T13:02:48.000",
    "request_status": "Pending",
    "responsible_agency": "Department of Public Works",
    "final_address": "SOCRATES ST & CASA CALVO ST",
    "address_councildis": "C",
    "status": "Pending",
    "rowid": "1053123",
    "final_x": "3692061.6",
    "final_y": "526198.58",
    "longitude": "-90.03491112899744",
    "latitude": "29.940538712980985",
    "geocoded_column": {
      "latitude": "29.940538712980985",
      "longitude": "-90.03491112899744"
    }
  },
  {
    "service_request": "2023-1053122",
    "request_type": "Abandoned Vehicles",
    "request_reason": "Abandoned/Junk Vehicles",
    "date_created": "2023-12-01T12:53:33.000",
    "date_modified": "2023-12-01T12:53:33.000",
    "request_status": "Pending",
    "responsible_agency": "Department of Public Works",
    "final_address": "4439 De Montluzin St",
    "address_councildis": "D",
    "status": "Pending",
    "rowid": "1053122",
    "final_x": "3687295.56316",
    "final_y": "549243.771667",
    "longitude": "-90.04914284089209",
    "latitude": "30.004052548641276",
    "geocoded_column": {
      "latitude": "30.004052548641276",
      "longitude": "-90.04914284089209"
    }
  },
  {
    "service_request": "2023-1053121",
    "request_type": "Traffic Signals/Signs/Striping/Streetlights",
    "request_reason": "Street Light Outage/Malfunction",
    "date_created": "2023-12-01T12:47:06.000",
    "date_modified": "2023-12-01T12:47:07.000",
    "request_status": "Pending",
    "responsible_agency": "Department of Public Works",
    "final_address": "7002 Boston Dr",
    "address_councildis": "E",
    "status": "Assigned to Contractor",
    "contractor": "Legacy Professional Services",
    "rowid": "1053121",
    "final_x": "3706439.3331",
    "final_y": "560529.845342",
    "longitude": "-89.98824625315035",
    "latitude": "30.034481055017537",
    "geocoded_column": {
      "latitude": "30.034481055017537",
      "longitude": "-89.98824625315035"
    }
  },
  {
    "service_request": "2023-1053120",
    "request_type": "Parks & Parkways",
    "request_reason": "Request Tree Service (Right of Way/Public Property)",
    "date_created": "2023-12-01T12:45:25.000",
    "date_modified": "2023-12-01T12:45:26.000",
    "request_status": "Pending",
    "responsible_agency": "Department of Parks & Parkway",
    "final_address": "6401 General Haig St",
    "address_councildis": "A",
    "status": "Pending",
    "rowid": "1053120",
    "final_x": "3670866.9858",
    "final_y": "549933.476116",
    "longitude": "-90.10102032340279",
    "latitude": "30.00644503294718",
    "geocoded_column": {
      "latitude": "30.00644503294718",
      "longitude": "-90.10102032340279"
    }
  },
  {
    "service_request": "2023-1053119",
    "request_type": "Trash/Recycling",
    "request_reason": "Request a Large Item Pick Up",
    "date_created": "2023-12-01T12:44:37.000",
    "date_modified": "2023-12-01T12:44:37.000",
    "request_status": "Pending",
    "responsible_agency": "Department of Sanitation",
    "final_address": "4829 America St",
    "address_councildis": "E",
    "status": "Assigned to Contractor",
    "contractor": "Waste Pro",
    "rowid": "1053119",
    "final_x": "3699775.63082",
    "final_y": "554972.12092",
    "longitude": "-90.00950727111277",
    "latitude": "30.019412852636005",
    "geocoded_column": {
      "latitude": "30.019412852636005",
      "longitude": "-90.00950727111277"
    }
  },
  {
    "service_request": "2023-1053118",
    "request_type": "Trash/Recycling",
    "request_reason": "Illegal Dumping",
    "date_created": "2023-12-01T12:36:45.000",
    "date_modified": "2023-12-01T12:36:45.000",
    "request_status": "Pending",
    "responsible_agency": "Department of Sanitation",
    "final_address": "2200 BLK Allen Toussaint Blvd",
    "address_councildis": "D",
    "status": "Pending",
    "rowid": "1053118",
    "final_x": "3684037.38714",
    "final_y": "555754.657963",
    "longitude": "-90.05920726148409",
    "latitude": "30.022055114183743",
    "geocoded_column": {
      "latitude": "30.022055114183743",
      "longitude": "-90.05920726148409"
    }
  },
  {
    "service_request": "2023-1053117",
    "request_type": "Roads/Drainage",
    "request_reason": "Catch Basin - Clogged",
    "date_created": "2023-12-01T12:34:56.000",
    "date_modified": "2023-12-01T12:34:57.000",
    "request_status": "Pending",
    "responsible_agency": "Department of Public Works",
    "final_address": "1744 St Ferdinand St",
    "address_councildis": "D",
    "status": "Pending",
    "rowid": "1053117",
    "final_x": "3688346.22051",
    "final_y": "538904.397962",
    "longitude": "-90.04619055663395",
    "latitude": "29.975590558712646",
    "geocoded_column": {
      "latitude": "29.975590558712646",
      "longitude": "-90.04619055663395"
    }
  },
  {
    "service_request": "2023-1053116",
    "request_type": "Roads/Drainage",
    "request_reason": "Street Subsidence (Sinking)",
    "date_created": "2023-12-01T12:34:22.000",
    "date_modified": "2023-12-01T12:34:22.000",
    "request_status": "Pending",
    "responsible_agency": "Department of Public Works",
    "final_address": "1700 BLK Burbank Dr",
    "address_councildis": "D",
    "status": "Pending",
    "rowid": "1053116",
    "final_x": "3679753.28908",
    "final_y": "554437.501477",
    "longitude": "-90.07278971176224",
    "latitude": "30.018563703152267",
    "geocoded_column": {
      "latitude": "30.018563703152267",
      "longitude": "-90.07278971176224"
    }
  },
  {
    "service_request": "2023-1053115",
    "request_type": "Traffic Signals/Signs/Striping/Streetlights",
    "request_reason": "Street Name Sign Damaged or Missing",
    "date_created": "2023-12-01T12:24:10.000",
    "date_modified": "2023-12-01T12:24:11.000",
    "request_status": "Pending",
    "responsible_agency": "Department of Public Works",
    "final_address": "FLAMINGO ST & ROBERT E LEE BLVD",
    "address_councildis": "D",
    "status": "Pending",
    "rowid": "1053115",
    "final_x": "3674671.6",
    "final_y": "554659.58",
    "longitude": "-90.08883840410209",
    "latitude": "30.01932707564462",
    "geocoded_column": {
      "latitude": "30.01932707564462",
      "longitude": "-90.08883840410209"
    }
  },
  {
    "service_request": "2023-1053114",
    "request_type": "Roads/Drainage",
    "request_reason": "Road Shoulder Repair",
    "date_created": "2023-12-01T12:22:35.000",
    "date_modified": "2023-12-01T12:22:35.000",
    "request_status": "Pending",
    "responsible_agency": "Department of Public Works",
    "final_address": "5216 Atlanta St",
    "address_councildis": "B",
    "status": "Pending",
    "rowid": "1053114",
    "final_x": "3667950.65569",
    "final_y": "520683.950457",
    "longitude": "-90.11121935799825",
    "latitude": "29.9261044765486",
    "geocoded_column": {
      "latitude": "29.9261044765486",
      "longitude": "-90.11121935799825"
    }
  },
  {
    "service_request": "2023-1053113",
    "request_type": "Trash/Recycling",
    "request_reason": "Repair Recycling Cart",
    "date_created": "2023-12-01T12:17:58.000",
    "date_modified": "2023-12-01T12:17:58.000",
    "request_status": "Pending",
    "responsible_agency": "Department of Sanitation",
    "final_address": "312 Pine St",
    "address_councildis": "A",
    "status": "Pending",
    "rowid": "1053113",
    "final_x": "3661643.78067",
    "final_y": "523332.734075",
    "longitude": "-90.13104070406916",
    "latitude": "29.933571257320214",
    "geocoded_column": {
      "latitude": "29.933571257320214",
      "longitude": "-90.13104070406916"
    }
  },
  {
    "service_request": "2023-1053112",
    "request_type": "Trash/Recycling",
    "request_reason": "Illegal Dumping",
    "date_created": "2023-12-01T12:17:39.000",
    "date_modified": "2023-12-01T12:17:39.000",
    "request_status": "Pending",
    "responsible_agency": "Department of Sanitation",
    "final_address": "2142 St Maurice Ave",
    "address_councildis": "E",
    "status": "Pending",
    "rowid": "1053112",
    "final_x": "3701360.03274",
    "final_y": "537063.622344",
    "longitude": "-90.00515701764617",
    "latitude": "29.970120714266514",
    "geocoded_column": {
      "latitude": "29.970120714266514",
      "longitude": "-90.00515701764617"
    }
  },
  {
    "service_request": "2023-1053111",
    "request_type": "Trash/Recycling",
    "request_reason": "Illegal Dumping",
    "date_created": "2023-12-01T12:15:45.000",
    "date_modified": "2023-12-01T12:15:45.000",
    "request_status": "Pending",
    "responsible_agency": "Department of Sanitation",
    "final_address": "3918 N Roman St",
    "address_councildis": "D",
    "status": "Pending",
    "rowid": "1053111",
    "final_x": "3692287.00489",
    "final_y": "537907.023369",
    "longitude": "-90.03378024794765",
    "latitude": "29.972725824384053",
    "geocoded_column": {
      "latitude": "29.972725824384053",
      "longitude": "-90.03378024794765"
    }
  },
  {
    "service_request": "2023-1053110",
    "request_type": "Trash/Recycling",
    "request_reason": "Order Trash Cart",
    "date_created": "2023-12-01T12:13:29.000",
    "date_modified": "2023-12-01T12:13:30.000",
    "request_status": "Pending",
    "responsible_agency": "Department of Sanitation",
    "final_address": "1721 Pleasure St",
    "address_councildis": "D",
    "status": "Assigned to Contractor",
    "contractor": "IV Waste",
    "rowid": "1053110",
    "final_x": "3680693.80917",
    "final_y": "544895.674127",
    "longitude": "-90.07015037274664",
    "latitude": "29.99229861655029",
    "geocoded_column": {
      "latitude": "29.99229861655029",
      "longitude": "-90.07015037274664"
    }
  },
  {
    "service_request": "2023-1053109",
    "request_type": "Trash/Recycling",
    "request_reason": "Missed Trash Pick-Up",
    "date_created": "2023-12-01T12:08:35.000",
    "date_modified": "2023-12-01T12:08:35.000",
    "request_status": "Pending",
    "responsible_agency": "Department of Sanitation",
    "final_address": "4841 Flake Ave",
    "address_councildis": "E",
    "status": "Assigned to Contractor",
    "contractor": "Waste Pro",
    "rowid": "1053109",
    "final_x": "3706078.38155",
    "final_y": "556107.664922",
    "longitude": "-89.98955078916997",
    "latitude": "30.022333431370313",
    "geocoded_column": {
      "latitude": "30.022333431370313",
      "longitude": "-89.98955078916997"
    }
  },
  {
    "service_request": "2023-1053108",
    "request_type": "Property Maintenance",
    "request_reason": "Property Maintenance",
    "date_created": "2023-12-01T12:06:12.000",
    "date_modified": "2023-12-01T12:06:33.000",
    "request_status": "Pending",
    "responsible_agency": "Department of Code Enforcement",
    "final_address": "5501 Bundy Rd",
    "address_councildis": "E",
    "status": "Pending",
    "rowid": "1053108",
    "final_x": "3709937.84766",
    "final_y": "558061.934683",
    "longitude": "-89.97728285709977",
    "latitude": "30.027581888538652",
    "geocoded_column": {
      "latitude": "30.027581888538652",
      "longitude": "-89.97728285709977"
    }
  },
  {
    "service_request": "2023-1053107",
    "request_type": "Abandoned Vehicles",
    "request_reason": "Abandoned/Junk Vehicles",
    "date_created": "2023-12-01T12:03:28.000",
    "date_modified": "2023-12-01T12:03:28.000",
    "request_status": "Pending",
    "responsible_agency": "Department of Public Works",
    "final_address": "5516 S Robertson St",
    "address_councildis": "A",
    "status": "Pending",
    "rowid": "1053107",
    "final_x": "3667488.18477",
    "final_y": "524354.552508",
    "longitude": "-90.11255580151756",
    "latitude": "29.93621101795264",
    "geocoded_column": {
      "latitude": "29.93621101795264",
      "longitude": "-90.11255580151756"
    }
  },
  {
    "service_request": "2023-1053106",
    "request_type": "Property Maintenance",
    "request_reason": "Property Maintenance",
    "date_created": "2023-12-01T12:01:21.000",
    "date_modified": "2023-12-01T12:01:21.000",
    "request_status": "Pending",
    "responsible_agency": "Department of Code Enforcement",
    "final_address": "3000 Republic St",
    "address_councildis": "D",
    "status": "Pending",
    "rowid": "1053106",
    "final_x": "3680598.02031",
    "final_y": "543388.339342",
    "longitude": "-90.07050542593687",
    "latitude": "29.988156879929004",
    "geocoded_column": {
      "latitude": "29.988156879929004",
      "longitude": "-90.07050542593687"
    }
  },
  {
    "service_request": "2023-1053105",
    "request_type": "Traffic Signals/Signs/Striping/Streetlights",
    "request_reason": "Street Light Outage/Malfunction",
    "date_created": "2023-12-01T11:58:41.000",
    "date_modified": "2023-12-01T11:58:42.000",
    "request_status": "Pending",
    "responsible_agency": "Department of Public Works",
    "final_address": "1100 BLK Melpomene St",
    "address_councildis": "B",
    "status": "Assigned to Contractor",
    "contractor": "Legacy Professional Services",
    "rowid": "1053105",
    "final_x": "3680261.29659",
    "final_y": "524932.722888",
    "longitude": "-90.07221062915013",
    "latitude": "29.937420426949323",
    "geocoded_column": {
      "latitude": "29.937420426949323",
      "longitude": "-90.07221062915013"
    }
  },
  {
    "service_request": "2023-1053104",
    "request_type": "Property Maintenance",
    "request_reason": "Property Maintenance",
    "date_created": "2023-12-01T11:58:39.000",
    "date_modified": "2023-12-01T11:58:39.000",
    "request_status": "Pending",
    "responsible_agency": "Department of Code Enforcement",
    "final_address": "2610 Gentilly Blvd",
    "address_councildis": "D",
    "status": "Pending",
    "rowid": "1053104",
    "final_x": "3682145.92405",
    "final_y": "545393.024272",
    "longitude": "-90.06554604707374",
    "latitude": "29.993622056221394",
    "geocoded_column": {
      "latitude": "29.993622056221394",
      "longitude": "-90.06554604707374"
    }
  },
  {
    "service_request": "2023-1053103",
    "request_type": "Traffic Signals/Signs/Striping/Streetlights",
    "request_reason": "Street Light Outage/Malfunction",
    "date_created": "2023-12-01T11:56:04.000",
    "date_modified": "2023-12-01T11:56:04.000",
    "request_status": "Pending",
    "responsible_agency": "Department of Public Works",
    "final_address": "1200 BLK Cambronne St",
    "address_councildis": "A",
    "status": "Assigned to Contractor",
    "contractor": "Legacy Professional Services",
    "rowid": "1053103",
    "final_x": "3661284.28402",
    "final_y": "529229.064689",
    "longitude": "-90.13198045926522",
    "latitude": "29.949794662147497",
    "geocoded_column": {
      "latitude": "29.949794662147497",
      "longitude": "-90.13198045926522"
    }
  },
  {
    "service_request": "2023-1053101",
    "request_type": "Traffic Signals/Signs/Striping/Streetlights",
    "request_reason": "Street Light Outage/Malfunction",
    "date_created": "2023-12-01T11:52:55.000",
    "date_modified": "2023-12-01T11:52:56.000",
    "request_status": "Pending",
    "responsible_agency": "Department of Public Works",
    "final_address": "1100 BLK Melpomene St",
    "address_councildis": "B",
    "status": "Assigned to Contractor",
    "contractor": "Legacy Professional Services",
    "rowid": "1053101",
    "final_x": "3680261.29659",
    "final_y": "524932.722888",
    "longitude": "-90.07221062915013",
    "latitude": "29.937420426949323",
    "geocoded_column": {
      "latitude": "29.937420426949323",
      "longitude": "-90.07221062915013"
    }
  },
  {
    "service_request": "2023-1053100",
    "request_type": "Trash/Recycling",
    "request_reason": "Request a Large Item Pick Up",
    "date_created": "2023-12-01T11:52:55.000",
    "date_modified": "2023-12-01T11:52:55.000",
    "request_status": "Pending",
    "responsible_agency": "Department of Sanitation",
    "final_address": "5773 W Louis Prima Dr",
    "address_councildis": "E",
    "status": "Assigned to Contractor",
    "contractor": "Waste Pro",
    "rowid": "1053100",
    "final_x": "3715839.41477",
    "final_y": "562307.661087",
    "longitude": "-89.958473603501",
    "latitude": "30.039062571069454",
    "geocoded_column": {
      "latitude": "30.039062571069454",
      "longitude": "-89.958473603501"
    }
  },
  {
    "service_request": "2023-1053099",
    "request_type": "Trash/Recycling",
    "request_reason": "Request a Large Item Pick Up",
    "date_created": "2023-12-01T11:43:44.000",
    "date_modified": "2023-12-01T11:43:45.000",
    "request_status": "Pending",
    "responsible_agency": "Department of Sanitation",
    "final_address": "4915 Bonita Dr",
    "address_councildis": "E",
    "status": "Assigned to Contractor",
    "contractor": "Waste Pro",
    "rowid": "1053099",
    "final_x": "3704451.08286",
    "final_y": "556133.749402",
    "longitude": "-89.99469165275143",
    "latitude": "30.022457527445784",
    "geocoded_column": {
      "latitude": "30.022457527445784",
      "longitude": "-89.99469165275143"
    }
  },
  {
    "service_request": "2023-1053098",
    "request_type": "Trash/Recycling",
    "request_reason": "Illegal Dumping",
    "date_created": "2023-12-01T11:42:08.000",
    "date_modified": "2023-12-01T11:42:08.000",
    "request_status": "Pending",
    "responsible_agency": "Department of Sanitation",
    "final_address": "6112 Todd Pl",
    "address_councildis": "E",
    "status": "Pending",
    "rowid": "1053098",
    "final_x": "3699440.80426",
    "final_y": "532646.273476",
    "longitude": "-90.011379046051",
    "latitude": "29.958035615330015",
    "geocoded_column": {
      "latitude": "29.958035615330015",
      "longitude": "-90.011379046051"
    }
  },
  {
    "service_request": "2023-1053097",
    "request_type": "Trash/Recycling",
    "request_reason": "Request a Large Item Pick Up",
    "date_created": "2023-12-01T11:35:02.000",
    "date_modified": "2023-12-01T11:35:02.000",
    "request_status": "Pending",
    "responsible_agency": "Department of Sanitation",
    "final_address": "2926 Mandeville St",
    "address_councildis": "D",
    "status": "Assigned to Contractor",
    "contractor": "IV Waste",
    "rowid": "1053097",
    "final_x": "3685146.93359",
    "final_y": "543630.752078",
    "longitude": "-90.05612838444642",
    "latitude": "29.988684795207845",
    "geocoded_column": {
      "latitude": "29.988684795207845",
      "longitude": "-90.05612838444642"
    }
  },
  {
    "service_request": "2023-1053096",
    "request_type": "Roads/Drainage",
    "request_reason": "Street Subsidence (Sinking)",
    "date_created": "2023-12-01T11:34:12.000",
    "date_modified": "2023-12-01T11:34:13.000",
    "request_status": "Pending",
    "responsible_agency": "Department of Public Works",
    "final_address": "2800 BLK Annunciation St",
    "address_councildis": "B",
    "status": "Pending",
    "rowid": "1053096",
    "final_x": "3677443.80518",
    "final_y": "519767.487484",
    "longitude": "-90.08128383138659",
    "latitude": "29.923302680705124",
    "geocoded_column": {
      "latitude": "29.923302680705124",
      "longitude": "-90.08128383138659"
    }
  },
  {
    "service_request": "2023-1053095",
    "request_type": "Trash/Recycling",
    "request_reason": "Order Trash Cart",
    "date_created": "2023-12-01T11:33:32.000",
    "date_modified": "2023-12-01T11:33:32.000",
    "request_status": "Pending",
    "responsible_agency": "Department of Sanitation",
    "final_address": "2926 Mandeville St",
    "address_councildis": "D",
    "status": "Assigned to Contractor",
    "contractor": "IV Waste",
    "rowid": "1053095",
    "final_x": "3685146.93359",
    "final_y": "543630.752078",
    "longitude": "-90.05612838444642",
    "latitude": "29.988684795207845",
    "geocoded_column": {
      "latitude": "29.988684795207845",
      "longitude": "-90.05612838444642"
    }
  },
  {
    "service_request": "2023-1053094",
    "request_type": "Abandoned Vehicles",
    "request_reason": "Abandoned/Junk Vehicles",
    "date_created": "2023-12-01T11:30:49.000",
    "date_modified": "2023-12-01T11:30:49.000",
    "request_status": "Pending",
    "responsible_agency": "Department of Public Works",
    "final_address": "ANNUNCIATION ST & WASHINGTON AVE",
    "address_councildis": "B",
    "status": "Pending",
    "rowid": "1053094",
    "final_x": "3677654.7",
    "final_y": "519913.68",
    "longitude": "-90.08061307073761",
    "latitude": "29.923698324636113",
    "geocoded_column": {
      "latitude": "29.923698324636113",
      "longitude": "-90.08061307073761"
    }
  },
  {
    "service_request": "2023-1053093",
    "request_type": "Trash/Recycling",
    "request_reason": "Missed Trash Pick-Up",
    "date_created": "2023-12-01T11:28:38.000",
    "date_modified": "2023-12-01T16:02:10.000",
    "case_close_date": "2023-12-01T10:02:10.000",
    "request_status": "Closed",
    "responsible_agency": "Department of Sanitation",
    "final_address": "7830 Branch Dr",
    "address_councildis": "E",
    "status": "Assigned to Contractor",
    "contractor": "Waste Pro",
    "contractor_action": "Completed",
    "rowid": "1053093",
    "final_x": "3714186.87979",
    "final_y": "569350.087462",
    "longitude": "-89.96342994874716",
    "latitude": "30.05848079369851",
    "geocoded_column": {
      "latitude": "30.05848079369851",
      "longitude": "-89.96342994874716"
    }
  },
  {
    "service_request": "2023-1053092",
    "request_type": "Roads/Drainage",
    "request_reason": "Pothole",
    "date_created": "2023-12-01T11:22:06.000",
    "date_modified": "2023-12-01T11:22:06.000",
    "request_status": "Pending",
    "responsible_agency": "Department of Public Works",
    "final_address": "831 Dumaine St",
    "address_councildis": "C",
    "status": "Pending",
    "rowid": "1053092",
    "final_x": "3682527.21263",
    "final_y": "533439.383748",
    "longitude": "-90.0647596582885",
    "latitude": "29.960742105092258",
    "geocoded_column": {
      "latitude": "29.960742105092258",
      "longitude": "-90.0647596582885"
    }
  },
  {
    "service_request": "2023-1053091",
    "request_type": "Roads/Drainage",
    "request_reason": "Pothole",
    "date_created": "2023-12-01T11:21:28.000",
    "date_modified": "2023-12-01T11:21:28.000",
    "request_status": "Pending",
    "responsible_agency": "Department of Public Works",
    "final_address": "900 Chartres St",
    "address_councildis": "C",
    "status": "Pending",
    "rowid": "1053091",
    "final_x": "3683328.22607",
    "final_y": "532842.20634",
    "longitude": "-90.06225113534258",
    "latitude": "29.959075663029015",
    "geocoded_column": {
      "latitude": "29.959075663029015",
      "longitude": "-90.06225113534258"
    }
  },
  {
    "service_request": "2023-1053090",
    "request_type": "Trash/Recycling",
    "request_reason": "Dead Animal Pick Up",
    "date_created": "2023-12-01T11:20:16.000",
    "date_modified": "2023-12-01T11:20:17.000",
    "request_status": "Pending",
    "responsible_agency": "Department of Sanitation",
    "final_address": "S CLAIBORNE AV OVERPASS & I 10 W ONRAMP & S CLAIBORNE AVE",
    "address_councildis": "B",
    "status": "Assigned to Contractor",
    "contractor": "Richards Disposal",
    "rowid": "1053090",
    "final_x": "3675933.2",
    "final_y": "529419.16",
    "longitude": "-90.08572051783021",
    "latitude": "29.949886920585854",
    "geocoded_column": {
      "latitude": "29.949886920585854",
      "longitude": "-90.08572051783021"
    }
  },
  {
    "service_request": "2023-1053089",
    "request_type": "Roads/Drainage",
    "request_reason": "Catch Basin - Broken/Damage",
    "date_created": "2023-12-01T11:18:12.000",
    "date_modified": "2023-12-01T11:21:15.000",
    "request_status": "Pending",
    "responsible_agency": "Department of Public Works",
    "final_address": "2420 Behrman Hwy",
    "address_councildis": "C",
    "status": "Pending",
    "rowid": "1053089",
    "final_x": "3692048.57161",
    "final_y": "521488.831161",
    "longitude": "-90.0351207292212",
    "latitude": "29.927588910951254",
    "geocoded_column": {
      "latitude": "29.927588910951254",
      "longitude": "-90.0351207292212"
    }
  },
  {
    "service_request": "2023-1053088",
    "request_type": "Trash/Recycling",
    "request_reason": "Missed Trash Pick-Up",
    "date_created": "2023-12-01T11:16:46.000",
    "date_modified": "2023-12-01T15:12:15.000",
    "request_status": "Pending",
    "responsible_agency": "Department of Sanitation",
    "final_address": "7306 Malvern Dr",
    "address_councildis": "E",
    "status": "Assigned to Contractor",
    "contractor": "Waste Pro",
    "rowid": "1053088",
    "final_x": "3702745.10282",
    "final_y": "560576.410462",
    "longitude": "-89.99991874388358",
    "latitude": "30.034727813843553",
    "geocoded_column": {
      "latitude": "30.034727813843553",
      "longitude": "-89.99991874388358"
    }
  },
  {
    "service_request": "2023-1053087",
    "request_type": "Trash/Recycling",
    "request_reason": "Request a Large Item Pick Up",
    "date_created": "2023-12-01T11:13:54.000",
    "date_modified": "2023-12-01T11:13:55.000",
    "request_status": "Pending",
    "responsible_agency": "Department of Sanitation",
    "final_address": "310 S Cortez St",
    "address_councildis": "A",
    "status": "Assigned to Contractor",
    "contractor": "Richards Disposal",
    "rowid": "1053087",
    "final_x": "3671554.89076",
    "final_y": "536848.688648",
    "longitude": "-90.09929225439443",
    "latitude": "29.970446008034656",
    "geocoded_column": {
      "latitude": "29.970446008034656",
      "longitude": "-90.09929225439443"
    }
  },
  {
    "service_request": "2023-1053086",
    "request_type": "Trash/Recycling",
    "request_reason": "Illegal Dumping",
    "date_created": "2023-12-01T11:13:07.000",
    "date_modified": "2023-12-01T12:27:44.000",
    "request_status": "Pending",
    "responsible_agency": "Department of Sanitation",
    "final_address": "1743 Alvar St",
    "address_councildis": "D",
    "status": "Pending",
    "rowid": "1053086",
    "final_x": "3692184.22537",
    "final_y": "537951.611145",
    "longitude": "-90.03410324673975",
    "latitude": "29.97285162973719",
    "geocoded_column": {
      "latitude": "29.97285162973719",
      "longitude": "-90.03410324673975"
    }
  },
  {
    "service_request": "2023-1053085",
    "request_type": "Trash/Recycling",
    "request_reason": "Missed Trash Pick-Up",
    "date_created": "2023-12-01T11:08:36.000",
    "date_modified": "2023-12-01T16:24:55.000",
    "case_close_date": "2023-12-01T10:24:55.000",
    "request_status": "Closed",
    "responsible_agency": "Department of Sanitation",
    "final_address": "6525 Elysian Fields Ave",
    "address_councildis": "D",
    "status": "Invalid Request",
    "contractor": "IV Waste",
    "contractor_action": "Invalid Pick-Up",
    "rowid": "1053085",
    "final_x": "3683489.91868",
    "final_y": "557142.758362",
    "longitude": "-90.06088841461394",
    "latitude": "30.02588860546786",
    "geocoded_column": {
      "latitude": "30.02588860546786",
      "longitude": "-90.06088841461394"
    }
  },
  {
    "service_request": "2023-1053084",
    "request_type": "Trash/Recycling",
    "request_reason": "Request a Large Item Pick Up",
    "date_created": "2023-12-01T11:08:17.000",
    "date_modified": "2023-12-01T11:08:19.000",
    "request_status": "Pending",
    "responsible_agency": "Department of Sanitation",
    "final_address": "2718 Republic St",
    "address_councildis": "D",
    "status": "Assigned to Contractor",
    "contractor": "IV Waste",
    "rowid": "1053084",
    "final_x": "3680671.37346",
    "final_y": "542491.527181",
    "longitude": "-90.07030495185043",
    "latitude": "29.985688738046278",
    "geocoded_column": {
      "latitude": "29.985688738046278",
      "longitude": "-90.07030495185043"
    }
  },
  {
    "service_request": "2023-1053083",
    "request_type": "Trash/Recycling",
    "request_reason": "MIssed Recycling Pick-Up",
    "date_created": "2023-12-01T11:05:26.000",
    "date_modified": "2023-12-01T11:05:59.000",
    "request_status": "Pending",
    "responsible_agency": "Department of Sanitation",
    "final_address": "1710 Cambronne St",
    "address_councildis": "A",
    "status": "Assigned to Contractor",
    "contractor": "Richards Disposal",
    "rowid": "1053083",
    "final_x": "3662389.12141",
    "final_y": "530506.482498",
    "longitude": "-90.12844955020033",
    "latitude": "29.953275252440363",
    "geocoded_column": {
      "latitude": "29.953275252440363",
      "longitude": "-90.12844955020033"
    }
  },
  {
    "service_request": "2023-1053082",
    "request_type": "Trash/Recycling",
    "request_reason": "MIssed Recycling Pick-Up",
    "date_created": "2023-12-01T11:04:08.000",
    "date_modified": "2023-12-01T11:04:27.000",
    "request_status": "Pending",
    "responsible_agency": "Department of Sanitation",
    "final_address": "1618 Choctaw St",
    "address_councildis": "E",
    "status": "Assigned to Contractor",
    "contractor": "Waste Pro",
    "rowid": "1053082",
    "final_x": "3697957.78557",
    "final_y": "535958.368263",
    "longitude": "-90.01594173217501",
    "latitude": "29.96718965931359",
    "geocoded_column": {
      "latitude": "29.96718965931359",
      "longitude": "-90.01594173217501"
    }
  },
  {
    "service_request": "2023-1053081",
    "request_type": "Property Maintenance",
    "request_reason": "Property Maintenance",
    "date_created": "2023-12-01T11:03:31.000",
    "date_modified": "2023-12-01T11:03:38.000",
    "request_status": "Pending",
    "responsible_agency": "Department of Code Enforcement",
    "final_address": "2301 Baronne St",
    "address_councildis": "B",
    "status": "Pending",
    "rowid": "1053081",
    "final_x": "3676568.23579",
    "final_y": "524003.246204",
    "longitude": "-90.08390187997391",
    "latitude": "29.934975917631345",
    "geocoded_column": {
      "latitude": "29.934975917631345",
      "longitude": "-90.08390187997391"
    }
  },
  {
    "service_request": "2023-1053080",
    "request_type": "Abandoned Vehicles",
    "request_reason": "Abandoned/Junk Vehicles",
    "date_created": "2023-12-01T11:02:47.000",
    "date_modified": "2023-12-01T11:04:40.000",
    "request_status": "Pending",
    "responsible_agency": "Department of Public Works",
    "final_address": "7500 BLK Morel St",
    "address_councildis": "E",
    "status": "Pending",
    "rowid": "1053080",
    "final_x": "3718893.74131",
    "final_y": "571791.949379",
    "longitude": "-89.94845892347021",
    "latitude": "30.065039326982422",
    "geocoded_column": {
      "latitude": "30.065039326982422",
      "longitude": "-89.94845892347021"
    }
  },
  {
    "service_request": "2023-1053079",
    "request_type": "Property Maintenance",
    "request_reason": "Property Maintenance",
    "date_created": "2023-12-01T11:00:46.000",
    "date_modified": "2023-12-01T11:00:47.000",
    "request_status": "Pending",
    "responsible_agency": "Department of Code Enforcement",
    "final_address": "2256 Baronne St",
    "address_councildis": "B",
    "status": "Pending",
    "rowid": "1053079",
    "final_x": "3676663.40411",
    "final_y": "524177.426108",
    "longitude": "-90.08359543679167",
    "latitude": "29.93545200159529",
    "geocoded_column": {
      "latitude": "29.93545200159529",
      "longitude": "-90.08359543679167"
    }
  },
  {
    "service_request": "2023-1053078",
    "request_type": "Abandoned Vehicles",
    "request_reason": "Abandoned/Junk Vehicles",
    "date_created": "2023-12-01T10:56:11.000",
    "date_modified": "2023-12-01T10:56:12.000",
    "request_status": "Pending",
    "responsible_agency": "Department of Public Works",
    "final_address": "1816 Philip St",
    "address_councildis": "B",
    "status": "Pending",
    "rowid": "1053078",
    "final_x": "3676626.7348",
    "final_y": "524068.684092",
    "longitude": "-90.08371494602316",
    "latitude": "29.935154096319554",
    "geocoded_column": {
      "latitude": "29.935154096319554",
      "longitude": "-90.08371494602316"
    }
  },
  {
    "service_request": "2023-1053077",
    "request_type": "Trash/Recycling",
    "request_reason": "Replace Trash Cart",
    "date_created": "2023-12-01T10:54:09.000",
    "date_modified": "2023-12-01T10:54:10.000",
    "request_status": "Pending",
    "responsible_agency": "Department of Sanitation",
    "final_address": "7808 Ebbtide Dr",
    "address_councildis": "E",
    "status": "Assigned to Contractor",
    "contractor": "Waste Pro",
    "rowid": "1053077",
    "final_x": "3701943.87575",
    "final_y": "561935.704031",
    "longitude": "-90.00240082838295",
    "latitude": "30.038490953151094",
    "geocoded_column": {
      "latitude": "30.038490953151094",
      "longitude": "-90.00240082838295"
    }
  },
  {
    "service_request": "2023-1053076",
    "request_type": "Trash/Recycling",
    "request_reason": "Request a Large Item Pick Up",
    "date_created": "2023-12-01T10:54:06.000",
    "date_modified": "2023-12-01T10:54:07.000",
    "request_status": "Pending",
    "responsible_agency": "Department of Sanitation",
    "final_address": "721 Greenwood St",
    "address_councildis": "A",
    "status": "Assigned to Contractor",
    "contractor": "IV Waste",
    "rowid": "1053076",
    "final_x": "3668411.18433",
    "final_y": "542917.996237",
    "longitude": "-90.10901566297264",
    "latitude": "29.987227275993185",
    "geocoded_column": {
      "latitude": "29.987227275993185",
      "longitude": "-90.10901566297264"
    }
  },
  {
    "service_request": "2023-1053075",
    "request_type": "Roads/Drainage",
    "request_reason": "Pothole",
    "date_created": "2023-12-01T10:53:43.000",
    "date_modified": "2023-12-01T11:08:57.000",
    "case_close_date": "2023-12-01T05:08:57.000",
    "request_status": "Closed",
    "responsible_agency": "Department of Public Works",
    "final_address": "825 Peniston St",
    "address_councildis": "B",
    "status": "Resolved",
    "rowid": "1053075",
    "final_x": "3673472.89025",
    "final_y": "518918.872375",
    "longitude": "-90.09384750572615",
    "latitude": "29.921087971587074",
    "geocoded_column": {
      "latitude": "29.921087971587074",
      "longitude": "-90.09384750572615"
    }
  },
  {
    "service_request": "2023-1053073",
    "request_type": "Trash/Recycling",
    "request_reason": "Order Recycling Cart",
    "date_created": "2023-12-01T10:52:44.000",
    "date_modified": "2023-12-01T10:52:44.000",
    "request_status": "Pending",
    "responsible_agency": "Department of Sanitation",
    "final_address": "4405 Eden St Apt 2",
    "address_councildis": "B",
    "status": "Pending",
    "rowid": "1053073",
    "final_x": "3669953.35815",
    "final_y": "530697.745922",
    "longitude": "-90.1045584032306",
    "latitude": "29.953580287425304",
    "geocoded_column": {
      "latitude": "29.953580287425304",
      "longitude": "-90.1045584032306"
    }
  },
  {
    "service_request": "2023-1053074",
    "request_type": "Roads/Drainage",
    "request_reason": "Pothole",
    "date_created": "2023-12-01T10:52:44.000",
    "date_modified": "2023-12-01T10:53:00.000",
    "case_close_date": "2023-12-01T04:53:00.000",
    "request_status": "Closed",
    "responsible_agency": "Department of Public Works",
    "final_address": "917 Peniston St",
    "address_councildis": "B",
    "status": "Resolved",
    "rowid": "1053074",
    "final_x": "3673382.61147",
    "final_y": "519220.913271",
    "longitude": "-90.09412216486727",
    "latitude": "29.92192117239339",
    "geocoded_column": {
      "latitude": "29.92192117239339",
      "longitude": "-90.09412216486727"
    }
  },
  {
    "service_request": "2023-1053072",
    "request_type": "Roads/Drainage",
    "request_reason": "Pothole",
    "date_created": "2023-12-01T10:51:39.000",
    "date_modified": "2023-12-01T10:52:02.000",
    "case_close_date": "2023-12-01T04:52:02.000",
    "request_status": "Closed",
    "responsible_agency": "Department of Public Works",
    "final_address": "1031 Peniston St",
    "address_councildis": "B",
    "status": "Resolved",
    "rowid": "1053072",
    "final_x": "3673279.06305",
    "final_y": "519659.908856",
    "longitude": "-90.09443404145065",
    "latitude": "29.923131348583016",
    "geocoded_column": {
      "latitude": "29.923131348583016",
      "longitude": "-90.09443404145065"
    }
  },
  {
    "service_request": "2023-1053071",
    "request_type": "Trash/Recycling",
    "request_reason": "Request a Large Item Pick Up",
    "date_created": "2023-12-01T10:48:30.000",
    "date_modified": "2023-12-01T10:48:30.000",
    "request_status": "Pending",
    "responsible_agency": "Department of Sanitation",
    "final_address": "7511 Eastmore Rd",
    "address_councildis": "E",
    "status": "Assigned to Contractor",
    "contractor": "Waste Pro",
    "rowid": "1053071",
    "final_x": "3700407.11415",
    "final_y": "560251.502173",
    "longitude": "-90.00731896953855",
    "latitude": "30.033909044392352",
    "geocoded_column": {
      "latitude": "30.033909044392352",
      "longitude": "-90.00731896953855"
    }
  },
  {
    "service_request": "2023-1053070",
    "request_type": "Trash/Recycling",
    "request_reason": "Repair Trash Cart",
    "date_created": "2023-12-01T10:48:23.000",
    "date_modified": "2023-12-01T10:48:24.000",
    "request_status": "Pending",
    "responsible_agency": "Department of Sanitation",
    "final_address": "3374 State Street Dr",
    "address_councildis": "A",
    "status": "Assigned to Contractor",
    "contractor": "Richards Disposal",
    "rowid": "1053070",
    "final_x": "3667797.87905",
    "final_y": "528902.88128",
    "longitude": "-90.11142495933694",
    "latitude": "29.94870837732139",
    "geocoded_column": {
      "latitude": "29.94870837732139",
      "longitude": "-90.11142495933694"
    }
  },
  {
    "service_request": "2023-1053069",
    "request_type": "Trash/Recycling",
    "request_reason": "MIssed Recycling Pick-Up",
    "date_created": "2023-12-01T10:47:02.000",
    "date_modified": "2023-12-01T10:47:03.000",
    "request_status": "Pending",
    "responsible_agency": "Department of Sanitation",
    "final_address": "1617 Choctaw St",
    "address_councildis": "E",
    "status": "Assigned to Contractor",
    "contractor": "Waste Pro",
    "rowid": "1053069",
    "final_x": "3698016.67888",
    "final_y": "535915.437831",
    "longitude": "-90.0157573065397",
    "latitude": "29.967069754043912",
    "geocoded_column": {
      "latitude": "29.967069754043912",
      "longitude": "-90.0157573065397"
    }
  },
  {
    "service_request": "2023-1053068",
    "request_type": "Trash/Recycling",
    "request_reason": "Request a Large Item Pick Up",
    "date_created": "2023-12-01T10:43:44.000",
    "date_modified": "2023-12-01T10:43:44.000",
    "request_status": "Pending",
    "responsible_agency": "Department of Sanitation",
    "final_address": "5819 E Louis Prima Dr",
    "address_councildis": "E",
    "status": "Assigned to Contractor",
    "contractor": "Waste Pro",
    "rowid": "1053068",
    "final_x": "3715833.15084",
    "final_y": "562823.657824",
    "longitude": "-89.95847383291007",
    "latitude": "30.04048156009481",
    "geocoded_column": {
      "latitude": "30.04048156009481",
      "longitude": "-89.95847383291007"
    }
  },
  {
    "service_request": "2023-1053067",
    "request_type": "Trash/Recycling",
    "request_reason": "Illegal Dumping",
    "date_created": "2023-12-01T10:41:37.000",
    "date_modified": "2023-12-01T11:16:03.000",
    "case_close_date": "2023-12-01T05:16:03.000",
    "request_status": "Closed",
    "responsible_agency": "Department of Sanitation",
    "final_address": "217 N Peters St",
    "address_councildis": "C",
    "status": "Resolved",
    "rowid": "1053067",
    "final_x": "3682325.20316",
    "final_y": "530513.822978",
    "longitude": "-90.06549978359563",
    "latitude": "29.952703956376517",
    "geocoded_column": {
      "latitude": "29.952703956376517",
      "longitude": "-90.06549978359563"
    }
  },
  {
    "service_request": "2023-1053066",
    "request_type": "Trash/Recycling",
    "request_reason": "Dead Animal Pick Up",
    "date_created": "2023-12-01T10:40:15.000",
    "date_modified": "2023-12-01T10:40:15.000",
    "request_status": "Pending",
    "responsible_agency": "Department of Sanitation",
    "final_address": "1000 BLK Philip St",
    "address_councildis": "B",
    "status": "Assigned to Contractor",
    "contractor": "Richards Disposal",
    "rowid": "1053066",
    "final_x": "3678658.32539",
    "final_y": "521693.676217",
    "longitude": "-90.07738340473408",
    "latitude": "29.928562525600142",
    "geocoded_column": {
      "latitude": "29.928562525600142",
      "longitude": "-90.07738340473408"
    }
  },
  {
    "service_request": "2023-1053065",
    "request_type": "Trash/Recycling",
    "request_reason": "Dead Animal Pick Up",
    "date_created": "2023-12-01T10:38:37.000",
    "date_modified": "2023-12-01T10:38:53.000",
    "case_close_date": "2023-12-01T04:38:53.000",
    "request_status": "Closed",
    "responsible_agency": "Department of Sanitation",
    "final_address": "913 Governor Nicholls St",
    "address_councildis": "C",
    "status": "Assigned to Contractor",
    "contractor": "Empire Services",
    "contractor_action": "Completed",
    "rowid": "1053065",
    "final_x": "3683020.21532",
    "final_y": "534450.458373",
    "longitude": "-90.06316746131826",
    "latitude": "29.963507196496696",
    "geocoded_column": {
      "latitude": "29.963507196496696",
      "longitude": "-90.06316746131826"
    }
  },
  {
    "service_request": "2023-1053064",
    "request_type": "Trash/Recycling",
    "request_reason": "Dead Animal Pick Up",
    "date_created": "2023-12-01T10:37:17.000",
    "date_modified": "2023-12-01T10:37:34.000",
    "case_close_date": "2023-12-01T04:37:34.000",
    "request_status": "Closed",
    "responsible_agency": "Department of Sanitation",
    "final_address": "1012 St Ann St",
    "address_councildis": "C",
    "status": "Assigned to Contractor",
    "contractor": "Empire Services",
    "contractor_action": "Completed",
    "rowid": "1053064",
    "final_x": "3681809.58453",
    "final_y": "533468.779332",
    "longitude": "-90.0670247609064",
    "latitude": "29.960844759302034",
    "geocoded_column": {
      "latitude": "29.960844759302034",
      "longitude": "-90.0670247609064"
    }
  },
  {
    "service_request": "2023-1053063",
    "request_type": "Roads/Drainage",
    "request_reason": "Pothole",
    "date_created": "2023-12-01T10:36:48.000",
    "date_modified": "2023-12-01T10:36:48.000",
    "request_status": "Pending",
    "responsible_agency": "Department of Public Works",
    "final_address": "1725 Dufossat St",
    "address_councildis": "B",
    "status": "Pending",
    "rowid": "1053063",
    "final_x": "3668192.68743",
    "final_y": "522036.060218",
    "longitude": "-90.11040977787289",
    "latitude": "29.92981524824353",
    "geocoded_column": {
      "latitude": "29.92981524824353",
      "longitude": "-90.11040977787289"
    }
  },