[
  {
    "service_request": "2022-851967",
    "request_type": "Property Maintenance",
    "request_reason": "Property Maintenance",
    "date_created": "2022-01-05T01:17:05.000",
    "date_modified": "2022-01-05T01:17:05.000",
    "request_status": "Pending",
    "responsible_agency": "Department of Code Enforcement",
    "final_address": "2527 S Dorgenois St",
    "address_councildis": "B",
    "status": "Pending",
    "rowid": "851967",
    "final_x": "3672044.79188",
    "final_y": "529703.491585",
    "longitude": "-90.09798836786632",
    "latitude": "29.950784580618414",
    "geocoded_column": {
      "latitude": "29.950784580618414",
      "longitude": "-90.09798836786632"
    }
  },
  {
    "service_request": "2022-851966",
    "request_type": "Property Maintenance",
    "request_reason": "Property Maintenance",
    "date_created": "2022-01-05T01:15:12.000",
    "date_modified": "2022-01-05T01:15:12.000",
    "request_status": "Pending",
    "responsible_agency": "Department of Code Enforcement",
    "final_address": "517 S Dorgenois St",
    "address_councildis": "B",
    "status": "Pending",
    "rowid": "851966",
    "final_x": "3674655.69627",
    "final_y": "533363.271812",
    "longitude": "-90.08961902217646",
    "latitude": "29.960770098505655",
    "geocoded_column": {
      "latitude": "29.960770098505655",
      "longitude": "-90.08961902217646"
    }
  },
  {
    "service_request": "2022-851965",
    "request_type": "Property Maintenance",
    "request_reason": "Property Maintenance",
    "date_created": "2022-01-05T01:12:40.000",
    "date_modified": "2022-01-05T01:12:40.000",
    "request_status": "Pending",
    "responsible_agency": "Department of Code Enforcement",
    "final_address": "538 S Dorgenois St",
    "address_councildis": "B",
    "status": "Pending",
    "rowid": "851965",
    "final_x": "3674656.57755",
    "final_y": "533145.385924",
    "longitude": "-90.08962370735331",
    "latitude": "29.960170959073114",
    "geocoded_column": {
      "latitude": "29.960170959073114",
      "longitude": "-90.08962370735331"
    }
  },
  {
    "service_request": "2022-851964",
    "request_type": "Trash/Recycling",
    "request_reason": "Request a Large Item Pick Up",
    "date_created": "2022-01-05T01:09:23.000",
    "date_modified": "2022-01-05T01:09:23.000",
    "request_status": "Pending",
    "responsible_agency": "Department of Sanitation",
    "final_address": "2542 Tulane Ave",
    "address_councildis": "B",
    "status": "Assigned to Contractor",
    "contractor": "Richards Disposal",
    "rowid": "851964",
    "final_x": "3674849.5796",
    "final_y": "533394.190404",
    "longitude": "-90.08900571500742",
    "latitude": "29.96084932632872",
    "geocoded_column": {
      "latitude": "29.96084932632872",
      "longitude": "-90.08900571500742"
    }
  },
  {
    "service_request": "2022-851963",
    "request_type": "Trash/Recycling",
    "request_reason": "Order Recycling Cart",
    "date_created": "2022-01-05T00:34:54.000",
    "date_modified": "2022-01-05T00:34:54.000",
    "request_status": "Pending",
    "responsible_agency": "Department of Sanitation",
    "final_address": "7715 Freret St",
    "address_councildis": "A",
    "status": "Pending",
    "rowid": "851963",
    "final_x": "3662522.19322",
    "final_y": "526967.676414",
    "longitude": "-90.12814689238226",
    "latitude": "29.943540823017617",
    "geocoded_column": {
      "latitude": "29.943540823017617",
      "longitude": "-90.12814689238226"
    }
  },
  {
    "service_request": "2022-851962",
    "request_type": "Abandoned Vehicles",
    "request_reason": "Abandoned/Junk Vehicles",
    "date_created": "2022-01-04T23:36:43.000",
    "date_modified": "2022-01-04T23:36:43.000",
    "request_status": "Pending",
    "responsible_agency": "Department of Public Works",
    "final_address": "2116 Eads St",
    "address_councildis": "D",
    "status": "Pending",
    "rowid": "851962",
    "final_x": "3687920.21475",
    "final_y": "540415.567243",
    "longitude": "-90.04748243814018",
    "latitude": "29.979758891780207",
    "geocoded_column": {
      "latitude": "29.979758891780207",
      "longitude": "-90.04748243814018"
    }
  },
  {
    "service_request": "2022-851961",
    "request_type": "Abandoned Vehicles",
    "request_reason": "Abandoned/Junk Vehicles",
    "date_created": "2022-01-04T23:32:17.000",
    "date_modified": "2022-01-04T23:32:17.000",
    "request_status": "Pending",
    "responsible_agency": "Department of Public Works",
    "final_address": "2124 Eads St",
    "address_councildis": "D",
    "status": "Pending",
    "rowid": "851961",
    "final_x": "3687926.78652",
    "final_y": "540462.959243",
    "longitude": "-90.04746000210723",
    "latitude": "29.979889000217536",
    "geocoded_column": {
      "latitude": "29.979889000217536",
      "longitude": "-90.04746000210723"
    }
  },
  {
    "service_request": "2022-851960",
    "request_type": "Trash/Recycling",
    "request_reason": "Missed Trash Pick-Up",
    "date_created": "2022-01-04T23:19:53.000",
    "date_modified": "2022-01-04T23:19:54.000",
    "request_status": "Pending",
    "responsible_agency": "Department of Sanitation",
    "final_address": "2128 Almonaster Ave",
    "address_councildis": "D",
    "status": "Assigned to Contractor",
    "contractor": "Metro Disposal",
    "rowid": "851960",
    "final_x": "3688033.05436",
    "final_y": "540482.886539",
    "longitude": "-90.04712365891393",
    "latitude": "29.979940513704538",
    "geocoded_column": {
      "latitude": "29.979940513704538",
      "longitude": "-90.04712365891393"
    }
  },
  {
    "service_request": "2022-851959",
    "request_type": "Trash/Recycling",
    "request_reason": "Missed Trash Pick-Up",
    "date_created": "2022-01-04T22:17:09.000",
    "date_modified": "2022-01-04T22:17:09.000",
    "request_status": "Pending",
    "responsible_agency": "Department of Sanitation",
    "final_address": "3471 Laurel St",
    "address_councildis": "B",
    "status": "Assigned to Contractor",
    "contractor": "Richards Disposal",
    "rowid": "851959",
    "final_x": "3674773.25096",
    "final_y": "518761.178295",
    "longitude": "-90.08974824691228",
    "latitude": "29.920615621499326",
    "geocoded_column": {
      "latitude": "29.920615621499326",
      "longitude": "-90.08974824691228"
    }
  },
  {
    "service_request": "2022-851958",
    "request_type": "Traffic Signals/Signs/Striping/Streetlights",
    "request_reason": "Street Light Outage/Malfunction",
    "date_created": "2022-01-04T21:21:39.000",
    "date_modified": "2022-01-04T21:21:40.000",
    "request_status": "Pending",
    "responsible_agency": "Department of Public Works",
    "final_address": "2204 Jefferson Ave",
    "address_councildis": "A",
    "status": "Pending",
    "contractor": "Royal Engineering",
    "rowid": "851958",
    "final_x": "3667753.55988",
    "final_y": "523728.780347",
    "longitude": "-90.11173906345063",
    "latitude": "29.93448256806916",
    "geocoded_column": {
      "latitude": "29.93448256806916",
      "longitude": "-90.11173906345063"
    }
  },
  {
    "service_request": "2022-851957",
    "request_type": "Traffic Signals/Signs/Striping/Streetlights",
    "request_reason": "Street Light Outage/Malfunction",
    "date_created": "2022-01-04T21:16:06.000",
    "date_modified": "2022-01-04T21:16:06.000",
    "request_status": "Pending",
    "responsible_agency": "Department of Public Works",
    "final_address": "7149 Parkside Ct",
    "address_councildis": "E",
    "status": "Pending",
    "contractor": "Royal Engineering",
    "rowid": "851957",
    "final_x": "3704520.2945",
    "final_y": "560319.504413",
    "longitude": "-89.99431840553196",
    "latitude": "30.033964501912777",
    "geocoded_column": {
      "latitude": "30.033964501912777",
      "longitude": "-89.99431840553196"
    }
  },
  {
    "service_request": "2022-851956",
    "request_type": "Abandoned Vehicles",
    "request_reason": "Vehicle Blocking Your Driveway",
    "date_created": "2022-01-04T21:11:33.000",
    "date_modified": "2022-01-04T21:11:33.000",
    "request_status": "Pending",
    "responsible_agency": "Department of Public Works",
    "final_address": "904 Jackson Ave, New Orleans, Louisiana, 70130",
    "address_councildis": "B",
    "status": "Pending",
    "rowid": "851956",
    "final_x": "3679219.04424",
    "final_y": "521508.296761",
    "longitude": "-90.07561975763268",
    "latitude": "29.92803588129917",
    "geocoded_column": {
      "latitude": "29.92803588129917",
      "longitude": "-90.07561975763268"
    }
  },
  {
    "service_request": "2022-851955",
    "request_type": "Trash/Recycling",
    "request_reason": "Replace Trash Cart",
    "date_created": "2022-01-04T21:06:33.000",
    "date_modified": "2022-01-04T21:06:33.000",
    "request_status": "Pending",
    "responsible_agency": "Department of Sanitation",
    "final_address": "1239 Lauradale Dr",
    "address_councildis": "C",
    "status": "Assigned to Contractor",
    "contractor": "Richards Disposal",
    "rowid": "851955",
    "final_x": "3692772.39805",
    "final_y": "526619.976574",
    "longitude": "-90.0326519284132",
    "latitude": "29.94167524264738",
    "geocoded_column": {
      "latitude": "29.94167524264738",
      "longitude": "-90.0326519284132"
    }
  },
  {
    "service_request": "2022-851954",
    "request_type": "Trash/Recycling",
    "request_reason": "Missed Trash Pick-Up",
    "date_created": "2022-01-04T20:53:11.000",
    "date_modified": "2022-01-04T20:53:12.000",
    "request_status": "Pending",
    "responsible_agency": "Department of Sanitation",
    "final_address": "1255 Foy St",
    "address_councildis": "D",
    "status": "Assigned to Contractor",
    "contractor": "Metro Disposal",
    "rowid": "851954",
    "final_x": "3677072.98894",
    "final_y": "546449.048081",
    "longitude": "-90.08153423895939",
    "latitude": "29.996679108277736",
    "geocoded_column": {
      "latitude": "29.996679108277736",
      "longitude": "-90.08153423895939"
    }
  },
  {
    "service_request": "2022-851953",
    "request_type": "Trash/Recycling",
    "request_reason": "Missed Trash Pick-Up",
    "date_created": "2022-01-04T20:52:15.000",
    "date_modified": "2022-01-04T20:52:15.000",
    "request_status": "Pending",
    "responsible_agency": "Department of Sanitation",
    "final_address": "1458 N Rocheblave St",
    "address_councildis": "D",
    "status": "Assigned to Contractor",
    "contractor": "Metro Disposal",
    "rowid": "851953",
    "final_x": "3679431.46799",
    "final_y": "538722.554889",
    "longitude": "-90.07435211281206",
    "latitude": "29.975362894499785",
    "geocoded_column": {
      "latitude": "29.975362894499785",
      "longitude": "-90.07435211281206"
    }
  },
  {
    "service_request": "2022-851952",
    "request_type": "Abandoned Vehicles",
    "request_reason": "Abandoned/Junk Vehicles",
    "date_created": "2022-01-04T20:45:33.000",
    "date_modified": "2022-01-04T20:45:33.000",
    "request_status": "Pending",
    "responsible_agency": "Department of Public Works",
    "final_address": "222 S Genois St",
    "address_councildis": "B",
    "status": "Pending",
    "rowid": "851952",
    "final_x": "3672284.29761",
    "final_y": "536629.656775",
    "longitude": "-90.09699616393596",
    "latitude": "29.96982212405138",
    "geocoded_column": {
      "latitude": "29.96982212405138",
      "longitude": "-90.09699616393596"
    }
  },
  {
    "service_request": "2022-851951",
    "request_type": "Traffic Signals/Signs/Striping/Streetlights",
    "request_reason": "Street Light Outage/Malfunction",
    "date_created": "2022-01-04T20:22:25.000",
    "date_modified": "2022-01-04T20:22:25.000",
    "request_status": "Pending",
    "responsible_agency": "Department of Public Works",
    "final_address": "4323 Vixen St",
    "address_councildis": "C",
    "status": "Pending",
    "contractor": "Royal Engineering",
    "rowid": "851951",
    "final_x": "3699517.86109",
    "final_y": "520650.359673",
    "longitude": "-90.01157267668405",
    "latitude": "29.925048597446466",
    "geocoded_column": {
      "latitude": "29.925048597446466",
      "longitude": "-90.01157267668405"
    }
  },
  {
    "service_request": "2022-851950",
    "request_type": "Safety & Permits",
    "request_reason": "Licenses & Permits",
    "date_created": "2022-01-04T20:14:15.000",
    "date_modified": "2022-01-04T20:14:15.000",
    "request_status": "Pending",
    "responsible_agency": "Safety and Permits",
    "final_address": "9408 Palm St",
    "address_councildis": "A",
    "status": "Pending",
    "rowid": "851950",
    "final_x": "3664198.11546",
    "final_y": "537835.589001",
    "longitude": "-90.12249295035443",
    "latitude": "29.97337546338181",
    "geocoded_column": {
      "latitude": "29.97337546338181",
      "longitude": "-90.12249295035443"
    }
  },
  {
    "service_request": "2022-851949",
    "request_type": "Traffic Signals/Signs/Striping/Streetlights",
    "request_reason": "Traffic Sign Missing/Damaged",
    "date_created": "2022-01-04T20:13:59.000",
    "date_modified": "2022-01-04T20:13:59.000",
    "request_status": "Pending",
    "responsible_agency": "Department of Public Works",
    "final_address": "7101 Edinburgh St",
    "address_councildis": "B",
    "status": "Pending",
    "rowid": "851949",
    "final_x": "3668958.63297",
    "final_y": "533137.142404",
    "longitude": "-90.10761694105948",
    "latitude": "29.960317118228723",
    "geocoded_column": {
      "latitude": "29.960317118228723",
      "longitude": "-90.10761694105948"
    }
  },
  {
    "service_request": "2022-851948",
    "request_type": "Trash/Recycling",
    "request_reason": "Order Recycling Cart",
    "date_created": "2022-01-04T20:11:14.000",
    "date_modified": "2022-01-04T20:11:14.000",
    "request_status": "Pending",
    "responsible_agency": "Department of Sanitation",
    "final_address": "4611 Baronne St",
    "address_councildis": "B",
    "status": "Pending",
    "rowid": "851948",
    "final_x": "3669922.26164",
    "final_y": "521586.325625",
    "longitude": "-90.10496501509711",
    "latitude": "29.928527751624316",
    "geocoded_column": {
      "latitude": "29.928527751624316",
      "longitude": "-90.10496501509711"
    }
  },
  {
    "service_request": "2022-851947",
    "request_type": "Trash/Recycling",
    "request_reason": "Request a Large Item Pick Up",
    "date_created": "2022-01-04T20:05:03.000",
    "date_modified": "2022-01-04T20:05:03.000",
    "request_status": "Pending",
    "responsible_agency": "Department of Sanitation",
    "final_address": "9408 Palm St",
    "address_councildis": "A",
    "status": "Assigned to Contractor",
    "contractor": "Richards Disposal",
    "rowid": "851947",
    "final_x": "3664198.11546",
    "final_y": "537835.589001",
    "longitude": "-90.12249295035443",
    "latitude": "29.97337546338181",
    "geocoded_column": {
      "latitude": "29.97337546338181",
      "longitude": "-90.12249295035443"
    }
  },
  {
    "service_request": "2022-851946",
    "request_type": "Traffic Signals/Signs/Striping/Streetlights",
    "request_reason": "Request for Stop Sign",
    "date_created": "2022-01-04T19:57:08.000",
    "date_modified": "2022-01-04T19:57:08.000",
    "request_status": "Pending",
    "responsible_agency": "Department of Public Works",
    "final_address": "4743 Charlmark Dr",
    "address_councildis": "E",
    "status": "Pending",
    "rowid": "851946",
    "final_x": "3711512.81662",
    "final_y": "556041.107417",
    "longitude": "-89.97238197222306",
    "latitude": "30.021974064808084",
    "geocoded_column": {
      "latitude": "30.021974064808084",
      "longitude": "-89.97238197222306"
    }
  },
  {
    "service_request": "2022-851945",
    "request_type": "Traffic Signals/Signs/Striping/Streetlights",
    "request_reason": "Additional signage",
    "date_created": "2022-01-04T19:55:35.000",
    "date_modified": "2022-01-04T19:55:35.000",
    "request_status": "Pending",
    "responsible_agency": "Department of Public Works",
    "final_address": "2419 N Claiborne Ave",
    "address_councildis": "D",
    "status": "Pending",
    "rowid": "851945",
    "final_x": "3686572.0893",
    "final_y": "538319.395337",
    "longitude": "-90.05181440351615",
    "latitude": "29.97403668569367",
    "geocoded_column": {
      "latitude": "29.97403668569367",
      "longitude": "-90.05181440351615"
    }
  },
  {
    "service_request": "2022-851944",
    "request_type": "Roads/Drainage",
    "request_reason": "Catch Basin - Clogged",
    "date_created": "2022-01-04T19:53:09.000",
    "date_modified": "2022-01-04T19:53:09.000",
    "request_status": "Pending",
    "responsible_agency": "Department of Public Works",
    "final_address": "1536 St Roch Ave",
    "address_councildis": "C",
    "status": "Pending",
    "rowid": "851944",
    "final_x": "3686273.86774",
    "final_y": "538182.611337",
    "longitude": "-90.05276108066712",
    "latitude": "29.973669745261617",
    "geocoded_column": {
      "latitude": "29.973669745261617",
      "longitude": "-90.05276108066712"
    }
  },
  {
    "service_request": "2022-851942",
    "request_type": "Traffic Signals/Signs/Striping/Streetlights",
    "request_reason": "Traffic Signal Malfunctioning/Damaged",
    "date_created": "2022-01-04T19:49:19.000",
    "date_modified": "2022-01-04T19:49:19.000",
    "request_status": "Pending",
    "responsible_agency": "Department of Public Works",
    "final_address": "1541 St Roch Ave",
    "address_councildis": "C",
    "status": "Pending",
    "rowid": "851942",
    "final_x": "3686470.14076",
    "final_y": "538237.511561",
    "longitude": "-90.05213927095564",
    "latitude": "29.973814668775066",
    "geocoded_column": {
      "latitude": "29.973814668775066",
      "longitude": "-90.05213927095564"
    }
  },
  {
    "service_request": "2022-851941",
    "request_type": "Trash/Recycling",
    "request_reason": "Missed Trash Pick-Up",
    "date_created": "2022-01-04T19:40:25.000",
    "date_modified": "2022-01-04T19:40:25.000",
    "request_status": "Pending",
    "responsible_agency": "Department of Sanitation",
    "final_address": "3431 Parkview Pl",
    "address_councildis": "A",
    "status": "Assigned to Contractor",
    "contractor": "Metro Disposal",
    "rowid": "851941",
    "final_x": "3675656.68264",
    "final_y": "543421.941006",
    "longitude": "-90.08611236063754",
    "latitude": "29.988398088898556",
    "geocoded_column": {
      "latitude": "29.988398088898556",
      "longitude": "-90.08611236063754"
    }
  },
  {
    "service_request": "2022-851940",
    "request_type": "Traffic Signals/Signs/Striping/Streetlights",
    "request_reason": "Street Light Outage/Malfunction",
    "date_created": "2022-01-04T19:24:58.000",
    "date_modified": "2022-01-04T19:24:59.000",
    "request_status": "Pending",
    "responsible_agency": "Department of Public Works",
    "final_address": "1576 De Battista Pl",
    "address_councildis": "C",
    "status": "Pending",
    "contractor": "Royal Engineering",
    "rowid": "851940",
    "final_x": "3699804.9898",
    "final_y": "525174.580861",
    "longitude": "-90.01050143544035",
    "latitude": "29.9374795313296",
    "geocoded_column": {
      "latitude": "29.9374795313296",
      "longitude": "-90.01050143544035"
    }
  },
  {
    "service_request": "2022-851939",
    "request_type": "Trash/Recycling",
    "request_reason": "Missed Trash Pick-Up",
    "date_created": "2022-01-04T19:01:06.000",
    "date_modified": "2022-01-04T19:01:06.000",
    "request_status": "Pending",
    "responsible_agency": "Department of Sanitation",
    "final_address": "1432 Chartres St",
    "address_councildis": "C",
    "status": "Assigned to Contractor",
    "contractor": "Metro Disposal",
    "rowid": "851939",
    "final_x": "3684565.83516",
    "final_y": "534395.091845",
    "longitude": "-90.0582885121374",
    "latitude": "29.96330775661264",
    "geocoded_column": {
      "latitude": "29.96330775661264",
      "longitude": "-90.0582885121374"
    }
  },
  {
    "service_request": "2022-851938",
    "request_type": "Mosquito, Termite & Rodent Control",
    "request_reason": "Rodent Complaint (Rats)",
    "date_created": "2022-01-04T18:59:26.000",
    "date_modified": "2022-01-04T18:59:26.000",
    "request_status": "Pending",
    "responsible_agency": "Mosquito, Termite & Rodent Control Board",
    "final_address": "204 Decatur St",
    "address_councildis": "C",
    "status": "Pending",
    "rowid": "851938",
    "final_x": "3682113.60322",
    "final_y": "530578.103042",
    "longitude": "-90.06616567614071",
    "latitude": "29.95288714082833",
    "geocoded_column": {
      "latitude": "29.95288714082833",
      "longitude": "-90.06616567614071"
    }
  },
  {
    "service_request": "2022-851937",
    "request_type": "Trash/Recycling",
    "request_reason": "Missed Trash Pick-Up",
    "date_created": "2022-01-04T18:57:00.000",
    "date_modified": "2022-01-04T18:57:00.000",
    "request_status": "Pending",
    "responsible_agency": "Department of Sanitation",
    "final_address": "1731 Kerlerec St",
    "address_councildis": "D",
    "status": "Assigned to Contractor",
    "contractor": "Metro Disposal",
    "rowid": "851937",
    "final_x": "3681034.55919",
    "final_y": "537295.11028",
    "longitude": "-90.0693388541581",
    "latitude": "29.971389385965654",
    "geocoded_column": {
      "latitude": "29.971389385965654",
      "longitude": "-90.0693388541581"
    }
  },
  {
    "service_request": "2022-851936",
    "request_type": "Property Maintenance",
    "request_reason": "Property Maintenance",
    "date_created": "2022-01-04T18:55:54.000",
    "date_modified": "2022-01-04T18:55:54.000",
    "request_status": "Pending",
    "responsible_agency": "Department of Code Enforcement",
    "final_address": "2407 N Claiborne Ave",
    "address_councildis": "D",
    "status": "Pending",
    "rowid": "851936",
    "final_x": "3686454.44073",
    "final_y": "538308.102345",
    "longitude": "-90.05218636231878",
    "latitude": "29.974009251373896",
    "geocoded_column": {
      "latitude": "29.974009251373896",
      "longitude": "-90.05218636231878"
    }
  },
  {
    "service_request": "2022-851935",
    "request_type": "Trash/Recycling",
    "request_reason": "Missed Trash Pick-Up",
    "date_created": "2022-01-04T18:55:44.000",
    "date_modified": "2022-01-04T18:55:45.000",
    "request_status": "Pending",
    "responsible_agency": "Department of Sanitation",
    "final_address": "1442 N Roman St",
    "address_councildis": "D",
    "status": "Assigned to Contractor",
    "contractor": "Metro Disposal",
    "rowid": "851935",
    "final_x": "3681006.51938",
    "final_y": "537328.75316",
    "longitude": "-90.06942623586762",
    "latitude": "29.97148274275327",
    "geocoded_column": {
      "latitude": "29.97148274275327",
      "longitude": "-90.06942623586762"
    }
  },
  {
    "service_request": "2022-851934",
    "request_type": "Abandoned Vehicles",
    "request_reason": "Abandoned/Junk Vehicles",
    "date_created": "2022-01-04T18:54:29.000",
    "date_modified": "2022-01-04T18:54:29.000",
    "request_status": "Pending",
    "responsible_agency": "Department of Public Works",
    "final_address": "3700 Orleans Ave",
    "address_councildis": "A",
    "status": "Pending",
    "rowid": "851934",
    "final_x": "3673513.17089",
    "final_y": "539031.870922",
    "longitude": "-90.09303314266045",
    "latitude": "29.976390882081823",
    "geocoded_column": {
      "latitude": "29.976390882081823",
      "longitude": "-90.09303314266045"
    }
  },
  {
    "service_request": "2022-851933",
    "request_type": "Abandoned Vehicles",
    "request_reason": "Abandoned/Junk Vehicles",
    "date_created": "2022-01-04T18:52:24.000",
    "date_modified": "2022-01-04T18:52:24.000",
    "request_status": "Pending",
    "responsible_agency": "Department of Public Works",
    "final_address": "4708 Camelot Dr",
    "address_councildis": "E",
    "status": "Pending",
    "rowid": "851933",
    "final_x": "3708326.56644",
    "final_y": "555343.455897",
    "longitude": "-89.98247560561732",
    "latitude": "30.020159467006703",
    "geocoded_column": {
      "latitude": "30.020159467006703",
      "longitude": "-89.98247560561732"
    }
  },
  {
    "service_request": "2022-851932",
    "request_type": "Traffic Signals/Signs/Striping/Streetlights",
    "request_reason": "Traffic Sign Missing/Damaged",
    "date_created": "2022-01-04T18:52:09.000",
    "date_modified": "2022-01-04T18:52:09.000",
    "request_status": "Pending",
    "responsible_agency": "Department of Public Works",
    "final_address": "ELBA ST & S DUPRE ST",
    "address_councildis": "B",
    "status": "Pending",
    "rowid": "851932",
    "final_x": "3670598.7",
    "final_y": "529874.08",
    "longitude": "-90.10254861587573",
    "latitude": "29.95129643218838",
    "geocoded_column": {
      "latitude": "29.95129643218838",
      "longitude": "-90.10254861587573"
    }
  },
  {
    "service_request": "2022-851930",
    "request_type": "Traffic Signals/Signs/Striping/Streetlights",
    "request_reason": "Street Light Outage/Malfunction",
    "date_created": "2022-01-04T18:36:53.000",
    "date_modified": "2022-01-04T18:38:17.000",
    "request_status": "Pending",
    "responsible_agency": "Department of Public Works",
    "final_address": "2401 St Bernard Ave",
    "address_councildis": "D",
    "status": "Pending",
    "contractor": "Royal Engineering",
    "rowid": "851930",
    "final_x": "3680737.9981",
    "final_y": "540813.759371",
    "longitude": "-90.07015293239488",
    "latitude": "29.981073443408263",
    "geocoded_column": {
      "latitude": "29.981073443408263",
      "longitude": "-90.07015293239488"
    }
  },
  {
    "service_request": "2022-851929",
    "request_type": "Trash/Recycling",
    "request_reason": "Missed Trash Pick-Up",
    "date_created": "2022-01-04T18:34:42.000",
    "date_modified": "2022-01-04T18:34:43.000",
    "request_status": "Pending",
    "responsible_agency": "Department of Sanitation",
    "final_address": "2362 N Claiborne Ave",
    "address_councildis": "C",
    "status": "Assigned to Contractor",
    "contractor": "Metro Disposal",
    "rowid": "851929",
    "final_x": "3686156.119",
    "final_y": "538210.110985",
    "longitude": "-90.053131985384",
    "latitude": "29.973748977520344",
    "geocoded_column": {
      "latitude": "29.973748977520344",
      "longitude": "-90.053131985384"
    }
  },
  {
    "service_request": "2022-851928",
    "request_type": "Trash/Recycling",
    "request_reason": "Replace Trash Cart",
    "date_created": "2022-01-04T18:33:05.000",
    "date_modified": "2022-01-04T18:33:06.000",
    "request_status": "Pending",
    "responsible_agency": "Department of Sanitation",
    "final_address": "6571 West End Blvd",
    "address_councildis": "A",
    "status": "Assigned to Contractor",
    "contractor": "Metro Disposal",
    "rowid": "851928",
    "final_x": "3666768.90433",
    "final_y": "551551.106965",
    "longitude": "-90.11391286000853",
    "latitude": "30.011013503753873",
    "geocoded_column": {
      "latitude": "30.011013503753873",
      "longitude": "-90.11391286000853"
    }
  },
  {
    "service_request": "2022-851925",
    "request_type": "Trash/Recycling",
    "request_reason": "Request a Large Item Pick Up",
    "date_created": "2022-01-04T18:11:09.000",
    "date_modified": "2022-01-04T18:11:10.000",
    "request_status": "Pending",
    "responsible_agency": "Department of Sanitation",
    "final_address": "1226 Cambronne St",
    "address_councildis": "A",
    "status": "Assigned to Contractor",
    "contractor": "Richards Disposal",
    "rowid": "851925",
    "final_x": "3661289.56115",
    "final_y": "529293.959105",
    "longitude": "-90.13196164853183",
    "latitude": "29.949972948860843",
    "geocoded_column": {
      "latitude": "29.949972948860843",
      "longitude": "-90.13196164853183"
    }
  },
  {
    "service_request": "2022-851924",
    "request_type": "Traffic Signals/Signs/Striping/Streetlights",
    "request_reason": "Street Light Outage/Malfunction",
    "date_created": "2022-01-04T17:48:38.000",
    "date_modified": "2022-01-04T17:48:39.000",
    "request_status": "Pending",
    "responsible_agency": "Department of Public Works",
    "final_address": "2744 Belle Chasse St",
    "address_councildis": "A",
    "status": "Pending",
    "contractor": "Royal Engineering",
    "rowid": "851924",
    "final_x": "3677239.72693",
    "final_y": "538320.483401",
    "longitude": "-90.08128809949672",
    "latitude": "29.97432336977985",
    "geocoded_column": {
      "latitude": "29.97432336977985",
      "longitude": "-90.08128809949672"
    }
  },
  {
    "service_request": "2022-851923",
    "request_type": "Trash/Recycling",
    "request_reason": "MIssed Recycling Pick-Up",
    "date_created": "2022-01-04T17:34:46.000",
    "date_modified": "2022-01-04T17:34:46.000",
    "request_status": "Pending",
    "responsible_agency": "Department of Sanitation",
    "final_address": "6410 Paris Ave",
    "address_councildis": "D",
    "status": "Assigned to Contractor",
    "contractor": "Metro Disposal",
    "rowid": "851923",
    "final_x": "3678153.09659",
    "final_y": "556911.577754",
    "longitude": "-90.07776008222031",
    "latitude": "30.02541482016522",
    "geocoded_column": {
      "latitude": "30.02541482016522",
      "longitude": "-90.07776008222031"
    }
  },
  {
    "service_request": "2022-851922",
    "request_type": "Trash/Recycling",
    "request_reason": "Repair Trash Cart",
    "date_created": "2022-01-04T17:31:06.000",
    "date_modified": "2022-01-04T17:31:07.000",
    "request_status": "Pending",
    "responsible_agency": "Department of Sanitation",
    "final_address": "3042 Casimire St",
    "address_councildis": "C",
    "status": "Assigned to Contractor",
    "contractor": "Richards Disposal",
    "rowid": "851922",
    "final_x": "3708309.0275",
    "final_y": "519442.061943",
    "longitude": "-89.98386697831646",
    "latitude": "29.921444434650525",
    "geocoded_column": {
      "latitude": "29.921444434650525",
      "longitude": "-89.98386697831646"
    }
  },
  {
    "service_request": "2022-851921",
    "request_type": "Abandoned Vehicles",
    "request_reason": "Abandoned/Junk Vehicles",
    "date_created": "2022-01-04T17:30:42.000",
    "date_modified": "2022-01-04T17:30:42.000",
    "request_status": "Pending",
    "responsible_agency": "Department of Public Works",
    "final_address": "2023 Dante St, New Orleans, Louisiana, 70118",
    "address_councildis": "A",
    "status": "Pending",
    "rowid": "851921",
    "final_x": "3663485.87283",
    "final_y": "531077.485314",
    "longitude": "-90.12496745138799",
    "latitude": "29.95481356876318",
    "geocoded_column": {
      "latitude": "29.95481356876318",
      "longitude": "-90.12496745138799"
    }
  },
  {
    "service_request": "2022-851920",
    "request_type": "Property Maintenance",
    "request_reason": "Property Maintenance",
    "date_created": "2022-01-04T17:17:29.000",
    "date_modified": "2022-01-04T17:17:29.000",
    "request_status": "Pending",
    "responsible_agency": "Department of Code Enforcement",
    "final_address": "8020 Olive St",
    "address_councildis": "B",
    "status": "Pending",
    "rowid": "851920",
    "final_x": "3667424.98893",
    "final_y": "533960.105029",
    "longitude": "-90.1124321978029",
    "latitude": "29.962625014608445",
    "geocoded_column": {
      "latitude": "29.962625014608445",
      "longitude": "-90.1124321978029"
    }
  },
  {
    "service_request": "2022-851919",
    "request_type": "Property Maintenance",
    "request_reason": "Property Maintenance",
    "date_created": "2022-01-04T17:13:10.000",
    "date_modified": "2022-01-04T17:13:10.000",
    "request_status": "Pending",
    "responsible_agency": "Department of Code Enforcement",
    "final_address": "3320 Short St",
    "address_councildis": "B",
    "status": "Pending",
    "rowid": "851919",
    "final_x": "3667425.92276",
    "final_y": "533758.928389",
    "longitude": "-90.11243601791662",
    "latitude": "29.962071817908797",
    "geocoded_column": {
      "latitude": "29.962071817908797",
      "longitude": "-90.11243601791662"
    }
  },
  {
    "service_request": "2022-851918",
    "request_type": "Trash/Recycling",
    "request_reason": "Request a Large Item Pick Up",
    "date_created": "2022-01-04T17:03:24.000",
    "date_modified": "2022-01-04T17:03:25.000",
    "request_status": "Pending",
    "responsible_agency": "Department of Sanitation",
    "final_address": "636 State St",
    "address_councildis": "A",
    "status": "Assigned to Contractor",
    "contractor": "Richards Disposal",
    "rowid": "851918",
    "final_x": "3664529.68775",
    "final_y": "518875.585079",
    "longitude": "-90.1220787533461",
    "latitude": "29.92123192240745",
    "geocoded_column": {
      "latitude": "29.92123192240745",
      "longitude": "-90.1220787533461"
    }
  },
  {
    "service_request": "2022-851917",
    "request_type": "Safety & Permits",
    "request_reason": "Licenses & Permits",
    "date_created": "2022-01-04T17:02:33.000",
    "date_modified": "2022-01-04T17:02:33.000",
    "request_status": "Pending",
    "responsible_agency": "Safety and Permits",
    "final_address": "5336 Pasteur Blvd",
    "address_councildis": "D",
    "status": "Pending",
    "rowid": "851917",
    "final_x": "3682817.24533",
    "final_y": "552668.919318",
    "longitude": "-90.0631706774156",
    "latitude": "30.01360771054802",
    "geocoded_column": {
      "latitude": "30.01360771054802",
      "longitude": "-90.0631706774156"
    }
  },
  {
    "service_request": "2022-851916",
    "request_type": "Trash/Recycling",
    "request_reason": "Request a Large Item Pick Up",
    "date_created": "2022-01-04T17:01:57.000",
    "date_modified": "2022-01-04T17:01:58.000",
    "request_status": "Pending",
    "responsible_agency": "Department of Sanitation",
    "final_address": "48 Morrison Ct",
    "address_councildis": "E",
    "status": "Assigned to Contractor",
    "contractor": "Metro Disposal",
    "rowid": "851916",
    "final_x": "3704039.79594",
    "final_y": "561367.661342",
    "longitude": "-89.99579816478452",
    "latitude": "30.036861953283275",
    "geocoded_column": {
      "latitude": "30.036861953283275",
      "longitude": "-89.99579816478452"
    }
  },
  {
    "service_request": "2022-851915",
    "request_type": "Abandoned Vehicles",
    "request_reason": "Abandoned/Junk Vehicles",
    "date_created": "2022-01-04T16:46:27.000",
    "date_modified": "2022-01-04T16:46:27.000",
    "request_status": "Pending",
    "responsible_agency": "Department of Public Works",
    "final_address": "2226 St Ann St",
    "address_councildis": "D",
    "status": "Pending",
    "rowid": "851915",
    "final_x": "3678360.03758",
    "final_y": "536048.345159",
    "longitude": "-90.07782852076315",
    "latitude": "29.968042060539542",
    "geocoded_column": {
      "latitude": "29.968042060539542",
      "longitude": "-90.07782852076315"
    }
  },
  {
    "service_request": "2022-851914",
    "request_type": "Abandoned Vehicles",
    "request_reason": "Abandoned/Junk Vehicles",
    "date_created": "2022-01-04T16:44:04.000",
    "date_modified": "2022-01-04T23:23:52.000",
    "request_status": "Pending",
    "responsible_agency": "Department of Public Works",
    "status": "Inspected",
    "rowid": "851914",
    "longitude": "0.0",
    "latitude": "0.0",
    "geocoded_column": {
      "latitude": "0.0",
      "longitude": "0.0"
    }
  },
  {
    "service_request": "2022-851913",
    "request_type": "Trash/Recycling",
    "request_reason": "Order Recycling Cart",
    "date_created": "2022-01-04T16:43:14.000",
    "date_modified": "2022-01-04T16:43:14.000",
    "request_status": "Pending",
    "responsible_agency": "Department of Sanitation",
    "final_address": "1467 Gardena Dr",
    "address_councildis": "D",
    "status": "Pending",
    "rowid": "851913",
    "final_x": "3678081.84098",
    "final_y": "551557.094101",
    "longitude": "-90.0781705759347",
    "latitude": "30.01069407440049",
    "geocoded_column": {
      "latitude": "30.01069407440049",
      "longitude": "-90.0781705759347"
    }
  },
  {
    "service_request": "2022-851912",
    "request_type": "Trash/Recycling",
    "request_reason": "Request a Large Item Pick Up",
    "date_created": "2022-01-04T16:38:23.000",
    "date_modified": "2022-01-04T16:41:43.000",
    "request_status": "Pending",
    "responsible_agency": "Department of Sanitation",
    "final_address": "1705 Calhoun St",
    "address_councildis": "A",
    "status": "Assigned to Contractor",
    "contractor": "Richards Disposal",
    "rowid": "851912",
    "final_x": "3665171.96039",
    "final_y": "523496.973691",
    "longitude": "-90.11989689271853",
    "latitude": "29.933920599540283",
    "geocoded_column": {
      "latitude": "29.933920599540283",
      "longitude": "-90.11989689271853"
    }
  },
  {
    "service_request": "2022-851911",
    "request_type": "Safety & Permits",
    "request_reason": "Licenses & Permits",
    "date_created": "2022-01-04T16:33:24.000",
    "date_modified": "2022-01-04T16:33:24.000",
    "request_status": "Pending",
    "responsible_agency": "Safety and Permits",
    "final_address": "11755 Chef Menteur Hwy",
    "address_councildis": "E",
    "status": "Pending",
    "rowid": "851911",
    "final_x": "3719159.97906",
    "final_y": "557090.575898",
    "longitude": "-89.94817911175872",
    "latitude": "30.02460772396782",
    "geocoded_column": {
      "latitude": "30.02460772396782",
      "longitude": "-89.94817911175872"
    }
  },
  {
    "service_request": "2022-851910",
    "request_type": "Abandoned Vehicles",
    "request_reason": "Abandoned/Junk Vehicles",
    "date_created": "2022-01-04T16:30:02.000",
    "date_modified": "2022-01-04T16:30:02.000",
    "request_status": "Pending",
    "responsible_agency": "Department of Public Works",
    "final_address": "1520 Esplanade Ave",
    "address_councildis": "D",
    "status": "Pending",
    "rowid": "851910",
    "final_x": "3681390.58703",
    "final_y": "536391.951239",
    "longitude": "-90.06824595953641",
    "latitude": "29.968895206115313",
    "geocoded_column": {
      "latitude": "29.968895206115313",
      "longitude": "-90.06824595953641"
    }
  },
  {
    "service_request": "2022-851909",
    "request_type": "Trash/Recycling",
    "request_reason": "Request a Large Item Pick Up",
    "date_created": "2022-01-04T16:26:20.000",
    "date_modified": "2022-01-04T16:26:21.000",
    "request_status": "Pending",
    "responsible_agency": "Department of Sanitation",
    "final_address": "3766 Preston Pl",
    "address_councildis": "C",
    "status": "Assigned to Contractor",
    "contractor": "Richards Disposal",
    "rowid": "851909",
    "final_x": "3708294.67755",
    "final_y": "517092.210165",
    "longitude": "-89.98399962158388",
    "latitude": "29.914983625950814",
    "geocoded_column": {
      "latitude": "29.914983625950814",
      "longitude": "-89.98399962158388"
    }
  },
  {
    "service_request": "2022-851907",
    "request_type": "Parks & Parkways",
    "request_reason": "Request Tree Service (Right of Way/Public Property)",
    "date_created": "2022-01-04T16:22:39.000",
    "date_modified": "2022-01-04T16:22:39.000",
    "request_status": "Pending",
    "responsible_agency": "Department of Parks & Parkway",
    "final_address": "4516 Banks St",
    "address_councildis": "A",
    "status": "Pending",
    "rowid": "851907",
    "final_x": "3668800.79822",
    "final_y": "538485.374281",
    "longitude": "-90.10793473961812",
    "latitude": "29.975027614527956",
    "geocoded_column": {
      "latitude": "29.975027614527956",
      "longitude": "-90.10793473961812"
    }
  },
  {
    "service_request": "2022-851906",
    "request_type": "Trash/Recycling",
    "request_reason": "Repair Trash Cart",
    "date_created": "2022-01-04T16:22:27.000",
    "date_modified": "2022-01-04T16:22:28.000",
    "request_status": "Pending",
    "responsible_agency": "Department of Sanitation",
    "final_address": "7425 Malvern Dr",
    "address_councildis": "E",
    "status": "Assigned to Contractor",
    "contractor": "Metro Disposal",
    "rowid": "851906",
    "final_x": "3702725.15249",
    "final_y": "561126.749342",
    "longitude": "-89.99996155161045",
    "latitude": "30.036241669094775",
    "geocoded_column": {
      "latitude": "30.036241669094775",
      "longitude": "-89.99996155161045"
    }
  },
  {
    "service_request": "2022-851905",
    "request_type": "Trash/Recycling",
    "request_reason": "Illegal Dumping",
    "date_created": "2022-01-04T16:21:08.000",
    "date_modified": "2022-01-04T16:21:08.000",
    "request_status": "Pending",
    "responsible_agency": "Department of Sanitation",
    "final_address": "2806 Ursulines Ave",
    "address_councildis": "A",
    "status": "Pending",
    "rowid": "851905",
    "final_x": "3677047.19662",
    "final_y": "538495.153801",
    "longitude": "-90.08189013108394",
    "latitude": "29.974809436691864",
    "geocoded_column": {
      "latitude": "29.974809436691864",
      "longitude": "-90.08189013108394"
    }
  },
  {
    "service_request": "2022-851904",
    "request_type": "Trash/Recycling",
    "request_reason": "Illegal Dumping",
    "date_created": "2022-01-04T16:17:06.000",
    "date_modified": "2022-01-04T16:17:06.000",
    "request_status": "Pending",
    "responsible_agency": "Department of Code Enforcement",
    "final_address": "5029 Columbia St",
    "address_councildis": "D",
    "status": "Pending",
    "rowid": "851904",
    "final_x": "3690684.60368",
    "final_y": "558644.85878",
    "longitude": "-90.03810058151723",
    "latitude": "30.029797167816906",
    "geocoded_column": {
      "latitude": "30.029797167816906",
      "longitude": "-90.03810058151723"
    }
  },
  {
    "service_request": "2022-851903",
    "request_type": "Trash/Recycling",
    "request_reason": "Request a Large Item Pick Up",
    "date_created": "2022-01-04T16:08:11.000",
    "date_modified": "2022-01-04T16:08:13.000",
    "request_status": "Pending",
    "responsible_agency": "Department of Sanitation",
    "final_address": "7606 Briarwood Dr",
    "address_councildis": "E",
    "status": "Assigned to Contractor",
    "contractor": "Metro Disposal",
    "rowid": "851903",
    "final_x": "3717569.42399",
    "final_y": "570666.208999",
    "longitude": "-89.95268806288345",
    "latitude": "30.06198795357779",
    "geocoded_column": {
      "latitude": "30.06198795357779",
      "longitude": "-89.95268806288345"
    }
  },
  {
    "service_request": "2022-851902",
    "request_type": "Traffic Signals/Signs/Striping/Streetlights",
    "request_reason": "Street Light Outage/Malfunction",
    "date_created": "2022-01-04T16:06:39.000",
    "date_modified": "2022-01-04T16:06:40.000",
    "request_status": "Pending",
    "responsible_agency": "Department of Public Works",
    "final_address": "2725 Robert E Lee Blvd",
    "address_councildis": "D",
    "status": "Pending",
    "contractor": "Royal Engineering",
    "rowid": "851902",
    "final_x": "3687273.87209",
    "final_y": "556125.911706",
    "longitude": "-90.04896766321231",
    "latitude": "30.022976572173622",
    "geocoded_column": {
      "latitude": "30.022976572173622",
      "longitude": "-90.04896766321231"
    }
  },
  {
    "service_request": "2022-851901",
    "request_type": "Trash/Recycling",
    "request_reason": "Repair Trash Cart",
    "date_created": "2022-01-04T16:06:08.000",
    "date_modified": "2022-01-04T16:06:09.000",
    "request_status": "Pending",
    "responsible_agency": "Department of Sanitation",
    "final_address": "207 S Hennessey St",
    "address_councildis": "A",
    "status": "Assigned to Contractor",
    "contractor": "Richards Disposal",
    "rowid": "851901",
    "final_x": "3669942.60231",
    "final_y": "538574.387209",
    "longitude": "-90.1043256023762",
    "latitude": "29.97523874508205",
    "geocoded_column": {
      "latitude": "29.97523874508205",
      "longitude": "-90.1043256023762"
    }
  },
  {
    "service_request": "2022-851899",
    "request_type": "Trash/Recycling",
    "request_reason": "Request a Large Item Pick Up",
    "date_created": "2022-01-04T15:56:44.000",
    "date_modified": "2022-01-04T15:56:45.000",
    "request_status": "Pending",
    "responsible_agency": "Department of Sanitation",
    "final_address": "7638 Maple St",
    "address_councildis": "A",
    "status": "Assigned to Contractor",
    "contractor": "Richards Disposal",
    "rowid": "851899",
    "final_x": "3662118.32058",
    "final_y": "526287.304574",
    "longitude": "-90.12944459983558",
    "latitude": "29.941681691242138",
    "geocoded_column": {
      "latitude": "29.941681691242138",
      "longitude": "-90.12944459983558"
    }
  },
  {
    "service_request": "2022-851896",
    "request_type": "Parks & Parkways",
    "request_reason": "Request Tree Service (Right of Way/Public Property)",
    "date_created": "2022-01-04T15:53:46.000",
    "date_modified": "2022-01-04T16:04:06.000",
    "request_status": "Pending",
    "responsible_agency": "Department of Parks & Parkway",
    "final_address": "11937 Curran Rd",
    "address_councildis": "E",
    "status": "Pending",
    "rowid": "851896",
    "final_x": "3713123.0172",
    "final_y": "567940.308133",
    "longitude": "-89.96684582046665",
    "latitude": "30.05463940732781",
    "geocoded_column": {
      "latitude": "30.05463940732781",
      "longitude": "-89.96684582046665"
    }
  },
  {
    "service_request": "2022-851895",
    "request_type": "Trash/Recycling",
    "request_reason": "Replace Trash Cart",
    "date_created": "2022-01-04T15:51:14.000",
    "date_modified": "2022-01-04T15:51:15.000",
    "request_status": "Pending",
    "responsible_agency": "Department of Sanitation",
    "final_address": "4921 S Claiborne Ave",
    "address_councildis": "B",
    "status": "Assigned to Contractor",
    "contractor": "Richards Disposal",
    "rowid": "851895",
    "final_x": "3669066.68327",
    "final_y": "526013.638269",
    "longitude": "-90.10751638588606",
    "latitude": "29.940726632366168",
    "geocoded_column": {
      "latitude": "29.940726632366168",
      "longitude": "-90.10751638588606"
    }
  },
  {
    "service_request": "2022-851894",
    "request_type": "Traffic Signals/Signs/Striping/Streetlights",
    "request_reason": "Street Light Knocked Down/Leaning",
    "date_created": "2022-01-04T15:50:31.000",
    "date_modified": "2022-01-04T15:50:32.000",
    "request_status": "Pending",
    "responsible_agency": "Department of Public Works",
    "final_address": "3330 Indiana St",
    "address_councildis": "C",
    "status": "Pending",
    "contractor": "Royal Engineering",
    "rowid": "851894",
    "final_x": "3694061.00688",
    "final_y": "521023.417465",
    "longitude": "-90.02878471576668",
    "latitude": "29.92624633400904",
    "geocoded_column": {
      "latitude": "29.92624633400904",
      "longitude": "-90.02878471576668"
    }
  },
  {
    "service_request": "2022-851893",
    "request_type": "Roads/Drainage",
    "request_reason": "Road Shoulder Repair",
    "date_created": "2022-01-04T15:39:51.000",
    "date_modified": "2022-01-04T15:39:51.000",
    "request_status": "Pending",
    "responsible_agency": "Department of Public Works",
    "final_address": "500 N Carrollton Ave",
    "address_councildis": "A",
    "status": "Pending",
    "rowid": "851893",
    "final_x": "3672388.13723",
    "final_y": "539543.875082",
    "longitude": "-90.09656889126259",
    "latitude": "29.977832156177136",
    "geocoded_column": {
      "latitude": "29.977832156177136",
      "longitude": "-90.09656889126259"
    }
  },
  {
    "service_request": "2022-851890",
    "request_type": "Parks & Parkways",
    "request_reason": "Request Tree Service (Right of Way/Public Property)",
    "date_created": "2022-01-04T15:33:50.000",
    "date_modified": "2022-01-04T15:33:50.000",
    "request_status": "Pending",
    "responsible_agency": "Department of Parks & Parkway",
    "final_address": "5151 Carlisle Ct",
    "address_councildis": "C",
    "status": "Pending",
    "rowid": "851890",
    "final_x": "3703229.01348",
    "final_y": "516504.488245",
    "longitude": "-90.0000101400889",
    "latitude": "29.91353064606107",
    "geocoded_column": {
      "latitude": "29.91353064606107",
      "longitude": "-90.0000101400889"
    }
  },
  {
    "service_request": "2022-851889",
    "request_type": "Traffic Signals/Signs/Striping/Streetlights",
    "request_reason": "Street Light Outage/Malfunction",
    "date_created": "2022-01-04T15:32:35.000",
    "date_modified": "2022-01-04T15:32:36.000",
    "request_status": "Pending",
    "responsible_agency": "Department of Public Works",
    "final_address": "3601 Texas Dr",
    "address_councildis": "C",
    "status": "Pending",
    "contractor": "Royal Engineering",
    "rowid": "851889",
    "final_x": "3696443.17898",
    "final_y": "518476.518774",
    "longitude": "-90.02135697321798",
    "latitude": "29.91916843843383",
    "geocoded_column": {
      "latitude": "29.91916843843383",
      "longitude": "-90.02135697321798"
    }
  },
  {
    "service_request": "2022-851888",
    "request_type": "Trash/Recycling",
    "request_reason": "Request a Large Item Pick Up",
    "date_created": "2022-01-04T15:28:48.000",
    "date_modified": "2022-01-04T15:28:49.000",
    "request_status": "Pending",
    "responsible_agency": "Department of Sanitation",
    "final_address": "7328 Spruce St",
    "address_councildis": "A",
    "status": "Assigned to Contractor",
    "contractor": "Richards Disposal",
    "rowid": "851888",
    "final_x": "3665244.26042",
    "final_y": "529082.727936",
    "longitude": "-90.11948183692415",
    "latitude": "29.949277527865757",
    "geocoded_column": {
      "latitude": "29.949277527865757",
      "longitude": "-90.11948183692415"
    }
  },
  {
    "service_request": "2022-851887",
    "request_type": "Trash/Recycling",
    "request_reason": "Request a Large Item Pick Up",
    "date_created": "2022-01-04T15:27:43.000",
    "date_modified": "2022-01-04T15:27:43.000",
    "request_status": "Pending",
    "responsible_agency": "Department of Sanitation",
    "final_address": "7638 Maple St",
    "address_councildis": "A",
    "status": "Assigned to Contractor",
    "contractor": "Richards Disposal",
    "rowid": "851887",
    "final_x": "3662118.32058",
    "final_y": "526287.304574",
    "longitude": "-90.12944459983558",
    "latitude": "29.941681691242138",
    "geocoded_column": {
      "latitude": "29.941681691242138",
      "longitude": "-90.12944459983558"
    }
  },
  {
    "service_request": "2022-851886",
    "request_type": "Trash/Recycling",
    "request_reason": "Return Trash Cart",
    "date_created": "2022-01-04T15:26:34.000",
    "date_modified": "2022-01-04T15:26:35.000",
    "request_status": "Pending",
    "responsible_agency": "Department of Sanitation",
    "final_address": "11294 Midpoint Dr",
    "address_councildis": "E",
    "status": "Assigned to Contractor",
    "contractor": "Metro Disposal",
    "rowid": "851886",
    "final_x": "3718522.56185",
    "final_y": "559483.636253",
    "longitude": "-89.95010193325913",
    "latitude": "30.03120885078771",
    "geocoded_column": {
      "latitude": "30.03120885078771",
      "longitude": "-89.95010193325913"
    }
  },
  {
    "service_request": "2022-851885",
    "request_type": "Trash/Recycling",
    "request_reason": "Illegal Dumping",
    "date_created": "2022-01-04T15:25:40.000",
    "date_modified": "2022-01-04T15:25:40.000",
    "request_status": "Pending",
    "responsible_agency": "Department of Sanitation",
    "final_address": "SUNSET AVE & LAMARQUE ST",
    "address_councildis": "C",
    "status": "Pending",
    "rowid": "851885",
    "final_x": "3688961.9",
    "final_y": "526749.78",
    "longitude": "-90.04467779815948",
    "latitude": "29.94215054247674",
    "geocoded_column": {
      "latitude": "29.94215054247674",
      "longitude": "-90.04467779815948"
    }
  },
  {
    "service_request": "2022-851884",
    "request_type": "Traffic Signals/Signs/Striping/Streetlights",
    "request_reason": "Street Light Knocked Down/Leaning",
    "date_created": "2022-01-04T15:22:45.000",
    "date_modified": "2022-01-04T15:22:46.000",
    "request_status": "Pending",
    "responsible_agency": "Department of Public Works",
    "final_address": "1515 St Roch Ave",
    "address_councildis": "C",
    "status": "Pending",
    "contractor": "Royal Engineering",
    "rowid": "851884",
    "final_x": "3686442.48207",
    "final_y": "538026.026185",
    "longitude": "-90.0522340905794",
    "latitude": "29.973234008398556",
    "geocoded_column": {
      "latitude": "29.973234008398556",
      "longitude": "-90.0522340905794"
    }
  },
  {
    "service_request": "2022-851883",
    "request_type": "Traffic Signals/Signs/Striping/Streetlights",
    "request_reason": "Street Light Knocked Down/Leaning",
    "date_created": "2022-01-04T15:20:53.000",
    "date_modified": "2022-01-04T15:20:54.000",
    "request_status": "Pending",
    "responsible_agency": "Department of Public Works",
    "final_address": "1541 St Roch Ave",
    "address_councildis": "C",
    "status": "Pending",
    "contractor": "Royal Engineering",
    "rowid": "851883",
    "final_x": "3686470.14076",
    "final_y": "538237.511561",
    "longitude": "-90.05213927095564",
    "latitude": "29.973814668775066",
    "geocoded_column": {
      "latitude": "29.973814668775066",
      "longitude": "-90.05213927095564"
    }
  },
  {
    "service_request": "2022-851882",
    "request_type": "Traffic Signals/Signs/Striping/Streetlights",
    "request_reason": "Street Light Knocked Down/Leaning",
    "date_created": "2022-01-04T15:19:39.000",
    "date_modified": "2022-01-04T15:19:40.000",
    "request_status": "Pending",
    "responsible_agency": "Department of Public Works",
    "final_address": "1540 St Roch Ave",
    "address_councildis": "C",
    "status": "Pending",
    "contractor": "Royal Engineering",
    "rowid": "851882",
    "final_x": "3686247.89218",
    "final_y": "538209.580169",
    "longitude": "-90.05284216507283",
    "latitude": "29.973744698300056",
    "geocoded_column": {
      "latitude": "29.973744698300056",
      "longitude": "-90.05284216507283"
    }
  },
  {
    "service_request": "2022-851881",
    "request_type": "Traffic Signals/Signs/Striping/Streetlights",
    "request_reason": "Street Light Outage/Malfunction",
    "date_created": "2022-01-04T15:17:56.000",
    "date_modified": "2022-01-04T15:17:57.000",
    "request_status": "Pending",
    "responsible_agency": "Department of Public Works",
    "final_address": "1540 St Roch Ave",
    "address_councildis": "C",
    "status": "Pending",
    "contractor": "Royal Engineering",
    "rowid": "851881",
    "final_x": "3686247.89218",
    "final_y": "538209.580169",
    "longitude": "-90.05284216507283",
    "latitude": "29.973744698300056",
    "geocoded_column": {
      "latitude": "29.973744698300056",
      "longitude": "-90.05284216507283"
    }
  },
  {
    "service_request": "2022-851880",
    "request_type": "Roads/Drainage",
    "request_reason": "Road Shoulder Repair",
    "date_created": "2022-01-04T15:15:07.000",
    "date_modified": "2022-01-04T15:15:07.000",
    "request_status": "Pending",
    "responsible_agency": "Department of Public Works",
    "final_address": "1503 Mandeville St",
    "address_councildis": "C",
    "status": "Pending",
    "rowid": "851880",
    "final_x": "3685689.10748",
    "final_y": "537892.205897",
    "longitude": "-90.05461811085982",
    "latitude": "29.972889188350138",
    "geocoded_column": {
      "latitude": "29.972889188350138",
      "longitude": "-90.05461811085982"
    }
  },
  {
    "service_request": "2022-851875",
    "request_type": "Parks & Parkways",
    "request_reason": "Request Tree Service (Right of Way/Public Property)",
    "date_created": "2022-01-04T15:02:48.000",
    "date_modified": "2022-01-04T15:02:48.000",
    "request_status": "Pending",
    "responsible_agency": "Department of Parks & Parkway",
    "final_address": "1738 Shirley Dr",
    "address_councildis": "C",
    "status": "Pending",
    "rowid": "851875",
    "final_x": "3693085.53225",
    "final_y": "523650.858875",
    "longitude": "-90.03176978509025",
    "latitude": "29.93350140759532",
    "geocoded_column": {
      "latitude": "29.93350140759532",
      "longitude": "-90.03176978509025"
    }
  },
  {
    "service_request": "2022-851872",
    "request_type": "Roads/Drainage",
    "request_reason": "Street Flooding / Drainage",
    "date_created": "2022-01-04T15:02:15.000",
    "date_modified": "2022-01-04T15:02:15.000",
    "request_status": "Pending",
    "responsible_agency": "Department of Public Works",
    "final_address": "1501 Mandeville St",
    "address_councildis": "C",
    "status": "Pending",
    "rowid": "851872",
    "final_x": "3685693.2742",
    "final_y": "537873.872585",
    "longitude": "-90.05460559774029",
    "latitude": "29.972838650290722",
    "geocoded_column": {
      "latitude": "29.972838650290722",
      "longitude": "-90.05460559774029"
    }
  },
  {
    "service_request": "2022-851871",
    "request_type": "Trash/Recycling",
    "request_reason": "Illegal Dumping",
    "date_created": "2022-01-04T14:58:50.000",
    "date_modified": "2022-01-04T14:58:50.000",
    "request_status": "Pending",
    "responsible_agency": "Department of Sanitation",
    "final_address": "N DORGENOIS ST & FELICIANA ST",
    "address_councildis": "D",
    "status": "Pending",
    "rowid": "851871",
    "final_x": "3690052.6",
    "final_y": "541341.08",
    "longitude": "-90.04071454247514",
    "latitude": "29.982237752202145",
    "geocoded_column": {
      "latitude": "29.982237752202145",
      "longitude": "-90.04071454247514"
    }
  },
  {
    "service_request": "2022-851870",
    "request_type": "Trash/Recycling",
    "request_reason": "Missed Trash Pick-Up",
    "date_created": "2022-01-04T14:58:24.000",
    "date_modified": "2022-01-04T14:58:24.000",
    "request_status": "Pending",
    "responsible_agency": "Department of Sanitation",
    "final_address": "1210 Harrison Ave",
    "address_councildis": "D",
    "status": "Assigned to Contractor",
    "contractor": "Metro Disposal",
    "rowid": "851870",
    "final_x": "3676695.29352",
    "final_y": "547406.962577",
    "longitude": "-90.08269433079994",
    "latitude": "29.99932437606389",
    "geocoded_column": {
      "latitude": "29.99932437606389",
      "longitude": "-90.08269433079994"
    }
  },
  {
    "service_request": "2022-851869",
    "request_type": "Trash/Recycling",
    "request_reason": "Request a Large Item Pick Up",
    "date_created": "2022-01-04T14:54:53.000",
    "date_modified": "2022-01-04T14:54:53.000",
    "request_status": "Pending",
    "responsible_agency": "Department of Sanitation",
    "final_address": "7555 Michigan St",
    "address_councildis": "E",
    "status": "Assigned to Contractor",
    "contractor": "Metro Disposal",
    "rowid": "851869",
    "final_x": "3712058.00312",
    "final_y": "566171.565987",
    "longitude": "-89.97027856465195",
    "latitude": "30.049810965478862",
    "geocoded_column": {
      "latitude": "30.049810965478862",
      "longitude": "-89.97027856465195"
    }
  },
  {
    "service_request": "2022-851868",
    "request_type": "Trash/Recycling",
    "request_reason": "Missed Trash Pick-Up",
    "date_created": "2022-01-04T14:54:37.000",
    "date_modified": "2022-01-04T14:54:37.000",
    "request_status": "Pending",
    "responsible_agency": "Department of Sanitation",
    "final_address": "2820 Eagle St",
    "address_councildis": "A",
    "status": "Assigned to Contractor",
    "contractor": "Richards Disposal",
    "rowid": "851868",
    "final_x": "3664087.22208",
    "final_y": "534442.685253",
    "longitude": "-90.12295636631288",
    "latitude": "29.964049319313503",
    "geocoded_column": {
      "latitude": "29.964049319313503",
      "longitude": "-90.12295636631288"
    }
  },
  {
    "service_request": "2022-851867",
    "request_type": "Traffic Signals/Signs/Striping/Streetlights",
    "request_reason": "Street Light Outage/Malfunction",
    "date_created": "2022-01-04T14:46:16.000",
    "date_modified": "2022-01-04T14:46:17.000",
    "request_status": "Pending",
    "responsible_agency": "Department of Public Works",
    "final_address": "1016 Crete St",
    "address_councildis": "A",
    "status": "Pending",
    "contractor": "Royal Engineering",
    "rowid": "851867",
    "final_x": "3677559.72181",
    "final_y": "538465.779209",
    "longitude": "-90.08027246155306",
    "latitude": "29.97471326520945",
    "geocoded_column": {
      "latitude": "29.97471326520945",
      "longitude": "-90.08027246155306"
    }
  },
  {
    "service_request": "2022-851866",
    "request_type": "Abandoned Vehicles",
    "request_reason": "Abandoned/Junk Vehicles",
    "date_created": "2022-01-04T14:43:38.000",
    "date_modified": "2022-01-04T14:43:38.000",
    "request_status": "Pending",
    "responsible_agency": "Department of Public Works",
    "final_address": "2100 Milton St",
    "address_councildis": "D",
    "status": "Pending",
    "rowid": "851866",
    "final_x": "3683618.58946",
    "final_y": "546535.449617",
    "longitude": "-90.06085405317981",
    "latitude": "29.99671843359879",
    "geocoded_column": {
      "latitude": "29.99671843359879",
      "longitude": "-90.06085405317981"
    }
  },
  {
    "service_request": "2022-851865",
    "request_type": "Trash/Recycling",
    "request_reason": "Request a Large Item Pick Up",
    "date_created": "2022-01-04T14:41:06.000",
    "date_modified": "2022-01-04T14:41:08.000",
    "request_status": "Pending",
    "responsible_agency": "Department of Sanitation",
    "final_address": "116 Winthrop Pl",
    "address_councildis": "D",
    "status": "Assigned to Contractor",
    "contractor": "Metro Disposal",
    "rowid": "851865",
    "final_x": "3677670.19362",
    "final_y": "544036.901198",
    "longitude": "-90.07973106673757",
    "latitude": "29.990028597981926",
    "geocoded_column": {
      "latitude": "29.990028597981926",
      "longitude": "-90.07973106673757"
    }
  },
  {
    "service_request": "2022-851864",
    "request_type": "Trash/Recycling",
    "request_reason": "Repair Trash Cart",
    "date_created": "2022-01-04T14:40:38.000",
    "date_modified": "2022-01-04T14:42:09.000",
    "request_status": "Pending",
    "responsible_agency": "Department of Sanitation",
    "final_address": "2037 Soniat St",
    "address_councildis": "B",
    "status": "Assigned to Contractor",
    "contractor": "Richards Disposal",
    "rowid": "851864",
    "final_x": "3668528.85076",
    "final_y": "523178.183099",
    "longitude": "-90.10931004985449",
    "latitude": "29.9329458518581",
    "geocoded_column": {
      "latitude": "29.9329458518581",
      "longitude": "-90.10931004985449"
    }
  },
  {
    "service_request": "2022-851863",
    "request_type": "Trash/Recycling",
    "request_reason": "Illegal Dumping",
    "date_created": "2022-01-04T14:33:24.000",
    "date_modified": "2022-01-04T14:33:24.000",
    "request_status": "Pending",
    "responsible_agency": "Department of Code Enforcement",
    "final_address": "1204 S Telemachus St",
    "address_councildis": "B",
    "status": "Pending",
    "rowid": "851863",
    "final_x": "3669266.70292",
    "final_y": "532838.963204",
    "longitude": "-90.1066541973803",
    "latitude": "29.959488159050576",
    "geocoded_column": {
      "latitude": "29.959488159050576",
      "longitude": "-90.1066541973803"
    }
  },
  {
    "service_request": "2022-851862",
    "request_type": "Trash/Recycling",
    "request_reason": "Missed Trash Pick-Up",
    "date_created": "2022-01-04T14:31:27.000",
    "date_modified": "2022-01-04T14:31:28.000",
    "request_status": "Pending",
    "responsible_agency": "Department of Sanitation",
    "final_address": "1208 S Telemachus St",
    "address_councildis": "B",
    "status": "Assigned to Contractor",
    "contractor": "Richards Disposal",
    "rowid": "851862",
    "final_x": "3669246.84513",
    "final_y": "532814.112388",
    "longitude": "-90.10671774387609",
    "latitude": "29.959420412049234",
    "geocoded_column": {
      "latitude": "29.959420412049234",
      "longitude": "-90.10671774387609"
    }
  },
  {
    "service_request": "2022-851859",
    "request_type": "Trash/Recycling",
    "request_reason": "Request a Large Item Pick Up",
    "date_created": "2022-01-04T14:29:58.000",
    "date_modified": "2022-01-04T14:29:59.000",
    "request_status": "Pending",
    "responsible_agency": "Department of Sanitation",
    "final_address": "1623 Music St",
    "address_councildis": "D",
    "status": "Assigned to Contractor",
    "contractor": "Metro Disposal",
    "rowid": "851859",
    "final_x": "3686728.86511",
    "final_y": "538498.143049",
    "longitude": "-90.05131295493433",
    "latitude": "29.974523357029124",
    "geocoded_column": {
      "latitude": "29.974523357029124",
      "longitude": "-90.05131295493433"
    }
  },
  {
    "service_request": "2022-851858",
    "request_type": "Trash/Recycling",
    "request_reason": "Request a Large Item Pick Up",
    "date_created": "2022-01-04T14:29:33.000",
    "date_modified": "2022-01-04T14:29:34.000",
    "request_status": "Pending",
    "responsible_agency": "Department of Sanitation",
    "final_address": "2848 Dryades St, New Orleans, Louisiana, 70115",
    "address_councildis": "B",
    "status": "Assigned to Contractor",
    "contractor": "Richards Disposal",
    "rowid": "851858",
    "final_x": "3674993.36539",
    "final_y": "523177.881275",
    "longitude": "-90.08890203628705",
    "latitude": "29.9327535575519",
    "geocoded_column": {
      "latitude": "29.9327535575519",
      "longitude": "-90.08890203628705"
    }
  },
  {
    "service_request": "2022-851857",
    "request_type": "Roads/Drainage",
    "request_reason": "Catch Basin - Broken/Damage",
    "date_created": "2022-01-04T14:27:40.000",
    "date_modified": "2022-01-04T14:27:40.000",
    "request_status": "Pending",
    "responsible_agency": "Department of Public Works",
    "final_address": "6238 Memphis St",
    "address_councildis": "A",
    "status": "Pending",
    "rowid": "851857",
    "final_x": "3669268.51911",
    "final_y": "548886.437523",
    "longitude": "-90.10610572698643",
    "latitude": "30.00361321446988",
    "geocoded_column": {
      "latitude": "30.00361321446988",
      "longitude": "-90.10610572698643"
    }
  },
  {
    "service_request": "2022-851856",
    "request_type": "COVID-19",
    "request_reason": "COVID-19 Business Non-Compliance",
    "date_created": "2022-01-04T14:24:51.000",
    "date_modified": "2022-01-04T14:24:52.000",
    "request_status": "Pending",
    "responsible_agency": "Safety and Permits",
    "final_address": "3100 Calhoun St",
    "address_councildis": "A",
    "status": "Pending",
    "rowid": "851856",
    "final_x": "3667114.29857",
    "final_y": "528283.924992",
    "longitude": "-90.11360412465027",
    "latitude": "29.94702647459984",
    "geocoded_column": {
      "latitude": "29.94702647459984",
      "longitude": "-90.11360412465027"
    }
  },
  {
    "service_request": "2022-851855",
    "request_type": "Roads/Drainage",
    "request_reason": "Pothole",
    "date_created": "2022-01-04T14:24:31.000",
    "date_modified": "2022-01-04T14:24:31.000",
    "request_status": "Pending",
    "responsible_agency": "Department of Public Works",
    "final_address": "PALMETTO ST & CHERRY ST",
    "address_councildis": "A",
    "status": "Pending",
    "rowid": "851855",
    "final_x": "3664991.7",
    "final_y": "537977.18",
    "longitude": "-90.1199819013071",
    "latitude": "29.973741708965985",
    "geocoded_column": {
      "latitude": "29.973741708965985",
      "longitude": "-90.1199819013071"
    }
  },
  {
    "service_request": "2022-851854",
    "request_type": "Trash/Recycling",
    "request_reason": "Replace Trash Cart",
    "date_created": "2022-01-04T14:23:49.000",
    "date_modified": "2022-01-04T14:23:49.000",
    "request_status": "Pending",
    "responsible_agency": "Department of Sanitation",
    "final_address": "2514 St Philip St",
    "address_councildis": "D",
    "status": "Assigned to Contractor",
    "contractor": "Richards Disposal",
    "rowid": "851854",
    "final_x": "3678080.00648",
    "final_y": "537265.117064",
    "longitude": "-90.0786707941243",
    "latitude": "29.97139620128016",
    "geocoded_column": {
      "latitude": "29.97139620128016",
      "longitude": "-90.0786707941243"
    }
  },
  {
    "service_request": "2022-851853",
    "request_type": "Traffic Signals/Signs/Striping/Streetlights",
    "request_reason": "Street Name Sign Damaged or Missing",
    "date_created": "2022-01-04T14:21:44.000",
    "date_modified": "2022-01-04T14:21:44.000",
    "request_status": "Pending",
    "responsible_agency": "Department of Public Works",
    "final_address": "CAMBRONNE ST & PALMETTO ST",
    "address_councildis": "A",
    "status": "Pending",
    "rowid": "851853",
    "final_x": "3667400.3",
    "final_y": "535946.08",
    "longitude": "-90.11244334027134",
    "latitude": "29.968086511116468",
    "geocoded_column": {
      "latitude": "29.968086511116468",
      "longitude": "-90.11244334027134"
    }
  },
  {
    "service_request": "2022-851851",
    "request_type": "Traffic Signals/Signs/Striping/Streetlights",
    "request_reason": "Street Light Outage/Malfunction",
    "date_created": "2022-01-04T14:17:51.000",
    "date_modified": "2022-01-04T14:17:51.000",
    "request_status": "Pending",
    "responsible_agency": "Department of Public Works",
    "final_address": "325 Opelousas Ave",
    "address_councildis": "C",
    "status": "Pending",
    "contractor": "Royal Engineering",
    "rowid": "851851",
    "final_x": "3686326.70818",
    "final_y": "528991.73248",
    "longitude": "-90.05291855780796",
    "latitude": "29.94839637815939",
    "geocoded_column": {
      "latitude": "29.94839637815939",
      "longitude": "-90.05291855780796"
    }
  },
  {
    "service_request": "2022-851850",
    "request_type": "Traffic Signals/Signs/Striping/Streetlights",
    "request_reason": "Street Light Outage/Malfunction",
    "date_created": "2022-01-04T14:17:24.000",
    "date_modified": "2022-01-04T14:17:25.000",
    "request_status": "Pending",
    "responsible_agency": "Department of Public Works",
    "final_address": "325 Opelousas Ave",
    "address_councildis": "C",
    "status": "Pending",
    "contractor": "Royal Engineering",
    "rowid": "851850",
    "final_x": "3686326.70818",
    "final_y": "528991.73248",
    "longitude": "-90.05291855780796",
    "latitude": "29.94839637815939",
    "geocoded_column": {
      "latitude": "29.94839637815939",
      "longitude": "-90.05291855780796"
    }
  },
  {
    "service_request": "2022-851849",
    "request_type": "Traffic Signals/Signs/Striping/Streetlights",
    "request_reason": "Street Light Outage/Malfunction",
    "date_created": "2022-01-04T14:17:05.000",
    "date_modified": "2022-01-04T14:17:06.000",
    "request_status": "Pending",
    "responsible_agency": "Department of Public Works",
    "final_address": "325 Opelousas Ave",
    "address_councildis": "C",
    "status": "Pending",
    "contractor": "Royal Engineering",
    "rowid": "851849",
    "final_x": "3686326.70818",
    "final_y": "528991.73248",
    "longitude": "-90.05291855780796",
    "latitude": "29.94839637815939",
    "geocoded_column": {
      "latitude": "29.94839637815939",
      "longitude": "-90.05291855780796"
    }
  },
  {
    "service_request": "2022-851848",
    "request_type": "Traffic Signals/Signs/Striping/Streetlights",
    "request_reason": "Street Light Outage/Malfunction",
    "date_created": "2022-01-04T14:16:49.000",
    "date_modified": "2022-01-04T14:16:49.000",
    "request_status": "Pending",
    "responsible_agency": "Department of Public Works",
    "final_address": "325 Opelousas Ave",
    "address_councildis": "C",
    "status": "Pending",
    "contractor": "Royal Engineering",
    "rowid": "851848",
    "final_x": "3686326.70818",
    "final_y": "528991.73248",
    "longitude": "-90.05291855780796",
    "latitude": "29.94839637815939",
    "geocoded_column": {
      "latitude": "29.94839637815939",
      "longitude": "-90.05291855780796"
    }
  },
  {
    "service_request": "2022-851847",
    "request_type": "Traffic Signals/Signs/Striping/Streetlights",
    "request_reason": "Street Light Outage/Malfunction",
    "date_created": "2022-01-04T14:16:30.000",
    "date_modified": "2022-01-04T14:16:30.000",
    "request_status": "Pending",
    "responsible_agency": "Department of Public Works",
    "final_address": "325 Opelousas Ave",
    "address_councildis": "C",
    "status": "Pending",
    "contractor": "Royal Engineering",
    "rowid": "851847",
    "final_x": "3686326.70818",
    "final_y": "528991.73248",
    "longitude": "-90.05291855780796",
    "latitude": "29.94839637815939",
    "geocoded_column": {
      "latitude": "29.94839637815939",
      "longitude": "-90.05291855780796"
    }
  },
  {
    "service_request": "2022-851846",
    "request_type": "Trash/Recycling",
    "request_reason": "Request a Large Item Pick Up",
    "date_created": "2022-01-04T14:14:00.000",
    "date_modified": "2022-01-04T14:14:01.000",
    "request_status": "Pending",
    "responsible_agency": "Department of Sanitation",
    "final_address": "2012 Saint Louis St, New Orleans, Louisiana, 70112",
    "status": "Assigned to Contractor",
    "rowid": "851846",
    "longitude": "0.0",
    "latitude": "0.0",
    "geocoded_column": {
      "latitude": "0.0",
      "longitude": "0.0"
    }
  },
  {
    "service_request": "2022-851845",
    "request_type": "Parks & Parkways",
    "request_reason": "Request Tree Service (Right of Way/Public Property)",
    "date_created": "2022-01-04T14:13:50.000",
    "date_modified": "2022-01-04T14:13:50.000",
    "request_status": "Pending",
    "responsible_agency": "Department of Parks & Parkway",
    "final_address": "7001 West End Blvd",
    "address_councildis": "A",
    "status": "Pending",
    "rowid": "851845",
    "final_x": "3666915.15687",
    "final_y": "554177.727",
    "longitude": "-90.1133624341659",
    "latitude": "30.018231505866364",
    "geocoded_column": {
      "latitude": "30.018231505866364",
      "longitude": "-90.1133624341659"
    }
  },
  {
    "service_request": "2022-851844",
    "request_type": "Traffic Signals/Signs/Striping/Streetlights",
    "request_reason": "Street Light Outage/Malfunction",
    "date_created": "2022-01-04T14:11:50.000",
    "date_modified": "2022-01-04T14:11:54.000",
    "request_status": "Pending",
    "responsible_agency": "Department of Public Works",
    "final_address": "325 Opelousas Ave",
    "address_councildis": "C",
    "status": "Pending",
    "contractor": "Royal Engineering",
    "rowid": "851844",
    "final_x": "3686326.70818",
    "final_y": "528991.73248",
    "longitude": "-90.05291855780796",
    "latitude": "29.94839637815939",
    "geocoded_column": {
      "latitude": "29.94839637815939",
      "longitude": "-90.05291855780796"
    }
  },
  {
    "service_request": "2022-851843",
    "request_type": "Trash/Recycling",
    "request_reason": "Request a Large Item Pick Up",
    "date_created": "2022-01-04T14:06:54.000",
    "date_modified": "2022-01-04T14:06:54.000",
    "request_status": "Pending",
    "responsible_agency": "Department of Sanitation",
    "final_address": "324 Opelousas Ave",
    "address_councildis": "C",
    "status": "Assigned to Contractor",
    "contractor": "Richards Disposal",
    "rowid": "851843",
    "final_x": "3686374.54095",
    "final_y": "529118.557504",
    "longitude": "-90.05276305498681",
    "latitude": "29.948743633988588",
    "geocoded_column": {
      "latitude": "29.948743633988588",
      "longitude": "-90.05276305498681"
    }
  },
  {
    "service_request": "2022-851842",
    "request_type": "Abandoned Vehicles",
    "request_reason": "Abandoned/Junk Vehicles",
    "date_created": "2022-01-04T13:59:58.000",
    "date_modified": "2022-01-04T13:59:58.000",
    "request_status": "Pending",
    "responsible_agency": "Department of Public Works",
    "final_address": "3700 N Rampart St",
    "address_councildis": "C",
    "status": "Pending",
    "rowid": "851842",
    "final_x": "3690875.87049",
    "final_y": "535021.831494",
    "longitude": "-90.03833983631587",
    "latitude": "29.964836493852683",
    "geocoded_column": {
      "latitude": "29.964836493852683",
      "longitude": "-90.03833983631587"
    }
  },
  {
    "service_request": "2022-851841",
    "request_type": "Trash/Recycling",
    "request_reason": "Request a Large Item Pick Up",
    "date_created": "2022-01-04T13:58:16.000",
    "date_modified": "2022-01-04T13:58:17.000",
    "request_status": "Pending",
    "responsible_agency": "Department of Sanitation",
    "final_address": "121 Wilshire Pl",
    "address_councildis": "D",
    "status": "Assigned to Contractor",
    "contractor": "Metro Disposal",
    "rowid": "851841",
    "final_x": "3677553.24872",
    "final_y": "544606.542031",
    "longitude": "-90.08008078447288",
    "latitude": "29.9915984284506",
    "geocoded_column": {
      "latitude": "29.9915984284506",
      "longitude": "-90.08008078447288"
    }
  },
  {
    "service_request": "2022-851840",
    "request_type": "Trash/Recycling",
    "request_reason": "Request a Large Item Pick Up",
    "date_created": "2022-01-04T13:56:56.000",
    "date_modified": "2022-01-04T13:56:57.000",
    "request_status": "Pending",
    "responsible_agency": "Department of Sanitation",
    "final_address": "5861 Colbert St",
    "address_councildis": "A",
    "status": "Assigned to Contractor",
    "contractor": "Metro Disposal",
    "rowid": "851840",
    "final_x": "3667397.91661",
    "final_y": "546611.001489",
    "longitude": "-90.11209190144305",
    "latitude": "29.997411507418374",
    "geocoded_column": {
      "latitude": "29.997411507418374",
      "longitude": "-90.11209190144305"
    }
  },
  {
    "service_request": "2022-851839",
    "request_type": "Trash/Recycling",
    "request_reason": "Missed Trash Pick-Up",
    "date_created": "2022-01-04T13:55:07.000",
    "date_modified": "2022-01-04T13:55:09.000",
    "request_status": "Pending",
    "responsible_agency": "Department of Sanitation",
    "final_address": "816 Nashville Ave, New Orleans, Louisiana, 70115",
    "address_councildis": "A",
    "status": "Assigned to Contractor",
    "contractor": "Richards Disposal",
    "rowid": "851839",
    "final_x": "3665498.84736",
    "final_y": "519142.815095",
    "longitude": "-90.11901059475855",
    "latitude": "29.921938515498844",
    "geocoded_column": {
      "latitude": "29.921938515498844",
      "longitude": "-90.11901059475855"
    }
  },
  {
    "service_request": "2022-851838",
    "request_type": "Abandoned Vehicles",
    "request_reason": "Abandoned/Junk Vehicles",
    "date_created": "2022-01-04T13:53:37.000",
    "date_modified": "2022-01-04T13:53:38.000",
    "request_status": "Pending",
    "responsible_agency": "Department of Public Works",
    "final_address": "5760 Tullis Dr",
    "address_councildis": "C",
    "status": "Pending",
    "rowid": "851838",
    "final_x": "3705298.61847",
    "final_y": "512925.970545",
    "longitude": "-89.99360993333327",
    "latitude": "29.90362456731717",
    "geocoded_column": {
      "latitude": "29.90362456731717",
      "longitude": "-89.99360993333327"
    }
  },
  {
    "service_request": "2022-851835",
    "request_type": "Roads/Drainage",
    "request_reason": "Pothole",
    "date_created": "2022-01-04T13:43:58.000",
    "date_modified": "2022-01-04T13:43:58.000",
    "request_status": "Pending",
    "responsible_agency": "Department of Public Works",
    "final_address": "811 Moss St",
    "address_councildis": "A",
    "status": "Pending",
    "rowid": "851835",
    "final_x": "3674259.23873",
    "final_y": "539339.521738",
    "longitude": "-90.09066629459298",
    "latitude": "29.977214590253784",
    "geocoded_column": {
      "latitude": "29.977214590253784",
      "longitude": "-90.09066629459298"
    }
  },
  {
    "service_request": "2022-851833",
    "request_type": "Trash/Recycling",
    "request_reason": "Replace Trash Cart",
    "date_created": "2022-01-04T13:37:19.000",
    "date_modified": "2022-01-04T13:37:20.000",
    "request_status": "Pending",
    "responsible_agency": "Department of Sanitation",
    "final_address": "2833 Chestnut St, New Orleans, Louisiana, 70115",
    "address_councildis": "B",
    "status": "Assigned to Contractor",
    "contractor": "Richards Disposal",
    "rowid": "851833",
    "final_x": "3676372.01499",
    "final_y": "521309.684537",
    "longitude": "-90.08461401815946",
    "latitude": "29.92757538232393",
    "geocoded_column": {
      "latitude": "29.92757538232393",
      "longitude": "-90.08461401815946"
    }
  },
  {
    "service_request": "2022-851832",
    "request_type": "Abandoned Vehicles",
    "request_reason": "Abandoned/Junk Vehicles",
    "date_created": "2022-01-04T13:35:06.000",
    "date_modified": "2022-01-04T13:35:06.000",
    "request_status": "Pending",
    "responsible_agency": "Department of Public Works",
    "final_address": "2600 Banks St",
    "address_councildis": "B",
    "status": "Pending",
    "rowid": "851832",
    "final_x": "3675016.30683",
    "final_y": "533772.105605",
    "longitude": "-90.0884662563443",
    "latitude": "29.961883486636783",
    "geocoded_column": {
      "latitude": "29.961883486636783",
      "longitude": "-90.0884662563443"
    }
  },
  {
    "service_request": "2022-851831",
    "request_type": "Trash/Recycling",
    "request_reason": "Order Trash Cart",
    "date_created": "2022-01-04T13:32:27.000",
    "date_modified": "2022-01-04T13:32:28.000",
    "request_status": "Pending",
    "responsible_agency": "Department of Sanitation",
    "final_address": "4624 DHemecourt St",
    "address_councildis": "A",
    "status": "Assigned to Contractor",
    "contractor": "Richards Disposal",
    "rowid": "851831",
    "final_x": "3668088.52148",
    "final_y": "538090.255881",
    "longitude": "-90.11019762148544",
    "latitude": "29.97396209727272",
    "geocoded_column": {
      "latitude": "29.97396209727272",
      "longitude": "-90.11019762148544"
    }
  },
  {
    "service_request": "2022-851830",
    "request_type": "Property Maintenance",
    "request_reason": "Property Maintenance",
    "date_created": "2022-01-04T13:29:29.000",
    "date_modified": "2022-01-04T13:29:29.000",
    "request_status": "Pending",
    "responsible_agency": "Department of Code Enforcement",
    "final_address": "4123 Clara St",
    "address_councildis": "B",
    "status": "Pending",
    "rowid": "851830",
    "final_x": "3671386.9323",
    "final_y": "525281.540093",
    "longitude": "-90.1002158160566",
    "latitude": "29.938645143984797",
    "geocoded_column": {
      "latitude": "29.938645143984797",
      "longitude": "-90.1002158160566"
    }
  },
  {
    "service_request": "2022-851829",
    "request_type": "Property Maintenance",
    "request_reason": "Property Maintenance",
    "date_created": "2022-01-04T13:28:24.000",
    "date_modified": "2022-01-04T13:28:24.000",
    "request_status": "Pending",
    "responsible_agency": "Department of Code Enforcement",
    "final_address": "5311 Marcia Ave",
    "address_councildis": "A",
    "status": "Pending",
    "rowid": "851829",
    "final_x": "3664649.13696",
    "final_y": "543342.315598",
    "longitude": "-90.12088450179913",
    "latitude": "29.988504002354087",
    "geocoded_column": {
      "latitude": "29.988504002354087",
      "longitude": "-90.12088450179913"
    }
  },
  {
    "service_request": "2022-851828",
    "request_type": "Abandoned Vehicles",
    "request_reason": "Abandoned/Junk Vehicles",
    "date_created": "2022-01-04T13:27:27.000",
    "date_modified": "2022-01-04T13:27:27.000",
    "request_status": "Pending",
    "responsible_agency": "Department of Public Works",
    "final_address": "501 S Olympia St",
    "address_councildis": "A",
    "status": "Pending",
    "rowid": "851828",
    "final_x": "3668359.43182",
    "final_y": "538363.567305",
    "longitude": "-90.10933280250511",
    "latitude": "29.97470565757026",
    "geocoded_column": {
      "latitude": "29.97470565757026",
      "longitude": "-90.10933280250511"
    }
  },
  {
    "service_request": "2022-851827",
    "request_type": "Property Maintenance",
    "request_reason": "Property Maintenance",
    "date_created": "2022-01-04T13:27:12.000",
    "date_modified": "2022-01-04T13:27:12.000",
    "request_status": "Pending",
    "responsible_agency": "Department of Code Enforcement",
    "final_address": "2935 Dryades St",
    "address_councildis": "B",
    "status": "Pending",
    "rowid": "851827",
    "final_x": "3674664.60744",
    "final_y": "523044.733115",
    "longitude": "-90.0899444616384",
    "latitude": "29.9323972568412",
    "geocoded_column": {
      "latitude": "29.9323972568412",
      "longitude": "-90.0899444616384"
    }
  },
  {
    "service_request": "2022-851826",
    "request_type": "Trash/Recycling",
    "request_reason": "Replace Trash Cart",
    "date_created": "2022-01-04T13:27:01.000",
    "date_modified": "2022-01-04T13:27:02.000",
    "request_status": "Pending",
    "responsible_agency": "Department of Sanitation",
    "final_address": "2705 Dante St",
    "address_councildis": "A",
    "status": "Assigned to Contractor",
    "contractor": "Richards Disposal",
    "rowid": "851826",
    "final_x": "3665125.07271",
    "final_y": "532869.996868",
    "longitude": "-90.11973151424455",
    "latitude": "29.959694756766186",
    "geocoded_column": {
      "latitude": "29.959694756766186",
      "longitude": "-90.11973151424455"
    }
  },
  {
    "service_request": "2022-851824",
    "request_type": "Property Maintenance",
    "request_reason": "Property Maintenance",
    "date_created": "2022-01-04T13:25:33.000",
    "date_modified": "2022-01-04T13:25:33.000",
    "request_status": "Pending",
    "responsible_agency": "Department of Code Enforcement",
    "final_address": "2738 Milan St",
    "address_councildis": "B",
    "status": "Pending",
    "rowid": "851824",
    "final_x": "3671144.40737",
    "final_y": "525127.092029",
    "longitude": "-90.10098673923474",
    "latitude": "29.938227636219132",
    "geocoded_column": {
      "latitude": "29.938227636219132",
      "longitude": "-90.10098673923474"
    }
  },
  {
    "service_request": "2022-851823",
    "request_type": "Property Maintenance",
    "request_reason": "Property Maintenance",
    "date_created": "2022-01-04T13:25:21.000",
    "date_modified": "2022-01-04T13:25:21.000",
    "request_status": "Pending",
    "responsible_agency": "Department of Code Enforcement",
    "final_address": "2935 Dryades St",
    "address_councildis": "B",
    "status": "Pending",
    "rowid": "851823",
    "final_x": "3674664.60744",
    "final_y": "523044.733115",
    "longitude": "-90.0899444616384",
    "latitude": "29.9323972568412",
    "geocoded_column": {
      "latitude": "29.9323972568412",
      "longitude": "-90.0899444616384"
    }
  },
  {
    "service_request": "2022-851822",
    "request_type": "Abandoned Vehicles",
    "request_reason": "Abandoned/Junk Vehicles",
    "date_created": "2022-01-04T13:23:34.000",
    "date_modified": "2022-01-04T13:23:34.000",
    "request_status": "Pending",
    "responsible_agency": "Department of Public Works",
    "final_address": "501 S Olympia St",
    "address_councildis": "A",
    "status": "Pending",
    "rowid": "851822",
    "final_x": "3668359.43182",
    "final_y": "538363.567305",
    "longitude": "-90.10933280250511",
    "latitude": "29.97470565757026",
    "geocoded_column": {
      "latitude": "29.97470565757026",
      "longitude": "-90.10933280250511"
    }
  },
  {
    "service_request": "2022-851821",
    "request_type": "Abandoned Vehicles",
    "request_reason": "Abandoned/Junk Vehicles",
    "date_created": "2022-01-04T13:20:33.000",
    "date_modified": "2022-01-04T13:20:33.000",
    "request_status": "Pending",
    "responsible_agency": "Department of Public Works",
    "final_address": "501 S Olympia St",
    "address_councildis": "A",
    "status": "Pending",
    "rowid": "851821",
    "final_x": "3668359.43182",
    "final_y": "538363.567305",
    "longitude": "-90.10933280250511",
    "latitude": "29.97470565757026",
    "geocoded_column": {
      "latitude": "29.97470565757026",
      "longitude": "-90.10933280250511"
    }
  },
  {
    "service_request": "2022-851820",
    "request_type": "Abandoned Vehicles",
    "request_reason": "Abandoned/Junk Vehicles",
    "date_created": "2022-01-04T13:18:13.000",
    "date_modified": "2022-01-04T15:18:47.000",
    "request_status": "Pending",
    "responsible_agency": "Department of Public Works",
    "status": "Inspected",
    "rowid": "851820",
    "longitude": "0.0",
    "latitude": "0.0",
    "geocoded_column": {
      "latitude": "0.0",
      "longitude": "0.0"
    }
  },
  {
    "service_request": "2022-851819",
    "request_type": "Traffic Signals/Signs/Striping/Streetlights",
    "request_reason": "Street Light Outage/Malfunction",
    "date_created": "2022-01-04T13:15:57.000",
    "date_modified": "2022-01-04T13:15:58.000",
    "request_status": "Pending",
    "responsible_agency": "Department of Public Works",
    "final_address": "5627 Bancroft Dr",
    "address_councildis": "D",
    "status": "Pending",
    "contractor": "Royal Engineering",
    "rowid": "851819",
    "final_x": "3676656.26229",
    "final_y": "552846.181527",
    "longitude": "-90.08263008027579",
    "latitude": "30.014281464072237",
    "geocoded_column": {
      "latitude": "30.014281464072237",
      "longitude": "-90.08263008027579"
    }
  },
  {
    "service_request": "2022-851818",
    "request_type": "Roads/Drainage",
    "request_reason": "Catch Basin - Broken/Damage",
    "date_created": "2022-01-04T13:06:19.000",
    "date_modified": "2022-01-04T13:06:19.000",
    "request_status": "Pending",
    "responsible_agency": "Department of Public Works",
    "final_address": "N DERBIGNY ST & LIZARDI ST",
    "address_councildis": "E",
    "status": "Pending",
    "rowid": "851818",
    "final_x": "3697157.2",
    "final_y": "536362.68",
    "longitude": "-90.01845532354714",
    "latitude": "29.968326656962784",
    "geocoded_column": {
      "latitude": "29.968326656962784",
      "longitude": "-90.01845532354714"
    }
  },
  {
    "service_request": "2022-851817",
    "request_type": "Roads/Drainage",
    "request_reason": "Catch Basin - Broken/Damage",
    "date_created": "2022-01-04T13:04:02.000",
    "date_modified": "2022-01-04T13:04:02.000",
    "request_status": "Pending",
    "responsible_agency": "Department of Public Works",
    "final_address": "N DERBIGNY ST & LIZARDI ST",
    "address_councildis": "E",
    "status": "Pending",
    "rowid": "851817",
    "final_x": "3697157.2",
    "final_y": "536362.68",
    "longitude": "-90.01845532354714",
    "latitude": "29.968326656962784",
    "geocoded_column": {
      "latitude": "29.968326656962784",
      "longitude": "-90.01845532354714"
    }
  },
  {
    "service_request": "2022-851816",
    "request_type": "Traffic Signals/Signs/Striping/Streetlights",
    "request_reason": "Traffic Signal Malfunctioning/Damaged",
    "date_created": "2022-01-04T13:00:00.000",
    "date_modified": "2022-01-04T13:00:00.000",
    "request_status": "Pending",
    "responsible_agency": "Department of Public Works",
    "final_address": "BARONNE ST & CALLIOPE ST",
    "address_councildis": "B",
    "status": "Pending",
    "rowid": "851816",
    "final_x": "3679060.1",
    "final_y": "527019.36",
    "longitude": "-90.07593059822653",
    "latitude": "29.94319428493894",
    "geocoded_column": {
      "latitude": "29.94319428493894",
      "longitude": "-90.07593059822653"
    }
  },
  {
    "service_request": "2022-851815",
    "request_type": "Roads/Drainage",
    "request_reason": "Pothole",
    "date_created": "2022-01-04T12:59:22.000",
    "date_modified": "2022-01-04T14:18:30.000",
    "request_status": "Pending",
    "responsible_agency": "Department of Public Works",
    "final_address": "5100 BLK N Derbigny St",
    "address_councildis": "E",
    "status": "Pending",
    "rowid": "851815",
    "final_x": "3697016.70501",
    "final_y": "536394.244913",
    "longitude": "-90.01889786723147",
    "latitude": "29.968417881469808",
    "geocoded_column": {
      "latitude": "29.968417881469808",
      "longitude": "-90.01889786723147"
    }
  },
  {
    "service_request": "2022-851814",
    "request_type": "Traffic Signals/Signs/Striping/Streetlights",
    "request_reason": "Traffic Sign Missing/Damaged",
    "date_created": "2022-01-04T12:58:58.000",
    "date_modified": "2022-01-04T12:58:58.000",
    "request_status": "Pending",
    "responsible_agency": "Department of Public Works",
    "final_address": "1249 N Claiborne Ave",
    "address_councildis": "D",
    "status": "Pending",
    "rowid": "851814",
    "final_x": "3681130.01032",
    "final_y": "536579.285319",
    "longitude": "-90.06906234936373",
    "latitude": "29.96941821842263",
    "geocoded_column": {
      "latitude": "29.96941821842263",
      "longitude": "-90.06906234936373"
    }
  },
  {
    "service_request": "2022-851813",
    "request_type": "Trash/Recycling",
    "request_reason": "Missed Trash Pick-Up",
    "date_created": "2022-01-04T12:53:06.000",
    "date_modified": "2022-01-04T12:53:06.000",
    "request_status": "Pending",
    "responsible_agency": "Department of Sanitation",
    "final_address": "3454 Parkview Pl",
    "address_councildis": "A",
    "status": "Assigned to Contractor",
    "contractor": "Metro Disposal",
    "rowid": "851813",
    "final_x": "3675415.86209",
    "final_y": "543329.78811",
    "longitude": "-90.08687620329555",
    "latitude": "29.98815190581197",
    "geocoded_column": {
      "latitude": "29.98815190581197",
      "longitude": "-90.08687620329555"
    }
  },
  {
    "service_request": "2022-851812",
    "request_type": "Trash/Recycling",
    "request_reason": "Request a Large Item Pick Up",
    "date_created": "2022-01-04T12:49:41.000",
    "date_modified": "2022-01-04T12:49:42.000",
    "request_status": "Pending",
    "responsible_agency": "Department of Sanitation",
    "final_address": "3728 Vincennes Pl, New Orleans, Louisiana, 70125",
    "address_councildis": "A",
    "status": "Assigned to Contractor",
    "contractor": "Richards Disposal",
    "rowid": "851812",
    "final_x": "3668156.72877",
    "final_y": "529414.164289",
    "longitude": "-90.11027468317079",
    "latitude": "29.950103711929017",
    "geocoded_column": {
      "latitude": "29.950103711929017",
      "longitude": "-90.11027468317079"
    }
  },
  {
    "service_request": "2022-851811",
    "request_type": "Trash/Recycling",
    "request_reason": "Replace Trash Cart",
    "date_created": "2022-01-04T12:48:14.000",
    "date_modified": "2022-01-04T12:48:15.000",
    "request_status": "Pending",
    "responsible_agency": "Department of Sanitation",
    "final_address": "1138 Amelia St",
    "address_councildis": "B",
    "status": "Assigned to Contractor",
    "contractor": "Richards Disposal",
    "rowid": "851811",
    "final_x": "3673541.70088",
    "final_y": "519425.264055",
    "longitude": "-90.09361300690314",
    "latitude": "29.92247833975484",
    "geocoded_column": {
      "latitude": "29.92247833975484",
      "longitude": "-90.09361300690314"
    }
  },
  {
    "service_request": "2022-851810",
    "request_type": "Trash/Recycling",
    "request_reason": "Order Recycling Cart",
    "date_created": "2022-01-04T12:47:37.000",
    "date_modified": "2022-01-04T12:47:37.000",
    "request_status": "Pending",
    "responsible_agency": "Department of Sanitation",
    "final_address": "1635 Joliet St",
    "address_councildis": "A",
    "status": "Pending",
    "rowid": "851810",
    "final_x": "3662068.11648",
    "final_y": "530560.308226",
    "longitude": "-90.12946136510189",
    "latitude": "29.95343253332475",
    "geocoded_column": {
      "latitude": "29.95343253332475",
      "longitude": "-90.12946136510189"
    }
  },
  {
    "service_request": "2022-851809",
    "request_type": "Traffic Signals/Signs/Striping/Streetlights",
    "request_reason": "Street Light Knocked Down/Leaning",
    "date_created": "2022-01-04T12:45:09.000",
    "date_modified": "2022-01-04T12:45:10.000",
    "request_status": "Pending",
    "responsible_agency": "Department of Public Works",
    "final_address": "1520 Esplanade Ave",
    "address_councildis": "D",
    "status": "Pending",
    "contractor": "Royal Engineering",
    "rowid": "851809",
    "final_x": "3681390.58703",
    "final_y": "536391.951239",
    "longitude": "-90.06824595953641",
    "latitude": "29.968895206115313",
    "geocoded_column": {
      "latitude": "29.968895206115313",
      "longitude": "-90.06824595953641"
    }
  },
  {
    "service_request": "2022-851808",
    "request_type": "Trash/Recycling",
    "request_reason": "Order Recycling Cart",
    "date_created": "2022-01-04T12:41:14.000",
    "date_modified": "2022-01-04T12:45:17.000",
    "request_status": "Pending",
    "responsible_agency": "Department of Sanitation",
    "final_address": "1604 Sauvage St, New Orleans LA 70119",
    "address_councildis": "A",
    "rowid": "851808",
    "final_x": "3677183.77307",
    "final_y": "540592.105611",
    "longitude": "-90.08138642836289",
    "latitude": "29.98057123020436",
    "geocoded_column": {
      "latitude": "29.98057123020436",
      "longitude": "-90.08138642836289"
    }
  },
  {
    "service_request": "2022-851807",
    "request_type": "Trash/Recycling",
    "request_reason": "Replace Trash Cart",
    "date_created": "2022-01-04T12:40:07.000",
    "date_modified": "2022-01-04T12:40:08.000",
    "request_status": "Pending",
    "responsible_agency": "Department of Sanitation",
    "final_address": "1635 Joliet St",
    "address_councildis": "A",
    "status": "Assigned to Contractor",
    "contractor": "Richards Disposal",
    "rowid": "851807",
    "final_x": "3662068.11648",
    "final_y": "530560.308226",
    "longitude": "-90.12946136510189",
    "latitude": "29.95343253332475",
    "geocoded_column": {
      "latitude": "29.95343253332475",
      "longitude": "-90.12946136510189"
    }
  },