[
  {
    "service_request": "2026-1261666",
    "request_type": "Streetlights",
    "request_reason": "Streetlight Outage/Malfunction",
    "date_created": "2026-03-01T23:32:24.000",
    "date_modified": "2026-03-01T23:32:30.000",
    "request_status": "Pending",
    "responsible_agency": "Department of Public Works",
    "final_address": "4340 W Alba Rd",
    "address_councildis": "E",
    "status": "Pending",
    "rowid": "1261666",
    "final_x": "3761413.92093",
    "final_y": "572924.748969",
    "longitude": "-89.81400415150148",
    "latitude": "30.06667240756393",
    "geocoded_column": {
      "latitude": "30.06667240756393",
      "longitude": "-89.81400415150148"
    }
  },
  {
    "service_request": "2026-1261665",
    "request_type": "Property Maintenance",
    "request_reason": "Property Maintenance",
    "date_created": "2026-03-01T23:19:05.000",
    "date_modified": "2026-03-01T23:19:07.000",
    "request_status": "Pending",
    "responsible_agency": "Department of Code Enforcement",
    "final_address": "2370 Urquhart St",
    "address_councildis": "C",
    "status": "Pending",
    "rowid": "1261665",
    "final_x": "3686307.07023",
    "final_y": "537114.03636",
    "longitude": "-90.05269393832828",
    "latitude": "29.970730517357147",
    "geocoded_column": {
      "latitude": "29.970730517357147",
      "longitude": "-90.05269393832828"
    }
  },
  {
    "service_request": "2026-1261664",
    "request_type": "Health Related Request",
    "request_reason": "Noise Ordinance Complaint",
    "date_created": "2026-03-01T21:34:09.000",
    "date_modified": "2026-03-01T21:34:10.000",
    "request_status": "Pending",
    "responsible_agency": "Health Department",
    "final_address": "800 Bourbon St",
    "address_councildis": "C",
    "status": "Pending",
    "rowid": "1261664",
    "final_x": "3682553.51528",
    "final_y": "533013.631428",
    "longitude": "-90.06469148499534",
    "latitude": "29.95957063099051",
    "geocoded_column": {
      "latitude": "29.95957063099051",
      "longitude": "-90.06469148499534"
    }
  },
  {
    "service_request": "2026-1261663",
    "request_type": "Health Related Request",
    "request_reason": "Noise Ordinance Complaint",
    "date_created": "2026-03-01T21:33:30.000",
    "date_modified": "2026-03-01T21:33:32.000",
    "request_status": "Pending",
    "responsible_agency": "Health Department",
    "final_address": "801 Bourbon St",
    "address_councildis": "C",
    "status": "Pending",
    "rowid": "1261663",
    "final_x": "3682490.98735",
    "final_y": "533018.672772",
    "longitude": "-90.06488875731978",
    "latitude": "29.959586396383013",
    "geocoded_column": {
      "latitude": "29.959586396383013",
      "longitude": "-90.06488875731978"
    }
  },
  {
    "service_request": "2026-1261662",
    "request_type": "General Services",
    "request_reason": "General Service Request",
    "date_created": "2026-03-01T21:16:06.000",
    "date_modified": "2026-03-01T21:16:09.000",
    "request_status": "Pending",
    "responsible_agency": "Orleans Parish Communication District",
    "final_address": "5582 Tullis Dr",
    "address_councildis": "C",
    "status": "Pending",
    "rowid": "1261662",
    "final_x": "3704650.66743",
    "final_y": "512353.252721",
    "longitude": "-89.99567595098128",
    "latitude": "29.90207060332377",
    "geocoded_column": {
      "latitude": "29.90207060332377",
      "longitude": "-89.99567595098128"
    }
  },
  {
    "service_request": "2026-1261660",
    "request_type": "Utility Poles",
    "request_reason": "Utility Pole Leaning",
    "date_created": "2026-03-01T21:04:05.000",
    "date_modified": "2026-03-01T21:04:09.000",
    "request_status": "Pending",
    "responsible_agency": "Utility Company Collective",
    "final_address": "1736 Frenchmen St",
    "address_councildis": "D",
    "status": "Pending",
    "rowid": "1261660",
    "final_x": "3684251.16572",
    "final_y": "538764.336393",
    "longitude": "-90.05912876853182",
    "latitude": "29.9753312881807",
    "geocoded_column": {
      "latitude": "29.9753312881807",
      "longitude": "-90.05912876853182"
    }
  },
  {
    "service_request": "2026-1261659",
    "request_type": "Traffic Signals",
    "request_reason": "Traffic Signal Malfunctioning or Damaged",
    "date_created": "2026-03-01T20:57:38.000",
    "date_modified": "2026-03-01T20:57:41.000",
    "request_status": "Pending",
    "responsible_agency": "Department of Public Works",
    "final_address": "810 N Miro St",
    "address_councildis": "D",
    "status": "Pending",
    "rowid": "1261659",
    "final_x": "3678372.63182",
    "final_y": "536231.592455",
    "longitude": "-90.07778240657235",
    "latitude": "29.968545548586615",
    "geocoded_column": {
      "latitude": "29.968545548586615",
      "longitude": "-90.07778240657235"
    }
  },
  {
    "service_request": "2026-1261658",
    "request_type": "Trash/Recycling",
    "request_reason": "Order Second Trash Cart",
    "date_created": "2026-03-01T19:40:23.000",
    "date_modified": "2026-03-01T19:40:26.000",
    "request_status": "Pending",
    "responsible_agency": "Department of Sanitation",
    "final_address": "13731 Explorers Ave",
    "address_councildis": "E",
    "status": "Assigned to Contractor",
    "contractor": "Waste Pro",
    "rowid": "1261658",
    "final_x": "3725966.0423",
    "final_y": "569493.357862",
    "longitude": "-89.92619216898883",
    "latitude": "30.05848225097222",
    "geocoded_column": {
      "latitude": "30.05848225097222",
      "longitude": "-89.92619216898883"
    }
  },
  {
    "service_request": "2026-1261657",
    "request_type": "Trash/Recycling",
    "request_reason": "Order Recycling Cart",
    "date_created": "2026-03-01T19:28:35.000",
    "date_modified": "2026-03-01T19:28:36.000",
    "request_status": "Pending",
    "responsible_agency": "Department of Sanitation",
    "final_address": "2829 Grand-Route St John St",
    "address_councildis": "A",
    "status": "Pending",
    "rowid": "1261657",
    "final_x": "3678070.21742",
    "final_y": "540329.701003",
    "longitude": "-90.07859572738079",
    "latitude": "29.979823047302485",
    "geocoded_column": {
      "latitude": "29.979823047302485",
      "longitude": "-90.07859572738079"
    }
  },
  {
    "service_request": "2026-1261656",
    "request_type": "Trash/Recycling",
    "request_reason": "Request a Large Item Pick Up",
    "date_created": "2026-03-01T19:26:55.000",
    "date_modified": "2026-03-01T19:26:57.000",
    "request_status": "Pending",
    "responsible_agency": "Department of Sanitation",
    "final_address": "4325 Jena St",
    "address_councildis": "A",
    "status": "Assigned to Contractor",
    "contractor": "IV Waste",
    "rowid": "1261656",
    "final_x": "3669127.90465",
    "final_y": "529185.007808",
    "longitude": "-90.10721595838005",
    "latitude": "29.949445067040585",
    "geocoded_column": {
      "latitude": "29.949445067040585",
      "longitude": "-90.10721595838005"
    }
  },
  {
    "service_request": "2026-1261655",
    "request_type": "Property Maintenance",
    "request_reason": "Property Maintenance",
    "date_created": "2026-03-01T19:05:57.000",
    "date_modified": "2026-03-01T19:06:00.000",
    "request_status": "Pending",
    "responsible_agency": "Department of Code Enforcement",
    "final_address": "4212 General Pershing St",
    "address_councildis": "B",
    "status": "Pending",
    "rowid": "1261655",
    "final_x": "3669798.01716",
    "final_y": "529498.255489",
    "longitude": "-90.10508950478437",
    "latitude": "29.950286661856513",
    "geocoded_column": {
      "latitude": "29.950286661856513",
      "longitude": "-90.10508950478437"
    }
  },
  {
    "service_request": "2026-1261654",
    "request_type": "Trash/Recycling",
    "request_reason": "Request a Large Item Pick Up",
    "date_created": "2026-03-01T19:04:22.000",
    "date_modified": "2026-03-01T19:04:23.000",
    "request_status": "Pending",
    "responsible_agency": "Department of Sanitation",
    "final_address": "3660 Laurel St",
    "address_councildis": "B",
    "status": "Assigned to Contractor",
    "contractor": "IV Waste",
    "rowid": "1261654",
    "final_x": "3673914.16091",
    "final_y": "518399.04415",
    "longitude": "-90.09247237927659",
    "latitude": "29.91964547771596",
    "geocoded_column": {
      "latitude": "29.91964547771596",
      "longitude": "-90.09247237927659"
    }
  },
  {
    "service_request": "2026-1261653",
    "request_type": "Trash/Recycling",
    "request_reason": "Repair Trash Cart",
    "date_created": "2026-03-01T19:03:12.000",
    "date_modified": "2026-03-01T19:03:17.000",
    "request_status": "Pending",
    "responsible_agency": "Department of Sanitation",
    "final_address": "3660 Laurel St",
    "address_councildis": "B",
    "status": "Assigned to Contractor",
    "contractor": "IV Waste",
    "rowid": "1261653",
    "final_x": "3673914.16091",
    "final_y": "518399.04415",
    "longitude": "-90.09247237927659",
    "latitude": "29.91964547771596",
    "geocoded_column": {
      "latitude": "29.91964547771596",
      "longitude": "-90.09247237927659"
    }
  },
  {
    "service_request": "2026-1261652",
    "request_type": "Trash/Recycling",
    "request_reason": "Order Recycling Cart",
    "date_created": "2026-03-01T19:00:35.000",
    "date_modified": "2026-03-01T19:00:36.000",
    "request_status": "Pending",
    "responsible_agency": "Department of Sanitation",
    "final_address": "2518 Desoto St, New Orleans, Louisiana, 70119",
    "status": "Pending",
    "rowid": "1261652",
    "longitude": "0.0",
    "latitude": "0.0",
    "geocoded_column": {
      "latitude": "0.0",
      "longitude": "0.0"
    }
  },
  {
    "service_request": "2026-1261651",
    "request_type": "Streetlights",
    "request_reason": "Streetlight Outage/Malfunction",
    "date_created": "2026-03-01T18:46:12.000",
    "date_modified": "2026-03-01T18:46:13.000",
    "request_status": "Pending",
    "responsible_agency": "Department of Public Works",
    "final_address": "4821 Marque Dr",
    "address_councildis": "E",
    "status": "Pending",
    "rowid": "1261651",
    "final_x": "3710040.18878",
    "final_y": "556346.489626",
    "longitude": "-89.97702363351529",
    "latitude": "30.022861757508668",
    "geocoded_column": {
      "latitude": "30.022861757508668",
      "longitude": "-89.97702363351529"
    }
  },
  {
    "service_request": "2026-1261650",
    "request_type": "Trash/Recycling",
    "request_reason": "Missed Trash Pick-Up",
    "date_created": "2026-03-01T18:43:47.000",
    "date_modified": "2026-03-01T18:43:49.000",
    "request_status": "Pending",
    "responsible_agency": "Department of Sanitation",
    "final_address": "7740 Windward Ct",
    "address_councildis": "E",
    "status": "Assigned to Contractor",
    "contractor": "Waste Pro",
    "rowid": "1261650",
    "final_x": "3715389.16664",
    "final_y": "569932.075558",
    "longitude": "-89.95960762699765",
    "latitude": "30.0600414432529",
    "geocoded_column": {
      "latitude": "30.0600414432529",
      "longitude": "-89.95960762699765"
    }
  },
  {
    "service_request": "2026-1261649",
    "request_type": "Property Maintenance",
    "request_reason": "Property Maintenance",
    "date_created": "2026-03-01T18:42:19.000",
    "date_modified": "2026-03-01T18:42:20.000",
    "request_status": "Pending",
    "responsible_agency": "Department of Code Enforcement",
    "final_address": "1812 Nunez St",
    "address_councildis": "C",
    "status": "Pending",
    "rowid": "1261649",
    "final_x": "3687277.08137",
    "final_y": "524748.742204",
    "longitude": "-90.05006787841484",
    "latitude": "29.936700358130203",
    "geocoded_column": {
      "latitude": "29.936700358130203",
      "longitude": "-90.05006787841484"
    }
  },
  {
    "service_request": "2026-1261648",
    "request_type": "Property Maintenance",
    "request_reason": "Property Maintenance",
    "date_created": "2026-03-01T18:40:03.000",
    "date_modified": "2026-03-01T18:40:04.000",
    "request_status": "Pending",
    "responsible_agency": "Department of Code Enforcement",
    "final_address": "4217 Baudin St",
    "address_councildis": "A",
    "status": "Pending",
    "rowid": "1261648",
    "final_x": "3669540.85742",
    "final_y": "537587.578056",
    "longitude": "-90.10562781550783",
    "latitude": "29.972537194164378",
    "geocoded_column": {
      "latitude": "29.972537194164378",
      "longitude": "-90.10562781550783"
    }
  },
  {
    "service_request": "2026-1261647",
    "request_type": "Street and Traffic Signs",
    "request_reason": "Stop Sign Missing or Damaged",
    "date_created": "2026-03-01T18:37:17.000",
    "date_modified": "2026-03-01T18:37:19.000",
    "request_status": "Pending",
    "responsible_agency": "Department of Public Works",
    "final_address": "1202 Harrison Ave",
    "address_councildis": "D",
    "status": "Pending",
    "rowid": "1261647",
    "final_x": "3676589.44616",
    "final_y": "547400.912849",
    "longitude": "-90.08302891430019",
    "latitude": "29.99931091763571",
    "geocoded_column": {
      "latitude": "29.99931091763571",
      "longitude": "-90.08302891430019"
    }
  },
  {
    "service_request": "2026-1261646",
    "request_type": "Trash/Recycling",
    "request_reason": "Missed Trash Pick-Up",
    "date_created": "2026-03-01T18:31:11.000",
    "date_modified": "2026-03-01T18:31:13.000",
    "request_status": "Pending",
    "responsible_agency": "Department of Sanitation",
    "final_address": "700 Thayer St",
    "address_councildis": "C",
    "status": "Assigned to Contractor",
    "contractor": "Richards Disposal",
    "rowid": "1261646",
    "final_x": "3689539.78025",
    "final_y": "528981.578624",
    "longitude": "-90.04277394814041",
    "latitude": "29.948269342584243",
    "geocoded_column": {
      "latitude": "29.948269342584243",
      "longitude": "-90.04277394814041"
    }
  },
  {
    "service_request": "2026-1261645",
    "request_type": "Trash/Recycling",
    "request_reason": "Request a Large Item Pick Up",
    "date_created": "2026-03-01T18:22:04.000",
    "date_modified": "2026-03-01T18:22:09.000",
    "request_status": "Pending",
    "responsible_agency": "Department of Sanitation",
    "final_address": "7340 Symmes Ave",
    "address_councildis": "E",
    "status": "Assigned to Contractor",
    "contractor": "Waste Pro",
    "rowid": "1261645",
    "final_x": "3708286.06552",
    "final_y": "563737.087649",
    "longitude": "-89.98229086772352",
    "latitude": "30.043239960492258",
    "geocoded_column": {
      "latitude": "30.043239960492258",
      "longitude": "-89.98229086772352"
    }
  },
  {
    "service_request": "2026-1261644",
    "request_type": "Trash/Recycling",
    "request_reason": "Repair Recycling Cart",
    "date_created": "2026-03-01T18:10:27.000",
    "date_modified": "2026-03-01T18:10:29.000",
    "request_status": "Pending",
    "responsible_agency": "Department of Sanitation",
    "final_address": "2025 Octavia St",
    "address_councildis": "A",
    "status": "Pending",
    "rowid": "1261644",
    "final_x": "3667455.41972",
    "final_y": "523239.211515",
    "longitude": "-90.11269675229401",
    "latitude": "29.933145146657502",
    "geocoded_column": {
      "latitude": "29.933145146657502",
      "longitude": "-90.11269675229401"
    }
  },
  {
    "service_request": "2026-1261643",
    "request_type": "Trash/Recycling",
    "request_reason": "Replace Trash Cart",
    "date_created": "2026-03-01T18:02:32.000",
    "date_modified": "2026-03-01T18:02:34.000",
    "request_status": "Pending",
    "responsible_agency": "Department of Sanitation",
    "final_address": "3551 Post Oak Ave",
    "address_councildis": "C",
    "status": "Assigned to Contractor",
    "contractor": "Richards Disposal",
    "rowid": "1261643",
    "final_x": "3703493.22884",
    "final_y": "514638.711539",
    "longitude": "-89.99924476457502",
    "latitude": "29.908391941321934",
    "geocoded_column": {
      "latitude": "29.908391941321934",
      "longitude": "-89.99924476457502"
    }
  },
  {
    "service_request": "2026-1261642",
    "request_type": "Abandoned Vehicles",
    "request_reason": "Abandoned/Junk Vehicles",
    "date_created": "2026-03-01T17:54:40.000",
    "date_modified": "2026-03-01T17:54:41.000",
    "request_status": "Pending",
    "responsible_agency": "Department of Public Works",
    "final_address": "605 Ninth St",
    "address_councildis": "B",
    "status": "Pending",
    "rowid": "1261642",
    "final_x": "3676853.92104",
    "final_y": "518612.842807",
    "longitude": "-90.08318563939218",
    "latitude": "29.920145490672436",
    "geocoded_column": {
      "latitude": "29.920145490672436",
      "longitude": "-90.08318563939218"
    }
  },
  {
    "service_request": "2026-1261641",
    "request_type": "Trash/Recycling",
    "request_reason": "Request a Large Item Pick Up",
    "date_created": "2026-03-01T17:32:22.000",
    "date_modified": "2026-03-01T17:32:24.000",
    "request_status": "Pending",
    "responsible_agency": "Department of Sanitation",
    "final_address": "0 BLK Blanc Pl",
    "address_councildis": "B",
    "status": "Assigned to Contractor",
    "contractor": "IV Waste",
    "rowid": "1261641",
    "final_x": "3667951.08401",
    "final_y": "520874.262829",
    "longitude": "-90.11121159835395",
    "latitude": "29.926627762655404",
    "geocoded_column": {
      "latitude": "29.926627762655404",
      "longitude": "-90.11121159835395"
    }
  },
  {
    "service_request": "2026-1261640",
    "request_type": "Trash/Recycling",
    "request_reason": "Request a Large Item Pick Up",
    "date_created": "2026-03-01T17:15:16.000",
    "date_modified": "2026-03-01T17:15:19.000",
    "request_status": "Pending",
    "responsible_agency": "Department of Sanitation",
    "final_address": "3013 Hyman Pl",
    "address_councildis": "C",
    "status": "Assigned to Contractor",
    "contractor": "Richards Disposal",
    "rowid": "1261640",
    "final_x": "3700952.24349",
    "final_y": "520050.60812",
    "longitude": "-90.00706673886198",
    "latitude": "29.92335391308665",
    "geocoded_column": {
      "latitude": "29.92335391308665",
      "longitude": "-90.00706673886198"
    }
  },
  {
    "service_request": "2026-1261639",
    "request_type": "Abandoned Vehicles",
    "request_reason": "Abandoned/Junk Vehicles",
    "date_created": "2026-03-01T17:10:22.000",
    "date_modified": "2026-03-01T17:10:23.000",
    "request_status": "Pending",
    "responsible_agency": "Department of Public Works",
    "final_address": "511 Marigny St",
    "address_councildis": "C",
    "status": "Pending",
    "rowid": "1261639",
    "final_x": "3685612.26338",
    "final_y": "534293.513669",
    "longitude": "-90.05498759507746",
    "latitude": "29.962996392583978",
    "geocoded_column": {
      "latitude": "29.962996392583978",
      "longitude": "-90.05498759507746"
    }
  },
  {
    "service_request": "2026-1261638",
    "request_type": "Trash/Recycling",
    "request_reason": "Request a Large Item Pick Up",
    "date_created": "2026-03-01T17:09:55.000",
    "date_modified": "2026-03-01T17:09:57.000",
    "request_status": "Pending",
    "responsible_agency": "Department of Sanitation",
    "final_address": "6635 Catina St",
    "address_councildis": "A",
    "status": "Assigned to Contractor",
    "contractor": "IV Waste",
    "rowid": "1261638",
    "final_x": "3667073.38362",
    "final_y": "552110.012502",
    "longitude": "-90.11293207831655",
    "latitude": "30.012541385076663",
    "geocoded_column": {
      "latitude": "30.012541385076663",
      "longitude": "-90.11293207831655"
    }
  },
  {
    "service_request": "2026-1261637",
    "request_type": "Trash/Recycling",
    "request_reason": "Request a Large Item Pick Up",
    "date_created": "2026-03-01T16:57:52.000",
    "date_modified": "2026-03-01T16:57:53.000",
    "request_status": "Pending",
    "responsible_agency": "Department of Sanitation",
    "final_address": "10210 Seawood St",
    "address_councildis": "E",
    "status": "Assigned to Contractor",
    "contractor": "Waste Pro",
    "rowid": "1261637",
    "final_x": "3713129.82206",
    "final_y": "557361.871707",
    "longitude": "-89.96722294744801",
    "latitude": "30.025552737647814",
    "geocoded_column": {
      "latitude": "30.025552737647814",
      "longitude": "-89.96722294744801"
    }
  },
  {
    "service_request": "2026-1261636",
    "request_type": "Trash/Recycling",
    "request_reason": "Request a Large Item Pick Up",
    "date_created": "2026-03-01T16:56:54.000",
    "date_modified": "2026-03-01T16:56:57.000",
    "request_status": "Pending",
    "responsible_agency": "Department of Sanitation",
    "final_address": "6830 Marshal Foch St",
    "address_councildis": "A",
    "status": "Assigned to Contractor",
    "contractor": "IV Waste",
    "rowid": "1261636",
    "final_x": "3670245.61038",
    "final_y": "552819.122838",
    "longitude": "-90.1028855142422",
    "latitude": "30.014397905734747",
    "geocoded_column": {
      "latitude": "30.014397905734747",
      "longitude": "-90.1028855142422"
    }
  },
  {
    "service_request": "2026-1261635",
    "request_type": "Property Maintenance",
    "request_reason": "Property Maintenance",
    "date_created": "2026-03-01T16:48:42.000",
    "date_modified": "2026-03-01T16:48:44.000",
    "request_status": "Pending",
    "responsible_agency": "Department of Code Enforcement",
    "final_address": "1307 S Gayoso St",
    "address_councildis": "B",
    "status": "Pending",
    "rowid": "1261635",
    "final_x": "3671026.35649",
    "final_y": "531238.836098",
    "longitude": "-90.10115194481833",
    "latitude": "29.955036423923318",
    "geocoded_column": {
      "latitude": "29.955036423923318",
      "longitude": "-90.10115194481833"
    }
  },
  {
    "service_request": "2026-1261634",
    "request_type": "Trash/Recycling",
    "request_reason": "Order Recycling Cart",
    "date_created": "2026-03-01T16:40:03.000",
    "date_modified": "2026-03-01T16:40:05.000",
    "request_status": "Pending",
    "responsible_agency": "Department of Sanitation",
    "final_address": "3018 Pauger St",
    "address_councildis": "D",
    "status": "Pending",
    "rowid": "1261634",
    "final_x": "3683470.3302",
    "final_y": "540806.019787",
    "longitude": "-90.06152328217875",
    "latitude": "29.980969056063824",
    "geocoded_column": {
      "latitude": "29.980969056063824",
      "longitude": "-90.06152328217875"
    }
  },
  {
    "service_request": "2026-1261633",
    "request_type": "Trash/Recycling",
    "request_reason": "Request a Large Item Pick Up",
    "date_created": "2026-03-01T16:24:55.000",
    "date_modified": "2026-03-01T16:24:57.000",
    "request_status": "Pending",
    "responsible_agency": "Department of Sanitation",
    "final_address": "4957 Corinne St",
    "address_councildis": "E",
    "status": "Assigned to Contractor",
    "contractor": "Waste Pro",
    "rowid": "1261633",
    "final_x": "3715009.80434",
    "final_y": "557851.752987",
    "longitude": "-89.96126400177687",
    "latitude": "30.026837952926996",
    "geocoded_column": {
      "latitude": "30.026837952926996",
      "longitude": "-89.96126400177687"
    }
  },
  {
    "service_request": "2026-1261632",
    "request_type": "General Services",
    "request_reason": "General Service Request",
    "date_created": "2026-03-01T16:12:25.000",
    "date_modified": "2026-03-01T16:12:28.000",
    "request_status": "Pending",
    "responsible_agency": "Orleans Parish Communication District",
    "final_address": "601 S Solomon St",
    "address_councildis": "A",
    "status": "Pending",
    "rowid": "1261632",
    "final_x": "3669332.89358",
    "final_y": "537137.257032",
    "longitude": "-90.10629983423412",
    "latitude": "29.971305087617004",
    "geocoded_column": {
      "latitude": "29.971305087617004",
      "longitude": "-90.10629983423412"
    }
  },
  {
    "service_request": "2026-1261631",
    "request_type": "Trash/Recycling",
    "request_reason": "Repair Trash Cart",
    "date_created": "2026-03-01T15:56:20.000",
    "date_modified": "2026-03-01T15:56:22.000",
    "request_status": "Pending",
    "responsible_agency": "Department of Sanitation",
    "final_address": "1016 Arabella St",
    "address_councildis": "A",
    "status": "Assigned to Contractor",
    "contractor": "IV Waste",
    "rowid": "1261631",
    "final_x": "3665966.01517",
    "final_y": "519735.61324",
    "longitude": "-90.11751608218364",
    "latitude": "29.923554902505092",
    "geocoded_column": {
      "latitude": "29.923554902505092",
      "longitude": "-90.11751608218364"
    }
  },
  {
    "service_request": "2026-1261630",
    "request_type": "Trash/Recycling",
    "request_reason": "Order Second Trash Cart",
    "date_created": "2026-03-01T15:50:00.000",
    "date_modified": "2026-03-01T15:50:02.000",
    "request_status": "Pending",
    "responsible_agency": "Department of Sanitation",
    "final_address": "7551 Shorewood Blvd",
    "address_councildis": "E",
    "status": "Assigned to Contractor",
    "contractor": "Waste Pro",
    "rowid": "1261630",
    "final_x": "3720250.12812",
    "final_y": "572646.796009",
    "longitude": "-89.94413853034693",
    "latitude": "30.06734465034493",
    "geocoded_column": {
      "latitude": "30.06734465034493",
      "longitude": "-89.94413853034693"
    }
  },
  {
    "service_request": "2026-1261629",
    "request_type": "Trash/Recycling",
    "request_reason": "Order Second Trash Cart",
    "date_created": "2026-03-01T15:43:14.000",
    "date_modified": "2026-03-01T15:43:16.000",
    "request_status": "Pending",
    "responsible_agency": "Department of Sanitation",
    "final_address": "1701 Rivertree Ct",
    "address_councildis": "C",
    "status": "Assigned to Contractor",
    "contractor": "Richards Disposal",
    "rowid": "1261629",
    "final_x": "3701390.02557",
    "final_y": "524465.858108",
    "longitude": "-90.00552332927309",
    "latitude": "29.93548038073748",
    "geocoded_column": {
      "latitude": "29.93548038073748",
      "longitude": "-90.00552332927309"
    }
  },
  {
    "service_request": "2026-1261628",
    "request_type": "Trash/Recycling",
    "request_reason": "Replace Recycling Cart",
    "date_created": "2026-03-01T15:39:51.000",
    "date_modified": "2026-03-01T15:39:54.000",
    "request_status": "Pending",
    "responsible_agency": "Department of Sanitation",
    "final_address": "1026 Hillary St",
    "address_councildis": "A",
    "status": "Pending",
    "rowid": "1261628",
    "final_x": "3662946.86099",
    "final_y": "526842.912894",
    "longitude": "-90.12681024637325",
    "latitude": "29.943185474596778",
    "geocoded_column": {
      "latitude": "29.943185474596778",
      "longitude": "-90.12681024637325"
    }
  },
  {
    "service_request": "2026-1261627",
    "request_type": "Roads and Streets",
    "request_reason": "Street Subsidence (Sinking)",
    "date_created": "2026-03-01T15:30:19.000",
    "date_modified": "2026-03-01T15:30:21.000",
    "request_status": "Pending",
    "responsible_agency": "Sewerage & Water Board",
    "final_address": "1725 Kabel Dr",
    "address_councildis": "C",
    "status": "Pending",
    "rowid": "1261627",
    "final_x": "3700623.52695",
    "final_y": "521396.361657",
    "longitude": "-90.0080552335744",
    "latitude": "29.92706472981495",
    "geocoded_column": {
      "latitude": "29.92706472981495",
      "longitude": "-90.0080552335744"
    }
  },
  {
    "service_request": "2026-1261626",
    "request_type": "Trash/Recycling",
    "request_reason": "Replace Recycling Cart",
    "date_created": "2026-03-01T15:25:05.000",
    "date_modified": "2026-03-01T15:25:06.000",
    "request_status": "Pending",
    "responsible_agency": "Department of Sanitation",
    "final_address": "303 Florida Blvd",
    "address_councildis": "A",
    "status": "Pending",
    "rowid": "1261626",
    "final_x": "3666890.59981",
    "final_y": "545607.871184",
    "longitude": "-90.11372823280031",
    "latitude": "29.994668101065116",
    "geocoded_column": {
      "latitude": "29.994668101065116",
      "longitude": "-90.11372823280031"
    }
  },
  {
    "service_request": "2026-1261625",
    "request_type": "Trash/Recycling",
    "request_reason": "Request a Large Item Pick Up",
    "date_created": "2026-03-01T15:24:37.000",
    "date_modified": "2026-03-01T15:24:38.000",
    "request_status": "Pending",
    "responsible_agency": "Department of Sanitation",
    "final_address": "421 Octavia St",
    "address_councildis": "A",
    "status": "Assigned to Contractor",
    "contractor": "IV Waste",
    "rowid": "1261625",
    "final_x": "3666233.77914",
    "final_y": "517749.747766",
    "longitude": "-90.11673740462453",
    "latitude": "29.918086580565983",
    "geocoded_column": {
      "latitude": "29.918086580565983",
      "longitude": "-90.11673740462453"
    }
  },
  {
    "service_request": "2026-1261624",
    "request_type": "Trash/Recycling",
    "request_reason": "Order Recycling Cart",
    "date_created": "2026-03-01T15:22:45.000",
    "date_modified": "2026-03-01T15:22:47.000",
    "request_status": "Pending",
    "responsible_agency": "Department of Sanitation",
    "final_address": "2824 Audubon St",
    "address_councildis": "B",
    "status": "Pending",
    "rowid": "1261624",
    "final_x": "3667614.34733",
    "final_y": "531300.726018",
    "longitude": "-90.11192374561325",
    "latitude": "29.95530704810608",
    "geocoded_column": {
      "latitude": "29.95530704810608",
      "longitude": "-90.11192374561325"
    }
  },
  {
    "service_request": "2026-1261623",
    "request_type": "Trash/Recycling",
    "request_reason": "Request a Large Item Pick Up",
    "date_created": "2026-03-01T15:15:26.000",
    "date_modified": "2026-03-01T15:15:28.000",
    "request_status": "Pending",
    "responsible_agency": "Department of Sanitation",
    "final_address": "139 Middle Park Pl",
    "address_councildis": "A",
    "status": "Assigned to Contractor",
    "contractor": "IV Waste",
    "rowid": "1261623",
    "final_x": "3670253.52494",
    "final_y": "544283.748239",
    "longitude": "-90.10315003415758",
    "latitude": "29.990928369254114",
    "geocoded_column": {
      "latitude": "29.990928369254114",
      "longitude": "-90.10315003415758"
    }
  },
  {
    "service_request": "2026-1261622",
    "request_type": "Trash/Recycling",
    "request_reason": "Change Size of Trash Cart",
    "date_created": "2026-03-01T15:04:34.000",
    "date_modified": "2026-03-01T15:04:36.000",
    "request_status": "Pending",
    "responsible_agency": "Department of Sanitation",
    "final_address": "1000 BLK Dauphine St",
    "address_councildis": "C",
    "status": "Assigned to Contractor",
    "contractor": "IV Waste",
    "rowid": "1261622",
    "final_x": "3682760.24009",
    "final_y": "533924.783644",
    "longitude": "-90.06400682373204",
    "latitude": "29.962069692761787",
    "geocoded_column": {
      "latitude": "29.962069692761787",
      "longitude": "-90.06400682373204"
    }
  },
  {
    "service_request": "2026-1261621",
    "request_type": "General Services",
    "request_reason": "General Service Request",
    "date_created": "2026-03-01T14:59:34.000",
    "date_modified": "2026-03-01T14:59:35.000",
    "request_status": "Pending",
    "responsible_agency": "Orleans Parish Communication District",
    "final_address": "2114 Seventh St",
    "address_councildis": "B",
    "status": "Pending",
    "rowid": "1261621",
    "final_x": "3674153.11976",
    "final_y": "523683.985467",
    "longitude": "-90.09153731365286",
    "latitude": "29.93417024490286",
    "geocoded_column": {
      "latitude": "29.93417024490286",
      "longitude": "-90.09153731365286"
    }
  },
  {
    "service_request": "2026-1261620",
    "request_type": "Property Maintenance",
    "request_reason": "Property Maintenance",
    "date_created": "2026-03-01T14:55:06.000",
    "date_modified": "2026-03-01T14:55:21.000",
    "request_status": "Pending",
    "responsible_agency": "Department of Code Enforcement",
    "final_address": "2114 Seventh St",
    "address_councildis": "B",
    "status": "Pending",
    "rowid": "1261620",
    "final_x": "3674153.11976",
    "final_y": "523683.985467",
    "longitude": "-90.09153731365286",
    "latitude": "29.93417024490286",
    "geocoded_column": {
      "latitude": "29.93417024490286",
      "longitude": "-90.09153731365286"
    }
  },
  {
    "service_request": "2026-1261619",
    "request_type": "Trash/Recycling",
    "request_reason": "Request a Large Item Pick Up",
    "date_created": "2026-03-01T14:35:04.000",
    "date_modified": "2026-03-01T14:35:06.000",
    "request_status": "Pending",
    "responsible_agency": "Department of Sanitation",
    "final_address": "6907 Argonne Blvd",
    "address_councildis": "A",
    "status": "Assigned to Contractor",
    "contractor": "IV Waste",
    "rowid": "1261619",
    "final_x": "3670784.08167",
    "final_y": "553288.455575",
    "longitude": "-90.10116826160514",
    "latitude": "30.01567249409028",
    "geocoded_column": {
      "latitude": "30.01567249409028",
      "longitude": "-90.10116826160514"
    }
  },
  {
    "service_request": "2026-1261618",
    "request_type": "Trash/Recycling",
    "request_reason": "Illegal Dumping",
    "date_created": "2026-03-01T14:10:21.000",
    "date_modified": "2026-03-01T14:10:23.000",
    "request_status": "Pending",
    "responsible_agency": "Department of Sanitation",
    "final_address": "2515 S Saratoga St",
    "address_councildis": "B",
    "status": "Pending",
    "rowid": "1261618",
    "final_x": "3675585.12398",
    "final_y": "524486.170108",
    "longitude": "-90.08698897514657",
    "latitude": "29.93633324020013",
    "geocoded_column": {
      "latitude": "29.93633324020013",
      "longitude": "-90.08698897514657"
    }
  },
  {
    "service_request": "2026-1261617",
    "request_type": "Trash/Recycling",
    "request_reason": "Order Recycling Cart",
    "date_created": "2026-03-01T13:41:41.000",
    "date_modified": "2026-03-01T13:41:42.000",
    "request_status": "Pending",
    "responsible_agency": "Department of Sanitation",
    "final_address": "7430 Oak St",
    "address_councildis": "A",
    "status": "Pending",
    "rowid": "1261617",
    "final_x": "3663546.32544",
    "final_y": "526887.309502",
    "longitude": "-90.12491609992045",
    "latitude": "29.943290181214167",
    "geocoded_column": {
      "latitude": "29.943290181214167",
      "longitude": "-90.12491609992045"
    }
  },
  {
    "service_request": "2026-1261616",
    "request_type": "Trash/Recycling",
    "request_reason": "Request a Large Item Pick Up",
    "date_created": "2026-03-01T13:38:56.000",
    "date_modified": "2026-03-01T13:38:57.000",
    "request_status": "Pending",
    "responsible_agency": "Department of Sanitation",
    "final_address": "3555 River Oaks Dr",
    "address_councildis": "C",
    "status": "Assigned to Contractor",
    "contractor": "Richards Disposal",
    "rowid": "1261616",
    "final_x": "3701292.21905",
    "final_y": "517822.050422",
    "longitude": "-90.0060750563269",
    "latitude": "29.917215319398668",
    "geocoded_column": {
      "latitude": "29.917215319398668",
      "longitude": "-90.0060750563269"
    }
  },
  {
    "service_request": "2026-1261615",
    "request_type": "Trash/Recycling",
    "request_reason": "Request a Large Item Pick Up",
    "date_created": "2026-03-01T13:31:30.000",
    "date_modified": "2026-03-01T13:31:32.000",
    "request_status": "Pending",
    "responsible_agency": "Department of Sanitation",
    "final_address": "8140 Lomond Rd",
    "address_councildis": "E",
    "status": "Assigned to Contractor",
    "contractor": "Waste Pro",
    "rowid": "1261615",
    "final_x": "3702788.14449",
    "final_y": "561534.638559",
    "longitude": "-89.9997474838507",
    "latitude": "30.037361189155106",
    "geocoded_column": {
      "latitude": "30.037361189155106",
      "longitude": "-89.9997474838507"
    }
  },
  {
    "service_request": "2026-1261614",
    "request_type": "Roads and Streets",
    "request_reason": "Street Subsidence (Sinking)",
    "date_created": "2026-03-01T13:24:37.000",
    "date_modified": "2026-03-01T13:24:40.000",
    "request_status": "Pending",
    "responsible_agency": "Sewerage & Water Board",
    "final_address": "7511 Afton Dr",
    "address_councildis": "E",
    "status": "Pending",
    "rowid": "1261614",
    "final_x": "3704995.39774",
    "final_y": "562539.102944",
    "longitude": "-89.99273496829207",
    "latitude": "30.04005225025934",
    "geocoded_column": {
      "latitude": "30.04005225025934",
      "longitude": "-89.99273496829207"
    }
  },
  {
    "service_request": "2026-1261613",
    "request_type": "Trash/Recycling",
    "request_reason": "Order Recycling Cart",
    "date_created": "2026-03-01T13:21:11.000",
    "date_modified": "2026-03-01T13:21:13.000",
    "request_status": "Pending",
    "responsible_agency": "Department of Sanitation",
    "final_address": "931 Sister St",
    "address_councildis": "E",
    "status": "Pending",
    "rowid": "1261613",
    "final_x": "3694566.51888",
    "final_y": "533978.403845",
    "longitude": "-90.02672263593091",
    "latitude": "29.961852230577342",
    "geocoded_column": {
      "latitude": "29.961852230577342",
      "longitude": "-90.02672263593091"
    }
  },
  {
    "service_request": "2026-1261612",
    "request_type": "Roads and Streets",
    "request_reason": "Sidewalk Damaged or Missing",
    "date_created": "2026-03-01T13:14:00.000",
    "date_modified": "2026-03-01T13:14:02.000",
    "request_status": "Pending",
    "responsible_agency": "Department of Public Works",
    "final_address": "WEST END BLVD & JEWEL ST",
    "address_councildis": "D",
    "status": "Pending",
    "rowid": "1261612",
    "final_x": "3667066.5",
    "final_y": "555845.58",
    "longitude": "-90.1128281128501",
    "latitude": "30.02281307987026",
    "geocoded_column": {
      "latitude": "30.02281307987026",
      "longitude": "-90.1128281128501"
    }
  },
  {
    "service_request": "2026-1261611",
    "request_type": "Abandoned Vehicles",
    "request_reason": "Abandoned/Junk Vehicles",
    "date_created": "2026-03-01T12:52:15.000",
    "date_modified": "2026-03-01T12:52:17.000",
    "request_status": "Pending",
    "responsible_agency": "Department of Public Works",
    "final_address": "CASTIGLIONE ST & GENTILLY BLVD",
    "address_councildis": "A",
    "status": "Pending",
    "rowid": "1261611",
    "final_x": "3678782.0",
    "final_y": "542732.08",
    "longitude": "-90.07626438353645",
    "latitude": "29.986407303423068",
    "geocoded_column": {
      "latitude": "29.986407303423068",
      "longitude": "-90.07626438353645"
    }
  },
  {
    "service_request": "2026-1261610",
    "request_type": "Roads and Streets",
    "request_reason": "Sidewalk Damaged or Missing",
    "date_created": "2026-03-01T12:51:58.000",
    "date_modified": "2026-03-01T12:52:01.000",
    "request_status": "Pending",
    "responsible_agency": "Department of Public Works",
    "final_address": "1420 N Dorgenois St",
    "address_councildis": "D",
    "status": "Pending",
    "rowid": "1261610",
    "final_x": "3678794.81883",
    "final_y": "538738.111561",
    "longitude": "-90.07636228317067",
    "latitude": "29.975424888799026",
    "geocoded_column": {
      "latitude": "29.975424888799026",
      "longitude": "-90.07636228317067"
    }
  },
  {
    "service_request": "2026-1261609",
    "request_type": "Drainage",
    "request_reason": "Catch Basin Not Draining",
    "date_created": "2026-03-01T12:49:27.000",
    "date_modified": "2026-03-01T12:49:29.000",
    "request_status": "Pending",
    "responsible_agency": "Sewerage & Water Board",
    "final_address": "322 Jewel St",
    "address_councildis": "D",
    "status": "Pending",
    "rowid": "1261609",
    "final_x": "3667622.65697",
    "final_y": "555757.947353",
    "longitude": "-90.11107373158005",
    "latitude": "30.0225558207235",
    "geocoded_column": {
      "latitude": "30.0225558207235",
      "longitude": "-90.11107373158005"
    }
  },
  {
    "service_request": "2026-1261608",
    "request_type": "Trash/Recycling",
    "request_reason": "Request a Large Item Pick Up",
    "date_created": "2026-03-01T12:48:14.000",
    "date_modified": "2026-03-01T12:48:16.000",
    "request_status": "Pending",
    "responsible_agency": "Department of Sanitation",
    "final_address": "1420 N Dorgenois St",
    "address_councildis": "D",
    "status": "Assigned to Contractor",
    "contractor": "IV Waste",
    "rowid": "1261608",
    "final_x": "3678794.81883",
    "final_y": "538738.111561",
    "longitude": "-90.07636228317067",
    "latitude": "29.975424888799026",
    "geocoded_column": {
      "latitude": "29.975424888799026",
      "longitude": "-90.07636228317067"
    }
  },
  {
    "service_request": "2026-1261607",
    "request_type": "Drainage",
    "request_reason": "Catch Basin Not Draining",
    "date_created": "2026-03-01T12:42:45.000",
    "date_modified": "2026-03-01T12:42:46.000",
    "request_status": "Pending",
    "responsible_agency": "Sewerage & Water Board",
    "final_address": "300 Jewel St",
    "address_councildis": "D",
    "status": "Pending",
    "rowid": "1261607",
    "final_x": "3667462.13908",
    "final_y": "555718.655257",
    "longitude": "-90.11158225566844",
    "latitude": "30.022452488455762",
    "geocoded_column": {
      "latitude": "30.022452488455762",
      "longitude": "-90.11158225566844"
    }
  },
  {
    "service_request": "2026-1261606",
    "request_type": "Trash/Recycling",
    "request_reason": "Request a Large Item Pick Up",
    "date_created": "2026-03-01T12:42:05.000",
    "date_modified": "2026-03-01T12:42:06.000",
    "request_status": "Pending",
    "responsible_agency": "Department of Sanitation",
    "final_address": "331 22Nd St",
    "address_councildis": "A",
    "status": "Assigned to Contractor",
    "contractor": "IV Waste",
    "rowid": "1261606",
    "final_x": "3664950.86164",
    "final_y": "549388.849555",
    "longitude": "-90.11972915843778",
    "latitude": "30.005121120297495",
    "geocoded_column": {
      "latitude": "30.005121120297495",
      "longitude": "-90.11972915843778"
    }
  },
  {
    "service_request": "2026-1261605",
    "request_type": "Trash/Recycling",
    "request_reason": "Request a Large Item Pick Up",
    "date_created": "2026-03-01T12:39:55.000",
    "date_modified": "2026-03-01T12:39:57.000",
    "request_status": "Pending",
    "responsible_agency": "Department of Sanitation",
    "final_address": "7980 Edgelake Ct",
    "address_councildis": "E",
    "status": "Assigned to Contractor",
    "contractor": "Waste Pro",
    "rowid": "1261605",
    "final_x": "3702588.0554",
    "final_y": "562130.359519",
    "longitude": "-90.00035790651032",
    "latitude": "30.039005590023145",
    "geocoded_column": {
      "latitude": "30.039005590023145",
      "longitude": "-90.00035790651032"
    }
  },
  {
    "service_request": "2026-1261604",
    "request_type": "Drainage",
    "request_reason": "Catch Basin Not Draining",
    "date_created": "2026-03-01T12:36:36.000",
    "date_modified": "2026-03-01T12:36:38.000",
    "request_status": "Pending",
    "responsible_agency": "Sewerage & Water Board",
    "final_address": "CAMEO ST & OPAL ST",
    "address_councildis": "D",
    "status": "Pending",
    "rowid": "1261604",
    "final_x": "3667645.3",
    "final_y": "555314.88",
    "longitude": "-90.11101711899795",
    "latitude": "30.021336878647052",
    "geocoded_column": {
      "latitude": "30.021336878647052",
      "longitude": "-90.11101711899795"
    }
  },
  {
    "service_request": "2026-1261603",
    "request_type": "Streetlights",
    "request_reason": "Streetlight Knocked Down/Leaning",
    "date_created": "2026-03-01T12:28:25.000",
    "date_modified": "2026-03-01T12:28:27.000",
    "request_status": "Pending",
    "responsible_agency": "Department of Public Works",
    "final_address": "CAMEO ST & SAPPHIRE ST",
    "address_councildis": "D",
    "status": "Pending",
    "rowid": "1261603",
    "final_x": "3667543.5",
    "final_y": "555229.28",
    "longitude": "-90.11134166456019",
    "latitude": "30.02110449456024",
    "geocoded_column": {
      "latitude": "30.02110449456024",
      "longitude": "-90.11134166456019"
    }
  },
  {
    "service_request": "2026-1261602",
    "request_type": "General Services",
    "request_reason": "General Service Request",
    "date_created": "2026-03-01T12:26:15.000",
    "date_modified": "2026-03-01T12:26:16.000",
    "request_status": "Pending",
    "responsible_agency": "Orleans Parish Communication District",
    "final_address": "230 N Alexander St",
    "address_councildis": "A",
    "status": "Pending",
    "rowid": "1261602",
    "final_x": "3670446.07246",
    "final_y": "539692.593162",
    "longitude": "-90.1026975767908",
    "latitude": "29.97829857505526",
    "geocoded_column": {
      "latitude": "29.97829857505526",
      "longitude": "-90.1026975767908"
    }
  },
  {
    "service_request": "2026-1261601",
    "request_type": "Trash/Recycling",
    "request_reason": "Request a Large Item Pick Up",
    "date_created": "2026-03-01T12:17:08.000",
    "date_modified": "2026-03-01T12:17:10.000",
    "request_status": "Pending",
    "responsible_agency": "Department of Sanitation",
    "final_address": "48 Morrison Ct",
    "address_councildis": "E",
    "status": "Assigned to Contractor",
    "contractor": "Waste Pro",
    "rowid": "1261601",
    "final_x": "3704039.79594",
    "final_y": "561367.661342",
    "longitude": "-89.99579816478452",
    "latitude": "30.036861953283275",
    "geocoded_column": {
      "latitude": "30.036861953283275",
      "longitude": "-89.99579816478452"
    }
  },
  {
    "service_request": "2026-1261600",
    "request_type": "Trash/Recycling",
    "request_reason": "Missed Trash Pick-Up",
    "date_created": "2026-03-01T11:59:45.000",
    "date_modified": "2026-03-01T11:59:47.000",
    "request_status": "Pending",
    "responsible_agency": "Department of Sanitation",
    "final_address": "1116 L. B. Landry Ave B",
    "address_councildis": "C",
    "status": "Assigned to Contractor",
    "contractor": "Richards Disposal",
    "rowid": "1261600",
    "final_x": "3690208.8902",
    "final_y": "527286.304639",
    "longitude": "-90.0407216829318",
    "latitude": "29.943587181375385",
    "geocoded_column": {
      "latitude": "29.943587181375385",
      "longitude": "-90.0407216829318"
    }
  },
  {
    "service_request": "2026-1261599",
    "request_type": "Trash/Recycling",
    "request_reason": "Request a Large Item Pick Up",
    "date_created": "2026-03-01T11:59:04.000",
    "date_modified": "2026-03-01T11:59:06.000",
    "request_status": "Pending",
    "responsible_agency": "Department of Sanitation",
    "final_address": "143 Middle Park Pl",
    "address_councildis": "A",
    "status": "Assigned to Contractor",
    "contractor": "IV Waste",
    "rowid": "1261599",
    "final_x": "3670210.21998",
    "final_y": "544373.538511",
    "longitude": "-90.10328377986013",
    "latitude": "29.991176539933214",
    "geocoded_column": {
      "latitude": "29.991176539933214",
      "longitude": "-90.10328377986013"
    }
  },
  {
    "service_request": "2026-1261598",
    "request_type": "Streetlights",
    "request_reason": "Streetlight Outage/Malfunction",
    "date_created": "2026-03-01T11:43:35.000",
    "date_modified": "2026-03-01T11:43:36.000",
    "request_status": "Pending",
    "responsible_agency": "Department of Public Works",
    "final_address": "200 Chartres St",
    "address_councildis": "C",
    "status": "Pending",
    "rowid": "1261598",
    "final_x": "3681771.39119",
    "final_y": "530801.883778",
    "longitude": "-90.06723842184344",
    "latitude": "29.953512863701214",
    "geocoded_column": {
      "latitude": "29.953512863701214",
      "longitude": "-90.06723842184344"
    }
  },
  {
    "service_request": "2026-1261597",
    "request_type": "Street and Traffic Signs",
    "request_reason": "Disabled Parking Sign Missing or Damaged",
    "date_created": "2026-03-01T11:42:56.000",
    "date_modified": "2026-03-01T11:42:57.000",
    "request_status": "Pending",
    "responsible_agency": "Department of Public Works",
    "final_address": "4738 Laurel St",
    "address_councildis": "B",
    "status": "Pending",
    "rowid": "1261597",
    "final_x": "3669707.63975",
    "final_y": "517867.133366",
    "longitude": "-90.10576831346756",
    "latitude": "29.918307478492565",
    "geocoded_column": {
      "latitude": "29.918307478492565",
      "longitude": "-90.10576831346756"
    }
  },
  {
    "service_request": "2026-1261596",
    "request_type": "Streetlights",
    "request_reason": "Streetlight Outage/Malfunction",
    "date_created": "2026-03-01T11:34:37.000",
    "date_modified": "2026-03-01T11:36:41.000",
    "request_status": "Pending",
    "responsible_agency": "Department of Public Works",
    "final_address": "200 BLK Chartres St",
    "address_councildis": "C",
    "status": "Pending",
    "rowid": "1261596",
    "final_x": "3681840.14284",
    "final_y": "530939.076033",
    "longitude": "-90.06701654595575",
    "latitude": "29.953888006921623",
    "geocoded_column": {
      "latitude": "29.953888006921623",
      "longitude": "-90.06701654595575"
    }
  },
  {
    "service_request": "2026-1261595",
    "request_type": "Abandoned Vehicles",
    "request_reason": "Abandoned/Junk Vehicles",
    "date_created": "2026-03-01T11:21:33.000",
    "date_modified": "2026-03-01T11:21:35.000",
    "request_status": "Pending",
    "responsible_agency": "Department of Public Works",
    "final_address": "2124 Toledano St",
    "address_councildis": "B",
    "status": "Pending",
    "rowid": "1261595",
    "final_x": "3673717.2139",
    "final_y": "523538.871355",
    "longitude": "-90.09291841491414",
    "latitude": "29.933784210717736",
    "geocoded_column": {
      "latitude": "29.933784210717736",
      "longitude": "-90.09291841491414"
    }
  },
  {
    "service_request": "2026-1261594",
    "request_type": "Trash/Recycling",
    "request_reason": "Return Trash Cart",
    "date_created": "2026-03-01T11:19:05.000",
    "date_modified": "2026-03-01T11:19:07.000",
    "request_status": "Pending",
    "responsible_agency": "Department of Sanitation",
    "final_address": "600 BLK Esplanade Ave",
    "address_councildis": "C",
    "status": "Assigned to Contractor",
    "contractor": "IV Waste",
    "rowid": "1261594",
    "final_x": "3684171.233",
    "final_y": "534286.046045",
    "longitude": "-90.05953844740263",
    "latitude": "29.963019985981543",
    "geocoded_column": {
      "latitude": "29.963019985981543",
      "longitude": "-90.05953844740263"
    }
  },
  {
    "service_request": "2026-1261593",
    "request_type": "Drainage",
    "request_reason": "Catch Basin Not Draining",
    "date_created": "2026-03-01T11:10:34.000",
    "date_modified": "2026-03-01T11:10:36.000",
    "request_status": "Pending",
    "responsible_agency": "Sewerage & Water Board",
    "final_address": "600 BLK Iberville St",
    "address_councildis": "C",
    "status": "Pending",
    "rowid": "1261593",
    "final_x": "3681511.29114",
    "final_y": "530963.602559",
    "longitude": "-90.06805406857801",
    "latitude": "29.95396543551134",
    "geocoded_column": {
      "latitude": "29.95396543551134",
      "longitude": "-90.06805406857801"
    }
  },
  {
    "service_request": "2026-1261592",
    "request_type": "Graffiti Removal",
    "request_reason": "Graffiti Removal",
    "date_created": "2026-03-01T11:06:22.000",
    "date_modified": "2026-03-01T11:06:24.000",
    "request_status": "Pending",
    "responsible_agency": "Department of Code Enforcement",
    "final_address": "3501 Octavia St",
    "address_councildis": "A",
    "status": "Pending",
    "rowid": "1261592",
    "final_x": "3668632.47297",
    "final_y": "528378.351104",
    "longitude": "-90.10880748213752",
    "latitude": "29.947241591717965",
    "geocoded_column": {
      "latitude": "29.947241591717965",
      "longitude": "-90.10880748213752"
    }
  },
  {
    "service_request": "2026-1261591",
    "request_type": "Streetlights",
    "request_reason": "Streetlight Outage/Malfunction",
    "date_created": "2026-03-01T11:05:13.000",
    "date_modified": "2026-03-01T11:05:15.000",
    "request_status": "Pending",
    "responsible_agency": "Department of Public Works",
    "final_address": "200 BLK Chartres St",
    "address_councildis": "C",
    "status": "Pending",
    "rowid": "1261591",
    "final_x": "3681840.14284",
    "final_y": "530939.076033",
    "longitude": "-90.06701654595575",
    "latitude": "29.953888006921623",
    "geocoded_column": {
      "latitude": "29.953888006921623",
      "longitude": "-90.06701654595575"
    }
  },
  {
    "service_request": "2026-1261590",
    "request_type": "Streetlights",
    "request_reason": "Streetlight Outage/Malfunction",
    "date_created": "2026-03-01T11:03:31.000",
    "date_modified": "2026-03-01T11:03:32.000",
    "request_status": "Pending",
    "responsible_agency": "Department of Public Works",
    "final_address": "200 BLK Chartres St",
    "address_councildis": "C",
    "status": "Pending",
    "rowid": "1261590",
    "final_x": "3681840.14284",
    "final_y": "530939.076033",
    "longitude": "-90.06701654595575",
    "latitude": "29.953888006921623",
    "geocoded_column": {
      "latitude": "29.953888006921623",
      "longitude": "-90.06701654595575"
    }
  },
  {
    "service_request": "2026-1261589",
    "request_type": "Graffiti Removal",
    "request_reason": "Graffiti Removal",
    "date_created": "2026-03-01T11:03:29.000",
    "date_modified": "2026-03-01T11:03:35.000",
    "request_status": "Pending",
    "responsible_agency": "Department of Code Enforcement",
    "final_address": "5302 S Rocheblave St",
    "address_councildis": "A",
    "status": "Pending",
    "rowid": "1261589",
    "final_x": "3668902.08903",
    "final_y": "528221.795456",
    "longitude": "-90.1079614856498",
    "latitude": "29.94680318924873",
    "geocoded_column": {
      "latitude": "29.94680318924873",
      "longitude": "-90.1079614856498"
    }
  },
  {
    "service_request": "2026-1261588",
    "request_type": "Streetlights",
    "request_reason": "Streetlight Knocked Down/Leaning",
    "date_created": "2026-03-01T10:59:22.000",
    "date_modified": "2026-03-01T10:59:24.000",
    "request_status": "Pending",
    "responsible_agency": "Department of Public Works",
    "final_address": "200 BLK Chartres St",
    "address_councildis": "C",
    "status": "Pending",
    "rowid": "1261588",
    "final_x": "3681840.14284",
    "final_y": "530939.076033",
    "longitude": "-90.06701654595575",
    "latitude": "29.953888006921623",
    "geocoded_column": {
      "latitude": "29.953888006921623",
      "longitude": "-90.06701654595575"
    }
  },
  {
    "service_request": "2026-1261587",
    "request_type": "Graffiti Removal",
    "request_reason": "Graffiti Removal",
    "date_created": "2026-03-01T10:58:09.000",
    "date_modified": "2026-03-01T10:58:11.000",
    "request_status": "Pending",
    "responsible_agency": "Department of Code Enforcement",
    "final_address": "3430 Octavia St",
    "address_councildis": "A",
    "status": "Pending",
    "rowid": "1261587",
    "final_x": "3668458.32257",
    "final_y": "528268.626048",
    "longitude": "-90.10936104334453",
    "latitude": "29.94694499973487",
    "geocoded_column": {
      "latitude": "29.94694499973487",
      "longitude": "-90.10936104334453"
    }
  },
  {
    "service_request": "2026-1261586",
    "request_type": "Trash/Recycling",
    "request_reason": "Replace Trash Cart",
    "date_created": "2026-03-01T10:55:06.000",
    "date_modified": "2026-03-01T10:55:16.000",
    "request_status": "Pending",
    "responsible_agency": "Department of Sanitation",
    "final_address": "2653 Gallinghouse St",
    "address_councildis": "C",
    "status": "Assigned to Contractor",
    "contractor": "Richards Disposal",
    "rowid": "1261586",
    "final_x": "3700035.13572",
    "final_y": "521203.956793",
    "longitude": "-90.00991963500225",
    "latitude": "29.926554381958187",
    "geocoded_column": {
      "latitude": "29.926554381958187",
      "longitude": "-90.00991963500225"
    }
  },
  {
    "service_request": "2026-1261585",
    "request_type": "Trash/Recycling",
    "request_reason": "Order Recycling Cart",
    "date_created": "2026-03-01T10:54:42.000",
    "date_modified": "2026-03-01T10:54:43.000",
    "request_status": "Pending",
    "responsible_agency": "Department of Sanitation",
    "final_address": "910 N Prieur St",
    "address_councildis": "D",
    "status": "Pending",
    "rowid": "1261585",
    "final_x": "3679451.33666",
    "final_y": "535910.462471",
    "longitude": "-90.0743869424258",
    "latitude": "29.967630006342354",
    "geocoded_column": {
      "latitude": "29.967630006342354",
      "longitude": "-90.0743869424258"
    }
  },
  {
    "service_request": "2026-1261584",
    "request_type": "Graffiti Removal",
    "request_reason": "Graffiti Removal",
    "date_created": "2026-03-01T10:54:18.000",
    "date_modified": "2026-03-01T10:54:20.000",
    "request_status": "Pending",
    "responsible_agency": "Department of Code Enforcement",
    "final_address": "3438 Octavia St",
    "address_councildis": "A",
    "status": "Pending",
    "rowid": "1261584",
    "final_x": "3668473.11905",
    "final_y": "528317.387968",
    "longitude": "-90.10931268060067",
    "latitude": "29.947078644555656",
    "geocoded_column": {
      "latitude": "29.947078644555656",
      "longitude": "-90.10931268060067"
    }
  },
  {
    "service_request": "2026-1261583",
    "request_type": "Trash/Recycling",
    "request_reason": "Order Trash Cart",
    "date_created": "2026-03-01T10:51:57.000",
    "date_modified": "2026-03-01T10:51:58.000",
    "request_status": "Pending",
    "responsible_agency": "Department of Sanitation",
    "final_address": "910 N Prieur St",
    "address_councildis": "D",
    "status": "Assigned to Contractor",
    "contractor": "IV Waste",
    "rowid": "1261583",
    "final_x": "3679451.33666",
    "final_y": "535910.462471",
    "longitude": "-90.0743869424258",
    "latitude": "29.967630006342354",
    "geocoded_column": {
      "latitude": "29.967630006342354",
      "longitude": "-90.0743869424258"
    }
  },
  {
    "service_request": "2026-1261582",
    "request_type": "Trash/Recycling",
    "request_reason": "Replace Trash Cart",
    "date_created": "2026-03-01T10:50:05.000",
    "date_modified": "2026-03-01T10:50:07.000",
    "request_status": "Pending",
    "responsible_agency": "Department of Sanitation",
    "final_address": "2653 Gallinghouse St",
    "address_councildis": "C",
    "status": "Assigned to Contractor",
    "contractor": "Richards Disposal",
    "rowid": "1261582",
    "final_x": "3700035.13572",
    "final_y": "521203.956793",
    "longitude": "-90.00991963500225",
    "latitude": "29.926554381958187",
    "geocoded_column": {
      "latitude": "29.926554381958187",
      "longitude": "-90.00991963500225"
    }
  },
  {
    "service_request": "2026-1261581",
    "request_type": "Trash/Recycling",
    "request_reason": "Repair Trash Cart",
    "date_created": "2026-03-01T10:48:12.000",
    "date_modified": "2026-03-01T10:48:14.000",
    "request_status": "Pending",
    "responsible_agency": "Department of Sanitation",
    "final_address": "1711 Frenchmen St",
    "address_councildis": "D",
    "status": "Assigned to Contractor",
    "contractor": "IV Waste",
    "rowid": "1261581",
    "final_x": "3684440.80341",
    "final_y": "538593.068617",
    "longitude": "-90.0585358607564",
    "latitude": "29.974854561718004",
    "geocoded_column": {
      "latitude": "29.974854561718004",
      "longitude": "-90.0585358607564"
    }
  },
  {
    "service_request": "2026-1261580",
    "request_type": "Health Related Request",
    "request_reason": "Noise Ordinance Complaint",
    "date_created": "2026-03-01T10:26:29.000",
    "date_modified": "2026-03-01T10:26:32.000",
    "request_status": "Pending",
    "responsible_agency": "Health Department",
    "final_address": "3137 Burgundy St",
    "address_councildis": "C",
    "status": "Pending",
    "rowid": "1261580",
    "final_x": "3689095.77852",
    "final_y": "535163.799686",
    "longitude": "-90.04395619000822",
    "latitude": "29.96528205445934",
    "geocoded_column": {
      "latitude": "29.96528205445934",
      "longitude": "-90.04395619000822"
    }
  },
  {
    "service_request": "2026-1261579",
    "request_type": "Trash/Recycling",
    "request_reason": "Request a Large Item Pick Up",
    "date_created": "2026-03-01T10:14:03.000",
    "date_modified": "2026-03-01T10:14:04.000",
    "request_status": "Pending",
    "responsible_agency": "Department of Sanitation",
    "final_address": "4518 Pitt St",
    "address_councildis": "B",
    "status": "Assigned to Contractor",
    "contractor": "IV Waste",
    "rowid": "1261579",
    "final_x": "3670263.70618",
    "final_y": "520473.705208",
    "longitude": "-90.10392482925161",
    "latitude": "29.92545833142646",
    "geocoded_column": {
      "latitude": "29.92545833142646",
      "longitude": "-90.10392482925161"
    }
  },
  {
    "service_request": "2026-1261577",
    "request_type": "Trash/Recycling",
    "request_reason": "Request a Large Item Pick Up",
    "date_created": "2026-03-01T10:09:13.000",
    "date_modified": "2026-03-01T10:09:15.000",
    "request_status": "Pending",
    "responsible_agency": "Department of Sanitation",
    "final_address": "4518 Pitt St",
    "address_councildis": "B",
    "status": "Assigned to Contractor",
    "contractor": "IV Waste",
    "rowid": "1261577",
    "final_x": "3670263.70618",
    "final_y": "520473.705208",
    "longitude": "-90.10392482925161",
    "latitude": "29.92545833142646",
    "geocoded_column": {
      "latitude": "29.92545833142646",
      "longitude": "-90.10392482925161"
    }
  },
  {
    "service_request": "2026-1261576",
    "request_type": "Trash/Recycling",
    "request_reason": "Order Recycling Cart",
    "date_created": "2026-03-01T09:40:33.000",
    "date_modified": "2026-03-01T09:40:35.000",
    "request_status": "Pending",
    "responsible_agency": "Department of Sanitation",
    "final_address": "2000 BLK Saint Roch Ave",
    "address_councildis": "D",
    "status": "Pending",
    "rowid": "1261576",
    "final_x": "3686248.0005",
    "final_y": "539924.193561",
    "longitude": "-90.05278130547221",
    "latitude": "29.978459279702616",
    "geocoded_column": {
      "latitude": "29.978459279702616",
      "longitude": "-90.05278130547221"
    }
  },
  {
    "service_request": "2026-1261575",
    "request_type": "Parks & Parkways",
    "request_reason": "Park Maintenance/Clean Up",
    "date_created": "2026-03-01T09:24:47.000",
    "date_modified": "2026-03-01T09:24:50.000",
    "request_status": "Pending",
    "responsible_agency": "Department of Parks & Parkway",
    "final_address": "6301 Canal Blvd",
    "address_councildis": "A",
    "status": "Pending",
    "rowid": "1261575",
    "final_x": "3668805.38932",
    "final_y": "549369.744083",
    "longitude": "-90.10755250041724",
    "latitude": "30.004955769971186",
    "geocoded_column": {
      "latitude": "30.004955769971186",
      "longitude": "-90.10755250041724"
    }
  },
  {
    "service_request": "2026-1261574",
    "request_type": "Trash/Recycling",
    "request_reason": "Repair Recycling Cart",
    "date_created": "2026-03-01T09:12:12.000",
    "date_modified": "2026-03-01T09:12:15.000",
    "request_status": "Pending",
    "responsible_agency": "Department of Sanitation",
    "final_address": "2127 General Pershing St",
    "address_councildis": "B",
    "status": "Pending",
    "rowid": "1261574",
    "final_x": "3671088.59092",
    "final_y": "522922.622715",
    "longitude": "-90.1012377936852",
    "latitude": "29.9321677079084",
    "geocoded_column": {
      "latitude": "29.9321677079084",
      "longitude": "-90.1012377936852"
    }
  },
  {
    "service_request": "2026-1261573",
    "request_type": "Trash/Recycling",
    "request_reason": "Request a Large Item Pick Up",
    "date_created": "2026-03-01T09:10:33.000",
    "date_modified": "2026-03-01T09:10:34.000",
    "request_status": "Pending",
    "responsible_agency": "Department of Sanitation",
    "final_address": "2721 Valentine Ct",
    "address_councildis": "C",
    "status": "Assigned to Contractor",
    "contractor": "Richards Disposal",
    "rowid": "1261573",
    "final_x": "3699025.38013",
    "final_y": "520973.357305",
    "longitude": "-90.01311552273968",
    "latitude": "29.925952341603793",
    "geocoded_column": {
      "latitude": "29.925952341603793",
      "longitude": "-90.01311552273968"
    }
  },
  {
    "service_request": "2026-1261572",
    "request_type": "Abandoned Vehicles",
    "request_reason": "Abandoned/Junk Vehicles",
    "date_created": "2026-03-01T09:03:56.000",
    "date_modified": "2026-03-01T09:03:57.000",
    "request_status": "Pending",
    "responsible_agency": "Department of Public Works",
    "final_address": "5527 Paris Ave",
    "address_councildis": "D",
    "status": "Pending",
    "rowid": "1261572",
    "final_x": "3679222.94927",
    "final_y": "552763.12559",
    "longitude": "-90.07452351296375",
    "latitude": "30.013975807150196",
    "geocoded_column": {
      "latitude": "30.013975807150196",
      "longitude": "-90.07452351296375"
    }
  },
  {
    "service_request": "2026-1261571",
    "request_type": "Trash/Recycling",
    "request_reason": "Order Trash Cart",
    "date_created": "2026-03-01T09:02:00.000",
    "date_modified": "2026-03-01T09:02:02.000",
    "request_status": "Pending",
    "responsible_agency": "Department of Sanitation",
    "final_address": "2721 Valentine Ct",
    "address_councildis": "C",
    "status": "Assigned to Contractor",
    "contractor": "Richards Disposal",
    "rowid": "1261571",
    "final_x": "3699025.38013",
    "final_y": "520973.357305",
    "longitude": "-90.01311552273968",
    "latitude": "29.925952341603793",
    "geocoded_column": {
      "latitude": "29.925952341603793",
      "longitude": "-90.01311552273968"
    }
  },
  {
    "service_request": "2026-1261570",
    "request_type": "Abandoned Vehicles",
    "request_reason": "Abandoned/Junk Vehicles",
    "date_created": "2026-03-01T08:55:10.000",
    "date_modified": "2026-03-01T08:55:12.000",
    "request_status": "Pending",
    "responsible_agency": "Department of Public Works",
    "final_address": "4000 Vincennes Pl",
    "address_councildis": "B",
    "status": "Pending",
    "rowid": "1261570",
    "final_x": "3668361.6891",
    "final_y": "529964.509825",
    "longitude": "-90.10960896698514",
    "latitude": "29.951610965354156",
    "geocoded_column": {
      "latitude": "29.951610965354156",
      "longitude": "-90.10960896698514"
    }
  },
  {
    "service_request": "2026-1261569",
    "request_type": "Trash/Recycling",
    "request_reason": "Replace Recycling Cart",
    "date_created": "2026-03-01T08:47:44.000",
    "date_modified": "2026-03-01T08:47:46.000",
    "request_status": "Pending",
    "responsible_agency": "Department of Sanitation",
    "final_address": "1301 Dufossat St",
    "address_councildis": "B",
    "status": "Pending",
    "rowid": "1261569",
    "final_x": "3668117.23796",
    "final_y": "519946.952248",
    "longitude": "-90.11071832804454",
    "latitude": "29.924073078536797",
    "geocoded_column": {
      "latitude": "29.924073078536797",
      "longitude": "-90.11071832804454"
    }
  },
  {
    "service_request": "2026-1261568",
    "request_type": "Abandoned Vehicles",
    "request_reason": "Abandoned/Junk Vehicles",
    "date_created": "2026-03-01T08:45:36.000",
    "date_modified": "2026-03-01T08:45:38.000",
    "request_status": "Pending",
    "responsible_agency": "Department of Public Works",
    "final_address": "1545 Sixth St",
    "address_councildis": "B",
    "status": "Pending",
    "rowid": "1261568",
    "final_x": "3675601.21806",
    "final_y": "522148.22041",
    "longitude": "-90.08701844753327",
    "latitude": "29.9299041589221",
    "geocoded_column": {
      "latitude": "29.9299041589221",
      "longitude": "-90.08701844753327"
    }
  },
  {
    "service_request": "2026-1261567",
    "request_type": "Street and Traffic Signs",
    "request_reason": "One Way Sign Missing or Damaged",
    "date_created": "2026-03-01T08:41:06.000",
    "date_modified": "2026-03-01T08:41:07.000",
    "request_status": "Pending",
    "responsible_agency": "Department of Public Works",
    "final_address": "2000 BLK N Rampart St",
    "address_councildis": "C",
    "status": "Pending",
    "rowid": "1261567",
    "final_x": "3684440.79447",
    "final_y": "535893.31514",
    "longitude": "-90.05863074294832",
    "latitude": "29.967431178508505",
    "geocoded_column": {
      "latitude": "29.967431178508505",
      "longitude": "-90.05863074294832"
    }
  },
  {
    "service_request": "2026-1261566",
    "request_type": "Abandoned Vehicles",
    "request_reason": "Abandoned/Junk Vehicles",
    "date_created": "2026-03-01T08:36:57.000",
    "date_modified": "2026-03-01T08:36:59.000",
    "request_status": "Pending",
    "responsible_agency": "Department of Public Works",
    "final_address": "2620 St Louis St",
    "address_councildis": "B",
    "status": "Pending",
    "rowid": "1261566",
    "final_x": "3676479.18299",
    "final_y": "536014.628039",
    "longitude": "-90.08376949509744",
    "latitude": "29.96800588260674",
    "geocoded_column": {
      "latitude": "29.96800588260674",
      "longitude": "-90.08376949509744"
    }
  },
  {
    "service_request": "2026-1261565",
    "request_type": "Trash/Recycling",
    "request_reason": "Request a Large Item Pick Up",
    "date_created": "2026-03-01T08:21:26.000",
    "date_modified": "2026-03-01T08:21:29.000",
    "request_status": "Pending",
    "responsible_agency": "Department of Sanitation",
    "final_address": "1449 N Roman St",
    "address_councildis": "D",
    "status": "Assigned to Contractor",
    "contractor": "IV Waste",
    "rowid": "1261565",
    "final_x": "3680955.67701",
    "final_y": "537415.059144",
    "longitude": "-90.06958379725657",
    "latitude": "29.971721596381997",
    "geocoded_column": {
      "latitude": "29.971721596381997",
      "longitude": "-90.06958379725657"
    }
  },
  {
    "service_request": "2026-1261564",
    "request_type": "Drainage",
    "request_reason": "Catch Basin Frame and Cover Missing or Damaged",
    "date_created": "2026-03-01T08:18:40.000",
    "date_modified": "2026-03-01T08:18:42.000",
    "request_status": "Pending",
    "responsible_agency": "Sewerage & Water Board",
    "final_address": "8020 Spruce St",
    "address_councildis": "A",
    "status": "Pending",
    "rowid": "1261564",
    "final_x": "3664045.05312",
    "final_y": "530219.073729",
    "longitude": "-90.12323039107248",
    "latitude": "29.952436988646106",
    "geocoded_column": {
      "latitude": "29.952436988646106",
      "longitude": "-90.12323039107248"
    }
  },
  {
    "service_request": "2026-1261563",
    "request_type": "Drainage",
    "request_reason": "Drainage Manhole Cover Missing or Damaged",
    "date_created": "2026-03-01T08:10:53.000",
    "date_modified": "2026-03-01T08:10:56.000",
    "request_status": "Pending",
    "responsible_agency": "Sewerage & Water Board",
    "final_address": "4016 N Rampart St",
    "address_councildis": "C",
    "status": "Pending",
    "rowid": "1261563",
    "final_x": "3691822.12355",
    "final_y": "534798.95847",
    "longitude": "-90.0353596144258",
    "latitude": "29.964194231875553",
    "geocoded_column": {
      "latitude": "29.964194231875553",
      "longitude": "-90.0353596144258"
    }
  },
  {
    "service_request": "2026-1261562",
    "request_type": "Trash/Recycling",
    "request_reason": "Request a Large Item Pick Up",
    "date_created": "2026-03-01T08:06:13.000",
    "date_modified": "2026-03-01T08:06:16.000",
    "request_status": "Pending",
    "responsible_agency": "Department of Sanitation",
    "final_address": "5810 Pratt Dr",
    "address_councildis": "D",
    "status": "Assigned to Contractor",
    "contractor": "IV Waste",
    "rowid": "1261562",
    "final_x": "3680159.51439",
    "final_y": "554006.18204",
    "longitude": "-90.07152119517099",
    "latitude": "30.01736543739235",
    "geocoded_column": {
      "latitude": "30.01736543739235",
      "longitude": "-90.07152119517099"
    }
  },
  {
    "service_request": "2026-1261561",
    "request_type": "General Services",
    "request_reason": "General Service Request",
    "date_created": "2026-03-01T07:18:13.000",
    "date_modified": "2026-03-01T07:18:15.000",
    "request_status": "Pending",
    "responsible_agency": "Orleans Parish Communication District",
    "final_address": "7306 Heather Ct",
    "address_councildis": "E",
    "status": "Pending",
    "rowid": "1261561",
    "final_x": "3705600.95383",
    "final_y": "561988.783775",
    "longitude": "-89.99084161110363",
    "latitude": "30.038519595422418",
    "geocoded_column": {
      "latitude": "30.038519595422418",
      "longitude": "-89.99084161110363"
    }
  },
  {
    "service_request": "2026-1261560",
    "request_type": "Abandoned Vehicles",
    "request_reason": "Abandoned/Junk Vehicles",
    "date_created": "2026-03-01T05:56:56.000",
    "date_modified": "2026-03-01T05:56:58.000",
    "request_status": "Pending",
    "responsible_agency": "Department of Public Works",
    "final_address": "2620 Cleveland Ave",
    "address_councildis": "B",
    "status": "Pending",
    "rowid": "1261560",
    "final_x": "3675358.83752",
    "final_y": "534467.364101",
    "longitude": "-90.08736072350239",
    "latitude": "29.963784976481424",
    "geocoded_column": {
      "latitude": "29.963784976481424",
      "longitude": "-90.08736072350239"
    }
  },
  {
    "service_request": "2026-1261559",
    "request_type": "Roads and Streets",
    "request_reason": "Street Subsidence (Sinking)",
    "date_created": "2026-03-01T03:06:11.000",
    "date_modified": "2026-03-01T03:06:13.000",
    "request_status": "Pending",
    "responsible_agency": "Sewerage & Water Board",
    "final_address": "1900 Wildair Dr",
    "address_councildis": "D",
    "status": "Pending",
    "rowid": "1261559",
    "final_x": "3681141.9389",
    "final_y": "551104.013909",
    "longitude": "-90.06851834760108",
    "latitude": "30.009355742945843",
    "geocoded_column": {
      "latitude": "30.009355742945843",
      "longitude": "-90.06851834760108"
    }
  },
  {
    "service_request": "2026-1261558",
    "request_type": "Street and Traffic Signs",
    "request_reason": "Stop Sign Missing or Damaged",
    "date_created": "2026-03-01T00:05:43.000",
    "date_modified": "2026-03-01T00:05:45.000",
    "request_status": "Pending",
    "responsible_agency": "Department of Public Works",
    "final_address": "4701 Toulouse St",
    "address_councildis": "A",
    "status": "Pending",
    "rowid": "1261558",
    "final_x": "3670145.68807",
    "final_y": "541339.710924",
    "longitude": "-90.10359047066218",
    "latitude": "29.982836456910213",
    "geocoded_column": {
      "latitude": "29.982836456910213",
      "longitude": "-90.10359047066218"
    }
  },
  {
    "service_request": "2026-1261557",
    "request_type": "Health Related Request",
    "request_reason": "Noise Ordinance Complaint",
    "date_created": "2026-02-28T23:35:26.000",
    "date_modified": "2026-02-28T23:35:27.000",
    "request_status": "Pending",
    "responsible_agency": "Health Department",
    "final_address": "1499 Pressburg St, New Orleans, Louisiana, 70122",
    "address_councildis": "D",
    "status": "Pending",
    "rowid": "1261557",
    "final_x": "3678302.82235",
    "final_y": "554108.0134",
    "longitude": "-90.0773840719837",
    "latitude": "30.017701525458456",
    "geocoded_column": {
      "latitude": "30.017701525458456",
      "longitude": "-90.0773840719837"
    }
  },
  {
    "service_request": "2026-1261556",
    "request_type": "Health Related Request",
    "request_reason": "Noise Ordinance Complaint",
    "date_created": "2026-02-28T23:31:17.000",
    "date_modified": "2026-02-28T23:31:19.000",
    "request_status": "Pending",
    "responsible_agency": "Health Department",
    "final_address": "1499 Pressburg St, New Orleans, Louisiana, 70122",
    "address_councildis": "D",
    "status": "Pending",
    "rowid": "1261556",
    "final_x": "3678302.82235",
    "final_y": "554108.0134",
    "longitude": "-90.0773840719837",
    "latitude": "30.017701525458456",
    "geocoded_column": {
      "latitude": "30.017701525458456",
      "longitude": "-90.0773840719837"
    }
  },
  {
    "service_request": "2026-1261555",
    "request_type": "Health Related Request",
    "request_reason": "Noise Ordinance Complaint",
    "date_created": "2026-02-28T22:12:35.000",
    "date_modified": "2026-02-28T22:12:37.000",
    "request_status": "Pending",
    "responsible_agency": "Health Department",
    "final_address": "1647 Pratt Dr, New Orleans, Louisiana, 70122",
    "address_councildis": "D",
    "status": "Pending",
    "rowid": "1261555",
    "final_x": "3679755.70536",
    "final_y": "548826.704659",
    "longitude": "-90.07297707551155",
    "latitude": "30.003135959457648",
    "geocoded_column": {
      "latitude": "30.003135959457648",
      "longitude": "-90.07297707551155"
    }
  },
  {
    "service_request": "2026-1261554",
    "request_type": "Health Related Request",
    "request_reason": "Noise Ordinance Complaint",
    "date_created": "2026-02-28T21:32:33.000",
    "date_modified": "2026-02-28T21:32:34.000",
    "request_status": "Pending",
    "responsible_agency": "Health Department",
    "final_address": "801 Bourbon St, New Orleans, Louisiana, 70116",
    "address_councildis": "C",
    "status": "Pending",
    "rowid": "1261554",
    "final_x": "3682490.98735",
    "final_y": "533018.672772",
    "longitude": "-90.06488875731978",
    "latitude": "29.959586396383013",
    "geocoded_column": {
      "latitude": "29.959586396383013",
      "longitude": "-90.06488875731978"
    }
  },
  {
    "service_request": "2026-1261553",
    "request_type": "Health Related Request",
    "request_reason": "Noise Ordinance Complaint",
    "date_created": "2026-02-28T21:31:47.000",
    "date_modified": "2026-02-28T21:31:49.000",
    "request_status": "Pending",
    "responsible_agency": "Health Department",
    "final_address": "800 Bourbon St, New Orleans, Louisiana, 70116",
    "address_councildis": "C",
    "status": "Pending",
    "rowid": "1261553",
    "final_x": "3682553.51528",
    "final_y": "533013.631428",
    "longitude": "-90.06469148499534",
    "latitude": "29.95957063099051",
    "geocoded_column": {
      "latitude": "29.95957063099051",
      "longitude": "-90.06469148499534"
    }
  },
  {
    "service_request": "2026-1261552",
    "request_type": "Trash/Recycling",
    "request_reason": "Order Recycling Cart",
    "date_created": "2026-02-28T21:25:45.000",
    "date_modified": "2026-02-28T21:25:47.000",
    "request_status": "Pending",
    "responsible_agency": "Department of Sanitation",
    "final_address": "505 S Dupre St",
    "address_councildis": "B",
    "status": "Pending",
    "rowid": "1261552",
    "final_x": "3673562.57089",
    "final_y": "534350.068549",
    "longitude": "-90.09303717689866",
    "latitude": "29.963516038250294",
    "geocoded_column": {
      "latitude": "29.963516038250294",
      "longitude": "-90.09303717689866"
    }
  },
  {
    "service_request": "2026-1261551",
    "request_type": "Health Related Request",
    "request_reason": "Noise Ordinance Complaint",
    "date_created": "2026-02-28T21:25:11.000",
    "date_modified": "2026-02-28T21:25:19.000",
    "request_status": "Pending",
    "responsible_agency": "Health Department",
    "final_address": "801 Bourbon St",
    "address_councildis": "C",
    "status": "Pending",
    "rowid": "1261551",
    "final_x": "3682490.98735",
    "final_y": "533018.672772",
    "longitude": "-90.06488875731978",
    "latitude": "29.959586396383013",
    "geocoded_column": {
      "latitude": "29.959586396383013",
      "longitude": "-90.06488875731978"
    }
  },
  {
    "service_request": "2026-1261550",
    "request_type": "Health Related Request",
    "request_reason": "Noise Ordinance Complaint",
    "date_created": "2026-02-28T21:24:24.000",
    "date_modified": "2026-02-28T21:24:32.000",
    "request_status": "Pending",
    "responsible_agency": "Health Department",
    "final_address": "800 Bourbon St",
    "address_councildis": "C",
    "status": "Pending",
    "rowid": "1261550",
    "final_x": "3682553.51528",
    "final_y": "533013.631428",
    "longitude": "-90.06469148499534",
    "latitude": "29.95957063099051",
    "geocoded_column": {
      "latitude": "29.95957063099051",
      "longitude": "-90.06469148499534"
    }
  },
  {
    "service_request": "2026-1261549",
    "request_type": "Trash/Recycling",
    "request_reason": "Order Trash Cart",
    "date_created": "2026-02-28T21:23:33.000",
    "date_modified": "2026-02-28T21:23:34.000",
    "request_status": "Pending",
    "responsible_agency": "Department of Sanitation",
    "final_address": "505 S Dupre St",
    "address_councildis": "B",
    "status": "Assigned to Contractor",
    "contractor": "IV Waste",
    "rowid": "1261549",
    "final_x": "3673562.57089",
    "final_y": "534350.068549",
    "longitude": "-90.09303717689866",
    "latitude": "29.963516038250294",
    "geocoded_column": {
      "latitude": "29.963516038250294",
      "longitude": "-90.09303717689866"
    }
  },
  {
    "service_request": "2026-1261548",
    "request_type": "Traffic Signals",
    "request_reason": "Traffic Signal Malfunctioning or Damaged",
    "date_created": "2026-02-28T21:01:30.000",
    "date_modified": "2026-02-28T21:01:32.000",
    "request_status": "Pending",
    "responsible_agency": "Department of Public Works",
    "final_address": "5800 BLK Saint Charles Ave",
    "address_councildis": "A",
    "status": "Pending",
    "rowid": "1261548",
    "final_x": "3666086.68255",
    "final_y": "522215.183048",
    "longitude": "-90.1170520958242",
    "latitude": "29.930369415166318",
    "geocoded_column": {
      "latitude": "29.930369415166318",
      "longitude": "-90.1170520958242"
    }
  },
  {
    "service_request": "2026-1261547",
    "request_type": "Trash/Recycling",
    "request_reason": "Missed Trash Pick-Up",
    "date_created": "2026-02-28T19:55:11.000",
    "date_modified": "2026-02-28T19:55:13.000",
    "request_status": "Pending",
    "responsible_agency": "Department of Sanitation",
    "final_address": "7330 Martin Dr",
    "address_councildis": "E",
    "status": "Assigned to Contractor",
    "contractor": "Waste Pro",
    "rowid": "1261547",
    "final_x": "3698551.96202",
    "final_y": "559081.01238",
    "longitude": "-90.01322405759704",
    "latitude": "30.0307495489085",
    "geocoded_column": {
      "latitude": "30.0307495489085",
      "longitude": "-90.01322405759704"
    }
  },
  {
    "service_request": "2026-1261546",
    "request_type": "Trash/Recycling",
    "request_reason": "Request a Large Item Pick Up",
    "date_created": "2026-02-28T19:43:36.000",
    "date_modified": "2026-02-28T19:43:39.000",
    "request_status": "Pending",
    "responsible_agency": "Department of Sanitation",
    "final_address": "7554 Lehigh St",
    "address_councildis": "E",
    "status": "Assigned to Contractor",
    "contractor": "Waste Pro",
    "rowid": "1261546",
    "final_x": "3710719.57131",
    "final_y": "565312.973858",
    "longitude": "-89.97454098647248",
    "latitude": "30.047493894040308",
    "geocoded_column": {
      "latitude": "30.047493894040308",
      "longitude": "-89.97454098647248"
    }
  },
  {
    "service_request": "2026-1261545",
    "request_type": "Trash/Recycling",
    "request_reason": "Request a Large Item Pick Up",
    "date_created": "2026-02-28T18:26:12.000",
    "date_modified": "2026-02-28T18:26:14.000",
    "request_status": "Pending",
    "responsible_agency": "Department of Sanitation",
    "final_address": "1560 N Tonti St",
    "address_councildis": "D",
    "status": "Assigned to Contractor",
    "contractor": "IV Waste",
    "rowid": "1261545",
    "final_x": "3680172.76322",
    "final_y": "539111.193802",
    "longitude": "-90.07199739256839",
    "latitude": "29.976409100542057",
    "geocoded_column": {
      "latitude": "29.976409100542057",
      "longitude": "-90.07199739256839"
    }
  },
  {
    "service_request": "2026-1261544",
    "request_type": "Parks & Parkways",
    "request_reason": "Park Maintenance/Clean Up",
    "date_created": "2026-02-28T18:12:36.000",
    "date_modified": "2026-02-28T18:12:38.000",
    "request_status": "Pending",
    "responsible_agency": "Department of Parks & Parkway",
    "final_address": "1200 BLK General Collins Ave",
    "address_councildis": "C",
    "status": "Pending",
    "rowid": "1261544",
    "final_x": "3698576.26948",
    "final_y": "526515.499906",
    "longitude": "-90.01433183695437",
    "latitude": "29.94120553977414",
    "geocoded_column": {
      "latitude": "29.94120553977414",
      "longitude": "-90.01433183695437"
    }
  },
  {
    "service_request": "2026-1261543",
    "request_type": "Streetlights",
    "request_reason": "Streetlight Outage/Malfunction",
    "date_created": "2026-02-28T18:06:08.000",
    "date_modified": "2026-02-28T18:06:10.000",
    "request_status": "Pending",
    "responsible_agency": "Department of Public Works",
    "final_address": "1902 Allen St",
    "address_councildis": "D",
    "status": "Pending",
    "rowid": "1261543",
    "final_x": "3682458.88367",
    "final_y": "539013.53089",
    "longitude": "-90.0647805562668",
    "latitude": "29.97607116702504",
    "geocoded_column": {
      "latitude": "29.97607116702504",
      "longitude": "-90.0647805562668"
    }
  },
  {
    "service_request": "2026-1261542",
    "request_type": "Trash/Recycling",
    "request_reason": "Request a Large Item Pick Up",
    "date_created": "2026-02-28T18:00:12.000",
    "date_modified": "2026-02-28T18:00:15.000",
    "request_status": "Pending",
    "responsible_agency": "Department of Sanitation",
    "final_address": "4816 Conti St",
    "address_councildis": "A",
    "status": "Assigned to Contractor",
    "contractor": "IV Waste",
    "rowid": "1261542",
    "final_x": "3669367.4505",
    "final_y": "541065.80174",
    "longitude": "-90.10605781163603",
    "latitude": "29.982106242498986",
    "geocoded_column": {
      "latitude": "29.982106242498986",
      "longitude": "-90.10605781163603"
    }
  },
  {
    "service_request": "2026-1261541",
    "request_type": "Roads and Streets",
    "request_reason": "Pothole",
    "date_created": "2026-02-28T17:49:52.000",
    "date_modified": "2026-02-28T17:49:53.000",
    "request_status": "Pending",
    "responsible_agency": "Department of Public Works",
    "final_address": "5700 BLK Hurst St",
    "address_councildis": "A",
    "status": "Pending",
    "rowid": "1261541",
    "final_x": "3666264.71107",
    "final_y": "521631.154688",
    "longitude": "-90.11650966423545",
    "latitude": "29.928758324928605",
    "geocoded_column": {
      "latitude": "29.928758324928605",
      "longitude": "-90.11650966423545"
    }
  },
  {
    "service_request": "2026-1261540",
    "request_type": "Roads and Streets",
    "request_reason": "Pothole",
    "date_created": "2026-02-28T17:49:01.000",
    "date_modified": "2026-02-28T17:49:03.000",
    "request_status": "Pending",
    "responsible_agency": "Department of Public Works",
    "final_address": "5811 Hurst St",
    "address_councildis": "A",
    "status": "Pending",
    "rowid": "1261540",
    "final_x": "3666020.68199",
    "final_y": "521739.295738",
    "longitude": "-90.11727639383294",
    "latitude": "29.929062802019686",
    "geocoded_column": {
      "latitude": "29.929062802019686",
      "longitude": "-90.11727639383294"
    }
  },
  {
    "service_request": "2026-1261539",
    "request_type": "Trash/Recycling",
    "request_reason": "Order Recycling Cart",
    "date_created": "2026-02-28T17:38:38.000",
    "date_modified": "2026-02-28T17:38:40.000",
    "request_status": "Pending",
    "responsible_agency": "Department of Sanitation",
    "final_address": "3816 Napoleon Ave",
    "address_councildis": "B",
    "status": "Pending",
    "rowid": "1261539",
    "final_x": "3669973.23559",
    "final_y": "528615.199488",
    "longitude": "-90.10456615562241",
    "latitude": "29.947853381158733",
    "geocoded_column": {
      "latitude": "29.947853381158733",
      "longitude": "-90.10456615562241"
    }
  },
  {
    "service_request": "2026-1261538",
    "request_type": "Roads and Streets",
    "request_reason": "Street Subsidence (Sinking)",
    "date_created": "2026-02-28T17:25:49.000",
    "date_modified": "2026-02-28T17:25:51.000",
    "request_status": "Pending",
    "responsible_agency": "Sewerage & Water Board",
    "final_address": "8020 Spruce St",
    "address_councildis": "A",
    "status": "Pending",
    "rowid": "1261538",
    "final_x": "3664045.05312",
    "final_y": "530219.073729",
    "longitude": "-90.12323039107248",
    "latitude": "29.952436988646106",
    "geocoded_column": {
      "latitude": "29.952436988646106",
      "longitude": "-90.12323039107248"
    }
  },
  {
    "service_request": "2026-1261537",
    "request_type": "Trash/Recycling",
    "request_reason": "Order Trash Cart",
    "date_created": "2026-02-28T17:06:25.000",
    "date_modified": "2026-02-28T17:06:27.000",
    "request_status": "Pending",
    "responsible_agency": "Department of Sanitation",
    "final_address": "54 Fontainebleau Dr",
    "address_councildis": "A",
    "status": "Assigned to Contractor",
    "contractor": "IV Waste",
    "rowid": "1261537",
    "final_x": "3666292.69831",
    "final_y": "531108.259522",
    "longitude": "-90.1161035014854",
    "latitude": "29.95481649954296",
    "geocoded_column": {
      "latitude": "29.95481649954296",
      "longitude": "-90.1161035014854"
    }
  },
  {
    "service_request": "2026-1261536",
    "request_type": "Trash/Recycling",
    "request_reason": "MIssed Recycling Pick-Up",
    "date_created": "2026-02-28T17:04:46.000",
    "date_modified": "2026-02-28T17:04:47.000",
    "request_status": "Pending",
    "responsible_agency": "Department of Sanitation",
    "final_address": "1534 France St",
    "address_councildis": "D",
    "status": "Assigned to Contractor",
    "contractor": "IV Waste",
    "rowid": "1261536",
    "final_x": "3692791.90147",
    "final_y": "536941.367496",
    "longitude": "-90.03222032753692",
    "latitude": "29.970054858478235",
    "geocoded_column": {
      "latitude": "29.970054858478235",
      "longitude": "-90.03222032753692"
    }
  },
  {
    "service_request": "2026-1261535",
    "request_type": "Trash/Recycling",
    "request_reason": "Replace Recycling Cart",
    "date_created": "2026-02-28T17:04:17.000",
    "date_modified": "2026-02-28T17:04:18.000",
    "request_status": "Pending",
    "responsible_agency": "Department of Sanitation",
    "final_address": "54 Fontainebleau Dr",
    "address_councildis": "A",
    "status": "Pending",
    "rowid": "1261535",
    "final_x": "3666292.69831",
    "final_y": "531108.259522",
    "longitude": "-90.1161035014854",
    "latitude": "29.95481649954296",
    "geocoded_column": {
      "latitude": "29.95481649954296",
      "longitude": "-90.1161035014854"
    }
  },
  {
    "service_request": "2026-1261534",
    "request_type": "Abandoned Vehicles",
    "request_reason": "Abandoned/Junk Vehicles",
    "date_created": "2026-02-28T16:45:15.000",
    "date_modified": "2026-02-28T16:45:17.000",
    "request_status": "Pending",
    "responsible_agency": "Department of Public Works",
    "final_address": "4674 Venus St",
    "address_councildis": "D",
    "status": "Pending",
    "rowid": "1261534",
    "final_x": "3686442.36399",
    "final_y": "550219.611924",
    "longitude": "-90.0518037629815",
    "latitude": "30.006762019598067",
    "geocoded_column": {
      "latitude": "30.006762019598067",
      "longitude": "-90.0518037629815"
    }
  },
  {
    "service_request": "2026-1261533",
    "request_type": "Trash/Recycling",
    "request_reason": "Request a Large Item Pick Up",
    "date_created": "2026-02-28T16:42:33.000",
    "date_modified": "2026-02-28T16:42:36.000",
    "request_status": "Pending",
    "responsible_agency": "Department of Sanitation",
    "final_address": "4315 State Street Dr",
    "address_councildis": "B",
    "status": "Assigned to Contractor",
    "contractor": "IV Waste",
    "rowid": "1261533",
    "final_x": "3668566.84167",
    "final_y": "531273.914114",
    "longitude": "-90.10891701229157",
    "latitude": "29.955205372109024",
    "geocoded_column": {
      "latitude": "29.955205372109024",
      "longitude": "-90.10891701229157"
    }
  },
  {
    "service_request": "2026-1261532",
    "request_type": "Trash/Recycling",
    "request_reason": "Request a Large Item Pick Up",
    "date_created": "2026-02-28T16:41:03.000",
    "date_modified": "2026-02-28T16:41:05.000",
    "request_status": "Pending",
    "responsible_agency": "Department of Sanitation",
    "final_address": "9438 Forshey St",
    "address_councildis": "A",
    "status": "Assigned to Contractor",
    "contractor": "IV Waste",
    "rowid": "1261532",
    "final_x": "3663376.7888",
    "final_y": "537176.30676",
    "longitude": "-90.12510883623956",
    "latitude": "29.97158649459944",
    "geocoded_column": {
      "latitude": "29.97158649459944",
      "longitude": "-90.12510883623956"
    }
  },
  {
    "service_request": "2026-1261531",
    "request_type": "General Services",
    "request_reason": "General Service Request",
    "date_created": "2026-02-28T16:36:14.000",
    "date_modified": "2026-02-28T16:36:16.000",
    "request_status": "Pending",
    "responsible_agency": "Orleans Parish Communication District",
    "final_address": "514 N Rendon St",
    "address_councildis": "A",
    "status": "Pending",
    "rowid": "1261531",
    "final_x": "3674684.69595",
    "final_y": "537740.875912",
    "longitude": "-90.08937737348754",
    "latitude": "29.97280616543791",
    "geocoded_column": {
      "latitude": "29.97280616543791",
      "longitude": "-90.08937737348754"
    }
  },
  {
    "service_request": "2026-1261530",
    "request_type": "Roads and Streets",
    "request_reason": "Pothole",
    "date_created": "2026-02-28T16:27:08.000",
    "date_modified": "2026-02-28T16:27:09.000",
    "request_status": "Pending",
    "responsible_agency": "Department of Public Works",
    "final_address": "0 BLK N Broad St",
    "address_councildis": "B",
    "status": "Pending",
    "rowid": "1261530",
    "final_x": "3675449.49847",
    "final_y": "535200.531093",
    "longitude": "-90.08704924250887",
    "latitude": "29.965798227126992",
    "geocoded_column": {
      "latitude": "29.965798227126992",
      "longitude": "-90.08704924250887"
    }
  },
  {
    "service_request": "2026-1261529",
    "request_type": "Abandoned Vehicles",
    "request_reason": "Abandoned/Junk Vehicles",
    "date_created": "2026-02-28T16:27:04.000",
    "date_modified": "2026-02-28T16:27:06.000",
    "request_status": "Pending",
    "responsible_agency": "Department of Public Works",
    "final_address": "2622 Palmyra St",
    "address_councildis": "B",
    "status": "Pending",
    "rowid": "1261529",
    "final_x": "3675132.28552",
    "final_y": "534226.581381",
    "longitude": "-90.08808441679155",
    "latitude": "29.963129676954168",
    "geocoded_column": {
      "latitude": "29.963129676954168",
      "longitude": "-90.08808441679155"
    }
  },
  {
    "service_request": "2026-1261528",
    "request_type": "Traffic Signals",
    "request_reason": "Traffic Signal Malfunctioning or Damaged",
    "date_created": "2026-02-28T16:25:51.000",
    "date_modified": "2026-02-28T16:25:53.000",
    "request_status": "Pending",
    "responsible_agency": "Department of Public Works",
    "final_address": "TOLEDANO ST & S CLAIBORNE AVE",
    "address_councildis": "B",
    "status": "Pending",
    "rowid": "1261528",
    "final_x": "3672646.7",
    "final_y": "526436.58",
    "longitude": "-90.09619921579842",
    "latitude": "29.941783789169847",
    "geocoded_column": {
      "latitude": "29.941783789169847",
      "longitude": "-90.09619921579842"
    }
  },
  {
    "service_request": "2026-1261527",
    "request_type": "Property Maintenance",
    "request_reason": "Property Maintenance",
    "date_created": "2026-02-28T16:22:55.000",
    "date_modified": "2026-02-28T16:22:56.000",
    "request_status": "Pending",
    "responsible_agency": "Department of Code Enforcement",
    "final_address": "4711 Arthur Dr",
    "address_councildis": "E",
    "status": "Pending",
    "rowid": "1261527",
    "final_x": "3707782.37624",
    "final_y": "555286.244697",
    "longitude": "-89.9841971894559",
    "latitude": "30.020019787666392",
    "geocoded_column": {
      "latitude": "30.020019787666392",
      "longitude": "-89.9841971894559"
    }
  },
  {
    "service_request": "2026-1261526",
    "request_type": "Health Related Request",
    "request_reason": "Noise Ordinance Complaint",
    "date_created": "2026-02-28T16:17:52.000",
    "date_modified": "2026-02-28T16:17:53.000",
    "request_status": "Pending",
    "responsible_agency": "Health Department",
    "final_address": "1821 S Rampart St",
    "address_councildis": "B",
    "status": "Pending",
    "rowid": "1261526",
    "final_x": "3677153.12482",
    "final_y": "525641.227325",
    "longitude": "-90.08199891778776",
    "latitude": "29.939462278034057",
    "geocoded_column": {
      "latitude": "29.939462278034057",
      "longitude": "-90.08199891778776"
    }
  },
  {
    "service_request": "2026-1261525",
    "request_type": "Trash/Recycling",
    "request_reason": "Illegal Dumping",
    "date_created": "2026-02-28T16:17:46.000",
    "date_modified": "2026-02-28T16:17:48.000",
    "request_status": "Pending",
    "responsible_agency": "Department of Sanitation",
    "final_address": "2001 Seventh St",
    "address_councildis": "B",
    "status": "Pending",
    "rowid": "1261525",
    "final_x": "3674464.04884",
    "final_y": "523332.929723",
    "longitude": "-90.09056774012566",
    "latitude": "29.93319568657926",
    "geocoded_column": {
      "latitude": "29.93319568657926",
      "longitude": "-90.09056774012566"
    }
  },