[
  {
    "service_request": "2021-846014",
    "request_type": "Trash/Recycling",
    "request_reason": "Request a Large Item Pick Up",
    "date_created": "2021-12-05T23:37:40.000",
    "date_modified": "2021-12-05T23:37:41.000",
    "request_status": "Pending",
    "responsible_agency": "Department of Sanitation",
    "final_address": "117 12Th St",
    "address_councildis": "A",
    "status": "Assigned to Contractor",
    "contractor": "Metro Disposal",
    "rowid": "846014",
    "final_x": "3665927.10317",
    "final_y": "547842.678738",
    "longitude": "-90.1166968582282",
    "latitude": "30.000841217855484",
    "geocoded_column": {
      "latitude": "30.000841217855484",
      "longitude": "-90.1166968582282"
    }
  },
  {
    "service_request": "2021-846013",
    "request_type": "Trash/Recycling",
    "request_reason": "Order Recycling Cart",
    "date_created": "2021-12-05T23:37:23.000",
    "date_modified": "2021-12-06T00:00:10.000",
    "request_status": "Pending",
    "responsible_agency": "Department of Sanitation",
    "final_address": "1516 Bodenger Blvd",
    "address_councildis": "C",
    "status": "Pending",
    "rowid": "846013",
    "final_x": "3688557.49468",
    "final_y": "525985.055741",
    "longitude": "-90.04598171590942",
    "latitude": "29.940060310017497",
    "geocoded_column": {
      "latitude": "29.940060310017497",
      "longitude": "-90.04598171590942"
    }
  },
  {
    "service_request": "2021-846012",
    "request_type": "Safety & Permits",
    "request_reason": "Licenses & Permits",
    "date_created": "2021-12-05T23:27:14.000",
    "date_modified": "2021-12-05T23:27:14.000",
    "request_status": "Pending",
    "responsible_agency": "Safety and Permits",
    "final_address": "2201 Dumaine St",
    "address_councildis": "D",
    "status": "Pending",
    "rowid": "846012",
    "final_x": "3678788.21019",
    "final_y": "536326.429511",
    "longitude": "-90.07646670273856",
    "latitude": "29.96879379043821",
    "geocoded_column": {
      "latitude": "29.96879379043821",
      "longitude": "-90.07646670273856"
    }
  },
  {
    "service_request": "2021-846010",
    "request_type": "Property Maintenance",
    "request_reason": "Property Maintenance",
    "date_created": "2021-12-05T22:30:00.000",
    "date_modified": "2021-12-05T22:30:00.000",
    "request_status": "Pending",
    "responsible_agency": "Department of Code Enforcement",
    "final_address": "4401 S Claiborne Ave",
    "address_councildis": "B",
    "status": "Pending",
    "rowid": "846010",
    "final_x": "3670179.75175",
    "final_y": "525957.600509",
    "longitude": "-90.1040041251433",
    "latitude": "29.940539757842572",
    "geocoded_column": {
      "latitude": "29.940539757842572",
      "longitude": "-90.1040041251433"
    }
  },
  {
    "service_request": "2021-846009",
    "request_type": "Health Related Questions",
    "request_reason": "Noise Ordinance Complaint",
    "date_created": "2021-12-05T22:25:19.000",
    "date_modified": "2021-12-05T22:25:19.000",
    "request_status": "Pending",
    "responsible_agency": "Health Department",
    "final_address": "1025 N Claiborne Ave",
    "address_councildis": "D",
    "status": "Pending",
    "rowid": "846009",
    "final_x": "3680479.26037",
    "final_y": "535717.005127",
    "longitude": "-90.07114746580415",
    "latitude": "29.967066970567426",
    "geocoded_column": {
      "latitude": "29.967066970567426",
      "longitude": "-90.07114746580415"
    }
  },
  {
    "service_request": "2021-846008",
    "request_type": "Trash/Recycling",
    "request_reason": "Illegal Dumping",
    "date_created": "2021-12-05T22:00:31.000",
    "date_modified": "2021-12-05T22:00:31.000",
    "request_status": "Pending",
    "responsible_agency": "Department of Sanitation",
    "final_address": "2544 Palmyra St",
    "address_councildis": "B",
    "status": "Pending",
    "rowid": "846008",
    "final_x": "3675318.42459",
    "final_y": "534041.655045",
    "longitude": "-90.08750296033722",
    "latitude": "29.96261562827297",
    "geocoded_column": {
      "latitude": "29.96261562827297",
      "longitude": "-90.08750296033722"
    }
  },
  {
    "service_request": "2021-846007",
    "request_type": "Property Maintenance",
    "request_reason": "Property Maintenance",
    "date_created": "2021-12-05T21:45:07.000",
    "date_modified": "2021-12-05T21:45:07.000",
    "request_status": "Pending",
    "responsible_agency": "Department of Code Enforcement",
    "final_address": "4201 General Ogden St",
    "address_councildis": "A",
    "status": "Pending",
    "rowid": "846007",
    "final_x": "3667111.0386",
    "final_y": "538136.957705",
    "longitude": "-90.1132831723329",
    "latitude": "29.97411916598247",
    "geocoded_column": {
      "latitude": "29.97411916598247",
      "longitude": "-90.1132831723329"
    }
  },
  {
    "service_request": "2021-846006",
    "request_type": "Traffic Signals/Signs/Striping/Streetlights",
    "request_reason": "Request for Traffic Calming due to Speeding",
    "date_created": "2021-12-05T21:21:08.000",
    "date_modified": "2021-12-05T21:21:08.000",
    "request_status": "Pending",
    "responsible_agency": "Department of Public Works",
    "final_address": "2362 N Claiborne Ave",
    "address_councildis": "C",
    "status": "Pending",
    "rowid": "846006",
    "final_x": "3686156.119",
    "final_y": "538210.110985",
    "longitude": "-90.053131985384",
    "latitude": "29.973748977520344",
    "geocoded_column": {
      "latitude": "29.973748977520344",
      "longitude": "-90.053131985384"
    }
  },
  {
    "service_request": "2021-846004",
    "request_type": "Property Maintenance",
    "request_reason": "Property Maintenance",
    "date_created": "2021-12-05T20:31:09.000",
    "date_modified": "2021-12-05T20:31:09.000",
    "request_status": "Pending",
    "responsible_agency": "Department of Code Enforcement",
    "final_address": "2400 Jackson Ave",
    "address_councildis": "B",
    "status": "Pending",
    "rowid": "846004",
    "final_x": "3675569.19349",
    "final_y": "526308.323262",
    "longitude": "-90.08697669595185",
    "latitude": "29.941344040353535",
    "geocoded_column": {
      "latitude": "29.941344040353535",
      "longitude": "-90.08697669595185"
    }
  },
  {
    "service_request": "2021-846003",
    "request_type": "Roads/Drainage",
    "request_reason": "Street Subsidence (Sinking)",
    "date_created": "2021-12-05T20:15:57.000",
    "date_modified": "2021-12-05T20:15:57.000",
    "request_status": "Pending",
    "responsible_agency": "Department of Public Works",
    "final_address": "6118 Press Dr",
    "address_councildis": "D",
    "status": "Pending",
    "rowid": "846003",
    "final_x": "3688794.23548",
    "final_y": "555877.174425",
    "longitude": "-90.04417251137546",
    "latitude": "30.022245691449967",
    "geocoded_column": {
      "latitude": "30.022245691449967",
      "longitude": "-90.04417251137546"
    }
  },
  {
    "service_request": "2021-846002",
    "request_type": "Roads/Drainage",
    "request_reason": "Street Subsidence (Sinking)",
    "date_created": "2021-12-05T20:06:45.000",
    "date_modified": "2021-12-05T20:06:45.000",
    "request_status": "Pending",
    "responsible_agency": "Department of Public Works",
    "final_address": "7448 Townsend Pl",
    "address_councildis": "D",
    "status": "Pending",
    "rowid": "846002",
    "final_x": "3693883.14307",
    "final_y": "558036.681307",
    "longitude": "-90.02801515944674",
    "latitude": "30.028025108563646",
    "geocoded_column": {
      "latitude": "30.028025108563646",
      "longitude": "-90.02801515944674"
    }
  },
  {
    "service_request": "2021-846001",
    "request_type": "Health Related Questions",
    "request_reason": "Noise Ordinance Complaint",
    "date_created": "2021-12-05T19:47:49.000",
    "date_modified": "2021-12-05T19:47:49.000",
    "request_status": "Pending",
    "responsible_agency": "Health Department",
    "final_address": "2825 Amelia St",
    "address_councildis": "B",
    "status": "Pending",
    "rowid": "846001",
    "final_x": "3672055.17883",
    "final_y": "525620.074621",
    "longitude": "-90.09809456408547",
    "latitude": "29.939556212815248",
    "geocoded_column": {
      "latitude": "29.939556212815248",
      "longitude": "-90.09809456408547"
    }
  },
  {
    "service_request": "2021-846000",
    "request_type": "Abandoned Vehicles",
    "request_reason": "Abandoned/Junk Vehicles",
    "date_created": "2021-12-05T18:50:13.000",
    "date_modified": "2021-12-05T18:50:13.000",
    "request_status": "Pending",
    "responsible_agency": "Department of Public Works",
    "final_address": "901 Vallette St",
    "address_councildis": "C",
    "status": "Pending",
    "rowid": "846000",
    "final_x": "3687411.82972",
    "final_y": "528303.946688",
    "longitude": "-90.04951671824557",
    "latitude": "29.94647181570908",
    "geocoded_column": {
      "latitude": "29.94647181570908",
      "longitude": "-90.04951671824557"
    }
  },
  {
    "service_request": "2021-845999",
    "request_type": "Traffic Signals/Signs/Striping/Streetlights",
    "request_reason": "Street Light Outage/Malfunction",
    "date_created": "2021-12-05T18:49:54.000",
    "date_modified": "2021-12-05T19:00:10.000",
    "request_status": "Pending",
    "responsible_agency": "Department of Public Works",
    "final_address": "3915 Delgado Dr",
    "address_councildis": "A",
    "status": "Pending",
    "contractor": "Royal Engineering",
    "rowid": "845999",
    "final_x": "3674084.03937",
    "final_y": "540739.058827",
    "longitude": "-90.09117171468476",
    "latitude": "29.981068061583546",
    "geocoded_column": {
      "latitude": "29.981068061583546",
      "longitude": "-90.09117171468476"
    }
  },
  {
    "service_request": "2021-845998",
    "request_type": "Roads/Drainage",
    "request_reason": "Street Flooding / Drainage",
    "date_created": "2021-12-05T18:49:20.000",
    "date_modified": "2021-12-05T18:49:20.000",
    "request_status": "Pending",
    "responsible_agency": "Department of Public Works",
    "final_address": "5954 Laurel St",
    "address_councildis": "A",
    "status": "Pending",
    "rowid": "845998",
    "final_x": "3664520.71815",
    "final_y": "518093.826486",
    "longitude": "-90.12213315077841",
    "latitude": "29.91908259102795",
    "geocoded_column": {
      "latitude": "29.91908259102795",
      "longitude": "-90.12213315077841"
    }
  },
  {
    "service_request": "2021-845997",
    "request_type": "Traffic Signals/Signs/Striping/Streetlights",
    "request_reason": "Street Light Outage/Malfunction",
    "date_created": "2021-12-05T18:46:04.000",
    "date_modified": "2021-12-05T18:46:04.000",
    "request_status": "Pending",
    "responsible_agency": "Department of Public Works",
    "final_address": "3600 Delgado Dr",
    "address_councildis": "A",
    "status": "Pending",
    "contractor": "Royal Engineering",
    "rowid": "845997",
    "final_x": "3674325.3426",
    "final_y": "540400.416523",
    "longitude": "-90.0904211715261",
    "latitude": "29.98012971644632",
    "geocoded_column": {
      "latitude": "29.98012971644632",
      "longitude": "-90.0904211715261"
    }
  },
  {
    "service_request": "2021-845996",
    "request_type": "Trash/Recycling",
    "request_reason": "Request a Large Item Pick Up",
    "date_created": "2021-12-05T18:37:31.000",
    "date_modified": "2021-12-05T18:37:32.000",
    "request_status": "Pending",
    "responsible_agency": "Department of Sanitation",
    "final_address": "6109 Marshal Foch St",
    "address_councildis": "A",
    "status": "Assigned to Contractor",
    "contractor": "Metro Disposal",
    "rowid": "845996",
    "final_x": "3669966.38766",
    "final_y": "547892.216658",
    "longitude": "-90.10393473982091",
    "latitude": "30.000858883133258",
    "geocoded_column": {
      "latitude": "30.000858883133258",
      "longitude": "-90.10393473982091"
    }
  },
  {
    "service_request": "2021-845995",
    "request_type": "Trash/Recycling",
    "request_reason": "Order Trash Cart",
    "date_created": "2021-12-05T18:20:29.000",
    "date_modified": "2021-12-05T19:00:14.000",
    "request_status": "Pending",
    "responsible_agency": "Department of Sanitation",
    "final_address": "1912 Sixth St",
    "address_councildis": "B",
    "status": "Assigned to Contractor",
    "contractor": "Richards Disposal",
    "rowid": "845995",
    "final_x": "3674797.10369",
    "final_y": "523248.706235",
    "longitude": "-90.08951919262306",
    "latitude": "29.93295416259662",
    "geocoded_column": {
      "latitude": "29.93295416259662",
      "longitude": "-90.08951919262306"
    }
  },
  {
    "service_request": "2021-845994",
    "request_type": "Traffic Signals/Signs/Striping/Streetlights",
    "request_reason": "Street Light Outage/Malfunction",
    "date_created": "2021-12-05T17:53:10.000",
    "date_modified": "2021-12-05T17:53:11.000",
    "request_status": "Pending",
    "responsible_agency": "Department of Public Works",
    "final_address": "2200 Soniat St",
    "address_councildis": "B",
    "status": "Pending",
    "contractor": "Royal Engineering",
    "rowid": "845994",
    "final_x": "3668445.44948",
    "final_y": "523611.371195",
    "longitude": "-90.10955873683822",
    "latitude": "29.934139429919075",
    "geocoded_column": {
      "latitude": "29.934139429919075",
      "longitude": "-90.10955873683822"
    }
  },
  {
    "service_request": "2021-845993",
    "request_type": "Traffic Signals/Signs/Striping/Streetlights",
    "request_reason": "Street Light Outage/Malfunction",
    "date_created": "2021-12-05T17:52:30.000",
    "date_modified": "2021-12-05T17:52:31.000",
    "request_status": "Pending",
    "responsible_agency": "Department of Public Works",
    "final_address": "3861 Peach Tree Ct",
    "address_councildis": "C",
    "status": "Pending",
    "contractor": "Royal Engineering",
    "rowid": "845993",
    "final_x": "3704318.02295",
    "final_y": "512314.329713",
    "longitude": "-89.99672718513177",
    "latitude": "29.901974251887328",
    "geocoded_column": {
      "latitude": "29.901974251887328",
      "longitude": "-89.99672718513177"
    }
  },
  {
    "service_request": "2021-845992",
    "request_type": "Trash/Recycling",
    "request_reason": "Request a Large Item Pick Up",
    "date_created": "2021-12-05T17:21:14.000",
    "date_modified": "2021-12-05T17:21:15.000",
    "request_status": "Pending",
    "responsible_agency": "Department of Sanitation",
    "final_address": "7522 Willow St",
    "address_councildis": "A",
    "status": "Assigned to Contractor",
    "contractor": "Richards Disposal",
    "rowid": "845992",
    "final_x": "3663863.49632",
    "final_y": "527510.349631",
    "longitude": "-90.12389394360399",
    "latitude": "29.944994140726706",
    "geocoded_column": {
      "latitude": "29.944994140726706",
      "longitude": "-90.12389394360399"
    }
  },
  {
    "service_request": "2021-845991",
    "request_type": "Property Maintenance",
    "request_reason": "Property Maintenance",
    "date_created": "2021-12-05T16:59:04.000",
    "date_modified": "2021-12-05T16:59:04.000",
    "request_status": "Pending",
    "responsible_agency": "Department of Code Enforcement",
    "final_address": "4216 Franklin Ave",
    "address_councildis": "D",
    "status": "Pending",
    "rowid": "845991",
    "final_x": "3686896.4127",
    "final_y": "548540.92277",
    "longitude": "-90.05042868517074",
    "latitude": "30.002132263512657",
    "geocoded_column": {
      "latitude": "30.002132263512657",
      "longitude": "-90.05042868517074"
    }
  },
  {
    "service_request": "2021-845990",
    "request_type": "Safety & Permits",
    "request_reason": "Licenses & Permits",
    "date_created": "2021-12-05T16:52:36.000",
    "date_modified": "2021-12-05T16:52:36.000",
    "request_status": "Pending",
    "responsible_agency": "Safety and Permits",
    "final_address": "4919 Magazine St",
    "address_councildis": "B",
    "status": "Pending",
    "rowid": "845990",
    "final_x": "3668795.43508",
    "final_y": "518639.690679",
    "longitude": "-90.10862159926621",
    "latitude": "29.920458607640075",
    "geocoded_column": {
      "latitude": "29.920458607640075",
      "longitude": "-90.10862159926621"
    }
  },
  {
    "service_request": "2021-845989",
    "request_type": "Property Maintenance",
    "request_reason": "Property Maintenance",
    "date_created": "2021-12-05T16:51:38.000",
    "date_modified": "2021-12-05T16:51:38.000",
    "request_status": "Pending",
    "responsible_agency": "Department of Code Enforcement",
    "final_address": "4919 Magazine St",
    "address_councildis": "B",
    "status": "Pending",
    "rowid": "845989",
    "final_x": "3668795.43508",
    "final_y": "518639.690679",
    "longitude": "-90.10862159926621",
    "latitude": "29.920458607640075",
    "geocoded_column": {
      "latitude": "29.920458607640075",
      "longitude": "-90.10862159926621"
    }
  },
  {
    "service_request": "2021-845988",
    "request_type": "Trash/Recycling",
    "request_reason": "Order Recycling Cart",
    "date_created": "2021-12-05T16:16:03.000",
    "date_modified": "2021-12-05T16:16:03.000",
    "request_status": "Pending",
    "responsible_agency": "Department of Sanitation",
    "final_address": "3319 Calhoun St",
    "address_councildis": "A",
    "status": "Pending",
    "rowid": "845988",
    "final_x": "3667541.25025",
    "final_y": "528941.343872",
    "longitude": "-90.11223395419094",
    "latitude": "29.948821659343388",
    "geocoded_column": {
      "latitude": "29.948821659343388",
      "longitude": "-90.11223395419094"
    }
  },
  {
    "service_request": "2021-845987",
    "request_type": "Trash/Recycling",
    "request_reason": "Request a Large Item Pick Up",
    "date_created": "2021-12-05T16:11:15.000",
    "date_modified": "2021-12-05T17:00:07.000",
    "request_status": "Pending",
    "responsible_agency": "Department of Sanitation",
    "final_address": "617 Forstall St",
    "address_councildis": "E",
    "status": "Assigned to Contractor",
    "contractor": "Metro Disposal",
    "rowid": "845987",
    "final_x": "3695820.0872",
    "final_y": "532508.7833",
    "longitude": "-90.02281716454335",
    "latitude": "29.95777192816337",
    "geocoded_column": {
      "latitude": "29.95777192816337",
      "longitude": "-90.02281716454335"
    }
  },
  {
    "service_request": "2021-845986",
    "request_type": "Law Enforcement Services",
    "request_reason": "Off Duty Officer for Hire",
    "date_created": "2021-12-05T15:51:34.000",
    "date_modified": "2021-12-05T15:51:34.000",
    "request_status": "Pending",
    "responsible_agency": "Office of Police Secondary Employment",
    "status": "Pending",
    "rowid": "845986",
    "longitude": "0.0",
    "latitude": "0.0",
    "geocoded_column": {
      "latitude": "0.0",
      "longitude": "0.0"
    }
  },
  {
    "service_request": "2021-845985",
    "request_type": "Roads/Drainage",
    "request_reason": "Street Flooding / Drainage",
    "date_created": "2021-12-05T15:26:01.000",
    "date_modified": "2021-12-05T15:26:01.000",
    "request_status": "Pending",
    "responsible_agency": "Department of Public Works",
    "final_address": "8619 Jeannette St",
    "address_councildis": "A",
    "status": "Pending",
    "rowid": "845985",
    "final_x": "3661264.73715",
    "final_y": "530487.604994",
    "longitude": "-90.13200051558712",
    "latitude": "29.953255807413935",
    "geocoded_column": {
      "latitude": "29.953255807413935",
      "longitude": "-90.13200051558712"
    }
  },
  {
    "service_request": "2021-845983",
    "request_type": "Trash/Recycling",
    "request_reason": "Request a Large Item Pick Up",
    "date_created": "2021-12-05T15:14:10.000",
    "date_modified": "2021-12-05T16:00:08.000",
    "request_status": "Pending",
    "responsible_agency": "Department of Sanitation",
    "final_address": "3212 Palmyra St",
    "address_councildis": "B",
    "status": "Assigned to Contractor",
    "contractor": "Richards Disposal",
    "rowid": "845983",
    "final_x": "3673237.34894",
    "final_y": "535623.792646",
    "longitude": "-90.09402069101407",
    "latitude": "29.967028027168766",
    "geocoded_column": {
      "latitude": "29.967028027168766",
      "longitude": "-90.09402069101407"
    }
  },
  {
    "service_request": "2021-845982",
    "request_type": "Traffic Signals/Signs/Striping/Streetlights",
    "request_reason": "Traffic Signal Malfunctioning/Damaged",
    "date_created": "2021-12-05T15:08:47.000",
    "date_modified": "2021-12-05T15:08:47.000",
    "request_status": "Pending",
    "responsible_agency": "Department of Public Works",
    "final_address": "NAPOLEON AVE & PRYTANIA ST",
    "address_councildis": "B",
    "status": "Pending",
    "rowid": "845982",
    "final_x": "3670865.7",
    "final_y": "520323.88",
    "longitude": "-90.10202959904824",
    "latitude": "29.92502858607668",
    "geocoded_column": {
      "latitude": "29.92502858607668",
      "longitude": "-90.10202959904824"
    }
  },
  {
    "service_request": "2021-845981",
    "request_type": "Trash/Recycling",
    "request_reason": "Request a Large Item Pick Up",
    "date_created": "2021-12-05T14:58:57.000",
    "date_modified": "2021-12-05T14:58:58.000",
    "request_status": "Pending",
    "responsible_agency": "Department of Sanitation",
    "final_address": "818 Ida St",
    "address_councildis": "A",
    "status": "Assigned to Contractor",
    "contractor": "Richards Disposal",
    "rowid": "845981",
    "final_x": "3673128.86638",
    "final_y": "540083.749003",
    "longitude": "-90.09421096822985",
    "latitude": "29.979294620767735",
    "geocoded_column": {
      "latitude": "29.979294620767735",
      "longitude": "-90.09421096822985"
    }
  },
  {
    "service_request": "2021-845980",
    "request_type": "Trash/Recycling",
    "request_reason": "Request a Large Item Pick Up",
    "date_created": "2021-12-05T14:38:51.000",
    "date_modified": "2021-12-05T15:00:12.000",
    "request_status": "Pending",
    "responsible_agency": "Department of Sanitation",
    "final_address": "1125 Piety St",
    "address_councildis": "C",
    "status": "Assigned to Contractor",
    "contractor": "Metro Disposal",
    "rowid": "845980",
    "final_x": "3689939.25731",
    "final_y": "536069.816647",
    "longitude": "-90.04126027235068",
    "latitude": "29.967747158528073",
    "geocoded_column": {
      "latitude": "29.967747158528073",
      "longitude": "-90.04126027235068"
    }
  },
  {
    "service_request": "2021-845979",
    "request_type": "Trash/Recycling",
    "request_reason": "Order Recycling Cart",
    "date_created": "2021-12-05T14:22:58.000",
    "date_modified": "2021-12-05T14:22:58.000",
    "request_status": "Pending",
    "responsible_agency": "Department of Sanitation",
    "final_address": "725 Eighth St",
    "address_councildis": "B",
    "status": "Pending",
    "rowid": "845979",
    "final_x": "3676869.00629",
    "final_y": "519155.029239",
    "longitude": "-90.08311934928278",
    "latitude": "29.92163587595646",
    "geocoded_column": {
      "latitude": "29.92163587595646",
      "longitude": "-90.08311934928278"
    }
  },
  {
    "service_request": "2021-845978",
    "request_type": "Trash/Recycling",
    "request_reason": "Repair Trash Cart",
    "date_created": "2021-12-05T14:22:18.000",
    "date_modified": "2021-12-05T14:22:19.000",
    "request_status": "Pending",
    "responsible_agency": "Department of Sanitation",
    "final_address": "727 Eighth St",
    "address_councildis": "B",
    "status": "Assigned to Contractor",
    "contractor": "Richards Disposal",
    "rowid": "845978",
    "final_x": "3676865.8891",
    "final_y": "519159.717943",
    "longitude": "-90.0831290274324",
    "latitude": "29.92164886189897",
    "geocoded_column": {
      "latitude": "29.92164886189897",
      "longitude": "-90.0831290274324"
    }
  },
  {
    "service_request": "2021-845977",
    "request_type": "Trash/Recycling",
    "request_reason": "Illegal Dumping",
    "date_created": "2021-12-05T13:41:53.000",
    "date_modified": "2021-12-05T14:00:13.000",
    "request_status": "Pending",
    "responsible_agency": "Department of Sanitation",
    "final_address": "2555 N Derbigny St",
    "address_councildis": "D",
    "status": "Pending",
    "rowid": "845977",
    "final_x": "3687462.127",
    "final_y": "538757.137289",
    "longitude": "-90.04898797384737",
    "latitude": "29.975212921354764",
    "geocoded_column": {
      "latitude": "29.975212921354764",
      "longitude": "-90.04898797384737"
    }
  },
  {
    "service_request": "2021-845976",
    "request_type": "Roads/Drainage",
    "request_reason": "Street Flooding / Drainage",
    "date_created": "2021-12-05T13:38:22.000",
    "date_modified": "2021-12-05T14:00:15.000",
    "request_status": "Pending",
    "responsible_agency": "Department of Public Works",
    "final_address": "8619 Jeannette St",
    "address_councildis": "A",
    "status": "Pending",
    "rowid": "845976",
    "final_x": "3661264.73715",
    "final_y": "530487.604994",
    "longitude": "-90.13200051558712",
    "latitude": "29.953255807413935",
    "geocoded_column": {
      "latitude": "29.953255807413935",
      "longitude": "-90.13200051558712"
    }
  },
  {
    "service_request": "2021-845975",
    "request_type": "Abandoned Vehicles",
    "request_reason": "Abandoned/Junk Vehicles",
    "date_created": "2021-12-05T13:38:16.000",
    "date_modified": "2021-12-05T13:38:16.000",
    "request_status": "Pending",
    "responsible_agency": "Department of Public Works",
    "final_address": "317 Pacific Ave",
    "address_councildis": "C",
    "status": "Pending",
    "rowid": "845975",
    "final_x": "3688494.28982",
    "final_y": "530580.770818",
    "longitude": "-90.04601825470397",
    "latitude": "29.952698909303283",
    "geocoded_column": {
      "latitude": "29.952698909303283",
      "longitude": "-90.04601825470397"
    }
  },
  {
    "service_request": "2021-845974",
    "request_type": "Roads/Drainage",
    "request_reason": "Street Flooding / Drainage",
    "date_created": "2021-12-05T13:29:02.000",
    "date_modified": "2021-12-05T14:00:17.000",
    "request_status": "Pending",
    "responsible_agency": "Department of Public Works",
    "final_address": "8619 Jeannette St",
    "address_councildis": "A",
    "status": "Pending",
    "rowid": "845974",
    "final_x": "3661264.73715",
    "final_y": "530487.604994",
    "longitude": "-90.13200051558712",
    "latitude": "29.953255807413935",
    "geocoded_column": {
      "latitude": "29.953255807413935",
      "longitude": "-90.13200051558712"
    }
  },
  {
    "service_request": "2021-845973",
    "request_type": "Roads/Drainage",
    "request_reason": "Street Flooding / Drainage",
    "date_created": "2021-12-05T13:28:13.000",
    "date_modified": "2021-12-05T14:00:18.000",
    "request_status": "Pending",
    "responsible_agency": "Department of Public Works",
    "final_address": "8615 Jeannette st",
    "address_councildis": "A",
    "status": "Pending",
    "rowid": "845973",
    "final_x": "3661281.31149",
    "final_y": "530471.14957",
    "longitude": "-90.13194872546632",
    "latitude": "29.953210082471074",
    "geocoded_column": {
      "latitude": "29.953210082471074",
      "longitude": "-90.13194872546632"
    }
  },
  {
    "service_request": "2021-845972",
    "request_type": "Trash/Recycling",
    "request_reason": "Illegal Dumping",
    "date_created": "2021-12-05T13:26:05.000",
    "date_modified": "2021-12-05T13:26:05.000",
    "request_status": "Pending",
    "responsible_agency": "Department of Sanitation",
    "final_address": "2555 N Derbigny St",
    "address_councildis": "D",
    "status": "Pending",
    "rowid": "845972",
    "final_x": "3687462.127",
    "final_y": "538757.137289",
    "longitude": "-90.04898797384737",
    "latitude": "29.975212921354764",
    "geocoded_column": {
      "latitude": "29.975212921354764",
      "longitude": "-90.04898797384737"
    }
  },
  {
    "service_request": "2021-845971",
    "request_type": "Roads/Drainage",
    "request_reason": "Pothole",
    "date_created": "2021-12-05T13:23:27.000",
    "date_modified": "2021-12-05T14:00:20.000",
    "request_status": "Pending",
    "responsible_agency": "Department of Public Works",
    "final_address": "8640 Oak St, New Orleans, Louisiana, 70118",
    "address_councildis": "A",
    "status": "Pending",
    "rowid": "845971",
    "final_x": "3660396.07706",
    "final_y": "529738.489025",
    "longitude": "-90.13476812734157",
    "latitude": "29.951220992138218",
    "geocoded_column": {
      "latitude": "29.951220992138218",
      "longitude": "-90.13476812734157"
    }
  },
  {
    "service_request": "2021-845970",
    "request_type": "Trash/Recycling",
    "request_reason": "Replace Trash Cart",
    "date_created": "2021-12-05T13:03:34.000",
    "date_modified": "2021-12-05T14:00:22.000",
    "request_status": "Pending",
    "responsible_agency": "Department of Sanitation",
    "final_address": "3600 Palmyra St",
    "address_councildis": "B",
    "status": "Assigned to Contractor",
    "contractor": "Richards Disposal",
    "rowid": "845970",
    "final_x": "3672052.04295",
    "final_y": "536558.964615",
    "longitude": "-90.09773205480246",
    "latitude": "29.969634632961814",
    "geocoded_column": {
      "latitude": "29.969634632961814",
      "longitude": "-90.09773205480246"
    }
  },
  {
    "service_request": "2021-845967",
    "request_type": "Property Maintenance",
    "request_reason": "Property Maintenance",
    "date_created": "2021-12-05T12:25:51.000",
    "date_modified": "2021-12-05T12:25:51.000",
    "request_status": "Pending",
    "responsible_agency": "Department of Code Enforcement",
    "final_address": "838 Belleville St",
    "address_councildis": "C",
    "status": "Pending",
    "rowid": "845967",
    "final_x": "3687849.58473",
    "final_y": "528409.030144",
    "longitude": "-90.0481308528061",
    "latitude": "29.946747265914542",
    "geocoded_column": {
      "latitude": "29.946747265914542",
      "longitude": "-90.0481308528061"
    }
  },
  {
    "service_request": "2021-845966",
    "request_type": "Trash/Recycling",
    "request_reason": "Missed Trash Pick-Up",
    "date_created": "2021-12-05T12:14:12.000",
    "date_modified": "2021-12-05T13:00:11.000",
    "request_status": "Pending",
    "responsible_agency": "Department of Sanitation",
    "final_address": "2505 Octavia St, New Orleans, Louisiana, 70115",
    "address_councildis": "A",
    "status": "Assigned to Contractor",
    "contractor": "Richards Disposal",
    "rowid": "845966",
    "final_x": "3667799.05268",
    "final_y": "524811.67846",
    "longitude": "-90.11155899092616",
    "latitude": "29.937458857135002",
    "geocoded_column": {
      "latitude": "29.937458857135002",
      "longitude": "-90.11155899092616"
    }
  },
  {
    "service_request": "2021-845965",
    "request_type": "Traffic Signals/Signs/Striping/Streetlights",
    "request_reason": "Traffic Sign Missing/Damaged",
    "date_created": "2021-12-05T12:07:07.000",
    "date_modified": "2021-12-05T12:07:07.000",
    "request_status": "Pending",
    "responsible_agency": "Department of Public Works",
    "final_address": "BODENGER BLVD & MARDI GRAS BLVD",
    "address_councildis": "C",
    "status": "Pending",
    "rowid": "845965",
    "final_x": "3688462.1",
    "final_y": "525287.58",
    "longitude": "-90.0463076241141",
    "latitude": "29.938145434660367",
    "geocoded_column": {
      "latitude": "29.938145434660367",
      "longitude": "-90.0463076241141"
    }
  },
  {
    "service_request": "2021-845964",
    "request_type": "Abandoned Vehicles",
    "request_reason": "Abandoned/Junk Vehicles",
    "date_created": "2021-12-05T11:57:09.000",
    "date_modified": "2021-12-05T11:57:09.000",
    "request_status": "Pending",
    "responsible_agency": "Department of Public Works",
    "final_address": "1451 Tchoupitoulas St Lot H",
    "address_councildis": "B",
    "status": "Pending",
    "rowid": "845964",
    "final_x": "3682036.77256",
    "final_y": "524052.784316",
    "longitude": "-90.06663604578576",
    "latitude": "29.934947037418183",
    "geocoded_column": {
      "latitude": "29.934947037418183",
      "longitude": "-90.06663604578576"
    }
  },
  {
    "service_request": "2021-845961",
    "request_type": "Trash/Recycling",
    "request_reason": "Missed Trash Pick-Up",
    "date_created": "2021-12-05T11:38:02.000",
    "date_modified": "2021-12-05T12:00:11.000",
    "request_status": "Pending",
    "responsible_agency": "Department of Sanitation",
    "final_address": "4710 Owens Blvd, New Orleans, Louisiana, 70122",
    "address_councildis": "D",
    "status": "Assigned to Contractor",
    "contractor": "Metro Disposal",
    "rowid": "845961",
    "final_x": "3676476.38613",
    "final_y": "549587.703379",
    "longitude": "-90.08331071192893",
    "latitude": "30.005327209658322",
    "geocoded_column": {
      "latitude": "30.005327209658322",
      "longitude": "-90.08331071192893"
    }
  },
  {
    "service_request": "2021-845960",
    "request_type": "Property Maintenance",
    "request_reason": "Property Maintenance",
    "date_created": "2021-12-05T11:13:52.000",
    "date_modified": "2021-12-05T11:13:52.000",
    "request_status": "Pending",
    "responsible_agency": "Department of Code Enforcement",
    "final_address": "8071 Edgelake Ct",
    "address_councildis": "E",
    "status": "Pending",
    "rowid": "845960",
    "final_x": "3702224.85617",
    "final_y": "562664.986912",
    "longitude": "-90.00148607273282",
    "latitude": "30.04048721826542",
    "geocoded_column": {
      "latitude": "30.04048721826542",
      "longitude": "-90.00148607273282"
    }
  },
  {
    "service_request": "2021-845959",
    "request_type": "Property Maintenance",
    "request_reason": "Property Maintenance",
    "date_created": "2021-12-05T11:04:30.000",
    "date_modified": "2021-12-05T11:04:30.000",
    "request_status": "Pending",
    "responsible_agency": "Department of Code Enforcement",
    "final_address": "2044 Allen St",
    "address_councildis": "D",
    "status": "Pending",
    "rowid": "845959",
    "final_x": "3682451.68559",
    "final_y": "539776.73889",
    "longitude": "-90.06477660404909",
    "latitude": "29.9781699422678",
    "geocoded_column": {
      "latitude": "29.9781699422678",
      "longitude": "-90.06477660404909"
    }
  },
  {
    "service_request": "2021-845958",
    "request_type": "Abandoned Vehicles",
    "request_reason": "Abandoned/Junk Vehicles",
    "date_created": "2021-12-05T11:02:07.000",
    "date_modified": "2021-12-05T12:00:13.000",
    "request_status": "Pending",
    "responsible_agency": "Department of Public Works",
    "final_address": "3071 Chartres St, New Orleans, Louisiana, 70117",
    "address_councildis": "C",
    "status": "Pending",
    "rowid": "845958",
    "final_x": "3688513.52918",
    "final_y": "534186.075525",
    "longitude": "-90.04582959212405",
    "latitude": "29.962611656060318",
    "geocoded_column": {
      "latitude": "29.962611656060318",
      "longitude": "-90.04582959212405"
    }
  },
  {
    "service_request": "2021-845957",
    "request_type": "Property Maintenance",
    "request_reason": "Property Maintenance",
    "date_created": "2021-12-05T10:59:13.000",
    "date_modified": "2021-12-05T10:59:13.000",
    "request_status": "Pending",
    "responsible_agency": "Department of Code Enforcement",
    "final_address": "3335 N Claiborne Ave",
    "address_councildis": "D",
    "status": "Pending",
    "rowid": "845957",
    "final_x": "3690526.72668",
    "final_y": "537634.708808",
    "longitude": "-90.03934922527468",
    "latitude": "29.97203183266565",
    "geocoded_column": {
      "latitude": "29.97203183266565",
      "longitude": "-90.03934922527468"
    }
  },
  {
    "service_request": "2021-845956",
    "request_type": "Property Maintenance",
    "request_reason": "Property Maintenance",
    "date_created": "2021-12-05T10:58:29.000",
    "date_modified": "2021-12-05T10:58:29.000",
    "request_status": "Pending",
    "responsible_agency": "Department of Code Enforcement",
    "final_address": "1433 Dauphine St",
    "address_councildis": "C",
    "status": "Pending",
    "rowid": "845956",
    "final_x": "3683634.5366",
    "final_y": "535116.31367",
    "longitude": "-90.0612041583333",
    "latitude": "29.9653193304802",
    "geocoded_column": {
      "latitude": "29.9653193304802",
      "longitude": "-90.0612041583333"
    }
  },
  {
    "service_request": "2021-845955",
    "request_type": "Property Maintenance",
    "request_reason": "Property Maintenance",
    "date_created": "2021-12-05T10:41:04.000",
    "date_modified": "2021-12-05T10:41:04.000",
    "request_status": "Pending",
    "responsible_agency": "Department of Code Enforcement",
    "final_address": "1539 Desire St",
    "address_councildis": "D",
    "status": "Pending",
    "rowid": "845955",
    "final_x": "3690665.49968",
    "final_y": "537492.637",
    "longitude": "-90.03891602768125",
    "latitude": "29.971636875534656",
    "geocoded_column": {
      "latitude": "29.971636875534656",
      "longitude": "-90.03891602768125"
    }
  },
  {
    "service_request": "2021-845954",
    "request_type": "Traffic Signals/Signs/Striping/Streetlights",
    "request_reason": "Street Name Sign Damaged or Missing",
    "date_created": "2021-12-05T10:36:02.000",
    "date_modified": "2021-12-05T10:36:02.000",
    "request_status": "Pending",
    "responsible_agency": "Department of Public Works",
    "final_address": "2300 St Anthony St",
    "address_councildis": "D",
    "status": "Pending",
    "rowid": "845954",
    "final_x": "3683119.72706",
    "final_y": "540632.525643",
    "longitude": "-90.06263671879857",
    "latitude": "29.980502703491325",
    "geocoded_column": {
      "latitude": "29.980502703491325",
      "longitude": "-90.06263671879857"
    }
  },
  {
    "service_request": "2021-845953",
    "request_type": "Abandoned Vehicles",
    "request_reason": "Abandoned/Junk Vehicles",
    "date_created": "2021-12-05T10:27:51.000",
    "date_modified": "2021-12-05T10:27:51.000",
    "request_status": "Pending",
    "responsible_agency": "Department of Public Works",
    "final_address": "1217 Caffin Ave",
    "address_councildis": "E",
    "status": "Pending",
    "rowid": "845953",
    "final_x": "3698245.84637",
    "final_y": "534237.805829",
    "longitude": "-90.01509454916796",
    "latitude": "29.96244961718677",
    "geocoded_column": {
      "latitude": "29.96244961718677",
      "longitude": "-90.01509454916796"
    }
  },
  {
    "service_request": "2021-845952",
    "request_type": "Abandoned Vehicles",
    "request_reason": "Abandoned/Junk Vehicles",
    "date_created": "2021-12-05T10:15:45.000",
    "date_modified": "2021-12-05T10:15:45.000",
    "request_status": "Pending",
    "responsible_agency": "Department of Public Works",
    "final_address": "401 N Cortez St",
    "address_councildis": "A",
    "status": "Pending",
    "rowid": "845952",
    "final_x": "3672815.35643",
    "final_y": "538854.864329",
    "longitude": "-90.09524309560808",
    "latitude": "29.97592492493999",
    "geocoded_column": {
      "latitude": "29.97592492493999",
      "longitude": "-90.09524309560808"
    }
  },
  {
    "service_request": "2021-845951",
    "request_type": "Trash/Recycling",
    "request_reason": "Order Trash Cart",
    "date_created": "2021-12-05T10:03:34.000",
    "date_modified": "2021-12-05T10:03:35.000",
    "request_status": "Pending",
    "responsible_agency": "Department of Sanitation",
    "final_address": "2630 Third St",
    "address_councildis": "B",
    "status": "Assigned to Contractor",
    "contractor": "Richards Disposal",
    "rowid": "845951",
    "final_x": "3674271.74305",
    "final_y": "526091.60595",
    "longitude": "-90.09108042032388",
    "latitude": "29.9407868801394",
    "geocoded_column": {
      "latitude": "29.9407868801394",
      "longitude": "-90.09108042032388"
    }
  },
  {
    "service_request": "2021-845950",
    "request_type": "Traffic Signals/Signs/Striping/Streetlights",
    "request_reason": "Street Light Outage/Malfunction",
    "date_created": "2021-12-05T10:02:17.000",
    "date_modified": "2021-12-05T11:00:17.000",
    "request_status": "Pending",
    "responsible_agency": "Department of Public Works",
    "final_address": "304 20Th St",
    "address_councildis": "A",
    "status": "Pending",
    "contractor": "Royal Engineering",
    "rowid": "845950",
    "final_x": "3664960.63188",
    "final_y": "548995.342611",
    "longitude": "-90.11971145918118",
    "latitude": "30.004038827556606",
    "geocoded_column": {
      "latitude": "30.004038827556606",
      "longitude": "-90.11971145918118"
    }
  },
  {
    "service_request": "2021-845949",
    "request_type": "Trash/Recycling",
    "request_reason": "Order Recycling Cart",
    "date_created": "2021-12-05T09:45:23.000",
    "date_modified": "2021-12-05T10:00:10.000",
    "request_status": "Pending",
    "responsible_agency": "Department of Sanitation",
    "final_address": "4820 Coliseum St",
    "address_councildis": "B",
    "status": "Pending",
    "rowid": "845949",
    "final_x": "3669300.91553",
    "final_y": "519603.765944",
    "longitude": "-90.10699346021451",
    "latitude": "29.92309464392775",
    "geocoded_column": {
      "latitude": "29.92309464392775",
      "longitude": "-90.10699346021451"
    }
  },
  {
    "service_request": "2021-845948",
    "request_type": "Property Maintenance",
    "request_reason": "Property Maintenance",
    "date_created": "2021-12-05T09:35:31.000",
    "date_modified": "2021-12-05T09:35:31.000",
    "request_status": "Pending",
    "responsible_agency": "Department of Code Enforcement",
    "final_address": "2104 L. B. Landry Ave",
    "address_councildis": "C",
    "status": "Pending",
    "rowid": "845948",
    "final_x": "3690031.45948",
    "final_y": "522811.279675",
    "longitude": "-90.04144117365321",
    "latitude": "29.931287884546922",
    "geocoded_column": {
      "latitude": "29.931287884546922",
      "longitude": "-90.04144117365321"
    }
  },
  {
    "service_request": "2021-845947",
    "request_type": "Abandoned Vehicles",
    "request_reason": "Abandoned/Junk Vehicles",
    "date_created": "2021-12-05T09:26:37.000",
    "date_modified": "2021-12-05T10:00:12.000",
    "request_status": "Pending",
    "responsible_agency": "Department of Public Works",
    "final_address": "2810 General Pershing St",
    "address_councildis": "B",
    "status": "Pending",
    "rowid": "845947",
    "final_x": "3670755.64622",
    "final_y": "525219.888765",
    "longitude": "-90.10221094995198",
    "latitude": "29.93849428815153",
    "geocoded_column": {
      "latitude": "29.93849428815153",
      "longitude": "-90.10221094995198"
    }
  },
  {
    "service_request": "2021-845946",
    "request_type": "Trash/Recycling",
    "request_reason": "Order Trash Cart",
    "date_created": "2021-12-05T09:04:16.000",
    "date_modified": "2021-12-05T10:00:13.000",
    "request_status": "Pending",
    "responsible_agency": "Department of Sanitation",
    "final_address": "3214 Pauger St",
    "address_councildis": "D",
    "status": "Assigned to Contractor",
    "contractor": "Metro Disposal",
    "rowid": "845946",
    "final_x": "3683414.42153",
    "final_y": "541504.121932",
    "longitude": "-90.0616753962231",
    "latitude": "29.98289029802957",
    "geocoded_column": {
      "latitude": "29.98289029802957",
      "longitude": "-90.0616753962231"
    }
  },
  {
    "service_request": "2021-845945",
    "request_type": "Abandoned Vehicles",
    "request_reason": "Vehicle Blocking Your Driveway",
    "date_created": "2021-12-05T07:39:15.000",
    "date_modified": "2021-12-05T08:00:09.000",
    "request_status": "Pending",
    "responsible_agency": "Department of Public Works",
    "final_address": "1434 Frenchmen St",
    "address_councildis": "C",
    "status": "Pending",
    "rowid": "845945",
    "final_x": "3684410.52668",
    "final_y": "537666.198728",
    "longitude": "-90.05866404624194",
    "latitude": "29.972306918789567",
    "geocoded_column": {
      "latitude": "29.972306918789567",
      "longitude": "-90.05866404624194"
    }
  },
  {
    "service_request": "2021-845944",
    "request_type": "Abandoned Vehicles",
    "request_reason": "Abandoned/Junk Vehicles",
    "date_created": "2021-12-05T07:31:33.000",
    "date_modified": "2021-12-05T07:31:33.000",
    "request_status": "Pending",
    "responsible_agency": "Department of Public Works",
    "final_address": "615 Marengo St",
    "address_councildis": "B",
    "status": "Pending",
    "rowid": "845944",
    "final_x": "3672316.57364",
    "final_y": "518007.274358",
    "longitude": "-90.09752852062",
    "latitude": "29.91861571008746",
    "geocoded_column": {
      "latitude": "29.91861571008746",
      "longitude": "-90.09752852062"
    }
  },
  {
    "service_request": "2021-845943",
    "request_type": "Traffic Signals/Signs/Striping/Streetlights",
    "request_reason": "Additional signage",
    "date_created": "2021-12-05T05:41:30.000",
    "date_modified": "2021-12-05T05:41:30.000",
    "request_status": "Pending",
    "responsible_agency": "Department of Public Works",
    "final_address": "10200 Curran Rd",
    "address_councildis": "E",
    "status": "Pending",
    "rowid": "845943",
    "final_x": "3709317.59505",
    "final_y": "565105.39293",
    "longitude": "-89.97897972008305",
    "latitude": "30.046968768575056",
    "geocoded_column": {
      "latitude": "30.046968768575056",
      "longitude": "-89.97897972008305"
    }
  },
  {
    "service_request": "2021-845942",
    "request_type": "Traffic Signals/Signs/Striping/Streetlights",
    "request_reason": "Street Light Outage/Malfunction",
    "date_created": "2021-12-04T22:13:42.000",
    "date_modified": "2021-12-04T22:13:42.000",
    "request_status": "Pending",
    "responsible_agency": "Department of Public Works",
    "final_address": "2613 Soniat St",
    "address_councildis": "B",
    "status": "Pending",
    "contractor": "Royal Engineering",
    "rowid": "845942",
    "final_x": "3668582.57479",
    "final_y": "525081.193149",
    "longitude": "-90.10907625840711",
    "latitude": "29.938176940529708",
    "geocoded_column": {
      "latitude": "29.938176940529708",
      "longitude": "-90.10907625840711"
    }
  },
  {
    "service_request": "2021-845941",
    "request_type": "Trash/Recycling",
    "request_reason": "Missed Trash Pick-Up",
    "date_created": "2021-12-04T21:44:44.000",
    "date_modified": "2021-12-04T21:44:44.000",
    "request_status": "Pending",
    "responsible_agency": "Department of Sanitation",
    "final_address": "4743 Charlmark Dr",
    "address_councildis": "E",
    "status": "Assigned to Contractor",
    "contractor": "Metro Disposal",
    "rowid": "845941",
    "final_x": "3711512.81662",
    "final_y": "556041.107417",
    "longitude": "-89.97238197222306",
    "latitude": "30.021974064808084",
    "geocoded_column": {
      "latitude": "30.021974064808084",
      "longitude": "-89.97238197222306"
    }
  },
  {
    "service_request": "2021-845940",
    "request_type": "Health Related Questions",
    "request_reason": "Noise Ordinance Complaint",
    "date_created": "2021-12-04T21:13:32.000",
    "date_modified": "2021-12-04T21:13:32.000",
    "request_status": "Pending",
    "responsible_agency": "Health Department",
    "final_address": "239 Decatur St",
    "address_councildis": "C",
    "status": "Pending",
    "rowid": "845940",
    "final_x": "3682195.63317",
    "final_y": "530830.069826",
    "longitude": "-90.06589786183099",
    "latitude": "29.95357746948798",
    "geocoded_column": {
      "latitude": "29.95357746948798",
      "longitude": "-90.06589786183099"
    }
  },
  {
    "service_request": "2021-845939",
    "request_type": "Abandoned Vehicles",
    "request_reason": "Abandoned/Junk Vehicles",
    "date_created": "2021-12-04T20:39:21.000",
    "date_modified": "2021-12-04T21:00:10.000",
    "request_status": "Pending",
    "responsible_agency": "Department of Public Works",
    "final_address": "801 Wagner St",
    "address_councildis": "C",
    "status": "Pending",
    "rowid": "845939",
    "final_x": "3690483.00592",
    "final_y": "528562.297536",
    "longitude": "-90.03981075173257",
    "latitude": "29.94708721883438",
    "geocoded_column": {
      "latitude": "29.94708721883438",
      "longitude": "-90.03981075173257"
    }
  },
  {
    "service_request": "2021-845937",
    "request_type": "Traffic Signals/Signs/Striping/Streetlights",
    "request_reason": "Request for Stop Sign",
    "date_created": "2021-12-04T20:11:13.000",
    "date_modified": "2021-12-04T20:11:13.000",
    "request_status": "Pending",
    "responsible_agency": "Department of Public Works",
    "final_address": "700 Loyola Ave",
    "address_councildis": "B",
    "status": "Pending",
    "rowid": "845937",
    "final_x": "3679018.30914",
    "final_y": "528623.027904",
    "longitude": "-90.07600698435793",
    "latitude": "29.94760509827909",
    "geocoded_column": {
      "latitude": "29.94760509827909",
      "longitude": "-90.07600698435793"
    }
  },
  {
    "service_request": "2021-845936",
    "request_type": "Traffic Signals/Signs/Striping/Streetlights",
    "request_reason": "Street Light Outage/Malfunction",
    "date_created": "2021-12-04T19:47:05.000",
    "date_modified": "2021-12-04T20:00:38.000",
    "request_status": "Pending",
    "responsible_agency": "Department of Public Works",
    "final_address": "3530 Hyman Ct",
    "address_councildis": "C",
    "status": "Pending",
    "contractor": "Royal Engineering",
    "rowid": "845936",
    "final_x": "3700995.31921",
    "final_y": "517971.407478",
    "longitude": "-90.00700673637469",
    "latitude": "29.917635453228566",
    "geocoded_column": {
      "latitude": "29.917635453228566",
      "longitude": "-90.00700673637469"
    }
  },
  {
    "service_request": "2021-845935",
    "request_type": "Traffic Signals/Signs/Striping/Streetlights",
    "request_reason": "Street Light Outage/Malfunction",
    "date_created": "2021-12-04T19:39:03.000",
    "date_modified": "2021-12-04T19:39:04.000",
    "request_status": "Pending",
    "responsible_agency": "Department of Public Works",
    "final_address": "1616 Jefferson Ave",
    "address_councildis": "A",
    "status": "Pending",
    "contractor": "Royal Engineering",
    "rowid": "845935",
    "final_x": "3667339.25217",
    "final_y": "521776.958842",
    "longitude": "-90.11311264568766",
    "latitude": "29.92912781955831",
    "geocoded_column": {
      "latitude": "29.92912781955831",
      "longitude": "-90.11311264568766"
    }
  },
  {
    "service_request": "2021-845934",
    "request_type": "Roads/Drainage",
    "request_reason": "Debris in Roadway",
    "date_created": "2021-12-04T18:22:24.000",
    "date_modified": "2021-12-04T18:22:24.000",
    "request_status": "Pending",
    "responsible_agency": "Department of Public Works",
    "final_address": "436 Flood St",
    "address_councildis": "E",
    "status": "Pending",
    "rowid": "845934",
    "final_x": "3696986.9352",
    "final_y": "531429.219715",
    "longitude": "-90.01917171205196",
    "latitude": "29.954766762002073",
    "geocoded_column": {
      "latitude": "29.954766762002073",
      "longitude": "-90.01917171205196"
    }
  },
  {
    "service_request": "2021-845933",
    "request_type": "Abandoned Vehicles",
    "request_reason": "Abandoned/Junk Vehicles",
    "date_created": "2021-12-04T17:39:02.000",
    "date_modified": "2021-12-04T17:39:02.000",
    "request_status": "Pending",
    "responsible_agency": "Department of Public Works",
    "final_address": "1600 Robert C. Blakes, Sr. Dr",
    "address_councildis": "B",
    "status": "Pending",
    "rowid": "845933",
    "final_x": "3678659.37141",
    "final_y": "525468.759229",
    "longitude": "-90.07724946560738",
    "latitude": "29.938942731926556",
    "geocoded_column": {
      "latitude": "29.938942731926556",
      "longitude": "-90.07724946560738"
    }
  },
  {
    "service_request": "2021-845932",
    "request_type": "Abandoned Vehicles",
    "request_reason": "Vehicle Blocking Your Driveway",
    "date_created": "2021-12-04T17:13:36.000",
    "date_modified": "2021-12-04T17:13:36.000",
    "request_status": "Pending",
    "responsible_agency": "Department of Public Works",
    "final_address": "2728 N Derbigny St",
    "address_councildis": "D",
    "status": "Pending",
    "rowid": "845932",
    "final_x": "3688180.59087",
    "final_y": "538558.270025",
    "longitude": "-90.04672593391456",
    "latitude": "29.9746439436803",
    "geocoded_column": {
      "latitude": "29.9746439436803",
      "longitude": "-90.04672593391456"
    }
  },
  {
    "service_request": "2021-845931",
    "request_type": "Trash/Recycling",
    "request_reason": "Missed Trash Pick-Up",
    "date_created": "2021-12-04T17:02:17.000",
    "date_modified": "2021-12-04T17:02:18.000",
    "request_status": "Pending",
    "responsible_agency": "Department of Sanitation",
    "final_address": "5560 Bullard Ave",
    "address_councildis": "E",
    "status": "Assigned to Contractor",
    "contractor": "Metro Disposal",
    "rowid": "845931",
    "final_x": "3717199.41164",
    "final_y": "561656.874207",
    "longitude": "-89.95420042989312",
    "latitude": "30.037228231713048",
    "geocoded_column": {
      "latitude": "30.037228231713048",
      "longitude": "-89.95420042989312"
    }
  },
  {
    "service_request": "2021-845930",
    "request_type": "Trash/Recycling",
    "request_reason": "Request a Large Item Pick Up",
    "date_created": "2021-12-04T16:51:53.000",
    "date_modified": "2021-12-04T16:51:54.000",
    "request_status": "Pending",
    "responsible_agency": "Department of Sanitation",
    "final_address": "2682 Law St",
    "address_councildis": "D",
    "status": "Assigned to Contractor",
    "contractor": "Metro Disposal",
    "rowid": "845930",
    "final_x": "3687084.85532",
    "final_y": "541951.94478",
    "longitude": "-90.05006649263453",
    "latitude": "29.98400913548694",
    "geocoded_column": {
      "latitude": "29.98400913548694",
      "longitude": "-90.05006649263453"
    }
  },
  {
    "service_request": "2021-845929",
    "request_type": "Abandoned Vehicles",
    "request_reason": "Abandoned/Junk Vehicles",
    "date_created": "2021-12-04T16:48:09.000",
    "date_modified": "2021-12-04T16:48:09.000",
    "request_status": "Pending",
    "responsible_agency": "Department of Public Works",
    "final_address": "6234 Pasteur Blvd",
    "address_councildis": "D",
    "status": "Pending",
    "rowid": "845929",
    "final_x": "3682673.03055",
    "final_y": "556157.280538",
    "longitude": "-90.06350418057072",
    "latitude": "30.0232038225388",
    "geocoded_column": {
      "latitude": "30.0232038225388",
      "longitude": "-90.06350418057072"
    }
  },
  {
    "service_request": "2021-845928",
    "request_type": "Trash/Recycling",
    "request_reason": "Order Trash Cart",
    "date_created": "2021-12-04T16:12:01.000",
    "date_modified": "2021-12-04T17:00:11.000",
    "request_status": "Pending",
    "responsible_agency": "Department of Sanitation",
    "final_address": "4111 Jumonville St, New Orleans, Louisiana, 70122",
    "address_councildis": "D",
    "status": "Assigned to Contractor",
    "contractor": "Metro Disposal",
    "rowid": "845928",
    "final_x": "3678093.96123",
    "final_y": "547346.521425",
    "longitude": "-90.07827799116934",
    "latitude": "29.99911613431735",
    "geocoded_column": {
      "latitude": "29.99911613431735",
      "longitude": "-90.07827799116934"
    }
  },
  {
    "service_request": "2021-845927",
    "request_type": "Traffic Signals/Signs/Striping/Streetlights",
    "request_reason": "Street Name Sign Damaged or Missing",
    "date_created": "2021-12-04T15:49:35.000",
    "date_modified": "2021-12-04T15:49:35.000",
    "request_status": "Pending",
    "responsible_agency": "Department of Public Works",
    "final_address": "310 N Dupre St",
    "address_councildis": "B",
    "status": "Pending",
    "rowid": "845927",
    "final_x": "3675203.1812",
    "final_y": "536387.455047",
    "longitude": "-90.08778636072445",
    "latitude": "29.96906923053452",
    "geocoded_column": {
      "latitude": "29.96906923053452",
      "longitude": "-90.08778636072445"
    }
  },
  {
    "service_request": "2021-845926",
    "request_type": "Roads/Drainage",
    "request_reason": "Street Flooding / Drainage",
    "date_created": "2021-12-04T15:49:22.000",
    "date_modified": "2021-12-04T16:00:10.000",
    "request_status": "Pending",
    "responsible_agency": "Department of Public Works",
    "final_address": "1910 Eagle St",
    "address_councildis": "A",
    "status": "Pending",
    "rowid": "845926",
    "final_x": "3661814.2743",
    "final_y": "531960.804163",
    "longitude": "-90.13021646258352",
    "latitude": "29.9572907757137",
    "geocoded_column": {
      "latitude": "29.9572907757137",
      "longitude": "-90.13021646258352"
    }
  },
  {
    "service_request": "2021-845925",
    "request_type": "Traffic Signals/Signs/Striping/Streetlights",
    "request_reason": "Street Name Sign Damaged or Missing",
    "date_created": "2021-12-04T15:42:50.000",
    "date_modified": "2021-12-04T15:42:50.000",
    "request_status": "Pending",
    "responsible_agency": "Department of Public Works",
    "final_address": "3100 Bienville Ave",
    "address_councildis": "B",
    "status": "Pending",
    "rowid": "845925",
    "final_x": "3674487.07214",
    "final_y": "536668.054599",
    "longitude": "-90.09003827085951",
    "latitude": "29.969862168781003",
    "geocoded_column": {
      "latitude": "29.969862168781003",
      "longitude": "-90.09003827085951"
    }
  },
  {
    "service_request": "2021-845924",
    "request_type": "Mosquito, Termite & Rodent Control",
    "request_reason": "Mosquito Complaint",
    "date_created": "2021-12-04T15:40:37.000",
    "date_modified": "2021-12-04T16:00:12.000",
    "request_status": "Pending",
    "responsible_agency": "Mosquito, Termite & Rodent Control Board",
    "final_address": "5714 Lafaye St",
    "address_councildis": "D",
    "status": "Pending",
    "rowid": "845924",
    "final_x": "3687162.94031",
    "final_y": "554283.74748",
    "longitude": "-90.04938340612846",
    "latitude": "30.01791472162876",
    "geocoded_column": {
      "latitude": "30.01791472162876",
      "longitude": "-90.04938340612846"
    }
  },
  {
    "service_request": "2021-845923",
    "request_type": "Traffic Signals/Signs/Striping/Streetlights",
    "request_reason": "Street Name Sign Damaged or Missing",
    "date_created": "2021-12-04T15:39:57.000",
    "date_modified": "2021-12-04T15:39:57.000",
    "request_status": "Pending",
    "responsible_agency": "Department of Public Works",
    "final_address": "3301 Bienville Ave",
    "address_councildis": "B",
    "status": "Pending",
    "rowid": "845923",
    "final_x": "3674080.97998",
    "final_y": "537158.226888",
    "longitude": "-90.09130397065829",
    "latitude": "29.971222086097352",
    "geocoded_column": {
      "latitude": "29.971222086097352",
      "longitude": "-90.09130397065829"
    }
  },
  {
    "service_request": "2021-845922",
    "request_type": "Property Maintenance",
    "request_reason": "Property Maintenance",
    "date_created": "2021-12-04T15:36:34.000",
    "date_modified": "2021-12-04T16:00:13.000",
    "request_status": "Pending",
    "responsible_agency": "Department of Code Enforcement",
    "final_address": "5714 Lafaye St",
    "address_councildis": "D",
    "status": "Pending",
    "rowid": "845922",
    "final_x": "3687162.94031",
    "final_y": "554283.74748",
    "longitude": "-90.04938340612846",
    "latitude": "30.01791472162876",
    "geocoded_column": {
      "latitude": "30.01791472162876",
      "longitude": "-90.04938340612846"
    }
  },
  {
    "service_request": "2021-845921",
    "request_type": "Abandoned Vehicles",
    "request_reason": "Abandoned/Junk Vehicles",
    "date_created": "2021-12-04T15:23:52.000",
    "date_modified": "2021-12-04T16:00:14.000",
    "request_status": "Pending",
    "responsible_agency": "Department of Public Works",
    "final_address": "5502 Warrington Dr",
    "address_councildis": "D",
    "status": "Pending",
    "rowid": "845921",
    "final_x": "3680791.5124",
    "final_y": "552836.459542",
    "longitude": "-90.06956509823732",
    "latitude": "30.01412997364816",
    "geocoded_column": {
      "latitude": "30.01412997364816",
      "longitude": "-90.06956509823732"
    }
  },
  {
    "service_request": "2021-845920",
    "request_type": "Mosquito, Termite & Rodent Control",
    "request_reason": "Non-Rodent Complaint (Mice, Possums, Snakes)",
    "date_created": "2021-12-04T15:16:36.000",
    "date_modified": "2021-12-04T16:00:16.000",
    "request_status": "Pending",
    "responsible_agency": "Mosquito, Termite & Rodent Control Board",
    "final_address": "4037 DHemecourt St",
    "address_councildis": "A",
    "status": "Pending",
    "rowid": "845920",
    "final_x": "3669984.81402",
    "final_y": "536731.235463",
    "longitude": "-90.10425472663218",
    "latitude": "29.970169452645358",
    "geocoded_column": {
      "latitude": "29.970169452645358",
      "longitude": "-90.10425472663218"
    }
  },
  {
    "service_request": "2021-845919",
    "request_type": "Trash/Recycling",
    "request_reason": "MIssed Recycling Pick-Up",
    "date_created": "2021-12-04T14:27:40.000",
    "date_modified": "2021-12-04T15:00:13.000",
    "request_status": "Pending",
    "responsible_agency": "Department of Sanitation",
    "final_address": "3200 Toulouse St, New Orleans, Louisiana, 70119",
    "address_councildis": "A",
    "status": "Assigned to Contractor",
    "contractor": "Richards Disposal",
    "rowid": "845919",
    "final_x": "3674643.81025",
    "final_y": "537886.508233",
    "longitude": "-90.08950150570391",
    "latitude": "29.973207825189164",
    "geocoded_column": {
      "latitude": "29.973207825189164",
      "longitude": "-90.08950150570391"
    }
  },
  {
    "service_request": "2021-845918",
    "request_type": "COVID-19",
    "request_reason": "COVID-19 Business Non-Compliance",
    "date_created": "2021-12-04T14:00:04.000",
    "date_modified": "2021-12-04T14:00:05.000",
    "request_status": "Pending",
    "responsible_agency": "Safety and Permits",
    "final_address": "606 Frenchmen St",
    "address_councildis": "C",
    "status": "Pending",
    "rowid": "845918",
    "final_x": "3684696.37628",
    "final_y": "534549.941445",
    "longitude": "-90.05787083556203",
    "latitude": "29.963729544786784",
    "geocoded_column": {
      "latitude": "29.963729544786784",
      "longitude": "-90.05787083556203"
    }
  },
  {
    "service_request": "2021-845917",
    "request_type": "Property Maintenance",
    "request_reason": "Property Maintenance",
    "date_created": "2021-12-04T13:59:02.000",
    "date_modified": "2021-12-04T13:59:02.000",
    "request_status": "Pending",
    "responsible_agency": "Department of Code Enforcement",
    "final_address": "1202 Marengo St",
    "address_councildis": "B",
    "status": "Pending",
    "rowid": "845917",
    "final_x": "3671958.78644",
    "final_y": "519964.080248",
    "longitude": "-90.0985913105435",
    "latitude": "29.924006908430712",
    "geocoded_column": {
      "latitude": "29.924006908430712",
      "longitude": "-90.0985913105435"
    }
  },
  {
    "service_request": "2021-845916",
    "request_type": "Trash/Recycling",
    "request_reason": "Replace Trash Cart",
    "date_created": "2021-12-04T13:58:34.000",
    "date_modified": "2021-12-04T14:00:13.000",
    "request_status": "Pending",
    "responsible_agency": "Department of Sanitation",
    "final_address": "2306 Dante St, New Orleans, Louisiana, 70118",
    "address_councildis": "A",
    "status": "Assigned to Contractor",
    "contractor": "Richards Disposal",
    "rowid": "845916",
    "final_x": "3664051.90266",
    "final_y": "531802.261571",
    "longitude": "-90.12315596649945",
    "latitude": "29.956790042622917",
    "geocoded_column": {
      "latitude": "29.956790042622917",
      "longitude": "-90.12315596649945"
    }
  },
  {
    "service_request": "2021-845915",
    "request_type": "Trash/Recycling",
    "request_reason": "Request a Large Item Pick Up",
    "date_created": "2021-12-04T13:42:54.000",
    "date_modified": "2021-12-04T14:00:15.000",
    "request_status": "Pending",
    "responsible_agency": "Department of Sanitation",
    "final_address": "8814 Palm St",
    "address_councildis": "A",
    "status": "Assigned to Contractor",
    "contractor": "Richards Disposal",
    "rowid": "845915",
    "final_x": "3665748.16653",
    "final_y": "536442.413831",
    "longitude": "-90.11764423207394",
    "latitude": "29.969499564766576",
    "geocoded_column": {
      "latitude": "29.969499564766576",
      "longitude": "-90.11764423207394"
    }
  },
  {
    "service_request": "2021-845913",
    "request_type": "Trash/Recycling",
    "request_reason": "Order Recycling Cart",
    "date_created": "2021-12-04T13:00:43.000",
    "date_modified": "2021-12-04T14:00:17.000",
    "request_status": "Pending",
    "responsible_agency": "Department of Sanitation",
    "final_address": "1823 Magazine St Apt B",
    "address_councildis": "B",
    "status": "Pending",
    "rowid": "845913",
    "final_x": "3679823.06293",
    "final_y": "522939.625147",
    "longitude": "-90.0736633367605",
    "latitude": "29.93195332071129",
    "geocoded_column": {
      "latitude": "29.93195332071129",
      "longitude": "-90.0736633367605"
    }
  },
  {
    "service_request": "2021-845912",
    "request_type": "Trash/Recycling",
    "request_reason": "Request a Large Item Pick Up",
    "date_created": "2021-12-04T12:50:40.000",
    "date_modified": "2021-12-04T13:00:08.000",
    "request_status": "Pending",
    "responsible_agency": "Department of Sanitation",
    "final_address": "500 Pelican Ave",
    "address_councildis": "C",
    "status": "Assigned to Contractor",
    "contractor": "Richards Disposal",
    "rowid": "845912",
    "final_x": "3686891.62569",
    "final_y": "530787.276738",
    "longitude": "-90.05107144035823",
    "latitude": "29.953316141312747",
    "geocoded_column": {
      "latitude": "29.953316141312747",
      "longitude": "-90.05107144035823"
    }
  },
  {
    "service_request": "2021-845911",
    "request_type": "Abandoned Vehicles",
    "request_reason": "Abandoned/Junk Vehicles",
    "date_created": "2021-12-04T12:47:55.000",
    "date_modified": "2021-12-04T13:00:09.000",
    "request_status": "Pending",
    "responsible_agency": "Department of Public Works",
    "final_address": "8218 Panola St",
    "address_councildis": "A",
    "status": "Pending",
    "rowid": "845911",
    "final_x": "3663697.96307",
    "final_y": "531021.025026",
    "longitude": "-90.12429962940466",
    "latitude": "29.954652169572373",
    "geocoded_column": {
      "latitude": "29.954652169572373",
      "longitude": "-90.12429962940466"
    }
  },
  {
    "service_request": "2021-845910",
    "request_type": "Abandoned Vehicles",
    "request_reason": "Vehicle Blocking Your Driveway",
    "date_created": "2021-12-04T12:44:58.000",
    "date_modified": "2021-12-04T13:43:58.000",
    "request_status": "Pending",
    "responsible_agency": "Department of Public Works",
    "final_address": "818 Octavia St, New Orleans, Louisiana, 70115",
    "address_councildis": "A",
    "rowid": "845910",
    "final_x": "3666439.72301",
    "final_y": "518985.637239",
    "longitude": "-90.11604590646401",
    "latitude": "29.921478874993213",
    "geocoded_column": {
      "latitude": "29.921478874993213",
      "longitude": "-90.11604590646401"
    }
  },
  {
    "service_request": "2021-845909",
    "request_type": "Trash/Recycling",
    "request_reason": "Replace Trash Cart",
    "date_created": "2021-12-04T12:43:03.000",
    "date_modified": "2021-12-04T12:43:04.000",
    "request_status": "Pending",
    "responsible_agency": "Department of Sanitation",
    "final_address": "212 Spencer Ave",
    "address_councildis": "A",
    "status": "Assigned to Contractor",
    "contractor": "Metro Disposal",
    "rowid": "845909",
    "final_x": "3665880.27079",
    "final_y": "553567.122967",
    "longitude": "-90.11665278589948",
    "latitude": "30.016582815455124",
    "geocoded_column": {
      "latitude": "30.016582815455124",
      "longitude": "-90.11665278589948"
    }
  },
  {
    "service_request": "2021-845908",
    "request_type": "Trash/Recycling",
    "request_reason": "Replace Trash Cart",
    "date_created": "2021-12-04T12:28:13.000",
    "date_modified": "2021-12-04T13:00:12.000",
    "request_status": "Pending",
    "responsible_agency": "Department of Sanitation",
    "final_address": "8516 Pritchard Pl, New Orleans, Louisiana, 70118",
    "address_councildis": "A",
    "status": "Assigned to Contractor",
    "contractor": "Richards Disposal",
    "rowid": "845908",
    "final_x": "3664865.38695",
    "final_y": "533923.192389",
    "longitude": "-90.12051634482215",
    "latitude": "29.962598259589683",
    "geocoded_column": {
      "latitude": "29.962598259589683",
      "longitude": "-90.12051634482215"
    }
  },
  {
    "service_request": "2021-845907",
    "request_type": "Traffic Signals/Signs/Striping/Streetlights",
    "request_reason": "Request for Traffic Calming due to Speeding",
    "date_created": "2021-12-04T12:06:59.000",
    "date_modified": "2021-12-04T12:06:59.000",
    "request_status": "Pending",
    "responsible_agency": "Department of Public Works",
    "final_address": "3211 Napoleon Ave",
    "address_councildis": "B",
    "status": "Pending",
    "rowid": "845907",
    "final_x": "3670369.43271",
    "final_y": "526722.749502",
    "longitude": "-90.10337933877751",
    "latitude": "29.942638072180902",
    "geocoded_column": {
      "latitude": "29.942638072180902",
      "longitude": "-90.10337933877751"
    }
  },
  {
    "service_request": "2021-845906",
    "request_type": "Traffic Signals/Signs/Striping/Streetlights",
    "request_reason": "Traffic Sign Missing/Damaged",
    "date_created": "2021-12-04T12:02:52.000",
    "date_modified": "2021-12-04T12:02:52.000",
    "request_status": "Pending",
    "responsible_agency": "Department of Public Works",
    "final_address": "3211 Napoleon Ave",
    "address_councildis": "B",
    "status": "Pending",
    "rowid": "845906",
    "final_x": "3670369.43271",
    "final_y": "526722.749502",
    "longitude": "-90.10337933877751",
    "latitude": "29.942638072180902",
    "geocoded_column": {
      "latitude": "29.942638072180902",
      "longitude": "-90.10337933877751"
    }
  },
  {
    "service_request": "2021-845905",
    "request_type": "Trash/Recycling",
    "request_reason": "Request a Large Item Pick Up",
    "date_created": "2021-12-04T11:47:45.000",
    "date_modified": "2021-12-04T12:00:24.000",
    "request_status": "Pending",
    "responsible_agency": "Department of Sanitation",
    "final_address": "3016 General Pershing St",
    "address_councildis": "B",
    "status": "Assigned to Contractor",
    "contractor": "Richards Disposal",
    "rowid": "845905",
    "final_x": "3670666.23284",
    "final_y": "526117.347134",
    "longitude": "-90.10246280156187",
    "latitude": "29.940964648963103",
    "geocoded_column": {
      "latitude": "29.940964648963103",
      "longitude": "-90.10246280156187"
    }
  },
  {
    "service_request": "2021-845904",
    "request_type": "Trash/Recycling",
    "request_reason": "Order Trash Cart",
    "date_created": "2021-12-04T11:42:53.000",
    "date_modified": "2021-12-04T11:42:53.000",
    "request_status": "Pending",
    "responsible_agency": "Department of Sanitation",
    "final_address": "3346 Trafalgar St",
    "address_councildis": "A",
    "status": "Assigned to Contractor",
    "contractor": "Metro Disposal",
    "rowid": "845904",
    "final_x": "3677751.58779",
    "final_y": "543145.697741",
    "longitude": "-90.07950476794628",
    "latitude": "29.987575650887152",
    "geocoded_column": {
      "latitude": "29.987575650887152",
      "longitude": "-90.07950476794628"
    }
  },
  {
    "service_request": "2021-845903",
    "request_type": "Trash/Recycling",
    "request_reason": "Request a Large Item Pick Up",
    "date_created": "2021-12-04T11:20:06.000",
    "date_modified": "2021-12-04T12:00:28.000",
    "request_status": "Pending",
    "responsible_agency": "Department of Sanitation",
    "final_address": "1933 Eagle St",
    "address_councildis": "A",
    "status": "Assigned to Contractor",
    "contractor": "Richards Disposal",
    "rowid": "845903",
    "final_x": "3662007.18727",
    "final_y": "532045.496771",
    "longitude": "-90.12960448938402",
    "latitude": "29.95751808192908",
    "geocoded_column": {
      "latitude": "29.95751808192908",
      "longitude": "-90.12960448938402"
    }
  },
  {
    "service_request": "2021-845902",
    "request_type": "Abandoned Vehicles",
    "request_reason": "Abandoned/Junk Vehicles",
    "date_created": "2021-12-04T11:03:47.000",
    "date_modified": "2021-12-04T11:03:47.000",
    "request_status": "Pending",
    "responsible_agency": "Department of Public Works",
    "final_address": "4935 S Prieur St",
    "address_councildis": "B",
    "status": "Pending",
    "rowid": "845902",
    "final_x": "3668950.64122",
    "final_y": "526765.176382",
    "longitude": "-90.107857375371",
    "latitude": "29.94279653197789",
    "geocoded_column": {
      "latitude": "29.94279653197789",
      "longitude": "-90.107857375371"
    }
  },
  {
    "service_request": "2021-845900",
    "request_type": "Trash/Recycling",
    "request_reason": "Illegal Dumping",
    "date_created": "2021-12-04T10:44:23.000",
    "date_modified": "2021-12-04T10:44:23.000",
    "request_status": "Pending",
    "responsible_agency": "Department of Sanitation",
    "final_address": "HARMONY ST & ANNUNCIATION ST",
    "address_councildis": "B",
    "status": "Pending",
    "rowid": "845900",
    "final_x": "3676310.4",
    "final_y": "519021.98",
    "longitude": "-90.08488720593395",
    "latitude": "29.921286780579763",
    "geocoded_column": {
      "latitude": "29.921286780579763",
      "longitude": "-90.08488720593395"
    }
  },
  {
    "service_request": "2021-845899",
    "request_type": "COVID-19",
    "request_reason": "COVID-19 Business Non-Compliance",
    "date_created": "2021-12-04T10:39:55.000",
    "date_modified": "2021-12-04T10:39:56.000",
    "request_status": "Pending",
    "responsible_agency": "Safety and Permits",
    "final_address": "315 Magazine St",
    "address_councildis": "B",
    "status": "Pending",
    "rowid": "845899",
    "final_x": "3681573.81852",
    "final_y": "529596.227969",
    "longitude": "-90.06790431507223",
    "latitude": "29.950203718690027",
    "geocoded_column": {
      "latitude": "29.950203718690027",
      "longitude": "-90.06790431507223"
    }
  },
  {
    "service_request": "2021-845898",
    "request_type": "Trash/Recycling",
    "request_reason": "Request a Large Item Pick Up",
    "date_created": "2021-12-04T10:31:18.000",
    "date_modified": "2021-12-04T11:00:10.000",
    "request_status": "Pending",
    "responsible_agency": "Department of Sanitation",
    "final_address": "2719 Pressburg St, New Orleans, Louisiana, 70122",
    "address_councildis": "D",
    "status": "Assigned to Contractor",
    "contractor": "Metro Disposal",
    "rowid": "845898",
    "final_x": "3687318.09929",
    "final_y": "554946.61212",
    "longitude": "-90.04886968677569",
    "latitude": "30.01973257272206",
    "geocoded_column": {
      "latitude": "30.01973257272206",
      "longitude": "-90.04886968677569"
    }
  },
  {
    "service_request": "2021-845896",
    "request_type": "Traffic Signals/Signs/Striping/Streetlights",
    "request_reason": "Street Light Outage/Malfunction",
    "date_created": "2021-12-04T10:24:36.000",
    "date_modified": "2021-12-04T10:24:37.000",
    "request_status": "Pending",
    "responsible_agency": "Department of Public Works",
    "final_address": "6155 Argonne Blvd",
    "address_councildis": "A",
    "status": "Pending",
    "contractor": "Royal Engineering",
    "rowid": "845896",
    "final_x": "3670308.27623",
    "final_y": "548181.357714",
    "longitude": "-90.10284487602728",
    "latitude": "30.001643829653705",
    "geocoded_column": {
      "latitude": "30.001643829653705",
      "longitude": "-90.10284487602728"
    }
  },
  {
    "service_request": "2021-845895",
    "request_type": "Property Maintenance",
    "request_reason": "Property Maintenance",
    "date_created": "2021-12-04T10:18:45.000",
    "date_modified": "2021-12-04T10:18:45.000",
    "request_status": "Pending",
    "responsible_agency": "Department of Code Enforcement",
    "final_address": "1127 Congress St",
    "address_councildis": "C",
    "status": "Pending",
    "rowid": "845895",
    "final_x": "3690831.94102",
    "final_y": "535883.116807",
    "longitude": "-90.03844782556958",
    "latitude": "29.96720609116616",
    "geocoded_column": {
      "latitude": "29.96720609116616",
      "longitude": "-90.03844782556958"
    }
  },
  {
    "service_request": "2021-845894",
    "request_type": "COVID-19",
    "request_reason": "COVID-19 Business Non-Compliance",
    "date_created": "2021-12-04T10:15:42.000",
    "date_modified": "2021-12-04T10:15:43.000",
    "request_status": "Pending",
    "responsible_agency": "Safety and Permits",
    "final_address": "601 Poydras St",
    "address_councildis": "B",
    "status": "Pending",
    "rowid": "845894",
    "final_x": "3680938.01679",
    "final_y": "529396.806657",
    "longitude": "-90.06991878324561",
    "latitude": "29.94967466888167",
    "geocoded_column": {
      "latitude": "29.94967466888167",
      "longitude": "-90.06991878324561"
    }
  },
  {
    "service_request": "2021-845893",
    "request_type": "Abandoned Vehicles",
    "request_reason": "Vehicle Blocking Your Driveway",
    "date_created": "2021-12-04T10:06:02.000",
    "date_modified": "2021-12-04T11:00:14.000",
    "request_status": "Pending",
    "responsible_agency": "Department of Public Works",
    "final_address": "3197 Desaix Blvd, New Orleans, Louisiana, 70119",
    "address_councildis": "D",
    "status": "Pending",
    "rowid": "845893",
    "final_x": "3678319.52219",
    "final_y": "543672.706958",
    "longitude": "-90.07769261693035",
    "latitude": "29.989007641909453",
    "geocoded_column": {
      "latitude": "29.989007641909453",
      "longitude": "-90.07769261693035"
    }
  },
  {
    "service_request": "2021-845891",
    "request_type": "Traffic Signals/Signs/Striping/Streetlights",
    "request_reason": "Street Name Sign Damaged or Missing",
    "date_created": "2021-12-04T10:03:58.000",
    "date_modified": "2021-12-04T13:45:25.000",
    "request_status": "Pending",
    "responsible_agency": "Department of Public Works",
    "final_address": "3205 Desaix Blvd, New Orleans, Louisiana, 70119",
    "address_councildis": "D",
    "rowid": "845891",
    "final_x": "3678223.87522",
    "final_y": "543674.210446",
    "longitude": "-90.07799468513407",
    "latitude": "29.989014657601576",
    "geocoded_column": {
      "latitude": "29.989014657601576",
      "longitude": "-90.07799468513407"
    }
  },
  {
    "service_request": "2021-845890",
    "request_type": "Trash/Recycling",
    "request_reason": "Order Trash Cart",
    "date_created": "2021-12-04T09:29:31.000",
    "date_modified": "2021-12-04T09:29:32.000",
    "request_status": "Pending",
    "responsible_agency": "Department of Sanitation",
    "final_address": "5316 Coliseum St",
    "address_councildis": "B",
    "status": "Assigned to Contractor",
    "contractor": "Richards Disposal",
    "rowid": "845890",
    "final_x": "3667463.75489",
    "final_y": "519677.299384",
    "longitude": "-90.11279021689415",
    "latitude": "29.923350774770917",
    "geocoded_column": {
      "latitude": "29.923350774770917",
      "longitude": "-90.11279021689415"
    }
  },
  {
    "service_request": "2021-845889",
    "request_type": "Abandoned Vehicles",
    "request_reason": "Abandoned/Junk Vehicles",
    "date_created": "2021-12-04T09:09:47.000",
    "date_modified": "2021-12-04T09:10:42.000",
    "request_status": "Pending",
    "responsible_agency": "Department of Public Works",
    "final_address": "2507 Prytania St",
    "address_councildis": "B",
    "status": "Pending",
    "rowid": "845889",
    "final_x": "3676900.5741",
    "final_y": "522626.54009",
    "longitude": "-90.08290012003052",
    "latitude": "29.931180457284523",
    "geocoded_column": {
      "latitude": "29.931180457284523",
      "longitude": "-90.08290012003052"
    }
  },
  {
    "service_request": "2021-845888",
    "request_type": "Abandoned Vehicles",
    "request_reason": "Abandoned/Junk Vehicles",
    "date_created": "2021-12-04T09:05:05.000",
    "date_modified": "2021-12-04T09:05:05.000",
    "request_status": "Pending",
    "responsible_agency": "Department of Public Works",
    "final_address": "5518 General Diaz St",
    "address_councildis": "A",
    "status": "Pending",
    "rowid": "845888",
    "final_x": "3669024.28942",
    "final_y": "543615.249742",
    "longitude": "-90.10705550638131",
    "latitude": "29.98912645772123",
    "geocoded_column": {
      "latitude": "29.98912645772123",
      "longitude": "-90.10705550638131"
    }
  },
  {
    "service_request": "2021-845887",
    "request_type": "Trash/Recycling",
    "request_reason": "Missed Trash Pick-Up",
    "date_created": "2021-12-04T08:57:29.000",
    "date_modified": "2021-12-04T09:00:13.000",
    "request_status": "Pending",
    "responsible_agency": "Department of Sanitation",
    "final_address": "321 Alonzo St",
    "address_councildis": "A",
    "status": "Assigned to Contractor",
    "contractor": "Richards Disposal",
    "rowid": "845887",
    "final_x": "3664633.28365",
    "final_y": "517570.918774",
    "longitude": "-90.12179528947192",
    "latitude": "29.91764148554684",
    "geocoded_column": {
      "latitude": "29.91764148554684",
      "longitude": "-90.12179528947192"
    }
  },
  {
    "service_request": "2021-845886",
    "request_type": "Trash/Recycling",
    "request_reason": "Replace Recycling Cart",
    "date_created": "2021-12-04T08:57:23.000",
    "date_modified": "2021-12-04T13:46:44.000",
    "request_status": "Pending",
    "responsible_agency": "Department of Sanitation",
    "final_address": "New Orleans,LA",
    "address_councildis": "E",
    "rowid": "845886",
    "final_x": "3718003.88178",
    "final_y": "561318.794974",
    "longitude": "-89.95167103494012",
    "latitude": "30.036272002757624",
    "geocoded_column": {
      "latitude": "30.036272002757624",
      "longitude": "-89.95167103494012"
    }
  },
  {
    "service_request": "2021-845885",
    "request_type": "Trash/Recycling",
    "request_reason": "Request a Large Item Pick Up",
    "date_created": "2021-12-04T08:55:20.000",
    "date_modified": "2021-12-04T08:55:21.000",
    "request_status": "Pending",
    "responsible_agency": "Department of Sanitation",
    "final_address": "5212 De Montluzin St",
    "address_councildis": "D",
    "status": "Assigned to Contractor",
    "contractor": "Metro Disposal",
    "rowid": "845885",
    "final_x": "3686946.8237",
    "final_y": "552419.653846",
    "longitude": "-90.0501322087807",
    "latitude": "30.012795807251763",
    "geocoded_column": {
      "latitude": "30.012795807251763",
      "longitude": "-90.0501322087807"
    }
  },
  {
    "service_request": "2021-845884",
    "request_type": "Traffic Signals/Signs/Striping/Streetlights",
    "request_reason": "Street Light Outage/Malfunction",
    "date_created": "2021-12-04T08:55:16.000",
    "date_modified": "2021-12-04T08:55:16.000",
    "request_status": "Pending",
    "responsible_agency": "Department of Public Works",
    "final_address": "1016 Crete St",
    "address_councildis": "A",
    "status": "Pending",
    "contractor": "Royal Engineering",
    "rowid": "845884",
    "final_x": "3677559.72181",
    "final_y": "538465.779209",
    "longitude": "-90.08027246155306",
    "latitude": "29.97471326520945",
    "geocoded_column": {
      "latitude": "29.97471326520945",
      "longitude": "-90.08027246155306"
    }
  },
  {
    "service_request": "2021-845883",
    "request_type": "Trash/Recycling",
    "request_reason": "Replace Trash Cart",
    "date_created": "2021-12-04T08:32:01.000",
    "date_modified": "2021-12-04T09:00:18.000",
    "request_status": "Pending",
    "responsible_agency": "Department of Sanitation",
    "final_address": "2206 Almonaster Ave",
    "address_councildis": "D",
    "status": "Assigned to Contractor",
    "contractor": "Metro Disposal",
    "rowid": "845883",
    "final_x": "3688092.56163",
    "final_y": "540699.207307",
    "longitude": "-90.04692804041355",
    "latitude": "29.980533482334387",
    "geocoded_column": {
      "latitude": "29.980533482334387",
      "longitude": "-90.04692804041355"
    }
  },
  {
    "service_request": "2021-845882",
    "request_type": "Trash/Recycling",
    "request_reason": "Replace Trash Cart",
    "date_created": "2021-12-04T08:31:24.000",
    "date_modified": "2021-12-04T08:31:24.000",
    "request_status": "Pending",
    "responsible_agency": "Department of Sanitation",
    "final_address": "2204 Almonaster Ave",
    "address_councildis": "D",
    "status": "Assigned to Contractor",
    "contractor": "Metro Disposal",
    "rowid": "845882",
    "final_x": "3688090.66454",
    "final_y": "540689.948299",
    "longitude": "-90.04693436053995",
    "latitude": "29.980508081906983",
    "geocoded_column": {
      "latitude": "29.980508081906983",
      "longitude": "-90.04693436053995"
    }
  },
  {
    "service_request": "2021-845881",
    "request_type": "Trash/Recycling",
    "request_reason": "Replace Trash Cart",
    "date_created": "2021-12-04T08:29:38.000",
    "date_modified": "2021-12-04T09:00:20.000",
    "request_status": "Pending",
    "responsible_agency": "Department of Sanitation",
    "final_address": "2807 N Rocheblave St",
    "address_councildis": "D",
    "status": "Assigned to Contractor",
    "contractor": "Metro Disposal",
    "rowid": "845881",
    "final_x": "3687968.25007",
    "final_y": "541397.764748",
    "longitude": "-90.04729590603692",
    "latitude": "29.98245810431987",
    "geocoded_column": {
      "latitude": "29.98245810431987",
      "longitude": "-90.04729590603692"
    }
  },
  {
    "service_request": "2021-845880",
    "request_type": "Trash/Recycling",
    "request_reason": "Replace Trash Cart",
    "date_created": "2021-12-04T08:28:13.000",
    "date_modified": "2021-12-04T08:28:14.000",
    "request_status": "Pending",
    "responsible_agency": "Department of Sanitation",
    "final_address": "2805 N Rocheblave St",
    "address_councildis": "D",
    "status": "Assigned to Contractor",
    "contractor": "Metro Disposal",
    "rowid": "845880",
    "final_x": "3687956.62767",
    "final_y": "541396.600908",
    "longitude": "-90.04733265646686",
    "latitude": "29.98245526284439",
    "geocoded_column": {
      "latitude": "29.98245526284439",
      "longitude": "-90.04733265646686"
    }
  },
  {
    "service_request": "2021-845879",
    "request_type": "Roads/Drainage",
    "request_reason": "Pothole",
    "date_created": "2021-12-04T07:29:36.000",
    "date_modified": "2021-12-04T07:29:36.000",
    "request_status": "Pending",
    "responsible_agency": "Department of Public Works",
    "final_address": "2659 Republic St",
    "address_councildis": "D",
    "status": "Pending",
    "rowid": "845879",
    "final_x": "3680764.60629",
    "final_y": "542174.781005",
    "longitude": "-90.07002149760126",
    "latitude": "29.984814970910378",
    "geocoded_column": {
      "latitude": "29.984814970910378",
      "longitude": "-90.07002149760126"
    }
  },
  {
    "service_request": "2021-845878",
    "request_type": "Trash/Recycling",
    "request_reason": "Request a Large Item Pick Up",
    "date_created": "2021-12-04T07:24:59.000",
    "date_modified": "2021-12-04T08:00:13.000",
    "request_status": "Pending",
    "responsible_agency": "Department of Sanitation",
    "final_address": "820 Filmore Ave",
    "address_councildis": "A",
    "status": "Assigned to Contractor",
    "contractor": "Metro Disposal",
    "rowid": "845878",
    "final_x": "3669797.74094",
    "final_y": "551856.810518",
    "longitude": "-90.1043331747873",
    "latitude": "30.011765102952747",
    "geocoded_column": {
      "latitude": "30.011765102952747",
      "longitude": "-90.1043331747873"
    }
  },
  {
    "service_request": "2021-845877",
    "request_type": "Trash/Recycling",
    "request_reason": "Illegal Dumping",
    "date_created": "2021-12-04T06:05:38.000",
    "date_modified": "2021-12-04T06:05:38.000",
    "request_status": "Pending",
    "responsible_agency": "Department of Sanitation",
    "final_address": "937 N Salcedo St",
    "address_councildis": "A",
    "status": "Pending",
    "rowid": "845877",
    "final_x": "3676053.29857",
    "final_y": "538743.346377",
    "longitude": "-90.08502057415609",
    "latitude": "29.975521691343882",
    "geocoded_column": {
      "latitude": "29.975521691343882",
      "longitude": "-90.08502057415609"
    }
  },
  {
    "service_request": "2021-845875",
    "request_type": "Trash/Recycling",
    "request_reason": "Order Trash Cart",
    "date_created": "2021-12-04T01:38:45.000",
    "date_modified": "2021-12-04T02:00:17.000",
    "request_status": "Pending",
    "responsible_agency": "Department of Sanitation",
    "final_address": "2511 Touro St",
    "address_councildis": "D",
    "status": "Assigned to Contractor",
    "contractor": "Metro Disposal",
    "rowid": "845875",
    "final_x": "3683861.03356",
    "final_y": "541514.360652",
    "longitude": "-90.0602644117298",
    "latitude": "29.982904814657683",
    "geocoded_column": {
      "latitude": "29.982904814657683",
      "longitude": "-90.0602644117298"
    }
  },
  {
    "service_request": "2021-845874",
    "request_type": "Traffic Signals/Signs/Striping/Streetlights",
    "request_reason": "Street Light Outage/Malfunction",
    "date_created": "2021-12-04T00:02:10.000",
    "date_modified": "2021-12-04T00:02:10.000",
    "request_status": "Pending",
    "responsible_agency": "Department of Public Works",
    "final_address": "5918 General Haig St",
    "address_councildis": "A",
    "status": "Pending",
    "contractor": "Royal Engineering",
    "rowid": "845874",
    "final_x": "3670422.79316",
    "final_y": "546599.833809",
    "longitude": "-90.10253677086548",
    "latitude": "29.997291806725396",
    "geocoded_column": {
      "latitude": "29.997291806725396",
      "longitude": "-90.10253677086548"
    }
  },
  {
    "service_request": "2021-845873",
    "request_type": "Trash/Recycling",
    "request_reason": "Request a Large Item Pick Up",
    "date_created": "2021-12-03T23:15:58.000",
    "date_modified": "2021-12-03T23:15:59.000",
    "request_status": "Pending",
    "responsible_agency": "Department of Sanitation",
    "final_address": "4739 Laine Ave",
    "address_councildis": "E",
    "status": "Assigned to Contractor",
    "contractor": "Metro Disposal",
    "rowid": "845873",
    "final_x": "3705758.23345",
    "final_y": "555419.798425",
    "longitude": "-89.99058784052347",
    "latitude": "30.020452384460025",
    "geocoded_column": {
      "latitude": "30.020452384460025",
      "longitude": "-89.99058784052347"
    }
  },
  {
    "service_request": "2021-845872",
    "request_type": "Roads/Drainage",
    "request_reason": "Pothole",
    "date_created": "2021-12-03T22:51:10.000",
    "date_modified": "2021-12-03T23:00:13.000",
    "request_status": "Pending",
    "responsible_agency": "Department of Public Works",
    "final_address": "1129 Burgundy St",
    "address_councildis": "C",
    "status": "Pending",
    "rowid": "845872",
    "final_x": "3682698.86965",
    "final_y": "534490.682501",
    "longitude": "-90.06418082868214",
    "latitude": "29.96362758974944",
    "geocoded_column": {
      "latitude": "29.96362758974944",
      "longitude": "-90.06418082868214"
    }
  },
  {
    "service_request": "2021-845871",
    "request_type": "Safety & Permits",
    "request_reason": "Licenses & Permits",
    "date_created": "2021-12-03T20:33:22.000",
    "date_modified": "2021-12-03T20:33:22.000",
    "request_status": "Pending",
    "responsible_agency": "Safety and Permits",
    "status": "Pending",
    "rowid": "845871",
    "longitude": "0.0",
    "latitude": "0.0",
    "geocoded_column": {
      "latitude": "0.0",
      "longitude": "0.0"
    }
  },
  {
    "service_request": "2021-845870",
    "request_type": "Traffic Signals/Signs/Striping/Streetlights",
    "request_reason": "Traffic Signal Malfunctioning/Damaged",
    "date_created": "2021-12-03T20:08:40.000",
    "date_modified": "2021-12-03T21:00:35.000",
    "request_status": "Pending",
    "responsible_agency": "Department of Public Works",
    "final_address": "1900 BLK Newton St",
    "address_councildis": "C",
    "status": "Pending",
    "rowid": "845870",
    "final_x": "3691280.50487",
    "final_y": "527806.176459",
    "longitude": "-90.03731976110699",
    "latitude": "29.944983366912343",
    "geocoded_column": {
      "latitude": "29.944983366912343",
      "longitude": "-90.03731976110699"
    }
  },
  {
    "service_request": "2021-845869",
    "request_type": "Property Maintenance",
    "request_reason": "Property Maintenance",
    "date_created": "2021-12-03T19:35:09.000",
    "date_modified": "2021-12-03T19:35:09.000",
    "request_status": "Pending",
    "responsible_agency": "Department of Code Enforcement",
    "final_address": "3113 N Prieur St",
    "address_councildis": "D",
    "status": "Pending",
    "rowid": "845869",
    "final_x": "3689912.38377",
    "final_y": "539006.64737",
    "longitude": "-90.0412405557756",
    "latitude": "29.975823240830458",
    "geocoded_column": {
      "latitude": "29.975823240830458",
      "longitude": "-90.0412405557756"
    }
  },
  {
    "service_request": "2021-845868",
    "request_type": "Traffic Signals/Signs/Striping/Streetlights",
    "request_reason": "Street Light Outage/Malfunction",
    "date_created": "2021-12-03T19:30:46.000",
    "date_modified": "2021-12-03T19:30:46.000",
    "request_status": "Pending",
    "responsible_agency": "Department of Public Works",
    "final_address": "8220 Panola St",
    "address_councildis": "A",
    "status": "Pending",
    "contractor": "Royal Engineering",
    "rowid": "845868",
    "final_x": "3663688.78663",
    "final_y": "531030.253186",
    "longitude": "-90.12432829773327",
    "latitude": "29.95467781025464",
    "geocoded_column": {
      "latitude": "29.95467781025464",
      "longitude": "-90.12432829773327"
    }
  },
  {
    "service_request": "2021-845867",
    "request_type": "Traffic Signals/Signs/Striping/Streetlights",
    "request_reason": "Street Light Outage/Malfunction",
    "date_created": "2021-12-03T19:28:25.000",
    "date_modified": "2021-12-03T19:28:26.000",
    "request_status": "Pending",
    "responsible_agency": "Department of Public Works",
    "final_address": "1302 N Gayoso St",
    "address_councildis": "A",
    "status": "Pending",
    "contractor": "Royal Engineering",
    "rowid": "845867",
    "final_x": "3676826.99598",
    "final_y": "539729.997066",
    "longitude": "-90.08254300899915",
    "latitude": "29.978211442524255",
    "geocoded_column": {
      "latitude": "29.978211442524255",
      "longitude": "-90.08254300899915"
    }
  },
  {
    "service_request": "2021-845866",
    "request_type": "Traffic Signals/Signs/Striping/Streetlights",
    "request_reason": "Street Light Outage/Malfunction",
    "date_created": "2021-12-03T19:27:35.000",
    "date_modified": "2021-12-03T19:27:36.000",
    "request_status": "Pending",
    "responsible_agency": "Department of Public Works",
    "final_address": "8225 Panola St",
    "address_councildis": "A",
    "status": "Pending",
    "contractor": "Royal Engineering",
    "rowid": "845866",
    "final_x": "3663683.48231",
    "final_y": "531138.777794",
    "longitude": "-90.12434143114906",
    "latitude": "29.954976371627843",
    "geocoded_column": {
      "latitude": "29.954976371627843",
      "longitude": "-90.12434143114906"
    }
  },
  {
    "service_request": "2021-845865",
    "request_type": "Traffic Signals/Signs/Striping/Streetlights",
    "request_reason": "Street Light Outage/Malfunction",
    "date_created": "2021-12-03T19:19:11.000",
    "date_modified": "2021-12-03T19:19:12.000",
    "request_status": "Pending",
    "responsible_agency": "Department of Public Works",
    "final_address": "4619 Bundy Rd",
    "address_councildis": "E",
    "status": "Pending",
    "contractor": "Royal Engineering",
    "rowid": "845865",
    "final_x": "3709546.0764",
    "final_y": "554984.166872",
    "longitude": "-89.97863579390041",
    "latitude": "30.01913197419529",
    "geocoded_column": {
      "latitude": "30.01913197419529",
      "longitude": "-89.97863579390041"
    }
  },
  {
    "service_request": "2021-845864",
    "request_type": "Health Related Questions",
    "request_reason": "Noise Ordinance Complaint",
    "date_created": "2021-12-03T19:13:28.000",
    "date_modified": "2021-12-03T20:00:41.000",
    "request_status": "Pending",
    "responsible_agency": "Health Department",
    "final_address": "711 Bourbon St, New Orleans, Louisiana, 70116",
    "address_councildis": "C",
    "status": "Pending",
    "rowid": "845864",
    "final_x": "3682299.38447",
    "final_y": "532765.705988",
    "longitude": "-90.06550263299877",
    "latitude": "29.95889665479323",
    "geocoded_column": {
      "latitude": "29.95889665479323",
      "longitude": "-90.06550263299877"
    }
  },
  {
    "service_request": "2021-845863",
    "request_type": "Trash/Recycling",
    "request_reason": "Return Trash Cart",
    "date_created": "2021-12-03T19:08:13.000",
    "date_modified": "2021-12-03T20:00:42.000",
    "request_status": "Pending",
    "responsible_agency": "Department of Sanitation",
    "final_address": "815 N Salcedo St",
    "address_councildis": "A",
    "status": "Assigned to Contractor",
    "contractor": "Richards Disposal",
    "rowid": "845863",
    "final_x": "3675729.68942",
    "final_y": "538300.804169",
    "longitude": "-90.08605783546777",
    "latitude": "29.97431454150123",
    "geocoded_column": {
      "latitude": "29.97431454150123",
      "longitude": "-90.08605783546777"
    }
  },