[
  {
    "service_request": "2023-1006477",
    "request_type": "Trash/Recycling",
    "request_reason": "MIssed Recycling Pick-Up",
    "date_created": "2023-06-06T23:55:46.000",
    "date_modified": "2023-06-06T23:55:47.000",
    "request_status": "Pending",
    "responsible_agency": "Department of Sanitation",
    "final_address": "4145 DHemecourt St",
    "address_councildis": "A",
    "status": "Assigned to Contractor",
    "contractor": "Richards Disposal",
    "rowid": "1006477",
    "final_x": "3669467.12743",
    "final_y": "537135.80468",
    "longitude": "-90.10587595281531",
    "latitude": "29.971297140941136",
    "geocoded_column": {
      "latitude": "29.971297140941136",
      "longitude": "-90.10587595281531"
    }
  },
  {
    "service_request": "2023-1006476",
    "request_type": "Abandoned Vehicles",
    "request_reason": "Abandoned/Junk Vehicles",
    "date_created": "2023-06-06T23:51:24.000",
    "date_modified": "2023-06-06T23:51:24.000",
    "request_status": "Pending",
    "responsible_agency": "Department of Public Works",
    "final_address": "3720 Banks St",
    "address_councildis": "B",
    "status": "Pending",
    "rowid": "1006476",
    "final_x": "3671416.85326",
    "final_y": "536493.658055",
    "longitude": "-90.099740264391",
    "latitude": "29.96947388032957",
    "geocoded_column": {
      "latitude": "29.96947388032957",
      "longitude": "-90.099740264391"
    }
  },
  {
    "service_request": "2023-1006475",
    "request_type": "Property Maintenance",
    "request_reason": "Property Maintenance",
    "date_created": "2023-06-06T22:55:01.000",
    "date_modified": "2023-06-06T22:55:01.000",
    "request_status": "Pending",
    "responsible_agency": "Department of Code Enforcement",
    "final_address": "2401 Rex Pl",
    "address_councildis": "B",
    "status": "Pending",
    "rowid": "1006475",
    "final_x": "3673836.95899",
    "final_y": "527869.527487",
    "longitude": "-90.09239232083152",
    "latitude": "29.945688534912943",
    "geocoded_column": {
      "latitude": "29.945688534912943",
      "longitude": "-90.09239232083152"
    }
  },
  {
    "service_request": "2023-1006474",
    "request_type": "Traffic Signals/Signs/Striping/Streetlights",
    "request_reason": "Street Light Outage/Malfunction",
    "date_created": "2023-06-06T22:49:05.000",
    "date_modified": "2023-06-06T22:49:05.000",
    "request_status": "Pending",
    "responsible_agency": "Department of Public Works",
    "final_address": "1614 General Collins Ave",
    "address_councildis": "C",
    "status": "Assigned to Contractor",
    "contractor": "Legacy Professional Services",
    "rowid": "1006474",
    "final_x": "3698682.6376",
    "final_y": "525230.603517",
    "longitude": "-90.01404272206177",
    "latitude": "29.937669154297183",
    "geocoded_column": {
      "latitude": "29.937669154297183",
      "longitude": "-90.01404272206177"
    }
  },
  {
    "service_request": "2023-1006473",
    "request_type": "Traffic Signals/Signs/Striping/Streetlights",
    "request_reason": "Street Light Outage/Malfunction",
    "date_created": "2023-06-06T22:33:44.000",
    "date_modified": "2023-06-06T22:33:45.000",
    "request_status": "Pending",
    "responsible_agency": "Department of Public Works",
    "final_address": "1ST ST & LOYOLA AVE",
    "address_councildis": "B",
    "status": "Assigned to Contractor",
    "contractor": "Legacy Professional Services",
    "rowid": "1006473",
    "final_x": "3675772.7",
    "final_y": "524998.28",
    "longitude": "-90.08637919654684",
    "latitude": "29.93773576329232",
    "geocoded_column": {
      "latitude": "29.93773576329232",
      "longitude": "-90.08637919654684"
    }
  },
  {
    "service_request": "2023-1006472",
    "request_type": "Traffic Signals/Signs/Striping/Streetlights",
    "request_reason": "Street Light Outage/Malfunction",
    "date_created": "2023-06-06T22:29:50.000",
    "date_modified": "2023-06-06T22:29:51.000",
    "request_status": "Pending",
    "responsible_agency": "Department of Public Works",
    "final_address": "1ST ST & LOYOLA AVE",
    "address_councildis": "B",
    "status": "Assigned to Contractor",
    "contractor": "Legacy Professional Services",
    "rowid": "1006472",
    "final_x": "3675772.7",
    "final_y": "524998.28",
    "longitude": "-90.08637919654684",
    "latitude": "29.93773576329232",
    "geocoded_column": {
      "latitude": "29.93773576329232",
      "longitude": "-90.08637919654684"
    }
  },
  {
    "service_request": "2023-1006471",
    "request_type": "Trash/Recycling",
    "request_reason": "Change Size of Trash Cart",
    "date_created": "2023-06-06T22:11:08.000",
    "date_modified": "2023-06-06T22:11:09.000",
    "request_status": "Pending",
    "responsible_agency": "Department of Sanitation",
    "final_address": "6 Grand Teton Ct",
    "address_councildis": "C",
    "status": "Assigned to Contractor",
    "contractor": "Richards Disposal",
    "rowid": "1006471",
    "final_x": "3699160.89373",
    "final_y": "516518.533493",
    "longitude": "-90.01284980762651",
    "latitude": "29.913698801482454",
    "geocoded_column": {
      "latitude": "29.913698801482454",
      "longitude": "-90.01284980762651"
    }
  },
  {
    "service_request": "2023-1006470",
    "request_type": "Trash/Recycling",
    "request_reason": "Change Size of Trash Cart",
    "date_created": "2023-06-06T22:01:49.000",
    "date_modified": "2023-06-06T22:01:50.000",
    "request_status": "Pending",
    "responsible_agency": "Department of Sanitation",
    "final_address": "6 Grand Teton Ct",
    "address_councildis": "C",
    "status": "Assigned to Contractor",
    "contractor": "Richards Disposal",
    "rowid": "1006470",
    "final_x": "3699160.89373",
    "final_y": "516518.533493",
    "longitude": "-90.01284980762651",
    "latitude": "29.913698801482454",
    "geocoded_column": {
      "latitude": "29.913698801482454",
      "longitude": "-90.01284980762651"
    }
  },
  {
    "service_request": "2023-1006469",
    "request_type": "Traffic Signals/Signs/Striping/Streetlights",
    "request_reason": "Street Light Outage/Malfunction",
    "date_created": "2023-06-06T21:47:57.000",
    "date_modified": "2023-06-06T21:47:57.000",
    "request_status": "Pending",
    "responsible_agency": "Department of Public Works",
    "final_address": "434 S Clark St",
    "address_councildis": "B",
    "status": "Assigned to Contractor",
    "contractor": "Legacy Professional Services",
    "rowid": "1006469",
    "final_x": "3671967.28955",
    "final_y": "535763.739847",
    "longitude": "-90.09802678880364",
    "latitude": "29.967450544974547",
    "geocoded_column": {
      "latitude": "29.967450544974547",
      "longitude": "-90.09802678880364"
    }
  },
  {
    "service_request": "2023-1006468",
    "request_type": "Abandoned Vehicles",
    "request_reason": "Abandoned/Junk Vehicles",
    "date_created": "2023-06-06T21:14:03.000",
    "date_modified": "2023-06-06T21:14:03.000",
    "request_status": "Pending",
    "responsible_agency": "Department of Public Works",
    "final_address": "223 N Johnson St",
    "address_councildis": "B",
    "status": "Pending",
    "rowid": "1006468",
    "final_x": "3677610.03522",
    "final_y": "534179.542725",
    "longitude": "-90.08026159758988",
    "latitude": "29.962926063604463",
    "geocoded_column": {
      "latitude": "29.962926063604463",
      "longitude": "-90.08026159758988"
    }
  },
  {
    "service_request": "2023-1006467",
    "request_type": "Abandoned Vehicles",
    "request_reason": "Abandoned/Junk Vehicles",
    "date_created": "2023-06-06T21:00:56.000",
    "date_modified": "2023-06-06T21:00:56.000",
    "request_status": "Pending",
    "responsible_agency": "Department of Public Works",
    "final_address": "STORY ST & SONIAT ST",
    "address_councildis": "B",
    "status": "Pending",
    "rowid": "1006467",
    "final_x": "3668576.7",
    "final_y": "525914.78",
    "longitude": "-90.10906668733122",
    "latitude": "29.940469208248096",
    "geocoded_column": {
      "latitude": "29.940469208248096",
      "longitude": "-90.10906668733122"
    }
  },
  {
    "service_request": "2023-1006466",
    "request_type": "Trash/Recycling",
    "request_reason": "Request a Large Item Pick Up",
    "date_created": "2023-06-06T19:36:44.000",
    "date_modified": "2023-06-06T19:36:44.000",
    "request_status": "Pending",
    "responsible_agency": "Department of Sanitation",
    "final_address": "4974 Sandalwood St",
    "address_councildis": "E",
    "status": "Assigned to Contractor",
    "contractor": "Waste Pro",
    "rowid": "1006466",
    "final_x": "3712011.36018",
    "final_y": "557577.020955",
    "longitude": "-89.97074900740701",
    "latitude": "30.026180931117764",
    "geocoded_column": {
      "latitude": "30.026180931117764",
      "longitude": "-89.97074900740701"
    }
  },
  {
    "service_request": "2023-1006465",
    "request_type": "Trash/Recycling",
    "request_reason": "Missed Trash Pick-Up",
    "date_created": "2023-06-06T19:31:05.000",
    "date_modified": "2023-06-06T19:32:04.000",
    "request_status": "Pending",
    "responsible_agency": "Department of Sanitation",
    "final_address": "6502 Avenue A",
    "address_councildis": "A",
    "status": "Assigned to Contractor",
    "contractor": "IV Waste",
    "rowid": "1006465",
    "final_x": "3665949.02112",
    "final_y": "551393.275605",
    "longitude": "-90.11650850266868",
    "latitude": "30.01060348860346",
    "geocoded_column": {
      "latitude": "30.01060348860346",
      "longitude": "-90.11650850266868"
    }
  },
  {
    "service_request": "2023-1006464",
    "request_type": "Trash/Recycling",
    "request_reason": "Request a Large Item Pick Up",
    "date_created": "2023-06-06T19:23:04.000",
    "date_modified": "2023-06-06T19:23:05.000",
    "request_status": "Pending",
    "responsible_agency": "Department of Sanitation",
    "final_address": "4743 Charlmark Dr",
    "address_councildis": "E",
    "status": "Assigned to Contractor",
    "contractor": "Waste Pro",
    "rowid": "1006464",
    "final_x": "3711512.81662",
    "final_y": "556041.107417",
    "longitude": "-89.97238197222306",
    "latitude": "30.021974064808084",
    "geocoded_column": {
      "latitude": "30.021974064808084",
      "longitude": "-89.97238197222306"
    }
  },
  {
    "service_request": "2023-1006462",
    "request_type": "Trash/Recycling",
    "request_reason": "Order Trash Cart",
    "date_created": "2023-06-06T19:05:27.000",
    "date_modified": "2023-06-06T19:05:27.000",
    "request_status": "Pending",
    "responsible_agency": "Department of Sanitation",
    "final_address": "124 Wilshire Pl",
    "address_councildis": "D",
    "status": "Assigned to Contractor",
    "contractor": "IV Waste",
    "rowid": "1006462",
    "final_x": "3677428.13045",
    "final_y": "544595.722255",
    "longitude": "-90.08047637979884",
    "latitude": "29.991572440072154",
    "geocoded_column": {
      "latitude": "29.991572440072154",
      "longitude": "-90.08047637979884"
    }
  },
  {
    "service_request": "2023-1006461",
    "request_type": "Trash/Recycling",
    "request_reason": "Return Recycling Cart",
    "date_created": "2023-06-06T18:53:21.000",
    "date_modified": "2023-06-06T18:53:21.000",
    "request_status": "Pending",
    "responsible_agency": "Department of Sanitation",
    "final_address": "100 BLK Saint John Ct",
    "address_councildis": "A",
    "status": "Pending",
    "rowid": "1006461",
    "final_x": "3674824.90261",
    "final_y": "540119.371649",
    "longitude": "-90.08885299006738",
    "latitude": "29.979342030148644",
    "geocoded_column": {
      "latitude": "29.979342030148644",
      "longitude": "-90.08885299006738"
    }
  },
  {
    "service_request": "2023-1006460",
    "request_type": "Roads/Drainage",
    "request_reason": "Pothole",
    "date_created": "2023-06-06T18:44:18.000",
    "date_modified": "2023-06-06T18:44:18.000",
    "request_status": "Pending",
    "responsible_agency": "Department of Public Works",
    "final_address": "3800 Eagle St",
    "address_councildis": "A",
    "status": "Pending",
    "rowid": "1006460",
    "final_x": "3666338.49671",
    "final_y": "536997.738376",
    "longitude": "-90.11576127767253",
    "latitude": "29.971009287923287",
    "geocoded_column": {
      "latitude": "29.971009287923287",
      "longitude": "-90.11576127767253"
    }
  },
  {
    "service_request": "2023-1006459",
    "request_type": "Trash/Recycling",
    "request_reason": "Missed Trash Pick-Up",
    "date_created": "2023-06-06T18:43:34.000",
    "date_modified": "2023-06-06T18:43:35.000",
    "request_status": "Pending",
    "responsible_agency": "Department of Sanitation",
    "final_address": "1716 Peniston St",
    "address_councildis": "B",
    "status": "Assigned to Contractor",
    "contractor": "Richards Disposal",
    "rowid": "1006459",
    "final_x": "3672703.25512",
    "final_y": "521676.042169",
    "longitude": "-90.09618293650352",
    "latitude": "29.928692174491566",
    "geocoded_column": {
      "latitude": "29.928692174491566",
      "longitude": "-90.09618293650352"
    }
  },
  {
    "service_request": "2023-1006458",
    "request_type": "Trash/Recycling",
    "request_reason": "Request a Large Item Pick Up",
    "date_created": "2023-06-06T18:41:59.000",
    "date_modified": "2023-06-06T18:42:00.000",
    "request_status": "Pending",
    "responsible_agency": "Department of Sanitation",
    "final_address": "1709 Third St",
    "address_councildis": "B",
    "status": "Assigned to Contractor",
    "contractor": "Richards Disposal",
    "rowid": "1006458",
    "final_x": "3676203.73614",
    "final_y": "523292.844091",
    "longitude": "-90.08507703494969",
    "latitude": "29.9330334674755",
    "geocoded_column": {
      "latitude": "29.9330334674755",
      "longitude": "-90.08507703494969"
    }
  },
  {
    "service_request": "2023-1006457",
    "request_type": "Trash/Recycling",
    "request_reason": "Missed Trash Pick-Up",
    "date_created": "2023-06-06T18:32:45.000",
    "date_modified": "2023-06-06T18:32:45.000",
    "request_status": "Pending",
    "responsible_agency": "Department of Sanitation",
    "final_address": "10920 Guildford Rd",
    "address_councildis": "E",
    "status": "Assigned to Contractor",
    "contractor": "Waste Pro",
    "rowid": "1006457",
    "final_x": "3711517.40606",
    "final_y": "563941.332385",
    "longitude": "-89.97207091423772",
    "latitude": "30.043696394401042",
    "geocoded_column": {
      "latitude": "30.043696394401042",
      "longitude": "-89.97207091423772"
    }
  },
  {
    "service_request": "2023-1006456",
    "request_type": "Trash/Recycling",
    "request_reason": "Request a Large Item Pick Up",
    "date_created": "2023-06-06T18:30:10.000",
    "date_modified": "2023-06-06T18:30:11.000",
    "request_status": "Pending",
    "responsible_agency": "Department of Sanitation",
    "final_address": "728 Ursulines Ave",
    "address_councildis": "C",
    "status": "Assigned to Contractor",
    "contractor": "Empire Services",
    "rowid": "1006456",
    "final_x": "3683229.00712",
    "final_y": "533751.708933",
    "longitude": "-90.06253259202006",
    "latitude": "29.96157950975661",
    "geocoded_column": {
      "latitude": "29.96157950975661",
      "longitude": "-90.06253259202006"
    }
  },
  {
    "service_request": "2023-1006455",
    "request_type": "Property Maintenance",
    "request_reason": "Property Maintenance",
    "date_created": "2023-06-06T18:14:10.000",
    "date_modified": "2023-06-06T18:14:10.000",
    "request_status": "Pending",
    "responsible_agency": "Department of Code Enforcement",
    "final_address": "2512 Broadway St",
    "address_councildis": "A",
    "status": "Pending",
    "rowid": "1006455",
    "final_x": "3666812.69895",
    "final_y": "530549.710338",
    "longitude": "-90.11448029251594",
    "latitude": "29.953265472274552",
    "geocoded_column": {
      "latitude": "29.953265472274552",
      "longitude": "-90.11448029251594"
    }
  },
  {
    "service_request": "2023-1006454",
    "request_type": "Trash/Recycling",
    "request_reason": "Order Trash Cart",
    "date_created": "2023-06-06T18:06:20.000",
    "date_modified": "2023-06-06T18:06:21.000",
    "request_status": "Pending",
    "responsible_agency": "Department of Sanitation",
    "final_address": "2723 Higgins Blvd",
    "address_councildis": "D",
    "status": "Assigned to Contractor",
    "contractor": "IV Waste",
    "rowid": "1006454",
    "final_x": "3689590.42774",
    "final_y": "545152.309519",
    "longitude": "-90.0420386447223",
    "latitude": "29.992731594482006",
    "geocoded_column": {
      "latitude": "29.992731594482006",
      "longitude": "-90.0420386447223"
    }
  },
  {
    "service_request": "2023-1006453",
    "request_type": "Abandoned Vehicles",
    "request_reason": "Abandoned/Junk Vehicles",
    "date_created": "2023-06-06T18:05:56.000",
    "date_modified": "2023-06-06T18:05:57.000",
    "request_status": "Pending",
    "responsible_agency": "Department of Public Works",
    "final_address": "5113 Wentworth Dr",
    "address_councildis": "E",
    "status": "Pending",
    "rowid": "1006453",
    "final_x": "3704948.99934",
    "final_y": "556750.169754",
    "longitude": "-89.9930955870273",
    "latitude": "30.02413644082523",
    "geocoded_column": {
      "latitude": "30.02413644082523",
      "longitude": "-89.9930955870273"
    }
  },
  {
    "service_request": "2023-1006452",
    "request_type": "Mosquito, Termite & Rodent Control",
    "request_reason": "Mosquito Complaint",
    "date_created": "2023-06-06T18:04:06.000",
    "date_modified": "2023-06-06T18:04:06.000",
    "request_status": "Pending",
    "responsible_agency": "Mosquito, Termite & Rodent Control Board",
    "final_address": "4934 Sandalwood St",
    "address_councildis": "E",
    "status": "Pending",
    "rowid": "1006452",
    "final_x": "3712035.66539",
    "final_y": "557324.259419",
    "longitude": "-89.9706817048853",
    "latitude": "30.025485141915752",
    "geocoded_column": {
      "latitude": "30.025485141915752",
      "longitude": "-89.9706817048853"
    }
  },
  {
    "service_request": "2023-1006451",
    "request_type": "Trash/Recycling",
    "request_reason": "MIssed Recycling Pick-Up",
    "date_created": "2023-06-06T18:02:33.000",
    "date_modified": "2023-06-06T18:02:34.000",
    "request_status": "Pending",
    "responsible_agency": "Department of Sanitation",
    "final_address": "405 Pelican Ave",
    "address_councildis": "C",
    "status": "Assigned to Contractor",
    "contractor": "Richards Disposal",
    "rowid": "1006451",
    "final_x": "3686577.16066",
    "final_y": "530487.74029",
    "longitude": "-90.05207495960802",
    "latitude": "29.952502191071826",
    "geocoded_column": {
      "latitude": "29.952502191071826",
      "longitude": "-90.05207495960802"
    }
  },
  {
    "service_request": "2023-1006450",
    "request_type": "Trash/Recycling",
    "request_reason": "Order Trash Cart",
    "date_created": "2023-06-06T18:02:09.000",
    "date_modified": "2023-06-06T18:02:09.000",
    "request_status": "Pending",
    "responsible_agency": "Department of Sanitation",
    "final_address": "6930 Martin Dr Ste A",
    "address_councildis": "E",
    "status": "Assigned to Contractor",
    "contractor": "Waste Pro",
    "rowid": "1006450",
    "final_x": "3699054.20093",
    "final_y": "557762.326747",
    "longitude": "-90.01168504522492",
    "latitude": "30.027107750935016",
    "geocoded_column": {
      "latitude": "30.027107750935016",
      "longitude": "-90.01168504522492"
    }
  },
  {
    "service_request": "2023-1006449",
    "request_type": "Trash/Recycling",
    "request_reason": "Missed Trash Pick-Up",
    "date_created": "2023-06-06T18:00:41.000",
    "date_modified": "2023-06-06T18:00:41.000",
    "request_status": "Pending",
    "responsible_agency": "Department of Sanitation",
    "final_address": "200 34Th St",
    "address_councildis": "A",
    "status": "Assigned to Contractor",
    "contractor": "IV Waste",
    "rowid": "1006449",
    "final_x": "3665808.82253",
    "final_y": "551271.639445",
    "longitude": "-90.11695552522426",
    "latitude": "30.01027312458701",
    "geocoded_column": {
      "latitude": "30.01027312458701",
      "longitude": "-90.11695552522426"
    }
  },
  {
    "service_request": "2023-1006448",
    "request_type": "Property Maintenance",
    "request_reason": "Property Maintenance",
    "date_created": "2023-06-06T17:55:29.000",
    "date_modified": "2023-06-06T17:55:29.000",
    "request_status": "Pending",
    "responsible_agency": "Department of Code Enforcement",
    "final_address": "4935 Lurline St",
    "address_councildis": "E",
    "status": "Pending",
    "rowid": "1006448",
    "final_x": "3711913.41541",
    "final_y": "557303.292827",
    "longitude": "-89.97106878087973",
    "latitude": "30.025431488939116",
    "geocoded_column": {
      "latitude": "30.025431488939116",
      "longitude": "-89.97106878087973"
    }
  },
  {
    "service_request": "2023-1006447",
    "request_type": "Trash/Recycling",
    "request_reason": "Repair Trash Cart",
    "date_created": "2023-06-06T17:50:07.000",
    "date_modified": "2023-06-06T17:50:08.000",
    "request_status": "Pending",
    "responsible_agency": "Department of Sanitation",
    "final_address": "3223 Upperline St",
    "address_councildis": "B",
    "status": "Assigned to Contractor",
    "contractor": "Richards Disposal",
    "rowid": "1006447",
    "final_x": "3669299.11034",
    "final_y": "526687.771326",
    "longitude": "-90.10675978817241",
    "latitude": "29.94257344088726",
    "geocoded_column": {
      "latitude": "29.94257344088726",
      "longitude": "-90.10675978817241"
    }
  },
  {
    "service_request": "2023-1006446",
    "request_type": "Roads/Drainage",
    "request_reason": "Debris in Roadway",
    "date_created": "2023-06-06T17:49:57.000",
    "date_modified": "2023-06-06T17:49:57.000",
    "request_status": "Pending",
    "responsible_agency": "Department of Public Works",
    "final_address": "3305 Touro St",
    "address_councildis": "D",
    "status": "Pending",
    "rowid": "1006446",
    "final_x": "3683587.85813",
    "final_y": "544785.842447",
    "longitude": "-90.06101250145049",
    "latitude": "29.99190857570357",
    "geocoded_column": {
      "latitude": "29.99190857570357",
      "longitude": "-90.06101250145049"
    }
  },
  {
    "service_request": "2023-1006445",
    "request_type": "Trash/Recycling",
    "request_reason": "Replace Trash Cart",
    "date_created": "2023-06-06T17:47:23.000",
    "date_modified": "2023-06-06T17:47:24.000",
    "request_status": "Pending",
    "responsible_agency": "Department of Sanitation",
    "final_address": "4322 S Dorgenois St",
    "address_councildis": "B",
    "status": "Assigned to Contractor",
    "contractor": "Richards Disposal",
    "rowid": "1006445",
    "final_x": "3670281.7113",
    "final_y": "528788.194112",
    "longitude": "-90.10358631028963",
    "latitude": "29.948319960277395",
    "geocoded_column": {
      "latitude": "29.948319960277395",
      "longitude": "-90.10358631028963"
    }
  },
  {
    "service_request": "2023-1006444",
    "request_type": "Trash/Recycling",
    "request_reason": "Replace Trash Cart",
    "date_created": "2023-06-06T17:45:52.000",
    "date_modified": "2023-06-06T17:45:53.000",
    "request_status": "Pending",
    "responsible_agency": "Department of Sanitation",
    "final_address": "4322 S Dorgenois St",
    "address_councildis": "B",
    "status": "Assigned to Contractor",
    "contractor": "Richards Disposal",
    "rowid": "1006444",
    "final_x": "3670281.7113",
    "final_y": "528788.194112",
    "longitude": "-90.10358631028963",
    "latitude": "29.948319960277395",
    "geocoded_column": {
      "latitude": "29.948319960277395",
      "longitude": "-90.10358631028963"
    }
  },
  {
    "service_request": "2023-1006443",
    "request_type": "Trash/Recycling",
    "request_reason": "Replace Recycling Cart",
    "date_created": "2023-06-06T17:41:09.000",
    "date_modified": "2023-06-06T17:41:09.000",
    "request_status": "Pending",
    "responsible_agency": "Department of Sanitation",
    "final_address": "3313 Camp St",
    "address_councildis": "B",
    "status": "Pending",
    "rowid": "1006443",
    "final_x": "3675111.24366",
    "final_y": "520117.95052",
    "longitude": "-90.08863483730508",
    "latitude": "29.924336217978798",
    "geocoded_column": {
      "latitude": "29.924336217978798",
      "longitude": "-90.08863483730508"
    }
  },
  {
    "service_request": "2023-1006442",
    "request_type": "Trash/Recycling",
    "request_reason": "Request a Large Item Pick Up",
    "date_created": "2023-06-06T17:38:09.000",
    "date_modified": "2023-06-06T17:38:10.000",
    "request_status": "Pending",
    "responsible_agency": "Department of Sanitation",
    "final_address": "4754 Dodt Ave",
    "address_councildis": "E",
    "status": "Assigned to Contractor",
    "contractor": "Waste Pro",
    "rowid": "1006442",
    "final_x": "3705375.98443",
    "final_y": "555463.432921",
    "longitude": "-89.99179400735721",
    "latitude": "30.02058467350095",
    "geocoded_column": {
      "latitude": "30.02058467350095",
      "longitude": "-89.99179400735721"
    }
  },
  {
    "service_request": "2023-1006441",
    "request_type": "Trash/Recycling",
    "request_reason": "Request a Large Item Pick Up",
    "date_created": "2023-06-06T17:29:25.000",
    "date_modified": "2023-06-06T17:29:26.000",
    "request_status": "Pending",
    "responsible_agency": "Department of Sanitation",
    "final_address": "4373 Genoa St",
    "address_councildis": "E",
    "status": "Assigned to Contractor",
    "contractor": "Waste Pro",
    "rowid": "1006441",
    "final_x": "3760965.93993",
    "final_y": "574035.86865",
    "longitude": "-89.81537372240726",
    "latitude": "30.069743799576845",
    "geocoded_column": {
      "latitude": "30.069743799576845",
      "longitude": "-89.81537372240726"
    }
  },
  {
    "service_request": "2023-1006440",
    "request_type": "Roads/Drainage",
    "request_reason": "Pothole",
    "date_created": "2023-06-06T17:28:57.000",
    "date_modified": "2023-06-06T17:28:57.000",
    "request_status": "Pending",
    "responsible_agency": "Department of Public Works",
    "final_address": "2323 Adams St",
    "address_councildis": "A",
    "status": "Pending",
    "rowid": "1006440",
    "final_x": "3665862.80128",
    "final_y": "530391.29613",
    "longitude": "-90.11748497983578",
    "latitude": "29.952857633874135",
    "geocoded_column": {
      "latitude": "29.952857633874135",
      "longitude": "-90.11748497983578"
    }
  },
  {
    "service_request": "2023-1006438",
    "request_type": "Abandoned Vehicles",
    "request_reason": "Abandoned/Junk Vehicles",
    "date_created": "2023-06-06T17:24:46.000",
    "date_modified": "2023-06-06T17:24:46.000",
    "request_status": "Pending",
    "responsible_agency": "Department of Public Works",
    "final_address": "3720 Banks St",
    "address_councildis": "B",
    "status": "Pending",
    "rowid": "1006438",
    "final_x": "3671416.85326",
    "final_y": "536493.658055",
    "longitude": "-90.099740264391",
    "latitude": "29.96947388032957",
    "geocoded_column": {
      "latitude": "29.96947388032957",
      "longitude": "-90.099740264391"
    }
  },
  {
    "service_request": "2023-1006439",
    "request_type": "Traffic Signals/Signs/Striping/Streetlights",
    "request_reason": "Traffic Signal Malfunctioning/Damaged",
    "date_created": "2023-06-06T17:24:46.000",
    "date_modified": "2023-06-06T17:24:47.000",
    "request_status": "Pending",
    "responsible_agency": "Department of Public Works",
    "final_address": "GENERAL MEYER AVE & SHIRLEY DR",
    "address_councildis": "C",
    "status": "Pending",
    "rowid": "1006439",
    "final_x": "3693172.5",
    "final_y": "527521.78",
    "longitude": "-90.03135637952057",
    "latitude": "29.944142397456922",
    "geocoded_column": {
      "latitude": "29.944142397456922",
      "longitude": "-90.03135637952057"
    }
  },
  {
    "service_request": "2023-1006437",
    "request_type": "Trash/Recycling",
    "request_reason": "Request a Large Item Pick Up",
    "date_created": "2023-06-06T17:24:04.000",
    "date_modified": "2023-06-06T17:24:04.000",
    "request_status": "Pending",
    "responsible_agency": "Department of Sanitation",
    "final_address": "4837 Nottingham Dr",
    "address_councildis": "E",
    "status": "Assigned to Contractor",
    "contractor": "Waste Pro",
    "rowid": "1006437",
    "final_x": "3716424.3324",
    "final_y": "557384.970011",
    "longitude": "-89.95681200815142",
    "latitude": "30.025507836780207",
    "geocoded_column": {
      "latitude": "30.025507836780207",
      "longitude": "-89.95681200815142"
    }
  },
  {
    "service_request": "2023-1006436",
    "request_type": "Roads/Drainage",
    "request_reason": "Pothole",
    "date_created": "2023-06-06T17:20:14.000",
    "date_modified": "2023-06-06T17:20:14.000",
    "request_status": "Pending",
    "responsible_agency": "Department of Public Works",
    "final_address": "2317 Adams St",
    "address_councildis": "A",
    "status": "Pending",
    "rowid": "1006436",
    "final_x": "3665800.67501",
    "final_y": "530330.53389",
    "longitude": "-90.11768318331596",
    "latitude": "29.95269236996201",
    "geocoded_column": {
      "latitude": "29.95269236996201",
      "longitude": "-90.11768318331596"
    }
  },
  {
    "service_request": "2023-1006435",
    "request_type": "Trash/Recycling",
    "request_reason": "Missed Trash Pick-Up",
    "date_created": "2023-06-06T17:18:54.000",
    "date_modified": "2023-06-06T17:18:55.000",
    "request_status": "Pending",
    "responsible_agency": "Department of Sanitation",
    "final_address": "7928 Berg Rd",
    "address_councildis": "E",
    "status": "Assigned to Contractor",
    "contractor": "Waste Pro",
    "rowid": "1006435",
    "final_x": "3711268.54462",
    "final_y": "567677.127908",
    "longitude": "-89.97271721889696",
    "latitude": "30.053976448144912",
    "geocoded_column": {
      "latitude": "30.053976448144912",
      "longitude": "-89.97271721889696"
    }
  },
  {
    "service_request": "2023-1006434",
    "request_type": "Property Maintenance",
    "request_reason": "Property Maintenance",
    "date_created": "2023-06-06T17:18:32.000",
    "date_modified": "2023-06-06T17:18:33.000",
    "request_status": "Pending",
    "responsible_agency": "Department of Code Enforcement",
    "final_address": "2240 St Claude Ave",
    "address_councildis": "C",
    "status": "Pending",
    "rowid": "1006434",
    "final_x": "3685380.17858",
    "final_y": "536300.819271",
    "longitude": "-90.0556498072011",
    "latitude": "29.96852290527007",
    "geocoded_column": {
      "latitude": "29.96852290527007",
      "longitude": "-90.0556498072011"
    }
  },
  {
    "service_request": "2023-1006433",
    "request_type": "Trash/Recycling",
    "request_reason": "Request a Large Item Pick Up",
    "date_created": "2023-06-06T17:17:34.000",
    "date_modified": "2023-06-06T17:17:35.000",
    "request_status": "Pending",
    "responsible_agency": "Department of Sanitation",
    "final_address": "1934 Sixth St",
    "address_councildis": "B",
    "status": "Assigned to Contractor",
    "contractor": "Richards Disposal",
    "rowid": "1006433",
    "final_x": "3674716.63649",
    "final_y": "523380.590395",
    "longitude": "-90.08976870345252",
    "latitude": "29.933319202684846",
    "geocoded_column": {
      "latitude": "29.933319202684846",
      "longitude": "-90.08976870345252"
    }
  },
  {
    "service_request": "2023-1006432",
    "request_type": "Trash/Recycling",
    "request_reason": "Repair Trash Cart",
    "date_created": "2023-06-06T17:07:09.000",
    "date_modified": "2023-06-06T17:07:10.000",
    "request_status": "Pending",
    "responsible_agency": "Department of Sanitation",
    "final_address": "6734 Memphis St",
    "address_councildis": "A",
    "status": "Assigned to Contractor",
    "contractor": "IV Waste",
    "rowid": "1006432",
    "final_x": "3669591.509",
    "final_y": "552297.690902",
    "longitude": "-90.10496981778806",
    "latitude": "30.012983449213557",
    "geocoded_column": {
      "latitude": "30.012983449213557",
      "longitude": "-90.10496981778806"
    }
  },
  {
    "service_request": "2023-1006431",
    "request_type": "Parks & Parkways",
    "request_reason": "Request Tree Service (Right of Way/Public Property)",
    "date_created": "2023-06-06T17:04:57.000",
    "date_modified": "2023-06-06T17:04:57.000",
    "request_status": "Pending",
    "responsible_agency": "Department of Parks & Parkway",
    "final_address": "1034 Montegut St",
    "address_councildis": "C",
    "status": "Pending",
    "rowid": "1006431",
    "final_x": "3688365.85443",
    "final_y": "535999.242951",
    "longitude": "-90.04623161163617",
    "latitude": "29.9676017961502",
    "geocoded_column": {
      "latitude": "29.9676017961502",
      "longitude": "-90.04623161163617"
    }
  },
  {
    "service_request": "2023-1006430",
    "request_type": "Parks & Parkways",
    "request_reason": "Request Tree Service (Right of Way/Public Property)",
    "date_created": "2023-06-06T17:01:52.000",
    "date_modified": "2023-06-06T17:01:52.000",
    "request_status": "Pending",
    "responsible_agency": "Department of Parks & Parkway",
    "final_address": "4810 Knight Dr",
    "address_councildis": "E",
    "status": "Pending",
    "rowid": "1006430",
    "final_x": "3708005.233",
    "final_y": "556099.530074",
    "longitude": "-89.98346276630433",
    "latitude": "30.022248789291282",
    "geocoded_column": {
      "latitude": "30.022248789291282",
      "longitude": "-89.98346276630433"
    }
  },
  {
    "service_request": "2023-1006429",
    "request_type": "Trash/Recycling",
    "request_reason": "MIssed Recycling Pick-Up",
    "date_created": "2023-06-06T16:55:57.000",
    "date_modified": "2023-06-06T16:55:58.000",
    "request_status": "Pending",
    "responsible_agency": "Department of Sanitation",
    "final_address": "2415 Magnolia St",
    "address_councildis": "B",
    "status": "Assigned to Contractor",
    "contractor": "Richards Disposal",
    "rowid": "1006429",
    "final_x": "3674638.72289",
    "final_y": "526462.09715",
    "longitude": "-90.08990910609505",
    "latitude": "29.941794664525467",
    "geocoded_column": {
      "latitude": "29.941794664525467",
      "longitude": "-90.08990910609505"
    }
  },
  {
    "service_request": "2023-1006428",
    "request_type": "Trash/Recycling",
    "request_reason": "Order Trash Cart",
    "date_created": "2023-06-06T16:51:52.000",
    "date_modified": "2023-06-06T16:51:52.000",
    "request_status": "Pending",
    "responsible_agency": "Department of Sanitation",
    "final_address": "2226 Josephine St",
    "address_councildis": "B",
    "status": "Assigned to Contractor",
    "contractor": "Richards Disposal",
    "rowid": "1006428",
    "final_x": "3676355.02555",
    "final_y": "525912.794557",
    "longitude": "-90.08450928091443",
    "latitude": "29.940232939978902",
    "geocoded_column": {
      "latitude": "29.940232939978902",
      "longitude": "-90.08450928091443"
    }
  },
  {
    "service_request": "2023-1006427",
    "request_type": "Trash/Recycling",
    "request_reason": "Request a Large Item Pick Up",
    "date_created": "2023-06-06T16:50:25.000",
    "date_modified": "2023-06-06T16:50:25.000",
    "request_status": "Pending",
    "responsible_agency": "Department of Sanitation",
    "final_address": "7540 Parry St",
    "address_councildis": "E",
    "status": "Assigned to Contractor",
    "contractor": "Waste Pro",
    "rowid": "1006427",
    "final_x": "3714646.74053",
    "final_y": "568044.416037",
    "longitude": "-89.9620257820946",
    "latitude": "30.05487560911948",
    "geocoded_column": {
      "latitude": "30.05487560911948",
      "longitude": "-89.9620257820946"
    }
  },
  {
    "service_request": "2023-1006426",
    "request_type": "Traffic Signals/Signs/Striping/Streetlights",
    "request_reason": "Traffic Signal Malfunctioning/Damaged",
    "date_created": "2023-06-06T16:49:33.000",
    "date_modified": "2023-06-06T16:49:33.000",
    "request_status": "Pending",
    "responsible_agency": "Department of Public Works",
    "final_address": "GENERAL MEYER AVE & SHIRLEY DR",
    "address_councildis": "C",
    "status": "Pending",
    "rowid": "1006426",
    "final_x": "3693172.5",
    "final_y": "527521.78",
    "longitude": "-90.03135637952057",
    "latitude": "29.944142397456922",
    "geocoded_column": {
      "latitude": "29.944142397456922",
      "longitude": "-90.03135637952057"
    }
  },
  {
    "service_request": "2023-1006425",
    "request_type": "Trash/Recycling",
    "request_reason": "Request a Large Item Pick Up",
    "date_created": "2023-06-06T16:47:44.000",
    "date_modified": "2023-06-06T16:48:48.000",
    "request_status": "Pending",
    "responsible_agency": "Department of Sanitation",
    "final_address": "New Orleans,LA",
    "address_councildis": "B",
    "status": "Assigned to Contractor",
    "contractor": "Richards Disposal",
    "rowid": "1006425",
    "final_x": "3676140.88603",
    "final_y": "520059.616888",
    "longitude": "-90.08538661477716",
    "latitude": "29.924145024741993",
    "geocoded_column": {
      "latitude": "29.924145024741993",
      "longitude": "-90.08538661477716"
    }
  },
  {
    "service_request": "2023-1006424",
    "request_type": "Traffic Signals/Signs/Striping/Streetlights",
    "request_reason": "Traffic Sign Missing/Damaged",
    "date_created": "2023-06-06T16:42:37.000",
    "date_modified": "2023-06-06T16:42:37.000",
    "request_status": "Pending",
    "responsible_agency": "Department of Public Works",
    "final_address": "100 BLK Chartres St",
    "address_councildis": "C",
    "status": "Pending",
    "rowid": "1006424",
    "final_x": "3681615.32112",
    "final_y": "530643.96934",
    "longitude": "-90.06773673217515",
    "latitude": "29.953083393280075",
    "geocoded_column": {
      "latitude": "29.953083393280075",
      "longitude": "-90.06773673217515"
    }
  },
  {
    "service_request": "2023-1006423",
    "request_type": "Trash/Recycling",
    "request_reason": "Repair Trash Cart",
    "date_created": "2023-06-06T16:41:32.000",
    "date_modified": "2023-06-06T16:41:33.000",
    "request_status": "Pending",
    "responsible_agency": "Department of Sanitation",
    "final_address": "1923 N Dorgenois St",
    "address_councildis": "D",
    "status": "Assigned to Contractor",
    "contractor": "IV Waste",
    "rowid": "1006423",
    "final_x": "3681373.39714",
    "final_y": "541232.530764",
    "longitude": "-90.0681314534955",
    "latitude": "29.982205642759947",
    "geocoded_column": {
      "latitude": "29.982205642759947",
      "longitude": "-90.0681314534955"
    }
  },
  {
    "service_request": "2023-1006422",
    "request_type": "Property Maintenance",
    "request_reason": "Property Maintenance",
    "date_created": "2023-06-06T16:40:12.000",
    "date_modified": "2023-06-06T16:40:12.000",
    "request_status": "Pending",
    "responsible_agency": "Department of Code Enforcement",
    "final_address": "6670 Avenue B",
    "address_councildis": "A",
    "status": "Pending",
    "rowid": "1006422",
    "final_x": "3665694.61837",
    "final_y": "552586.170518",
    "longitude": "-90.11727226417875",
    "latitude": "30.013890959109816",
    "geocoded_column": {
      "latitude": "30.013890959109816",
      "longitude": "-90.11727226417875"
    }
  },
  {
    "service_request": "2023-1006421",
    "request_type": "Trash/Recycling",
    "request_reason": "Request a Large Item Pick Up",
    "date_created": "2023-06-06T16:37:20.000",
    "date_modified": "2023-06-06T16:37:21.000",
    "request_status": "Pending",
    "responsible_agency": "Department of Sanitation",
    "final_address": "1537 Louisa St",
    "address_councildis": "D",
    "status": "Assigned to Contractor",
    "contractor": "IV Waste",
    "rowid": "1006421",
    "final_x": "3690037.8719",
    "final_y": "537643.565576",
    "longitude": "-90.04089278782799",
    "latitude": "29.972071356276718",
    "geocoded_column": {
      "latitude": "29.972071356276718",
      "longitude": "-90.04089278782799"
    }
  },
  {
    "service_request": "2023-1006420",
    "request_type": "Property Maintenance",
    "request_reason": "Property Maintenance",
    "date_created": "2023-06-06T16:36:09.000",
    "date_modified": "2023-06-06T16:36:09.000",
    "request_status": "Pending",
    "responsible_agency": "Department of Code Enforcement",
    "final_address": "6679 Avenue B",
    "address_councildis": "A",
    "status": "Pending",
    "rowid": "1006420",
    "final_x": "3665822.43431",
    "final_y": "552567.972566",
    "longitude": "-90.11686903995401",
    "latitude": "30.013837190631925",
    "geocoded_column": {
      "latitude": "30.013837190631925",
      "longitude": "-90.11686903995401"
    }
  },
  {
    "service_request": "2023-1006419",
    "request_type": "Trash/Recycling",
    "request_reason": "Request a Large Item Pick Up",
    "date_created": "2023-06-06T16:34:27.000",
    "date_modified": "2023-06-06T16:34:28.000",
    "request_status": "Pending",
    "responsible_agency": "Department of Sanitation",
    "final_address": "4441 DHemecourt St",
    "address_councildis": "A",
    "status": "Assigned to Contractor",
    "contractor": "Richards Disposal",
    "rowid": "1006419",
    "final_x": "3668573.0571",
    "final_y": "537857.318729",
    "longitude": "-90.10867520717377",
    "latitude": "29.973307367550333",
    "geocoded_column": {
      "latitude": "29.973307367550333",
      "longitude": "-90.10867520717377"
    }
  },
  {
    "service_request": "2023-1006418",
    "request_type": "Trash/Recycling",
    "request_reason": "Missed Trash Pick-Up",
    "date_created": "2023-06-06T16:33:44.000",
    "date_modified": "2023-06-06T16:33:45.000",
    "request_status": "Pending",
    "responsible_agency": "Department of Sanitation",
    "final_address": "827 Delachaise St",
    "address_councildis": "B",
    "status": "Assigned to Contractor",
    "contractor": "Richards Disposal",
    "rowid": "1006418",
    "final_x": "3675046.81704",
    "final_y": "518682.886967",
    "longitude": "-90.08888740843858",
    "latitude": "29.92039217877699",
    "geocoded_column": {
      "latitude": "29.92039217877699",
      "longitude": "-90.08888740843858"
    }
  },
  {
    "service_request": "2023-1006417",
    "request_type": "Property Maintenance",
    "request_reason": "Property Maintenance",
    "date_created": "2023-06-06T16:32:52.000",
    "date_modified": "2023-06-06T16:32:52.000",
    "request_status": "Pending",
    "responsible_agency": "Department of Code Enforcement",
    "final_address": "527 Conrad St",
    "address_councildis": "A",
    "status": "Pending",
    "rowid": "1006417",
    "final_x": "3668632.36186",
    "final_y": "554391.805848",
    "longitude": "-90.10792945738224",
    "latitude": "30.018769763389326",
    "geocoded_column": {
      "latitude": "30.018769763389326",
      "longitude": "-90.10792945738224"
    }
  },
  {
    "service_request": "2023-1006416",
    "request_type": "Trash/Recycling",
    "request_reason": "Request a Large Item Pick Up",
    "date_created": "2023-06-06T16:31:20.000",
    "date_modified": "2023-06-06T16:31:20.000",
    "request_status": "Pending",
    "responsible_agency": "Department of Sanitation",
    "final_address": "217 N Olympia St",
    "address_councildis": "A",
    "status": "Assigned to Contractor",
    "contractor": "Richards Disposal",
    "rowid": "1006416",
    "final_x": "3669732.68775",
    "final_y": "540120.392459",
    "longitude": "-90.10493622508034",
    "latitude": "29.979495926230822",
    "geocoded_column": {
      "latitude": "29.979495926230822",
      "longitude": "-90.10493622508034"
    }
  },
  {
    "service_request": "2023-1006415",
    "request_type": "Traffic Signals/Signs/Striping/Streetlights",
    "request_reason": "Street Name Sign Damaged or Missing",
    "date_created": "2023-06-06T16:31:01.000",
    "date_modified": "2023-06-06T16:31:02.000",
    "request_status": "Pending",
    "responsible_agency": "Department of Public Works",
    "final_address": "MELPOMENE ST & ANNUNCIATION ST",
    "address_councildis": "B",
    "status": "Pending",
    "rowid": "1006415",
    "final_x": "3681272.5",
    "final_y": "524691.68",
    "longitude": "-90.06902658979406",
    "latitude": "29.936726998127217",
    "geocoded_column": {
      "latitude": "29.936726998127217",
      "longitude": "-90.06902658979406"
    }
  },
  {
    "service_request": "2023-1006414",
    "request_type": "Trash/Recycling",
    "request_reason": "Order Trash Cart",
    "date_created": "2023-06-06T16:30:55.000",
    "date_modified": "2023-06-06T16:30:56.000",
    "request_status": "Pending",
    "responsible_agency": "Department of Sanitation",
    "final_address": "6105 Magazine St",
    "address_councildis": "A",
    "status": "Assigned to Contractor",
    "contractor": "Richards Disposal",
    "rowid": "1006414",
    "final_x": "3664090.3657",
    "final_y": "519481.736375",
    "longitude": "-90.12344530125569",
    "latitude": "29.922911411309986",
    "geocoded_column": {
      "latitude": "29.922911411309986",
      "longitude": "-90.12344530125569"
    }
  },
  {
    "service_request": "2023-1006413",
    "request_type": "Trash/Recycling",
    "request_reason": "Order Trash Cart",
    "date_created": "2023-06-06T16:30:34.000",
    "date_modified": "2023-06-06T16:30:35.000",
    "request_status": "Pending",
    "responsible_agency": "Department of Sanitation",
    "final_address": "6101 Magazine St",
    "address_councildis": "A",
    "status": "Assigned to Contractor",
    "contractor": "Richards Disposal",
    "rowid": "1006413",
    "final_x": "3664098.35181",
    "final_y": "519478.958583",
    "longitude": "-90.12342018470137",
    "latitude": "29.922903541381828",
    "geocoded_column": {
      "latitude": "29.922903541381828",
      "longitude": "-90.12342018470137"
    }
  },
  {
    "service_request": "2023-1006412",
    "request_type": "Mosquito, Termite & Rodent Control",
    "request_reason": "Rodent Complaint (Rats)",
    "date_created": "2023-06-06T16:26:41.000",
    "date_modified": "2023-06-06T16:26:42.000",
    "request_status": "Pending",
    "responsible_agency": "Mosquito, Termite & Rodent Control Board",
    "final_address": "2243 Desire St",
    "address_councildis": "D",
    "status": "Pending",
    "rowid": "1006412",
    "final_x": "3691335.88918",
    "final_y": "540162.712843",
    "longitude": "-90.03670342267655",
    "latitude": "29.978957795173837",
    "geocoded_column": {
      "latitude": "29.978957795173837",
      "longitude": "-90.03670342267655"
    }
  },
  {
    "service_request": "2023-1006411",
    "request_type": "Roads/Drainage",
    "request_reason": "Man hole cover issue",
    "date_created": "2023-06-06T16:25:03.000",
    "date_modified": "2023-06-06T16:25:03.000",
    "request_status": "Pending",
    "responsible_agency": "Department of Public Works",
    "final_address": "ESPLANADE AVE & N CLAIBORNE AVE",
    "address_councildis": "D",
    "status": "Pending",
    "rowid": "1006411",
    "final_x": "3681231.3",
    "final_y": "536639.18",
    "longitude": "-90.06874038104324",
    "latitude": "29.969579834804723",
    "geocoded_column": {
      "latitude": "29.969579834804723",
      "longitude": "-90.06874038104324"
    }
  },
  {
    "service_request": "2023-1006410",
    "request_type": "Mosquito, Termite & Rodent Control",
    "request_reason": "Non-Rodent Complaint (Mice, Possums, Snakes)",
    "date_created": "2023-06-06T16:22:12.000",
    "date_modified": "2023-06-06T16:22:13.000",
    "request_status": "Pending",
    "responsible_agency": "Mosquito, Termite & Rodent Control Board",
    "final_address": "2243 Desire St",
    "address_councildis": "D",
    "status": "Pending",
    "rowid": "1006410",
    "final_x": "3691335.88918",
    "final_y": "540162.712843",
    "longitude": "-90.03670342267655",
    "latitude": "29.978957795173837",
    "geocoded_column": {
      "latitude": "29.978957795173837",
      "longitude": "-90.03670342267655"
    }
  },
  {
    "service_request": "2023-1006409",
    "request_type": "Trash/Recycling",
    "request_reason": "Request a Large Item Pick Up",
    "date_created": "2023-06-06T16:20:13.000",
    "date_modified": "2023-06-06T16:20:14.000",
    "request_status": "Pending",
    "responsible_agency": "Department of Sanitation",
    "final_address": "1339 Hillary St",
    "address_councildis": "A",
    "status": "Assigned to Contractor",
    "contractor": "Richards Disposal",
    "rowid": "1006409",
    "final_x": "3663806.51149",
    "final_y": "527594.025663",
    "longitude": "-90.12407107492332",
    "latitude": "29.945225876723722",
    "geocoded_column": {
      "latitude": "29.945225876723722",
      "longitude": "-90.12407107492332"
    }
  },
  {
    "service_request": "2023-1006408",
    "request_type": "Traffic Signals/Signs/Striping/Streetlights",
    "request_reason": "Street Light Outage/Malfunction",
    "date_created": "2023-06-06T16:15:27.000",
    "date_modified": "2023-06-06T16:15:28.000",
    "request_status": "Pending",
    "responsible_agency": "Department of Public Works",
    "final_address": "1717 Louisa St",
    "address_councildis": "D",
    "status": "Assigned to Contractor",
    "contractor": "Legacy Professional Services",
    "rowid": "1006408",
    "final_x": "3690188.11184",
    "final_y": "538220.368329",
    "longitude": "-90.04039775213862",
    "latitude": "29.973652699645143",
    "geocoded_column": {
      "latitude": "29.973652699645143",
      "longitude": "-90.04039775213862"
    }
  },
  {
    "service_request": "2023-1006407",
    "request_type": "Traffic Signals/Signs/Striping/Streetlights",
    "request_reason": "Traffic Sign Missing/Damaged",
    "date_created": "2023-06-06T16:10:36.000",
    "date_modified": "2023-06-06T16:10:36.000",
    "request_status": "Pending",
    "responsible_agency": "Department of Public Works",
    "final_address": "1837 Marais St",
    "address_councildis": "C",
    "status": "Pending",
    "rowid": "1006407",
    "final_x": "3683809.42921",
    "final_y": "536607.739591",
    "longitude": "-90.06059954257817",
    "latitude": "29.96941489615889",
    "geocoded_column": {
      "latitude": "29.96941489615889",
      "longitude": "-90.06059954257817"
    }
  },
  {
    "service_request": "2023-1006406",
    "request_type": "Parks & Parkways",
    "request_reason": "Request Tree Service (Right of Way/Public Property)",
    "date_created": "2023-06-06T16:10:12.000",
    "date_modified": "2023-06-06T16:10:13.000",
    "request_status": "Pending",
    "responsible_agency": "Department of Parks & Parkway",
    "final_address": "4510 Knight Dr",
    "address_councildis": "E",
    "status": "Pending",
    "rowid": "1006406",
    "final_x": "3708201.9788",
    "final_y": "554129.59676",
    "longitude": "-89.98291446178501",
    "latitude": "30.016825863417413",
    "geocoded_column": {
      "latitude": "30.016825863417413",
      "longitude": "-89.98291446178501"
    }
  },
  {
    "service_request": "2023-1006405",
    "request_type": "Trash/Recycling",
    "request_reason": "Missed Trash Pick-Up",
    "date_created": "2023-06-06T16:09:07.000",
    "date_modified": "2023-06-06T16:09:08.000",
    "request_status": "Pending",
    "responsible_agency": "Department of Sanitation",
    "final_address": "7528 Vanderkloot Ave",
    "address_councildis": "E",
    "status": "Assigned to Contractor",
    "contractor": "Waste Pro",
    "rowid": "1006405",
    "final_x": "3705933.17758",
    "final_y": "562927.800096",
    "longitude": "-89.98975690706135",
    "latitude": "30.041090812112653",
    "geocoded_column": {
      "latitude": "30.041090812112653",
      "longitude": "-89.98975690706135"
    }
  },
  {
    "service_request": "2023-1006404",
    "request_type": "Trash/Recycling",
    "request_reason": "Request a Large Item Pick Up",
    "date_created": "2023-06-06T16:08:34.000",
    "date_modified": "2023-06-06T16:08:35.000",
    "request_status": "Pending",
    "responsible_agency": "Department of Sanitation",
    "final_address": "8613 Birch St",
    "address_councildis": "A",
    "status": "Assigned to Contractor",
    "contractor": "Richards Disposal",
    "rowid": "1006404",
    "final_x": "3661517.1911",
    "final_y": "530726.506626",
    "longitude": "-90.1311954565181",
    "latitude": "29.953905429724035",
    "geocoded_column": {
      "latitude": "29.953905429724035",
      "longitude": "-90.1311954565181"
    }
  },
  {
    "service_request": "2023-1006403",
    "request_type": "Roads/Drainage",
    "request_reason": "Catch Basin - Clogged",
    "date_created": "2023-06-06T16:07:29.000",
    "date_modified": "2023-06-06T16:07:29.000",
    "request_status": "Pending",
    "responsible_agency": "Department of Public Works",
    "final_address": "2831 St Claude Ave",
    "address_councildis": "C",
    "status": "Pending",
    "rowid": "1006403",
    "final_x": "3688006.00092",
    "final_y": "536358.873159",
    "longitude": "-90.04735528804302",
    "latitude": "29.96860176320759",
    "geocoded_column": {
      "latitude": "29.96860176320759",
      "longitude": "-90.04735528804302"
    }
  },
  {
    "service_request": "2023-1006402",
    "request_type": "Trash/Recycling",
    "request_reason": "Replace Trash Cart",
    "date_created": "2023-06-06T16:01:16.000",
    "date_modified": "2023-06-06T16:01:17.000",
    "request_status": "Pending",
    "responsible_agency": "Department of Sanitation",
    "final_address": "4122 S Derbigny St",
    "address_councildis": "B",
    "status": "Assigned to Contractor",
    "contractor": "Richards Disposal",
    "rowid": "1006402",
    "final_x": "3671184.52603",
    "final_y": "526301.388798",
    "longitude": "-90.10082020259362",
    "latitude": "29.94145538460403",
    "geocoded_column": {
      "latitude": "29.94145538460403",
      "longitude": "-90.10082020259362"
    }
  },
  {
    "service_request": "2023-1006401",
    "request_type": "Roads/Drainage",
    "request_reason": "Street Flooding / Drainage",
    "date_created": "2023-06-06T15:54:53.000",
    "date_modified": "2023-06-06T15:54:53.000",
    "request_status": "Pending",
    "responsible_agency": "Department of Public Works",
    "final_address": "4100 S Tonti St",
    "address_councildis": "B",
    "status": "Pending",
    "rowid": "1006401",
    "final_x": "3670908.46254",
    "final_y": "528189.918464",
    "longitude": "-90.10162769853903",
    "latitude": "29.946656387632267",
    "geocoded_column": {
      "latitude": "29.946656387632267",
      "longitude": "-90.10162769853903"
    }
  },
  {
    "service_request": "2023-1006400",
    "request_type": "Trash/Recycling",
    "request_reason": "Repair Trash Cart",
    "date_created": "2023-06-06T15:52:26.000",
    "date_modified": "2023-06-06T15:52:57.000",
    "request_status": "Pending",
    "responsible_agency": "Department of Sanitation",
    "final_address": "7711 Sandpiper Dr",
    "address_councildis": "E",
    "status": "Assigned to Contractor",
    "contractor": "Waste Pro",
    "rowid": "1006400",
    "final_x": "3715758.88466",
    "final_y": "570012.174502",
    "longitude": "-89.958435941865",
    "latitude": "30.060249489450577",
    "geocoded_column": {
      "latitude": "30.060249489450577",
      "longitude": "-89.958435941865"
    }
  },
  {
    "service_request": "2023-1006398",
    "request_type": "Mosquito, Termite & Rodent Control",
    "request_reason": "Rodent Complaint (Rats)",
    "date_created": "2023-06-06T15:50:25.000",
    "date_modified": "2023-06-06T16:18:30.000",
    "request_status": "Pending",
    "responsible_agency": "Mosquito, Termite & Rodent Control Board",
    "final_address": "5217 Hawthorne Pl",
    "address_councildis": "A",
    "status": "Pending",
    "rowid": "1006398",
    "final_x": "3667848.15002",
    "final_y": "542987.511437",
    "longitude": "-90.1107917513634",
    "latitude": "29.98743494891074",
    "geocoded_column": {
      "latitude": "29.98743494891074",
      "longitude": "-90.1107917513634"
    }
  },
  {
    "service_request": "2023-1006397",
    "request_type": "Trash/Recycling",
    "request_reason": "Replace Trash Cart",
    "date_created": "2023-06-06T15:42:03.000",
    "date_modified": "2023-06-06T15:42:04.000",
    "request_status": "Pending",
    "responsible_agency": "Department of Sanitation",
    "final_address": "214 Maumus Ave",
    "address_councildis": "C",
    "status": "Assigned to Contractor",
    "contractor": "Richards Disposal",
    "rowid": "1006397",
    "final_x": "3706515.9795",
    "final_y": "516833.806837",
    "longitude": "-89.98962334704494",
    "latitude": "29.914330580407967",
    "geocoded_column": {
      "latitude": "29.914330580407967",
      "longitude": "-89.98962334704494"
    }
  },
  {
    "service_request": "2023-1006396",
    "request_type": "Trash/Recycling",
    "request_reason": "Request a Large Item Pick Up",
    "date_created": "2023-06-06T15:41:51.000",
    "date_modified": "2023-06-06T15:41:52.000",
    "request_status": "Pending",
    "responsible_agency": "Department of Sanitation",
    "final_address": "9027 S Claiborne Ave",
    "address_councildis": "A",
    "status": "Assigned to Contractor",
    "contractor": "Richards Disposal",
    "rowid": "1006396",
    "final_x": "3662399.19232",
    "final_y": "533902.329925",
    "longitude": "-90.12830498528469",
    "latitude": "29.96261243998673",
    "geocoded_column": {
      "latitude": "29.96261243998673",
      "longitude": "-90.12830498528469"
    }
  },
  {
    "service_request": "2023-1006395",
    "request_type": "Trash/Recycling",
    "request_reason": "Repair Trash Cart",
    "date_created": "2023-06-06T15:39:08.000",
    "date_modified": "2023-06-06T15:39:09.000",
    "request_status": "Pending",
    "responsible_agency": "Department of Sanitation",
    "final_address": "929 Race St",
    "address_councildis": "B",
    "status": "Assigned to Contractor",
    "contractor": "Richards Disposal",
    "rowid": "1006395",
    "final_x": "3680743.25672",
    "final_y": "523753.656379",
    "longitude": "-90.07073006600689",
    "latitude": "29.93416378997563",
    "geocoded_column": {
      "latitude": "29.93416378997563",
      "longitude": "-90.07073006600689"
    }
  },
  {
    "service_request": "2023-1006394",
    "request_type": "Traffic Signals/Signs/Striping/Streetlights",
    "request_reason": "Additional signage",
    "date_created": "2023-06-06T15:38:16.000",
    "date_modified": "2023-06-06T15:38:16.000",
    "request_status": "Pending",
    "responsible_agency": "Department of Public Works",
    "final_address": "3430 Baronne St",
    "address_councildis": "B",
    "status": "Pending",
    "rowid": "1006394",
    "final_x": "3673667.245",
    "final_y": "522088.526778",
    "longitude": "-90.09312572219564",
    "latitude": "29.929797719966434",
    "geocoded_column": {
      "latitude": "29.929797719966434",
      "longitude": "-90.09312572219564"
    }
  },
  {
    "service_request": "2023-1006393",
    "request_type": "Trash/Recycling",
    "request_reason": "Replace Trash Cart",
    "date_created": "2023-06-06T15:37:01.000",
    "date_modified": "2023-06-06T15:37:02.000",
    "request_status": "Pending",
    "responsible_agency": "Department of Sanitation",
    "final_address": "4122 S Derbigny St",
    "address_councildis": "B",
    "status": "Assigned to Contractor",
    "contractor": "Richards Disposal",
    "rowid": "1006393",
    "final_x": "3671184.52603",
    "final_y": "526301.388798",
    "longitude": "-90.10082020259362",
    "latitude": "29.94145538460403",
    "geocoded_column": {
      "latitude": "29.94145538460403",
      "longitude": "-90.10082020259362"
    }
  },
  {
    "service_request": "2023-1006392",
    "request_type": "Trash/Recycling",
    "request_reason": "Request a Large Item Pick Up",
    "date_created": "2023-06-06T15:36:00.000",
    "date_modified": "2023-06-06T15:36:00.000",
    "request_status": "Pending",
    "responsible_agency": "Department of Sanitation",
    "final_address": "814 Nunez St",
    "address_councildis": "C",
    "status": "Assigned to Contractor",
    "contractor": "Richards Disposal",
    "rowid": "1006392",
    "final_x": "3686971.2909",
    "final_y": "528566.45888",
    "longitude": "-90.05089837563774",
    "latitude": "29.94720719948633",
    "geocoded_column": {
      "latitude": "29.94720719948633",
      "longitude": "-90.05089837563774"
    }
  },
  {
    "service_request": "2023-1006391",
    "request_type": "Abandoned Vehicles",
    "request_reason": "Abandoned/Junk Vehicles",
    "date_created": "2023-06-06T15:34:27.000",
    "date_modified": "2023-06-06T15:34:27.000",
    "request_status": "Pending",
    "responsible_agency": "Department of Public Works",
    "final_address": "900 BLK N Lopez St",
    "address_councildis": "A",
    "status": "Pending",
    "rowid": "1006391",
    "final_x": "3675827.20376",
    "final_y": "538801.300794",
    "longitude": "-90.08573265125841",
    "latitude": "29.97568781701815",
    "geocoded_column": {
      "latitude": "29.97568781701815",
      "longitude": "-90.08573265125841"
    }
  },
  {
    "service_request": "2023-1006390",
    "request_type": "Trash/Recycling",
    "request_reason": "Replace Trash Cart",
    "date_created": "2023-06-06T15:33:04.000",
    "date_modified": "2023-06-06T15:33:05.000",
    "request_status": "Pending",
    "responsible_agency": "Department of Sanitation",
    "final_address": "4801 Stephen Girard Ave",
    "address_councildis": "D",
    "status": "Assigned to Contractor",
    "contractor": "IV Waste",
    "rowid": "1006390",
    "final_x": "3691854.14979",
    "final_y": "550834.917909",
    "longitude": "-90.03468454409054",
    "latitude": "30.00828634803658",
    "geocoded_column": {
      "latitude": "30.00828634803658",
      "longitude": "-90.03468454409054"
    }
  },
  {
    "service_request": "2023-1006389",
    "request_type": "Trash/Recycling",
    "request_reason": "Missed Trash Pick-Up",
    "date_created": "2023-06-06T15:32:44.000",
    "date_modified": "2023-06-06T15:32:45.000",
    "request_status": "Pending",
    "responsible_agency": "Department of Sanitation",
    "final_address": "2314 Delery St",
    "address_councildis": "E",
    "status": "Assigned to Contractor",
    "contractor": "Waste Pro",
    "rowid": "1006389",
    "final_x": "3702208.70065",
    "final_y": "537434.866696",
    "longitude": "-90.00246323893724",
    "latitude": "29.971114425544155",
    "geocoded_column": {
      "latitude": "29.971114425544155",
      "longitude": "-90.00246323893724"
    }
  },
  {
    "service_request": "2023-1006388",
    "request_type": "Trash/Recycling",
    "request_reason": "Missed Trash Pick-Up",
    "date_created": "2023-06-06T15:30:07.000",
    "date_modified": "2023-06-06T15:30:08.000",
    "request_status": "Pending",
    "responsible_agency": "Department of Sanitation",
    "final_address": "7561 Jahncke Rd",
    "address_councildis": "E",
    "status": "Assigned to Contractor",
    "contractor": "Waste Pro",
    "rowid": "1006388",
    "final_x": "3714423.08107",
    "final_y": "568015.782885",
    "longitude": "-89.96273379680284",
    "latitude": "30.054804237648845",
    "geocoded_column": {
      "latitude": "30.054804237648845",
      "longitude": "-89.96273379680284"
    }
  },
  {
    "service_request": "2023-1006387",
    "request_type": "Roads/Drainage",
    "request_reason": "Damaged Sidewalk",
    "date_created": "2023-06-06T15:27:42.000",
    "date_modified": "2023-06-06T15:27:42.000",
    "request_status": "Pending",
    "responsible_agency": "Department of Public Works",
    "final_address": "600 BLK Saint Peter St",
    "address_councildis": "C",
    "status": "Pending",
    "rowid": "1006387",
    "final_x": "3682608.61769",
    "final_y": "532389.745704",
    "longitude": "-90.06453929935022",
    "latitude": "29.95785348052599",
    "geocoded_column": {
      "latitude": "29.95785348052599",
      "longitude": "-90.06453929935022"
    }
  },
  {
    "service_request": "2023-1006386",
    "request_type": "Trash/Recycling",
    "request_reason": "Missed Trash Pick-Up",
    "date_created": "2023-06-06T15:26:49.000",
    "date_modified": "2023-06-06T15:26:49.000",
    "request_status": "Closed",
    "responsible_agency": "Department of Sanitation",
    "final_address": "143 Alvin Callender St",
    "address_councildis": "A",
    "status": "Resolved",
    "rowid": "1006386",
    "final_x": "3661170.24134",
    "final_y": "523405.139323",
    "longitude": "-90.13253325485792",
    "latitude": "29.93378400279007",
    "geocoded_column": {
      "latitude": "29.93378400279007",
      "longitude": "-90.13253325485792"
    }
  },
  {
    "service_request": "2023-1006385",
    "request_type": "Property Maintenance",
    "request_reason": "Property Maintenance",
    "date_created": "2023-06-06T15:26:23.000",
    "date_modified": "2023-06-06T15:26:23.000",
    "request_status": "Pending",
    "responsible_agency": "Department of Code Enforcement",
    "final_address": "2300 N Roman St",
    "address_councildis": "D",
    "status": "Pending",
    "rowid": "1006385",
    "final_x": "3685620.23407",
    "final_y": "538901.26113",
    "longitude": "-90.05480006748442",
    "latitude": "29.975665850386193",
    "geocoded_column": {
      "latitude": "29.975665850386193",
      "longitude": "-90.05480006748442"
    }
  },
  {
    "service_request": "2023-1006384",
    "request_type": "Trash/Recycling",
    "request_reason": "Request a Large Item Pick Up",
    "date_created": "2023-06-06T15:24:11.000",
    "date_modified": "2023-06-06T15:24:12.000",
    "request_status": "Pending",
    "responsible_agency": "Department of Sanitation",
    "final_address": "4638 Arts St",
    "address_councildis": "D",
    "status": "Assigned to Contractor",
    "contractor": "IV Waste",
    "rowid": "1006384",
    "final_x": "3685888.77705",
    "final_y": "549876.960084",
    "longitude": "-90.05356477661928",
    "latitude": "30.00583686409909",
    "geocoded_column": {
      "latitude": "30.00583686409909",
      "longitude": "-90.05356477661928"
    }
  },
  {
    "service_request": "2023-1006383",
    "request_type": "Trash/Recycling",
    "request_reason": "Dead Animal Pick Up",
    "date_created": "2023-06-06T15:21:09.000",
    "date_modified": "2023-06-06T16:09:13.000",
    "case_close_date": "2023-06-06T11:09:13.000",
    "request_status": "Closed",
    "responsible_agency": "Department of Sanitation",
    "final_address": "2407 Iberville St",
    "address_councildis": "B",
    "status": "Duplicate Request",
    "contractor": "Richards Disposal",
    "rowid": "1006383",
    "final_x": "3676633.30056",
    "final_y": "534709.763526",
    "longitude": "-90.08332774012753",
    "latitude": "29.9644133255772",
    "geocoded_column": {
      "latitude": "29.9644133255772",
      "longitude": "-90.08332774012753"
    }
  },
  {
    "service_request": "2023-1006382",
    "request_type": "Roads/Drainage",
    "request_reason": "Man hole cover issue",
    "date_created": "2023-06-06T15:20:51.000",
    "date_modified": "2023-06-06T15:20:51.000",
    "request_status": "Pending",
    "responsible_agency": "Department of Public Works",
    "final_address": "ST PHILIP ST & N CLAIBORNE AVE",
    "address_councildis": "D",
    "status": "Pending",
    "rowid": "1006382",
    "final_x": "3680398.3",
    "final_y": "535535.58",
    "longitude": "-90.07140944890652",
    "latitude": "29.96657056553638",
    "geocoded_column": {
      "latitude": "29.96657056553638",
      "longitude": "-90.07140944890652"
    }
  },
  {
    "service_request": "2023-1006381",
    "request_type": "Trash/Recycling",
    "request_reason": "Missed Trash Pick-Up",
    "date_created": "2023-06-06T15:20:40.000",
    "date_modified": "2023-06-06T15:20:40.000",
    "request_status": "Pending",
    "responsible_agency": "Department of Sanitation",
    "final_address": "7552 Briarheath Dr",
    "address_councildis": "E",
    "status": "Assigned to Contractor",
    "contractor": "Waste Pro",
    "rowid": "1006381",
    "final_x": "3715043.43807",
    "final_y": "566715.949091",
    "longitude": "-89.96082221599366",
    "latitude": "30.051209809479918",
    "geocoded_column": {
      "latitude": "30.051209809479918",
      "longitude": "-89.96082221599366"
    }
  },
  {
    "service_request": "2023-1006380",
    "request_type": "Trash/Recycling",
    "request_reason": "Repair Recycling Cart",
    "date_created": "2023-06-06T15:19:25.000",
    "date_modified": "2023-06-06T15:19:25.000",
    "request_status": "Pending",
    "responsible_agency": "Department of Sanitation",
    "final_address": "11252 King Richard Dr",
    "address_councildis": "E",
    "status": "Pending",
    "rowid": "1006380",
    "final_x": "3717214.85695",
    "final_y": "556395.39273",
    "longitude": "-89.95435172530449",
    "latitude": "30.0227607576018",
    "geocoded_column": {
      "latitude": "30.0227607576018",
      "longitude": "-89.95435172530449"
    }
  },
  {
    "service_request": "2023-1006379",
    "request_type": "Trash/Recycling",
    "request_reason": "Request a Large Item Pick Up",
    "date_created": "2023-06-06T15:18:46.000",
    "date_modified": "2023-06-06T15:19:46.000",
    "request_status": "Pending",
    "responsible_agency": "Department of Sanitation",
    "final_address": "4942 Hauck Dr",
    "address_councildis": "E",
    "status": "Assigned to Contractor",
    "contractor": "Waste Pro",
    "rowid": "1006379",
    "final_x": "3714398.63557",
    "final_y": "557655.842971",
    "longitude": "-89.96320261407375",
    "latitude": "30.026319386727298",
    "geocoded_column": {
      "latitude": "30.026319386727298",
      "longitude": "-89.96320261407375"
    }
  },
  {
    "service_request": "2023-1006378",
    "request_type": "Property Maintenance",
    "request_reason": "Property Maintenance",
    "date_created": "2023-06-06T15:16:49.000",
    "date_modified": "2023-06-06T15:16:49.000",
    "request_status": "Pending",
    "responsible_agency": "Department of Code Enforcement",
    "final_address": "1940 Eagle St",
    "address_councildis": "A",
    "status": "Pending",
    "rowid": "1006378",
    "final_x": "3661957.53024",
    "final_y": "532116.562947",
    "longitude": "-90.12975893524977",
    "latitude": "29.957714925181932",
    "geocoded_column": {
      "latitude": "29.957714925181932",
      "longitude": "-90.12975893524977"
    }
  },
  {
    "service_request": "2023-1006376",
    "request_type": "Property Maintenance",
    "request_reason": "Property Maintenance",
    "date_created": "2023-06-06T15:13:32.000",
    "date_modified": "2023-06-06T15:13:32.000",
    "request_status": "Pending",
    "responsible_agency": "Department of Code Enforcement",
    "final_address": "7100 Cove Dr",
    "address_councildis": "E",
    "status": "Pending",
    "rowid": "1006376",
    "final_x": "3700197.07274",
    "final_y": "558530.098524",
    "longitude": "-90.0080456394379",
    "latitude": "30.029182531823487",
    "geocoded_column": {
      "latitude": "30.029182531823487",
      "longitude": "-90.0080456394379"
    }
  },
  {
    "service_request": "2023-1006375",
    "request_type": "Trash/Recycling",
    "request_reason": "MIssed Recycling Pick-Up",
    "date_created": "2023-06-06T15:11:55.000",
    "date_modified": "2023-06-06T15:11:55.000",
    "request_status": "Pending",
    "responsible_agency": "Department of Sanitation",
    "final_address": "631 S Pierce St",
    "address_councildis": "A",
    "status": "Assigned to Contractor",
    "contractor": "Richards Disposal",
    "rowid": "1006375",
    "final_x": "3670050.40199",
    "final_y": "536315.766343",
    "longitude": "-90.10406166874324",
    "latitude": "29.96902511718034",
    "geocoded_column": {
      "latitude": "29.96902511718034",
      "longitude": "-90.10406166874324"
    }
  },
  {
    "service_request": "2023-1006374",
    "request_type": "Property Maintenance",
    "request_reason": "Property Maintenance",
    "date_created": "2023-06-06T15:10:01.000",
    "date_modified": "2023-06-06T15:10:01.000",
    "request_status": "Pending",
    "responsible_agency": "Department of Code Enforcement",
    "final_address": "2218 Cambronne St",
    "address_councildis": "A",
    "status": "Pending",
    "rowid": "1006374",
    "final_x": "3663620.8073",
    "final_y": "531862.887235",
    "longitude": "-90.12451521477317",
    "latitude": "29.956969255703168",
    "geocoded_column": {
      "latitude": "29.956969255703168",
      "longitude": "-90.12451521477317"
    }
  },
  {
    "service_request": "2023-1006372",
    "request_type": "Trash/Recycling",
    "request_reason": "Request a Large Item Pick Up",
    "date_created": "2023-06-06T15:03:10.000",
    "date_modified": "2023-06-06T15:03:11.000",
    "request_status": "Pending",
    "responsible_agency": "Department of Sanitation",
    "final_address": "1435 Mazant St",
    "address_councildis": "D",
    "status": "Assigned to Contractor",
    "contractor": "IV Waste",
    "rowid": "1006372",
    "final_x": "3692484.72125",
    "final_y": "536559.707079",
    "longitude": "-90.03320410580451",
    "latitude": "29.96901501477265",
    "geocoded_column": {
      "latitude": "29.96901501477265",
      "longitude": "-90.03320410580451"
    }
  },
  {
    "service_request": "2023-1006370",
    "request_type": "Property Maintenance",
    "request_reason": "Property Maintenance",
    "date_created": "2023-06-06T15:02:05.000",
    "date_modified": "2023-06-06T15:02:05.000",
    "request_status": "Pending",
    "responsible_agency": "Department of Code Enforcement",
    "final_address": "8500 Spruce St",
    "address_councildis": "A",
    "status": "Pending",
    "rowid": "1006370",
    "final_x": "3662743.40218",
    "final_y": "531407.093379",
    "longitude": "-90.12730094723665",
    "latitude": "29.955741392861704",
    "geocoded_column": {
      "latitude": "29.955741392861704",
      "longitude": "-90.12730094723665"
    }
  },
  {
    "service_request": "2023-1006369",
    "request_type": "Abandoned Vehicles",
    "request_reason": "Abandoned/Junk Vehicles",
    "date_created": "2023-06-06T15:00:22.000",
    "date_modified": "2023-06-06T15:00:22.000",
    "request_status": "Pending",
    "responsible_agency": "Department of Public Works",
    "final_address": "1520 Bartholomew St",
    "address_councildis": "D",
    "status": "Pending",
    "rowid": "1006369",
    "final_x": "3692169.89763",
    "final_y": "536988.433928",
    "longitude": "-90.03418298514738",
    "latitude": "29.970203680418766",
    "geocoded_column": {
      "latitude": "29.970203680418766",
      "longitude": "-90.03418298514738"
    }
  },
  {
    "service_request": "2023-1006368",
    "request_type": "Traffic Signals/Signs/Striping/Streetlights",
    "request_reason": "Street Light Outage/Malfunction",
    "date_created": "2023-06-06T14:59:03.000",
    "date_modified": "2023-06-06T14:59:04.000",
    "request_status": "Pending",
    "responsible_agency": "Department of Public Works",
    "final_address": "1714 Nie Prkwy",
    "address_councildis": "C",
    "status": "Assigned to Contractor",
    "contractor": "Legacy Professional Services",
    "rowid": "1006368",
    "final_x": "3701262.28388",
    "final_y": "524485.47462",
    "longitude": "-90.00592589045746",
    "latitude": "29.93553838896835",
    "geocoded_column": {
      "latitude": "29.93553838896835",
      "longitude": "-90.00592589045746"
    }
  },
  {
    "service_request": "2023-1006366",
    "request_type": "Property Maintenance",
    "request_reason": "Property Maintenance",
    "date_created": "2023-06-06T14:57:33.000",
    "date_modified": "2023-06-06T14:57:33.000",
    "request_status": "Pending",
    "responsible_agency": "Department of Code Enforcement",
    "final_address": "8304 Nelson St",
    "address_councildis": "A",
    "status": "Pending",
    "rowid": "1006366",
    "final_x": "3664509.4649",
    "final_y": "532353.054403",
    "longitude": "-90.12169273360765",
    "latitude": "29.958291247588555",
    "geocoded_column": {
      "latitude": "29.958291247588555",
      "longitude": "-90.12169273360765"
    }
  },
  {
    "service_request": "2023-1006365",
    "request_type": "Trash/Recycling",
    "request_reason": "Order Recycling Cart",
    "date_created": "2023-06-06T14:57:24.000",
    "date_modified": "2023-06-06T14:57:25.000",
    "request_status": "Pending",
    "responsible_agency": "Department of Sanitation",
    "final_address": "7424 Burke Ave",
    "address_councildis": "E",
    "status": "Pending",
    "rowid": "1006365",
    "final_x": "3705801.58999",
    "final_y": "562213.231007",
    "longitude": "-89.99019923770679",
    "latitude": "30.039130271619136",
    "geocoded_column": {
      "latitude": "30.039130271619136",
      "longitude": "-89.99019923770679"
    }
  },
  {
    "service_request": "2023-1006364",
    "request_type": "Roads/Drainage",
    "request_reason": "Drainage Issue (Catch Basins, Culverts, Ditches, and Manhole Covers)",
    "date_created": "2023-06-06T14:55:55.000",
    "date_modified": "2023-06-06T16:25:23.000",
    "request_status": "Pending",
    "responsible_agency": "Department of Public Works",
    "final_address": "4125 N Tonti St",
    "address_councildis": "D",
    "status": "Inspected",
    "rowid": "1006364",
    "final_x": "3693440.34621",
    "final_y": "539747.189898",
    "longitude": "-90.03007169847213",
    "latitude": "29.977749607981306",
    "geocoded_column": {
      "latitude": "29.977749607981306",
      "longitude": "-90.03007169847213"
    }
  },
  {
    "service_request": "2023-1006363",
    "request_type": "Property Maintenance",
    "request_reason": "Property Maintenance",
    "date_created": "2023-06-06T14:54:18.000",
    "date_modified": "2023-06-06T14:54:18.000",
    "request_status": "Pending",
    "responsible_agency": "Department of Code Enforcement",
    "final_address": "6501 Memphis St",
    "address_councildis": "A",
    "status": "Pending",
    "rowid": "1006363",
    "final_x": "3669591.56679",
    "final_y": "550687.182356",
    "longitude": "-90.10502418081875",
    "latitude": "30.00855511546219",
    "geocoded_column": {
      "latitude": "30.00855511546219",
      "longitude": "-90.10502418081875"
    }
  },
  {
    "service_request": "2023-1006362",
    "request_type": "Trash/Recycling",
    "request_reason": "Order Trash Cart",
    "date_created": "2023-06-06T14:53:07.000",
    "date_modified": "2023-06-06T14:53:08.000",
    "request_status": "Pending",
    "responsible_agency": "Department of Sanitation",
    "final_address": "2008 Leboeuf St",
    "address_councildis": "C",
    "status": "Assigned to Contractor",
    "contractor": "Richards Disposal",
    "rowid": "1006362",
    "final_x": "3689669.77628",
    "final_y": "523322.966267",
    "longitude": "-90.04256476194388",
    "latitude": "29.93270605788889",
    "geocoded_column": {
      "latitude": "29.93270605788889",
      "longitude": "-90.04256476194388"
    }
  },
  {
    "service_request": "2023-1006361",
    "request_type": "Parks & Parkways",
    "request_reason": "Request Tree Service (Right of Way/Public Property)",
    "date_created": "2023-06-06T14:52:36.000",
    "date_modified": "2023-06-06T15:13:52.000",
    "case_close_date": "2023-06-06T10:13:52.000",
    "request_status": "Closed",
    "responsible_agency": "Department of Parks & Parkway",
    "final_address": "4110 General De Gaulle Dr",
    "address_councildis": "C",
    "status": "Duplicate Request",
    "rowid": "1006361",
    "final_x": "3698862.38052",
    "final_y": "519373.020087",
    "longitude": "-90.01368824188471",
    "latitude": "29.92155712486959",
    "geocoded_column": {
      "latitude": "29.92155712486959",
      "longitude": "-90.01368824188471"
    }
  },
  {
    "service_request": "2023-1006360",
    "request_type": "Trash/Recycling",
    "request_reason": "Repair Trash Cart",
    "date_created": "2023-06-06T14:52:32.000",
    "date_modified": "2023-06-06T14:52:32.000",
    "request_status": "Pending",
    "responsible_agency": "Department of Sanitation",
    "final_address": "3011 Sullen Pl",
    "address_councildis": "C",
    "status": "Assigned to Contractor",
    "contractor": "Richards Disposal",
    "rowid": "1006360",
    "final_x": "3707785.08331",
    "final_y": "519617.937592",
    "longitude": "-89.98551429608008",
    "latitude": "29.921944987773887",
    "geocoded_column": {
      "latitude": "29.921944987773887",
      "longitude": "-89.98551429608008"
    }
  },
  {
    "service_request": "2023-1006359",
    "request_type": "Trash/Recycling",
    "request_reason": "Request a Large Item Pick Up",
    "date_created": "2023-06-06T14:51:55.000",
    "date_modified": "2023-06-06T14:51:56.000",
    "request_status": "Pending",
    "responsible_agency": "Department of Sanitation",
    "final_address": "1712 Oretha Castle Haley Blvd",
    "address_councildis": "B",
    "status": "Assigned to Contractor",
    "contractor": "Richards Disposal",
    "rowid": "1006359",
    "final_x": "3677677.85474",
    "final_y": "525605.217277",
    "longitude": "-90.08034351824807",
    "latitude": "29.939347495139817",
    "geocoded_column": {
      "latitude": "29.939347495139817",
      "longitude": "-90.08034351824807"
    }
  },
  {
    "service_request": "2023-1006358",
    "request_type": "Property Maintenance",
    "request_reason": "Property Maintenance",
    "date_created": "2023-06-06T14:51:08.000",
    "date_modified": "2023-06-06T14:51:08.000",
    "request_status": "Pending",
    "responsible_agency": "Department of Code Enforcement",
    "final_address": "8415 S Claiborne Ave",
    "address_councildis": "A",
    "status": "Pending",
    "rowid": "1006358",
    "final_x": "3664028.86919",
    "final_y": "532414.782915",
    "longitude": "-90.12320827256829",
    "latitude": "29.9584749457659",
    "geocoded_column": {
      "latitude": "29.9584749457659",
      "longitude": "-90.12320827256829"
    }
  },
  {
    "service_request": "2023-1006357",
    "request_type": "Abandoned Vehicles",
    "request_reason": "Abandoned/Junk Vehicles",
    "date_created": "2023-06-06T14:48:40.000",
    "date_modified": "2023-06-06T14:48:40.000",
    "request_status": "Pending",
    "responsible_agency": "Department of Public Works",
    "final_address": "2537 Wisteria St",
    "address_councildis": "D",
    "status": "Pending",
    "rowid": "1006357",
    "final_x": "3686576.21826",
    "final_y": "548407.80213",
    "longitude": "-90.05144491909645",
    "latitude": "30.001776083415955",
    "geocoded_column": {
      "latitude": "30.001776083415955",
      "longitude": "-90.05144491909645"
    }
  },
  {
    "service_request": "2023-1006356",
    "request_type": "Trash/Recycling",
    "request_reason": "Order Trash Cart",
    "date_created": "2023-06-06T14:48:23.000",
    "date_modified": "2023-06-06T14:48:24.000",
    "request_status": "Pending",
    "responsible_agency": "Department of Sanitation",
    "final_address": "1424 St Bernard Ave",
    "address_councildis": "C",
    "status": "Assigned to Contractor",
    "contractor": "IV Waste",
    "rowid": "1006356",
    "final_x": "3682435.906",
    "final_y": "537287.62708",
    "longitude": "-90.06491346666846",
    "latitude": "29.971326229854228",
    "geocoded_column": {
      "latitude": "29.971326229854228",
      "longitude": "-90.06491346666846"
    }
  },
  {
    "service_request": "2023-1006355",
    "request_type": "Roads/Drainage",
    "request_reason": "Accessibility Ramps, Curbs and Sidewalk Repair",
    "date_created": "2023-06-06T14:47:42.000",
    "date_modified": "2023-06-06T14:47:42.000",
    "request_status": "Pending",
    "responsible_agency": "Department of Public Works",
    "final_address": "11433 Curran Rd",
    "address_councildis": "E",
    "status": "Pending",
    "rowid": "1006355",
    "final_x": "3711581.03288",
    "final_y": "566893.298596",
    "longitude": "-89.97175896826867",
    "latitude": "30.051811029777852",
    "geocoded_column": {
      "latitude": "30.051811029777852",
      "longitude": "-89.97175896826867"
    }
  },
  {
    "service_request": "2023-1006354",
    "request_type": "Trash/Recycling",
    "request_reason": "Order Trash Cart",
    "date_created": "2023-06-06T14:47:09.000",
    "date_modified": "2023-06-06T14:47:10.000",
    "request_status": "Pending",
    "responsible_agency": "Department of Sanitation",
    "final_address": "1422 St Bernard Ave",
    "address_councildis": "C",
    "status": "Assigned to Contractor",
    "contractor": "IV Waste",
    "rowid": "1006354",
    "final_x": "3682441.8326",
    "final_y": "537273.132168",
    "longitude": "-90.06489525639716",
    "latitude": "29.971286193466362",
    "geocoded_column": {
      "latitude": "29.971286193466362",
      "longitude": "-90.06489525639716"
    }
  },
  {
    "service_request": "2023-1006353",
    "request_type": "Property Maintenance",
    "request_reason": "Property Maintenance",
    "date_created": "2023-06-06T14:45:55.000",
    "date_modified": "2023-06-06T14:47:24.000",
    "request_status": "Pending",
    "responsible_agency": "Department of Code Enforcement",
    "final_address": "4911 Gawain Dr",
    "address_councildis": "E",
    "status": "Pending",
    "rowid": "1006353",
    "final_x": "3706945.23755",
    "final_y": "556487.572698",
    "longitude": "-89.98679765275841",
    "latitude": "30.02335004873773",
    "geocoded_column": {
      "latitude": "30.02335004873773",
      "longitude": "-89.98679765275841"
    }
  },
  {
    "service_request": "2023-1006352",
    "request_type": "Trash/Recycling",
    "request_reason": "Order Trash Cart",
    "date_created": "2023-06-06T14:44:43.000",
    "date_modified": "2023-06-06T14:44:44.000",
    "request_status": "Pending",
    "responsible_agency": "Department of Sanitation",
    "final_address": "530 S Rendon St",
    "address_councildis": "B",
    "status": "Assigned to Contractor",
    "contractor": "Richards Disposal",
    "rowid": "1006352",
    "final_x": "3672502.84916",
    "final_y": "534963.590022",
    "longitude": "-90.096362756956",
    "latitude": "29.96523451494346",
    "geocoded_column": {
      "latitude": "29.96523451494346",
      "longitude": "-90.096362756956"
    }
  },
  {
    "service_request": "2023-1006351",
    "request_type": "Roads/Drainage",
    "request_reason": "Street Subsidence (Sinking)",
    "date_created": "2023-06-06T14:43:15.000",
    "date_modified": "2023-06-06T14:43:15.000",
    "request_status": "Pending",
    "responsible_agency": "Department of Public Works",
    "final_address": "2826 Cadiz St",
    "address_councildis": "B",
    "status": "Pending",
    "rowid": "1006351",
    "final_x": "3669623.16615",
    "final_y": "525230.162685",
    "longitude": "-90.10578596785366",
    "latitude": "29.938555946645543",
    "geocoded_column": {
      "latitude": "29.938555946645543",
      "longitude": "-90.10578596785366"
    }
  },
  {
    "service_request": "2023-1006350",
    "request_type": "Trash/Recycling",
    "request_reason": "Repair Recycling Cart",
    "date_created": "2023-06-06T14:41:53.000",
    "date_modified": "2023-06-06T14:41:54.000",
    "request_status": "Pending",
    "responsible_agency": "Department of Sanitation",
    "final_address": "1505 Marengo St",
    "address_councildis": "B",
    "status": "Pending",
    "rowid": "1006350",
    "final_x": "3672035.73556",
    "final_y": "520732.705273",
    "longitude": "-90.09832225812578",
    "latitude": "29.92611810106275",
    "geocoded_column": {
      "latitude": "29.92611810106275",
      "longitude": "-90.09832225812578"
    }
  },
  {
    "service_request": "2023-1006349",
    "request_type": "Trash/Recycling",
    "request_reason": "Repair Trash Cart",
    "date_created": "2023-06-06T14:41:02.000",
    "date_modified": "2023-06-06T14:41:03.000",
    "request_status": "Pending",
    "responsible_agency": "Department of Sanitation",
    "final_address": "1505 Marengo St",
    "address_councildis": "B",
    "status": "Assigned to Contractor",
    "contractor": "Richards Disposal",
    "rowid": "1006349",
    "final_x": "3672035.73556",
    "final_y": "520732.705273",
    "longitude": "-90.09832225812578",
    "latitude": "29.92611810106275",
    "geocoded_column": {
      "latitude": "29.92611810106275",
      "longitude": "-90.09832225812578"
    }
  },
  {
    "service_request": "2023-1006346",
    "request_type": "Roads/Drainage",
    "request_reason": "Damaged Sidewalk",
    "date_created": "2023-06-06T14:36:17.000",
    "date_modified": "2023-06-06T14:36:17.000",
    "request_status": "Pending",
    "responsible_agency": "Department of Public Works",
    "final_address": "4620 Clara St",
    "address_councildis": "B",
    "status": "Pending",
    "rowid": "1006346",
    "final_x": "3669496.09166",
    "final_y": "524946.386557",
    "longitude": "-90.106196751154",
    "latitude": "29.937779396538648",
    "geocoded_column": {
      "latitude": "29.937779396538648",
      "longitude": "-90.106196751154"
    }
  },
  {
    "service_request": "2023-1006345",
    "request_type": "Trash/Recycling",
    "request_reason": "Request a Large Item Pick Up",
    "date_created": "2023-06-06T14:36:13.000",
    "date_modified": "2023-06-06T14:36:14.000",
    "request_status": "Pending",
    "responsible_agency": "Department of Sanitation",
    "final_address": "2620 DAbadie St",
    "address_councildis": "D",
    "status": "Assigned to Contractor",
    "contractor": "IV Waste",
    "rowid": "1006345",
    "final_x": "3679334.12847",
    "final_y": "540855.945931",
    "longitude": "-90.07458551970393",
    "latitude": "29.98123192163742",
    "geocoded_column": {
      "latitude": "29.98123192163742",
      "longitude": "-90.07458551970393"
    }
  },
  {
    "service_request": "2023-1006344",
    "request_type": "Mosquito, Termite & Rodent Control",
    "request_reason": "Non-Rodent Complaint (Mice, Possums, Snakes)",
    "date_created": "2023-06-06T14:34:58.000",
    "date_modified": "2023-06-06T14:34:58.000",
    "request_status": "Pending",
    "responsible_agency": "Mosquito, Termite & Rodent Control Board",
    "final_address": "3691 Clermont Dr",
    "address_councildis": "D",
    "status": "Pending",
    "rowid": "1006344",
    "final_x": "3685682.48975",
    "final_y": "546236.429712",
    "longitude": "-90.05434486250678",
    "latitude": "29.99583305277528",
    "geocoded_column": {
      "latitude": "29.99583305277528",
      "longitude": "-90.05434486250678"
    }
  },
  {
    "service_request": "2023-1006343",
    "request_type": "Trash/Recycling",
    "request_reason": "Order Trash Cart",
    "date_created": "2023-06-06T14:33:35.000",
    "date_modified": "2023-06-06T14:33:36.000",
    "request_status": "Pending",
    "responsible_agency": "Department of Sanitation",
    "final_address": "3620 Live Oak St",
    "address_councildis": "A",
    "status": "Assigned to Contractor",
    "contractor": "Richards Disposal",
    "rowid": "1006343",
    "final_x": "3664446.5858",
    "final_y": "537953.622473",
    "longitude": "-90.12170428468585",
    "latitude": "29.97369279423225",
    "geocoded_column": {
      "latitude": "29.97369279423225",
      "longitude": "-90.12170428468585"
    }
  },
  {
    "service_request": "2023-1006342",
    "request_type": "Trash/Recycling",
    "request_reason": "Replace Trash Cart",
    "date_created": "2023-06-06T14:33:04.000",
    "date_modified": "2023-06-06T14:33:05.000",
    "request_status": "Pending",
    "responsible_agency": "Department of Sanitation",
    "final_address": "805 Milan St",
    "address_councildis": "B",
    "status": "Assigned to Contractor",
    "contractor": "Richards Disposal",
    "rowid": "1006342",
    "final_x": "3671870.58375",
    "final_y": "518552.112887",
    "longitude": "-90.09891775183853",
    "latitude": "29.920127061466054",
    "geocoded_column": {
      "latitude": "29.920127061466054",
      "longitude": "-90.09891775183853"
    }
  },
  {
    "service_request": "2023-1006341",
    "request_type": "Trash/Recycling",
    "request_reason": "Replace Trash Cart",
    "date_created": "2023-06-06T14:29:37.000",
    "date_modified": "2023-06-06T14:29:38.000",
    "request_status": "Pending",
    "responsible_agency": "Department of Sanitation",
    "final_address": "1310 Cadiz St",
    "address_councildis": "B",
    "status": "Assigned to Contractor",
    "contractor": "Richards Disposal",
    "rowid": "1006341",
    "final_x": "3670127.59143",
    "final_y": "520093.636152",
    "longitude": "-90.10436737044104",
    "latitude": "29.924417277507818",
    "geocoded_column": {
      "latitude": "29.924417277507818",
      "longitude": "-90.10436737044104"
    }
  },
  {
    "service_request": "2023-1006340",
    "request_type": "Trash/Recycling",
    "request_reason": "Request a Large Item Pick Up",
    "date_created": "2023-06-06T14:24:20.000",
    "date_modified": "2023-06-06T14:24:20.000",
    "request_status": "Pending",
    "responsible_agency": "Department of Sanitation",
    "final_address": "1552 Harrison Ave",
    "address_councildis": "D",
    "status": "Assigned to Contractor",
    "contractor": "IV Waste",
    "rowid": "1006340",
    "final_x": "3679197.74875",
    "final_y": "547638.45941",
    "longitude": "-90.07478097397856",
    "latitude": "29.999885570954138",
    "geocoded_column": {
      "latitude": "29.999885570954138",
      "longitude": "-90.07478097397856"
    }
  },
  {
    "service_request": "2023-1006339",
    "request_type": "Trash/Recycling",
    "request_reason": "Request a Large Item Pick Up",
    "date_created": "2023-06-06T14:24:03.000",
    "date_modified": "2023-06-06T14:24:03.000",
    "request_status": "Pending",
    "responsible_agency": "Department of Sanitation",
    "final_address": "812 N Dorgenois St",
    "address_councildis": "D",
    "status": "Assigned to Contractor",
    "contractor": "Richards Disposal",
    "rowid": "1006339",
    "final_x": "3677463.5204",
    "final_y": "536937.858248",
    "longitude": "-90.08062904560428",
    "latitude": "29.970514898112313",
    "geocoded_column": {
      "latitude": "29.970514898112313",
      "longitude": "-90.08062904560428"
    }
  },
  {
    "service_request": "2023-1006338",
    "request_type": "Trash/Recycling",
    "request_reason": "Replace Trash Cart",
    "date_created": "2023-06-06T14:22:14.000",
    "date_modified": "2023-06-06T14:22:15.000",
    "request_status": "Pending",
    "responsible_agency": "Department of Sanitation",
    "final_address": "514 Chartres St",
    "address_councildis": "C",
    "status": "Assigned to Contractor",
    "contractor": "Empire Services",
    "rowid": "1006338",
    "final_x": "3682488.70556",
    "final_y": "531745.176259",
    "longitude": "-90.06494047780967",
    "latitude": "29.95608478444616",
    "geocoded_column": {
      "latitude": "29.95608478444616",
      "longitude": "-90.06494047780967"
    }
  },
  {
    "service_request": "2023-1006337",
    "request_type": "Trash/Recycling",
    "request_reason": "Request a Large Item Pick Up",
    "date_created": "2023-06-06T14:21:41.000",
    "date_modified": "2023-06-06T14:21:41.000",
    "request_status": "Pending",
    "responsible_agency": "Department of Sanitation",
    "final_address": "440 Belleville St",
    "address_councildis": "C",
    "status": "Assigned to Contractor",
    "contractor": "Richards Disposal",
    "rowid": "1006337",
    "final_x": "3687901.58838",
    "final_y": "530013.871937",
    "longitude": "-90.04790981564601",
    "latitude": "29.95115842806222",
    "geocoded_column": {
      "latitude": "29.95115842806222",
      "longitude": "-90.04790981564601"
    }
  },
  {
    "service_request": "2023-1006336",
    "request_type": "Trash/Recycling",
    "request_reason": "Order Recycling Cart",
    "date_created": "2023-06-06T14:19:16.000",
    "date_modified": "2023-06-06T14:19:17.000",
    "request_status": "Pending",
    "responsible_agency": "Department of Sanitation",
    "final_address": "12930 Chanelle Ct",
    "address_councildis": "E",
    "status": "Pending",
    "rowid": "1006336",
    "final_x": "3716992.6117",
    "final_y": "567623.723684",
    "longitude": "-89.95462707014072",
    "latitude": "30.053641475381475",
    "geocoded_column": {
      "latitude": "30.053641475381475",
      "longitude": "-89.95462707014072"
    }
  },
  {
    "service_request": "2023-1006335",
    "request_type": "Mosquito, Termite & Rodent Control",
    "request_reason": "Rodent Complaint (Rats)",
    "date_created": "2023-06-06T14:16:18.000",
    "date_modified": "2023-06-06T14:16:18.000",
    "request_status": "Pending",
    "responsible_agency": "Mosquito, Termite & Rodent Control Board",
    "final_address": "3691 Clermont Dr",
    "address_councildis": "D",
    "status": "Pending",
    "rowid": "1006335",
    "final_x": "3685682.48975",
    "final_y": "546236.429712",
    "longitude": "-90.05434486250678",
    "latitude": "29.99583305277528",
    "geocoded_column": {
      "latitude": "29.99583305277528",
      "longitude": "-90.05434486250678"
    }
  },
  {
    "service_request": "2023-1006334",
    "request_type": "Trash/Recycling",
    "request_reason": "Order Trash Cart",
    "date_created": "2023-06-06T14:14:57.000",
    "date_modified": "2023-06-06T14:14:58.000",
    "request_status": "Pending",
    "responsible_agency": "Department of Sanitation",
    "final_address": "200 N Carrollton Ave",
    "address_councildis": "A",
    "status": "Assigned to Contractor",
    "contractor": "Richards Disposal",
    "rowid": "1006334",
    "final_x": "3671549.81006",
    "final_y": "538602.259017",
    "longitude": "-90.09924865513575",
    "latitude": "29.975267884933608",
    "geocoded_column": {
      "latitude": "29.975267884933608",
      "longitude": "-90.09924865513575"
    }
  },
  {
    "service_request": "2023-1006333",
    "request_type": "Roads/Drainage",
    "request_reason": "Street Flooding / Drainage",
    "date_created": "2023-06-06T14:12:04.000",
    "date_modified": "2023-06-06T14:22:54.000",
    "request_status": "Pending",
    "responsible_agency": "Department of Public Works",
    "final_address": "1900 Block of Law St, New Orleans, Louisiana, 70119",
    "address_councildis": "D",
    "status": "Pending",
    "rowid": "1006333",
    "final_x": "3681339.61268",
    "final_y": "541569.752278",
    "longitude": "-90.06822640142143",
    "latitude": "29.983133909686796",
    "geocoded_column": {
      "latitude": "29.983133909686796",
      "longitude": "-90.06822640142143"
    }
  },