[
  {
    "service_request": "2024-1132720",
    "request_type": "Streetlights",
    "request_reason": "Streetlight Outage/Malfunction",
    "date_created": "2024-09-17T23:47:49.000",
    "date_modified": "2024-09-17T23:47:51.000",
    "request_status": "Pending",
    "responsible_agency": "Department of Public Works",
    "final_address": "1628 Louisa St",
    "address_councildis": "D",
    "status": "Pending",
    "contractor": "Legacy Professional Services",
    "rowid": "1132720",
    "final_x": "3690058.03312",
    "final_y": "537976.825801",
    "longitude": "-90.04081724343678",
    "latitude": "29.972987078959214",
    "geocoded_column": {
      "latitude": "29.972987078959214",
      "longitude": "-90.04081724343678"
    }
  },
  {
    "service_request": "2024-1132719",
    "request_type": "Mosquito, Termite & Rodent Control",
    "request_reason": "Rodent Complaint (Rats)",
    "date_created": "2024-09-17T23:40:30.000",
    "date_modified": "2024-09-17T23:40:30.000",
    "request_status": "Pending",
    "responsible_agency": "Mosquito, Termite & Rodent Control Board",
    "final_address": "5700 BLK Louis Prima Ct",
    "address_councildis": "E",
    "status": "Pending",
    "rowid": "1132719",
    "final_x": "3716145.38296",
    "final_y": "561822.182902",
    "longitude": "-89.95752508939051",
    "latitude": "30.03771760420784",
    "geocoded_column": {
      "latitude": "30.03771760420784",
      "longitude": "-89.95752508939051"
    }
  },
  {
    "service_request": "2024-1132718",
    "request_type": "Street and Traffic Signs",
    "request_reason": "Stop Sign Missing or Damaged",
    "date_created": "2024-09-17T23:29:35.000",
    "date_modified": "2024-09-17T23:29:35.000",
    "request_status": "Pending",
    "responsible_agency": "Department of Public Works",
    "final_address": "12300 BLK Six Flags Pkwy",
    "address_councildis": "E",
    "status": "Pending",
    "rowid": "1132718",
    "final_x": "3723264.4199",
    "final_y": "564986.218568",
    "longitude": "-89.93490548264998",
    "latitude": "30.046180444506202",
    "geocoded_column": {
      "latitude": "30.046180444506202",
      "longitude": "-89.93490548264998"
    }
  },
  {
    "service_request": "2024-1132717",
    "request_type": "Mosquito, Termite & Rodent Control",
    "request_reason": "Mosquito Complaint",
    "date_created": "2024-09-17T23:26:31.000",
    "date_modified": "2024-09-17T23:26:31.000",
    "request_status": "Pending",
    "responsible_agency": "Mosquito, Termite & Rodent Control Board",
    "final_address": "5700 BLK Louis Prima Ct",
    "address_councildis": "E",
    "status": "Pending",
    "rowid": "1132717",
    "final_x": "3716145.38296",
    "final_y": "561822.182902",
    "longitude": "-89.95752508939051",
    "latitude": "30.03771760420784",
    "geocoded_column": {
      "latitude": "30.03771760420784",
      "longitude": "-89.95752508939051"
    }
  },
  {
    "service_request": "2024-1132716",
    "request_type": "Trash/Recycling",
    "request_reason": "Request a Large Item Pick Up",
    "date_created": "2024-09-17T22:58:31.000",
    "date_modified": "2024-09-17T22:58:33.000",
    "request_status": "Pending",
    "responsible_agency": "Department of Sanitation",
    "final_address": "ALSACE ST & PELTIER DR",
    "address_councildis": "E",
    "status": "Assigned to Contractor",
    "contractor": "Waste Pro",
    "rowid": "1132716",
    "final_x": "3730665.2",
    "final_y": "562556.68",
    "longitude": "-89.91161089004537",
    "latitude": "30.039249805175658",
    "geocoded_column": {
      "latitude": "30.039249805175658",
      "longitude": "-89.91161089004537"
    }
  },
  {
    "service_request": "2024-1132715",
    "request_type": "Trash/Recycling",
    "request_reason": "Replace Trash Cart",
    "date_created": "2024-09-17T22:48:03.000",
    "date_modified": "2024-09-17T22:48:04.000",
    "request_status": "Pending",
    "responsible_agency": "Department of Sanitation",
    "final_address": "1118 Eighth St",
    "address_councildis": "B",
    "status": "Assigned to Contractor",
    "contractor": "IV Waste",
    "rowid": "1132715",
    "final_x": "3675989.29473",
    "final_y": "520319.965816",
    "longitude": "-90.08585618838113",
    "latitude": "29.924865439026703",
    "geocoded_column": {
      "latitude": "29.924865439026703",
      "longitude": "-90.08585618838113"
    }
  },
  {
    "service_request": "2024-1132714",
    "request_type": "Trash/Recycling",
    "request_reason": "Request a Large Item Pick Up",
    "date_created": "2024-09-17T22:38:35.000",
    "date_modified": "2024-09-17T22:38:36.000",
    "request_status": "Pending",
    "responsible_agency": "Department of Sanitation",
    "final_address": "820 N Dupre St",
    "address_councildis": "A",
    "status": "Assigned to Contractor",
    "contractor": "IV Waste",
    "rowid": "1132714",
    "final_x": "3676334.69461",
    "final_y": "537876.044617",
    "longitude": "-90.08416170962262",
    "latitude": "29.97312847587101",
    "geocoded_column": {
      "latitude": "29.97312847587101",
      "longitude": "-90.08416170962262"
    }
  },
  {
    "service_request": "2024-1132713",
    "request_type": "Trash/Recycling",
    "request_reason": "Request a Large Item Pick Up",
    "date_created": "2024-09-17T22:27:35.000",
    "date_modified": "2024-09-17T22:27:36.000",
    "request_status": "Pending",
    "responsible_agency": "Department of Sanitation",
    "final_address": "5011 Michoud Blvd",
    "address_councildis": "E",
    "status": "Assigned to Contractor",
    "contractor": "Waste Pro",
    "rowid": "1132713",
    "final_x": "3724963.76697",
    "final_y": "561815.721055",
    "longitude": "-89.92965750582852",
    "latitude": "30.037405752899105",
    "geocoded_column": {
      "latitude": "30.037405752899105",
      "longitude": "-89.92965750582852"
    }
  },
  {
    "service_request": "2024-1132712",
    "request_type": "Trash/Recycling",
    "request_reason": "Replace Trash Cart",
    "date_created": "2024-09-17T22:08:29.000",
    "date_modified": "2024-09-17T22:08:30.000",
    "request_status": "Pending",
    "responsible_agency": "Department of Sanitation",
    "final_address": "356 Pine St",
    "address_councildis": "A",
    "status": "Assigned to Contractor",
    "contractor": "IV Waste",
    "rowid": "1132712",
    "final_x": "3661806.37485",
    "final_y": "523661.655291",
    "longitude": "-90.13051650010839",
    "latitude": "29.934470994983734",
    "geocoded_column": {
      "latitude": "29.934470994983734",
      "longitude": "-90.13051650010839"
    }
  },
  {
    "service_request": "2024-1132711",
    "request_type": "Trash/Recycling",
    "request_reason": "Request a Large Item Pick Up",
    "date_created": "2024-09-17T22:08:14.000",
    "date_modified": "2024-09-17T22:08:15.000",
    "request_status": "Pending",
    "responsible_agency": "Department of Sanitation",
    "final_address": "26 N Oak Ridge Ct",
    "address_councildis": "E",
    "status": "Assigned to Contractor",
    "contractor": "Waste Pro",
    "rowid": "1132711",
    "final_x": "3713559.30552",
    "final_y": "568057.648485",
    "longitude": "-89.96546239650077",
    "latitude": "30.05494773178899",
    "geocoded_column": {
      "latitude": "30.05494773178899",
      "longitude": "-89.96546239650077"
    }
  },
  {
    "service_request": "2024-1132709",
    "request_type": "Trash/Recycling",
    "request_reason": "Request a Large Item Pick Up",
    "date_created": "2024-09-17T21:31:52.000",
    "date_modified": "2024-09-17T21:31:54.000",
    "request_status": "Pending",
    "responsible_agency": "Department of Sanitation",
    "final_address": "3522 Calhoun St",
    "address_councildis": "A",
    "status": "Assigned to Contractor",
    "contractor": "IV Waste",
    "rowid": "1132709",
    "final_x": "3667732.22509",
    "final_y": "529596.268161",
    "longitude": "-90.11160891442442",
    "latitude": "29.950616890466993",
    "geocoded_column": {
      "latitude": "29.950616890466993",
      "longitude": "-90.11160891442442"
    }
  },
  {
    "service_request": "2024-1132708",
    "request_type": "Trash/Recycling",
    "request_reason": "Request a Large Item Pick Up",
    "date_created": "2024-09-17T21:23:17.000",
    "date_modified": "2024-09-17T21:23:18.000",
    "request_status": "Pending",
    "responsible_agency": "Department of Sanitation",
    "final_address": "4316 Perrier St",
    "address_councildis": "B",
    "status": "Assigned to Contractor",
    "contractor": "IV Waste",
    "rowid": "1132708",
    "final_x": "3671168.22542",
    "final_y": "520055.252792",
    "longitude": "-90.10108374112265",
    "latitude": "29.92428100460743",
    "geocoded_column": {
      "latitude": "29.92428100460743",
      "longitude": "-90.10108374112265"
    }
  },
  {
    "service_request": "2024-1132707",
    "request_type": "Trash/Recycling",
    "request_reason": "Storm Debris Collection",
    "date_created": "2024-09-17T20:35:47.000",
    "date_modified": "2024-09-17T20:35:47.000",
    "request_status": "Pending",
    "responsible_agency": "Department of Sanitation",
    "final_address": "212 Filmore Ave",
    "address_councildis": "A",
    "status": "Pending",
    "rowid": "1132707",
    "final_x": "3667209.27847",
    "final_y": "552132.55919",
    "longitude": "-90.11250196537705",
    "latitude": "30.012599400096043",
    "geocoded_column": {
      "latitude": "30.012599400096043",
      "longitude": "-90.11250196537705"
    }
  },
  {
    "service_request": "2024-1132706",
    "request_type": "Trash/Recycling",
    "request_reason": "Missed Trash Pick-Up",
    "date_created": "2024-09-17T20:23:50.000",
    "date_modified": "2024-09-17T20:23:51.000",
    "request_status": "Pending",
    "responsible_agency": "Department of Sanitation",
    "final_address": "7512 Surf St",
    "address_councildis": "E",
    "status": "Assigned to Contractor",
    "contractor": "Waste Pro",
    "rowid": "1132706",
    "final_x": "3715835.54175",
    "final_y": "568678.115045",
    "longitude": "-89.95824424048361",
    "latitude": "30.056578847576798",
    "geocoded_column": {
      "latitude": "30.056578847576798",
      "longitude": "-89.95824424048361"
    }
  },
  {
    "service_request": "2024-1132705",
    "request_type": "Street and Traffic Signs",
    "request_reason": "Street Name Sign Damaged or Missing",
    "date_created": "2024-09-17T20:23:36.000",
    "date_modified": "2024-09-17T20:23:36.000",
    "request_status": "Pending",
    "responsible_agency": "Department of Public Works",
    "final_address": "3637 Leonidas St",
    "address_councildis": "A",
    "status": "Pending",
    "rowid": "1132705",
    "final_x": "3666637.94119",
    "final_y": "536080.716359",
    "longitude": "-90.1148463861912",
    "latitude": "29.968479029662205",
    "geocoded_column": {
      "latitude": "29.968479029662205",
      "longitude": "-90.1148463861912"
    }
  },
  {
    "service_request": "2024-1132704",
    "request_type": "Abandoned Vehicles",
    "request_reason": "Abandoned/Junk Vehicles",
    "date_created": "2024-09-17T20:04:15.000",
    "date_modified": "2024-09-17T20:04:15.000",
    "request_status": "Pending",
    "responsible_agency": "Department of Public Works",
    "final_address": "4758 Sandalwood St",
    "address_councildis": "E",
    "status": "Pending",
    "rowid": "1132704",
    "final_x": "3712142.01195",
    "final_y": "556264.485018",
    "longitude": "-89.9703855007612",
    "latitude": "30.0225677019896",
    "geocoded_column": {
      "latitude": "30.0225677019896",
      "longitude": "-89.9703855007612"
    }
  },
  {
    "service_request": "2024-1132703",
    "request_type": "Trash/Recycling",
    "request_reason": "Order Recycling Cart",
    "date_created": "2024-09-17T20:02:42.000",
    "date_modified": "2024-09-17T20:02:42.000",
    "request_status": "Pending",
    "responsible_agency": "Department of Sanitation",
    "final_address": "6060 Winchester Park Dr",
    "address_councildis": "E",
    "status": "Pending",
    "rowid": "1132703",
    "final_x": "3713973.54642",
    "final_y": "563660.202465",
    "longitude": "-89.96431914755593",
    "latitude": "30.04284294087939",
    "geocoded_column": {
      "latitude": "30.04284294087939",
      "longitude": "-89.96431914755593"
    }
  },
  {
    "service_request": "2024-1132702",
    "request_type": "Property Maintenance",
    "request_reason": "Property Maintenance",
    "date_created": "2024-09-17T20:02:03.000",
    "date_modified": "2024-09-17T20:02:03.000",
    "request_status": "Pending",
    "responsible_agency": "Department of Code Enforcement",
    "final_address": "4768 Werner Dr",
    "address_councildis": "E",
    "status": "Pending",
    "rowid": "1132702",
    "final_x": "3704708.48362",
    "final_y": "555518.685977",
    "longitude": "-89.99390105255692",
    "latitude": "30.020758069645126",
    "geocoded_column": {
      "latitude": "30.020758069645126",
      "longitude": "-89.99390105255692"
    }
  },
  {
    "service_request": "2024-1132701",
    "request_type": "Trash/Recycling",
    "request_reason": "Order Trash Cart",
    "date_created": "2024-09-17T19:59:55.000",
    "date_modified": "2024-09-17T19:59:57.000",
    "request_status": "Pending",
    "responsible_agency": "Department of Sanitation",
    "final_address": "1418 Dauphine St Unit 2",
    "address_councildis": "C",
    "status": "Assigned to Contractor",
    "contractor": "IV Waste",
    "rowid": "1132701",
    "final_x": "3683618.57173",
    "final_y": "534989.239366",
    "longitude": "-90.0612590295751",
    "latitude": "29.964970407285218",
    "geocoded_column": {
      "latitude": "29.964970407285218",
      "longitude": "-90.0612590295751"
    }
  },
  {
    "service_request": "2024-1132700",
    "request_type": "Property Maintenance",
    "request_reason": "Property Maintenance",
    "date_created": "2024-09-17T19:58:00.000",
    "date_modified": "2024-09-17T19:58:00.000",
    "request_status": "Pending",
    "responsible_agency": "Department of Code Enforcement",
    "final_address": "4818 Chrysler St",
    "address_councildis": "E",
    "status": "Pending",
    "rowid": "1132700",
    "final_x": "3715195.60127",
    "final_y": "557128.276378",
    "longitude": "-89.96070429473431",
    "latitude": "30.02484256120358",
    "geocoded_column": {
      "latitude": "30.02484256120358",
      "longitude": "-89.96070429473431"
    }
  },
  {
    "service_request": "2024-1132699",
    "request_type": "Trash/Recycling",
    "request_reason": "Request a Large Item Pick Up",
    "date_created": "2024-09-17T19:57:12.000",
    "date_modified": "2024-09-17T19:57:13.000",
    "request_status": "Pending",
    "responsible_agency": "Department of Sanitation",
    "final_address": "7218 Green St, New Orleans, Louisiana, 70118",
    "address_councildis": "A",
    "status": "Assigned to Contractor",
    "contractor": "IV Waste",
    "rowid": "1132699",
    "final_x": "3664958.06516",
    "final_y": "528056.004287",
    "longitude": "-90.12041980192036",
    "latitude": "29.946462702490653",
    "geocoded_column": {
      "latitude": "29.946462702490653",
      "longitude": "-90.12041980192036"
    }
  },
  {
    "service_request": "2024-1132698",
    "request_type": "Street and Traffic Signs",
    "request_reason": "Stop Sign Missing or Damaged",
    "date_created": "2024-09-17T19:46:22.000",
    "date_modified": "2024-09-17T19:46:22.000",
    "request_status": "Pending",
    "responsible_agency": "Department of Public Works",
    "final_address": "1709 Pine St",
    "address_councildis": "A",
    "status": "Pending",
    "rowid": "1132698",
    "final_x": "3664975.94752",
    "final_y": "528159.085247",
    "longitude": "-90.12035989541937",
    "latitude": "29.946745621420728",
    "geocoded_column": {
      "latitude": "29.946745621420728",
      "longitude": "-90.12035989541937"
    }
  },
  {
    "service_request": "2024-1132697",
    "request_type": "Trash/Recycling",
    "request_reason": "Request a Large Item Pick Up",
    "date_created": "2024-09-17T19:44:45.000",
    "date_modified": "2024-09-17T19:44:46.000",
    "request_status": "Pending",
    "responsible_agency": "Department of Sanitation",
    "final_address": "7218 Green St",
    "address_councildis": "A",
    "status": "Assigned to Contractor",
    "contractor": "IV Waste",
    "rowid": "1132697",
    "final_x": "3664958.06516",
    "final_y": "528056.004287",
    "longitude": "-90.12041980192036",
    "latitude": "29.946462702490653",
    "geocoded_column": {
      "latitude": "29.946462702490653",
      "longitude": "-90.12041980192036"
    }
  },
  {
    "service_request": "2024-1132696",
    "request_type": "Alley Ways",
    "request_reason": "Alley Way Regrading",
    "date_created": "2024-09-17T19:43:01.000",
    "date_modified": "2024-09-17T19:43:01.000",
    "request_status": "Pending",
    "responsible_agency": "Department of Public Works",
    "final_address": "6854 General Haig St",
    "address_councildis": "A",
    "status": "Pending",
    "rowid": "1132696",
    "final_x": "3670957.52987",
    "final_y": "552940.598935",
    "longitude": "-90.1006320666859",
    "latitude": "30.01471088208776",
    "geocoded_column": {
      "latitude": "30.01471088208776",
      "longitude": "-90.1006320666859"
    }
  },
  {
    "service_request": "2024-1132695",
    "request_type": "Roads and Streets",
    "request_reason": "Pothole",
    "date_created": "2024-09-17T19:41:29.000",
    "date_modified": "2024-09-17T19:41:29.000",
    "request_status": "Pending",
    "responsible_agency": "Department of Public Works",
    "final_address": "3133 Derby Pl",
    "address_councildis": "A",
    "status": "Pending",
    "rowid": "1132695",
    "final_x": "3678125.11618",
    "final_y": "542932.382349",
    "longitude": "-90.07833229993717",
    "latitude": "29.98697786401554",
    "geocoded_column": {
      "latitude": "29.98697786401554",
      "longitude": "-90.07833229993717"
    }
  },
  {
    "service_request": "2024-1132694",
    "request_type": "Streetlights",
    "request_reason": "Streetlight Outage/Malfunction",
    "date_created": "2024-09-17T19:38:45.000",
    "date_modified": "2024-09-17T19:38:47.000",
    "request_status": "Pending",
    "responsible_agency": "Department of Public Works",
    "final_address": "6854 General Haig St",
    "address_councildis": "A",
    "status": "Pending",
    "contractor": "Legacy Professional Services",
    "rowid": "1132694",
    "final_x": "3670957.52987",
    "final_y": "552940.598935",
    "longitude": "-90.1006320666859",
    "latitude": "30.01471088208776",
    "geocoded_column": {
      "latitude": "30.01471088208776",
      "longitude": "-90.1006320666859"
    }
  },
  {
    "service_request": "2024-1132693",
    "request_type": "Trash/Recycling",
    "request_reason": "Request a Large Item Pick Up",
    "date_created": "2024-09-17T19:32:45.000",
    "date_modified": "2024-09-17T19:32:46.000",
    "request_status": "Pending",
    "responsible_agency": "Department of Sanitation",
    "final_address": "4700 Cardenas Dr",
    "address_councildis": "E",
    "status": "Assigned to Contractor",
    "contractor": "Waste Pro",
    "rowid": "1132693",
    "final_x": "3713644.22271",
    "final_y": "556044.230809",
    "longitude": "-89.965647228498",
    "latitude": "30.021912872819005",
    "geocoded_column": {
      "latitude": "30.021912872819005",
      "longitude": "-89.965647228498"
    }
  },
  {
    "service_request": "2024-1132692",
    "request_type": "Property Maintenance",
    "request_reason": "Property Maintenance",
    "date_created": "2024-09-17T19:25:42.000",
    "date_modified": "2024-09-17T19:25:42.000",
    "request_status": "Pending",
    "responsible_agency": "Department of Code Enforcement",
    "final_address": "4818 Chrysler St",
    "address_councildis": "E",
    "status": "Pending",
    "rowid": "1132692",
    "final_x": "3715195.60127",
    "final_y": "557128.276378",
    "longitude": "-89.96070429473431",
    "latitude": "30.02484256120358",
    "geocoded_column": {
      "latitude": "30.02484256120358",
      "longitude": "-89.96070429473431"
    }
  },
  {
    "service_request": "2024-1132691",
    "request_type": "Roads and Streets",
    "request_reason": "Debris in Driving Lanes",
    "date_created": "2024-09-17T19:24:58.000",
    "date_modified": "2024-09-17T19:24:58.000",
    "request_status": "Pending",
    "responsible_agency": "Department of Public Works",
    "final_address": "1100 N Broad St",
    "address_councildis": "D",
    "status": "Pending",
    "rowid": "1132691",
    "final_x": "3677730.69915",
    "final_y": "538200.561993",
    "longitude": "-90.07974163634765",
    "latitude": "29.973978866605655",
    "geocoded_column": {
      "latitude": "29.973978866605655",
      "longitude": "-90.07974163634765"
    }
  },
  {
    "service_request": "2024-1132690",
    "request_type": "Trash/Recycling",
    "request_reason": "Request a Large Item Pick Up",
    "date_created": "2024-09-17T19:18:24.000",
    "date_modified": "2024-09-17T19:18:26.000",
    "request_status": "Pending",
    "responsible_agency": "Department of Sanitation",
    "final_address": "4746 Rosalia Dr",
    "address_councildis": "E",
    "status": "Assigned to Contractor",
    "contractor": "Waste Pro",
    "rowid": "1132690",
    "final_x": "3711131.8483",
    "final_y": "555853.416281",
    "longitude": "-89.97359276039418",
    "latitude": "30.021470424003702",
    "geocoded_column": {
      "latitude": "30.021470424003702",
      "longitude": "-89.97359276039418"
    }
  },
  {
    "service_request": "2024-1132689",
    "request_type": "Trash/Recycling",
    "request_reason": "Storm Debris Collection",
    "date_created": "2024-09-17T18:57:55.000",
    "date_modified": "2024-09-17T18:57:55.000",
    "request_status": "Pending",
    "responsible_agency": "Department of Sanitation",
    "final_address": "5403 Shirley Taylor St",
    "address_councildis": "E",
    "status": "Pending",
    "rowid": "1132689",
    "final_x": "3698559.97712",
    "final_y": "538873.268105",
    "longitude": "-90.0139340209676",
    "latitude": "29.975185534204194",
    "geocoded_column": {
      "latitude": "29.975185534204194",
      "longitude": "-90.0139340209676"
    }
  },
  {
    "service_request": "2024-1132688",
    "request_type": "Roads and Streets",
    "request_reason": "Debris in Driving Lanes",
    "date_created": "2024-09-17T18:56:20.000",
    "date_modified": "2024-09-17T18:56:20.000",
    "request_status": "Pending",
    "responsible_agency": "Department of Public Works",
    "final_address": "1100 BLK S Broad St",
    "address_councildis": "B",
    "status": "Pending",
    "rowid": "1132688",
    "final_x": "3672455.55433",
    "final_y": "531117.733484",
    "longitude": "-90.09664319147714",
    "latitude": "29.954661095140953",
    "geocoded_column": {
      "latitude": "29.954661095140953",
      "longitude": "-90.09664319147714"
    }
  },
  {
    "service_request": "2024-1132687",
    "request_type": "Street and Traffic Signs",
    "request_reason": "Street Name Sign Damaged or Missing",
    "date_created": "2024-09-17T18:55:32.000",
    "date_modified": "2024-09-17T18:55:32.000",
    "request_status": "Pending",
    "responsible_agency": "Department of Public Works",
    "final_address": "3124 Pittari Pl",
    "address_councildis": "C",
    "status": "Pending",
    "rowid": "1132687",
    "final_x": "3709795.08216",
    "final_y": "519183.537207",
    "longitude": "-89.97918584242291",
    "latitude": "29.92068537569112",
    "geocoded_column": {
      "latitude": "29.92068537569112",
      "longitude": "-89.97918584242291"
    }
  },
  {
    "service_request": "2024-1132686",
    "request_type": "Roads and Streets",
    "request_reason": "Street Subsidence (Sinking)",
    "date_created": "2024-09-17T18:53:07.000",
    "date_modified": "2024-09-17T18:53:07.000",
    "request_status": "Pending",
    "responsible_agency": "Department of Public Works",
    "final_address": "1724 Leon C Simon Dr",
    "address_councildis": "D",
    "status": "Pending",
    "rowid": "1132686",
    "final_x": "3679821.48808",
    "final_y": "555781.052185",
    "longitude": "-90.07252751715974",
    "latitude": "30.02225591498599",
    "geocoded_column": {
      "latitude": "30.02225591498599",
      "longitude": "-90.07252751715974"
    }
  },
  {
    "service_request": "2024-1132685",
    "request_type": "Drainage",
    "request_reason": "Catch Basin Clogged",
    "date_created": "2024-09-17T18:50:16.000",
    "date_modified": "2024-09-17T18:50:16.000",
    "request_status": "Pending",
    "responsible_agency": "Department of Public Works",
    "final_address": "3124 Pittari Pl",
    "address_councildis": "C",
    "status": "Pending",
    "rowid": "1132685",
    "final_x": "3709795.08216",
    "final_y": "519183.537207",
    "longitude": "-89.97918584242291",
    "latitude": "29.92068537569112",
    "geocoded_column": {
      "latitude": "29.92068537569112",
      "longitude": "-89.97918584242291"
    }
  },
  {
    "service_request": "2024-1132684",
    "request_type": "Drainage",
    "request_reason": "Street Flooding",
    "date_created": "2024-09-17T18:46:06.000",
    "date_modified": "2024-09-17T18:46:06.000",
    "request_status": "Pending",
    "responsible_agency": "Department of Public Works",
    "final_address": "JENA ST & S GAYOSO ST",
    "address_councildis": "B",
    "status": "Pending",
    "rowid": "1132684",
    "final_x": "3669572.3",
    "final_y": "528865.48",
    "longitude": "-90.10582360694292",
    "latitude": "29.948553387021278",
    "geocoded_column": {
      "latitude": "29.948553387021278",
      "longitude": "-90.10582360694292"
    }
  },
  {
    "service_request": "2024-1132683",
    "request_type": "Trash/Recycling",
    "request_reason": "Storm Debris Collection",
    "date_created": "2024-09-17T18:43:10.000",
    "date_modified": "2024-09-17T18:43:10.000",
    "request_status": "Pending",
    "responsible_agency": "Department of Sanitation",
    "final_address": "4678 Eastern St",
    "address_councildis": "D",
    "status": "Pending",
    "rowid": "1132683",
    "final_x": "3687990.29878",
    "final_y": "550344.587412",
    "longitude": "-90.04690901051818",
    "latitude": "30.00705796285047",
    "geocoded_column": {
      "latitude": "30.00705796285047",
      "longitude": "-90.04690901051818"
    }
  },
  {
    "service_request": "2024-1132682",
    "request_type": "Trash/Recycling",
    "request_reason": "Return Trash Cart",
    "date_created": "2024-09-17T18:42:10.000",
    "date_modified": "2024-09-17T18:42:11.000",
    "request_status": "Pending",
    "responsible_agency": "Department of Sanitation",
    "final_address": "6035 Coliseum St",
    "address_councildis": "A",
    "status": "Assigned to Contractor",
    "contractor": "IV Waste",
    "rowid": "1132682",
    "final_x": "3664736.82311",
    "final_y": "520353.727224",
    "longitude": "-90.12137556541144",
    "latitude": "29.92529032766481",
    "geocoded_column": {
      "latitude": "29.92529032766481",
      "longitude": "-90.12137556541144"
    }
  },
  {
    "service_request": "2024-1132681",
    "request_type": "Abandoned Vehicles",
    "request_reason": "Abandoned/Junk Vehicles",
    "date_created": "2024-09-17T18:39:32.000",
    "date_modified": "2024-09-17T18:39:32.000",
    "request_status": "Pending",
    "responsible_agency": "Department of Public Works",
    "final_address": "1140 Cherokee St",
    "address_councildis": "A",
    "status": "Pending",
    "rowid": "1132681",
    "final_x": "3663427.83155",
    "final_y": "526879.34611",
    "longitude": "-90.12529048202315",
    "latitude": "29.943271720029774",
    "geocoded_column": {
      "latitude": "29.943271720029774",
      "longitude": "-90.12529048202315"
    }
  },
  {
    "service_request": "2024-1132680",
    "request_type": "Trash/Recycling",
    "request_reason": "Request a Large Item Pick Up",
    "date_created": "2024-09-17T18:37:09.000",
    "date_modified": "2024-09-17T18:37:10.000",
    "request_status": "Pending",
    "responsible_agency": "Department of Sanitation",
    "final_address": "5220 Norgate Dr",
    "address_councildis": "E",
    "status": "Assigned to Contractor",
    "contractor": "Waste Pro",
    "rowid": "1132680",
    "final_x": "3707359.77003",
    "final_y": "557375.156187",
    "longitude": "-89.9854548386491",
    "latitude": "30.025777156241666",
    "geocoded_column": {
      "latitude": "30.025777156241666",
      "longitude": "-89.9854548386491"
    }
  },
  {
    "service_request": "2024-1132679",
    "request_type": "Abandoned Vehicles",
    "request_reason": "Abandoned/Junk Vehicles",
    "date_created": "2024-09-17T18:29:11.000",
    "date_modified": "2024-09-17T18:29:11.000",
    "request_status": "Pending",
    "responsible_agency": "Department of Public Works",
    "final_address": "1140 Cherokee St",
    "address_councildis": "A",
    "status": "Pending",
    "rowid": "1132679",
    "final_x": "3663427.83155",
    "final_y": "526879.34611",
    "longitude": "-90.12529048202315",
    "latitude": "29.943271720029774",
    "geocoded_column": {
      "latitude": "29.943271720029774",
      "longitude": "-90.12529048202315"
    }
  },
  {
    "service_request": "2024-1132678",
    "request_type": "Hurricane Francine Tree-Related Issues or Emergencies\t",
    "request_reason": "Hurricane Francine Tree-Related Issues or Emergencies",
    "date_created": "2024-09-17T18:27:54.000",
    "date_modified": "2024-09-17T18:27:54.000",
    "request_status": "Pending",
    "responsible_agency": "Department of Parks & Parkway",
    "final_address": "1130 Tennessee St",
    "address_councildis": "E",
    "status": "Pending",
    "rowid": "1132678",
    "final_x": "3695707.0223",
    "final_y": "534655.941446",
    "longitude": "-90.02309666060151",
    "latitude": "29.96367940990167",
    "geocoded_column": {
      "latitude": "29.96367940990167",
      "longitude": "-90.02309666060151"
    }
  },
  {
    "service_request": "2024-1132677",
    "request_type": "Trash/Recycling",
    "request_reason": "Order Trash Cart",
    "date_created": "2024-09-17T18:18:03.000",
    "date_modified": "2024-09-17T18:18:05.000",
    "request_status": "Pending",
    "responsible_agency": "Department of Sanitation",
    "final_address": "521 Lowerline St",
    "address_councildis": "A",
    "status": "Assigned to Contractor",
    "contractor": "IV Waste",
    "rowid": "1132677",
    "final_x": "3662367.18739",
    "final_y": "524711.192252",
    "longitude": "-90.12871118680218",
    "latitude": "29.937340690640948",
    "geocoded_column": {
      "latitude": "29.937340690640948",
      "longitude": "-90.12871118680218"
    }
  },
  {
    "service_request": "2024-1132676",
    "request_type": "Trash/Recycling",
    "request_reason": "Request a Large Item Pick Up",
    "date_created": "2024-09-17T18:10:33.000",
    "date_modified": "2024-09-17T18:10:35.000",
    "request_status": "Pending",
    "responsible_agency": "Department of Sanitation",
    "final_address": "4549 Wilson Ave",
    "address_councildis": "E",
    "status": "Assigned to Contractor",
    "contractor": "Waste Pro",
    "rowid": "1132676",
    "final_x": "3703199.8243",
    "final_y": "553951.137304",
    "longitude": "-89.99872562656846",
    "latitude": "30.016496316962314",
    "geocoded_column": {
      "latitude": "30.016496316962314",
      "longitude": "-89.99872562656846"
    }
  },
  {
    "service_request": "2024-1132675",
    "request_type": "Property Maintenance",
    "request_reason": "Property Maintenance",
    "date_created": "2024-09-17T18:00:45.000",
    "date_modified": "2024-09-17T18:00:45.000",
    "request_status": "Pending",
    "responsible_agency": "Department of Code Enforcement",
    "final_address": "1906 Stephen Girard St",
    "address_councildis": "D",
    "status": "Pending",
    "rowid": "1132675",
    "final_x": "3681897.97103",
    "final_y": "548611.317971",
    "longitude": "-90.066216871255",
    "latitude": "30.002478757699084",
    "geocoded_column": {
      "latitude": "30.002478757699084",
      "longitude": "-90.066216871255"
    }
  },
  {
    "service_request": "2024-1132674",
    "request_type": "Property Maintenance",
    "request_reason": "Property Maintenance",
    "date_created": "2024-09-17T17:56:04.000",
    "date_modified": "2024-09-17T17:56:04.000",
    "request_status": "Pending",
    "responsible_agency": "Department of Code Enforcement",
    "final_address": "5390 Tullis Dr",
    "address_councildis": "C",
    "status": "Pending",
    "rowid": "1132674",
    "final_x": "3703899.07991",
    "final_y": "511989.322352",
    "longitude": "-89.998061289869",
    "latitude": "29.901094022547078",
    "geocoded_column": {
      "latitude": "29.901094022547078",
      "longitude": "-89.998061289869"
    }
  },
  {
    "service_request": "2024-1132673",
    "request_type": "Trash/Recycling",
    "request_reason": "Request a Large Item Pick Up",
    "date_created": "2024-09-17T17:54:35.000",
    "date_modified": "2024-09-17T17:54:36.000",
    "request_status": "Pending",
    "responsible_agency": "Department of Sanitation",
    "final_address": "1016 Elysian Fields Ave",
    "address_councildis": "C",
    "status": "Assigned to Contractor",
    "contractor": "IV Waste",
    "rowid": "1132673",
    "final_x": "3684922.66729",
    "final_y": "536110.300167",
    "longitude": "-90.0571013505591",
    "latitude": "29.96801306336815",
    "geocoded_column": {
      "latitude": "29.96801306336815",
      "longitude": "-90.0571013505591"
    }
  },
  {
    "service_request": "2024-1132672",
    "request_type": "Trash/Recycling",
    "request_reason": "Request a Large Item Pick Up",
    "date_created": "2024-09-17T17:43:46.000",
    "date_modified": "2024-09-17T17:43:48.000",
    "request_status": "Pending",
    "responsible_agency": "Department of Sanitation",
    "final_address": " & HISTORY ST",
    "address_councildis": "D",
    "status": "Assigned to Contractor",
    "contractor": "IV Waste",
    "rowid": "1132672",
    "final_x": "3688360.87",
    "final_y": "559349.95",
    "longitude": "-90.04541849880049",
    "latitude": "30.03180792316378",
    "geocoded_column": {
      "latitude": "30.03180792316378",
      "longitude": "-90.04541849880049"
    }
  },
  {
    "service_request": "2024-1132671",
    "request_type": "Streetlights",
    "request_reason": "Streetlight Outage/Malfunction",
    "date_created": "2024-09-17T17:42:20.000",
    "date_modified": "2024-09-17T17:42:21.000",
    "request_status": "Pending",
    "responsible_agency": "Department of Public Works",
    "final_address": "LAKESHORE DR & TOPAZ ST",
    "address_councildis": "D",
    "status": "Pending",
    "contractor": "Legacy Professional Services",
    "rowid": "1132671",
    "final_x": "3666891.7",
    "final_y": "556430.78",
    "longitude": "-90.11336075559657",
    "latitude": "30.024427290450582",
    "geocoded_column": {
      "latitude": "30.024427290450582",
      "longitude": "-90.11336075559657"
    }
  },
  {
    "service_request": "2024-1132670",
    "request_type": "Streetlights",
    "request_reason": "Streetlight Outage/Malfunction",
    "date_created": "2024-09-17T17:36:38.000",
    "date_modified": "2024-09-17T17:36:39.000",
    "request_status": "Pending",
    "responsible_agency": "Department of Public Works",
    "final_address": "7515 West End Blvd",
    "address_councildis": "D",
    "status": "Pending",
    "contractor": "Legacy Professional Services",
    "rowid": "1132670",
    "final_x": "3667159.15079",
    "final_y": "556318.490842",
    "longitude": "-90.11251943583729",
    "latitude": "30.024110702783805",
    "geocoded_column": {
      "latitude": "30.024110702783805",
      "longitude": "-90.11251943583729"
    }
  },
  {
    "service_request": "2024-1132669",
    "request_type": "Streetlights",
    "request_reason": "Streetlight Outage/Malfunction",
    "date_created": "2024-09-17T17:35:57.000",
    "date_modified": "2024-09-17T17:35:59.000",
    "request_status": "Pending",
    "responsible_agency": "Department of Public Works",
    "final_address": "4917 St Claude Ave",
    "address_councildis": "E",
    "status": "Pending",
    "contractor": "Legacy Professional Services",
    "rowid": "1132669",
    "final_x": "3695860.19907",
    "final_y": "534474.466245",
    "longitude": "-90.02261950173137",
    "latitude": "29.963175600407713",
    "geocoded_column": {
      "latitude": "29.963175600407713",
      "longitude": "-90.02261950173137"
    }
  },
  {
    "service_request": "2024-1132668",
    "request_type": "Streetlights",
    "request_reason": "Streetlight Outage/Malfunction",
    "date_created": "2024-09-17T17:33:01.000",
    "date_modified": "2024-09-17T17:33:02.000",
    "request_status": "Pending",
    "responsible_agency": "Department of Public Works",
    "final_address": "1101 Tennessee St",
    "address_councildis": "E",
    "status": "Pending",
    "contractor": "Legacy Professional Services",
    "rowid": "1132668",
    "final_x": "3695768.98883",
    "final_y": "534457.075269",
    "longitude": "-90.02290815958567",
    "latitude": "29.96313064990324",
    "geocoded_column": {
      "latitude": "29.96313064990324",
      "longitude": "-90.02290815958567"
    }
  },
  {
    "service_request": "2024-1132667",
    "request_type": "Trash/Recycling",
    "request_reason": "Missed Trash Pick-Up",
    "date_created": "2024-09-17T17:31:45.000",
    "date_modified": "2024-09-17T17:31:46.000",
    "request_status": "Pending",
    "responsible_agency": "Department of Sanitation",
    "final_address": "6381 Catina St",
    "address_councildis": "A",
    "status": "Assigned to Contractor",
    "contractor": "IV Waste",
    "rowid": "1132667",
    "final_x": "3667027.70548",
    "final_y": "550251.00706",
    "longitude": "-90.1131389420896",
    "latitude": "30.007431107116666",
    "geocoded_column": {
      "latitude": "30.007431107116666",
      "longitude": "-90.1131389420896"
    }
  },
  {
    "service_request": "2024-1132666",
    "request_type": "Streetlights",
    "request_reason": "Streetlight Outage/Malfunction",
    "date_created": "2024-09-17T17:31:04.000",
    "date_modified": "2024-09-17T17:31:06.000",
    "request_status": "Pending",
    "responsible_agency": "Department of Public Works",
    "final_address": "1125 Tennessee St",
    "address_councildis": "E",
    "status": "Pending",
    "contractor": "Legacy Professional Services",
    "rowid": "1132666",
    "final_x": "3695816.29373",
    "final_y": "534584.537541",
    "longitude": "-90.02275417329021",
    "latitude": "29.96347963835423",
    "geocoded_column": {
      "latitude": "29.96347963835423",
      "longitude": "-90.02275417329021"
    }
  },
  {
    "service_request": "2024-1132665",
    "request_type": "Trash/Recycling",
    "request_reason": "Request a Large Item Pick Up",
    "date_created": "2024-09-17T17:23:49.000",
    "date_modified": "2024-09-17T17:23:50.000",
    "request_status": "Pending",
    "responsible_agency": "Department of Sanitation",
    "final_address": "7620 Oak St",
    "address_councildis": "A",
    "status": "Assigned to Contractor",
    "contractor": "IV Waste",
    "rowid": "1132665",
    "final_x": "3663133.39975",
    "final_y": "527262.984191",
    "longitude": "-90.12620732190256",
    "latitude": "29.944335134237356",
    "geocoded_column": {
      "latitude": "29.944335134237356",
      "longitude": "-90.12620732190256"
    }
  },
  {
    "service_request": "2024-1132664",
    "request_type": "Drainage",
    "request_reason": "Catch Basin Clogged",
    "date_created": "2024-09-17T17:23:36.000",
    "date_modified": "2024-09-17T17:23:36.000",
    "request_status": "Pending",
    "responsible_agency": "Department of Public Works",
    "final_address": "300 Jewel St",
    "address_councildis": "D",
    "status": "Pending",
    "rowid": "1132664",
    "final_x": "3667462.13908",
    "final_y": "555718.655257",
    "longitude": "-90.11158225566844",
    "latitude": "30.022452488455762",
    "geocoded_column": {
      "latitude": "30.022452488455762",
      "longitude": "-90.11158225566844"
    }
  },
  {
    "service_request": "2024-1132663",
    "request_type": "Trash/Recycling",
    "request_reason": "Storm Debris Collection",
    "date_created": "2024-09-17T17:20:34.000",
    "date_modified": "2024-09-17T17:20:34.000",
    "request_status": "Pending",
    "responsible_agency": "Department of Sanitation",
    "final_address": "20837 Old Spanish Trl",
    "address_councildis": "E",
    "status": "Pending",
    "rowid": "1132663",
    "final_x": "3763301.67632",
    "final_y": "572382.384361",
    "longitude": "-89.8080596420728",
    "latitude": "30.06511219613801",
    "geocoded_column": {
      "latitude": "30.06511219613801",
      "longitude": "-89.8080596420728"
    }
  },
  {
    "service_request": "2024-1132662",
    "request_type": "Drainage",
    "request_reason": "Catch Basin Clogged",
    "date_created": "2024-09-17T17:20:19.000",
    "date_modified": "2024-09-17T17:20:19.000",
    "request_status": "Pending",
    "responsible_agency": "Department of Public Works",
    "final_address": "322 Jewel St",
    "address_councildis": "D",
    "status": "Pending",
    "rowid": "1132662",
    "final_x": "3667622.65697",
    "final_y": "555757.947353",
    "longitude": "-90.11107373158005",
    "latitude": "30.0225558207235",
    "geocoded_column": {
      "latitude": "30.0225558207235",
      "longitude": "-90.11107373158005"
    }
  },
  {
    "service_request": "2024-1132661",
    "request_type": "Drainage",
    "request_reason": "Catch Basin Clogged",
    "date_created": "2024-09-17T17:18:08.000",
    "date_modified": "2024-09-17T17:18:08.000",
    "request_status": "Pending",
    "responsible_agency": "Department of Public Works",
    "final_address": "321 Jewel St",
    "address_councildis": "D",
    "status": "Pending",
    "rowid": "1132661",
    "final_x": "3667625.46305",
    "final_y": "555898.773785",
    "longitude": "-90.11106011839301",
    "latitude": "30.02294296106776",
    "geocoded_column": {
      "latitude": "30.02294296106776",
      "longitude": "-90.11106011839301"
    }
  },
  {
    "service_request": "2024-1132660",
    "request_type": "Utility Poles",
    "request_reason": "Utility Pole Leaning",
    "date_created": "2024-09-17T17:14:14.000",
    "date_modified": "2024-09-17T17:14:18.000",
    "request_status": "Pending",
    "responsible_agency": "Utility Company Collective",
    "final_address": "2001 Octavia St",
    "address_councildis": "A",
    "status": "Pending",
    "rowid": "1132660",
    "final_x": "3667449.02637",
    "final_y": "523057.099451",
    "longitude": "-90.11272306005515",
    "latitude": "29.93264458386145",
    "geocoded_column": {
      "latitude": "29.93264458386145",
      "longitude": "-90.11272306005515"
    }
  },
  {
    "service_request": "2024-1132659",
    "request_type": "Abandoned Vehicles",
    "request_reason": "Abandoned/Junk Vehicles",
    "date_created": "2024-09-17T17:13:56.000",
    "date_modified": "2024-09-17T17:13:56.000",
    "request_status": "Pending",
    "responsible_agency": "Department of Public Works",
    "final_address": "321 Jewel St",
    "address_councildis": "D",
    "status": "Pending",
    "rowid": "1132659",
    "final_x": "3667625.46305",
    "final_y": "555898.773785",
    "longitude": "-90.11106011839301",
    "latitude": "30.02294296106776",
    "geocoded_column": {
      "latitude": "30.02294296106776",
      "longitude": "-90.11106011839301"
    }
  },
  {
    "service_request": "2024-1132658",
    "request_type": "Trash/Recycling",
    "request_reason": "Replace Recycling Cart",
    "date_created": "2024-09-17T17:12:44.000",
    "date_modified": "2024-09-17T17:12:44.000",
    "request_status": "Pending",
    "responsible_agency": "Department of Sanitation",
    "final_address": "3124 State Street Dr",
    "address_councildis": "A",
    "status": "Pending",
    "rowid": "1132658",
    "final_x": "3667387.59604",
    "final_y": "527691.611135",
    "longitude": "-90.11276114113406",
    "latitude": "29.9453898011865",
    "geocoded_column": {
      "latitude": "29.9453898011865",
      "longitude": "-90.11276114113406"
    }
  },
  {
    "service_request": "2024-1132656",
    "request_type": "Utility Poles",
    "request_reason": "Utility Pole Leaning",
    "date_created": "2024-09-17T17:11:18.000",
    "date_modified": "2024-09-17T17:11:24.000",
    "request_status": "Pending",
    "responsible_agency": "Utility Company Collective",
    "final_address": "2001 Octavia St",
    "address_councildis": "A",
    "status": "Pending",
    "rowid": "1132656",
    "final_x": "3667449.02637",
    "final_y": "523057.099451",
    "longitude": "-90.11272306005515",
    "latitude": "29.93264458386145",
    "geocoded_column": {
      "latitude": "29.93264458386145",
      "longitude": "-90.11272306005515"
    }
  },
  {
    "service_request": "2024-1132655",
    "request_type": "Abandoned Vehicles",
    "request_reason": "Abandoned/Junk Vehicles",
    "date_created": "2024-09-17T17:10:17.000",
    "date_modified": "2024-09-17T17:10:17.000",
    "request_status": "Pending",
    "responsible_agency": "Department of Public Works",
    "final_address": "1524 Pauline St",
    "address_councildis": "D",
    "status": "Pending",
    "rowid": "1132655",
    "final_x": "3691590.7654",
    "final_y": "537151.199304",
    "longitude": "-90.03600611890383",
    "latitude": "29.970669269692227",
    "geocoded_column": {
      "latitude": "29.970669269692227",
      "longitude": "-90.03600611890383"
    }
  },
  {
    "service_request": "2024-1132654",
    "request_type": "Trash/Recycling",
    "request_reason": "Request a Large Item Pick Up",
    "date_created": "2024-09-17T17:09:06.000",
    "date_modified": "2024-09-17T17:09:07.000",
    "request_status": "Pending",
    "responsible_agency": "Department of Sanitation",
    "final_address": "7 Richmond Pl",
    "address_councildis": "A",
    "status": "Assigned to Contractor",
    "contractor": "IV Waste",
    "rowid": "1132654",
    "final_x": "3666562.78925",
    "final_y": "523565.468667",
    "longitude": "-90.11550379053458",
    "latitude": "29.934068366285565",
    "geocoded_column": {
      "latitude": "29.934068366285565",
      "longitude": "-90.11550379053458"
    }
  },
  {
    "service_request": "2024-1132653",
    "request_type": "Traffic Signals",
    "request_reason": "Traffic Signal Malfunctioning or Damaged",
    "date_created": "2024-09-17T17:08:52.000",
    "date_modified": "2024-09-17T17:08:52.000",
    "request_status": "Pending",
    "responsible_agency": "Department of Public Works",
    "final_address": "CANAL ST & S GALVEZ ST & N GALVEZ ST",
    "address_councildis": "B",
    "status": "Pending",
    "rowid": "1132653",
    "final_x": "3677037.6",
    "final_y": "533879.68",
    "longitude": "-90.08207961809202",
    "latitude": "29.962118743098863",
    "geocoded_column": {
      "latitude": "29.962118743098863",
      "longitude": "-90.08207961809202"
    }
  },
  {
    "service_request": "2024-1132652",
    "request_type": "Property Maintenance",
    "request_reason": "Property Maintenance",
    "date_created": "2024-09-17T17:03:57.000",
    "date_modified": "2024-09-17T17:03:57.000",
    "request_status": "Pending",
    "responsible_agency": "Department of Code Enforcement",
    "final_address": "2013 Dumaine St",
    "address_councildis": "D",
    "status": "Pending",
    "rowid": "1132652",
    "final_x": "3679275.46517",
    "final_y": "535941.554887",
    "longitude": "-90.0749412704264",
    "latitude": "29.967720811895013",
    "geocoded_column": {
      "latitude": "29.967720811895013",
      "longitude": "-90.0749412704264"
    }
  },
  {
    "service_request": "2024-1132651",
    "request_type": "Trash/Recycling",
    "request_reason": "Repair Trash Cart",
    "date_created": "2024-09-17T17:02:28.000",
    "date_modified": "2024-09-17T17:02:30.000",
    "request_status": "Pending",
    "responsible_agency": "Department of Sanitation",
    "final_address": "1404 Constance St",
    "address_councildis": "B",
    "status": "Assigned to Contractor",
    "contractor": "IV Waste",
    "rowid": "1132651",
    "final_x": "3680745.70831",
    "final_y": "524377.791484",
    "longitude": "-90.07070061435826",
    "latitude": "29.935879880782228",
    "geocoded_column": {
      "latitude": "29.935879880782228",
      "longitude": "-90.07070061435826"
    }
  },
  {
    "service_request": "2024-1132650",
    "request_type": "Parks & Parkways",
    "request_reason": "Request Tree Service (Right of Way/Public Property)",
    "date_created": "2024-09-17T17:00:22.000",
    "date_modified": "2024-09-17T17:00:23.000",
    "request_status": "Pending",
    "responsible_agency": "Department of Parks & Parkway",
    "final_address": "CADILLAC ST & SENATE ST",
    "address_councildis": "D",
    "status": "Pending",
    "rowid": "1132650",
    "final_x": "3676918.7",
    "final_y": "547143.08",
    "longitude": "-90.08199768675662",
    "latitude": "29.998592085445534",
    "geocoded_column": {
      "latitude": "29.998592085445534",
      "longitude": "-90.08199768675662"
    }
  },
  {
    "service_request": "2024-1132649",
    "request_type": "Trash/Recycling",
    "request_reason": "Storm Debris Collection",
    "date_created": "2024-09-17T16:55:26.000",
    "date_modified": "2024-09-17T16:55:27.000",
    "request_status": "Pending",
    "responsible_agency": "Department of Sanitation",
    "final_address": "6316 Patton St",
    "address_councildis": "A",
    "status": "Pending",
    "rowid": "1132649",
    "final_x": "3663033.93152",
    "final_y": "519125.640439",
    "longitude": "-90.12679190317127",
    "latitude": "29.921962888481684",
    "geocoded_column": {
      "latitude": "29.921962888481684",
      "longitude": "-90.12679190317127"
    }
  },
  {
    "service_request": "2024-1132648",
    "request_type": "Roads and Streets",
    "request_reason": "Debris in Driving Lanes",
    "date_created": "2024-09-17T16:51:10.000",
    "date_modified": "2024-09-17T16:51:27.000",
    "request_status": "Pending",
    "responsible_agency": "Department of Public Works",
    "final_address": "RAY AVE & CHEF MENTEUR HWY",
    "address_councildis": "E",
    "rowid": "1132648",
    "final_x": "3699023.3",
    "final_y": "551837.78",
    "longitude": "-90.0119985711506",
    "latitude": "30.01081847936158",
    "geocoded_column": {
      "latitude": "30.01081847936158",
      "longitude": "-90.0119985711506"
    }
  },
  {
    "service_request": "2024-1132647",
    "request_type": "Trash/Recycling",
    "request_reason": "Missed Trash Pick-Up",
    "date_created": "2024-09-17T16:41:53.000",
    "date_modified": "2024-09-17T16:41:55.000",
    "request_status": "Pending",
    "responsible_agency": "Department of Sanitation",
    "final_address": "10900 Roger Dr Apt C",
    "address_councildis": "E",
    "status": "Assigned to Contractor",
    "contractor": "Waste Pro",
    "rowid": "1132647",
    "final_x": "3711960.91794",
    "final_y": "563182.783456",
    "longitude": "-89.97069774822442",
    "latitude": "30.041596194904827",
    "geocoded_column": {
      "latitude": "30.041596194904827",
      "longitude": "-89.97069774822442"
    }
  },
  {
    "service_request": "2024-1132645",
    "request_type": "Safety & Permits",
    "request_reason": "Construction permit",
    "date_created": "2024-09-17T16:39:29.000",
    "date_modified": "2024-09-17T16:39:29.000",
    "request_status": "Pending",
    "responsible_agency": "Safety and Permits",
    "final_address": "2025 Dumaine St",
    "address_councildis": "D",
    "status": "Pending",
    "rowid": "1132645",
    "final_x": "3679200.72162",
    "final_y": "536009.613703",
    "longitude": "-90.07517495256164",
    "latitude": "29.967910207220616",
    "geocoded_column": {
      "latitude": "29.967910207220616",
      "longitude": "-90.07517495256164"
    }
  },
  {
    "service_request": "2024-1132644",
    "request_type": "Trash/Recycling",
    "request_reason": "Request a Large Item Pick Up",
    "date_created": "2024-09-17T16:38:53.000",
    "date_modified": "2024-09-17T16:38:54.000",
    "request_status": "Pending",
    "responsible_agency": "Department of Sanitation",
    "final_address": "20 Chatham Dr",
    "address_councildis": "D",
    "status": "Assigned to Contractor",
    "contractor": "IV Waste",
    "rowid": "1132644",
    "final_x": "3679832.0733",
    "final_y": "551177.339669",
    "longitude": "-90.0726541153853",
    "latitude": "30.009597053639535",
    "geocoded_column": {
      "latitude": "30.009597053639535",
      "longitude": "-90.0726541153853"
    }
  },
  {
    "service_request": "2024-1132643",
    "request_type": "Trash/Recycling",
    "request_reason": "Request a Large Item Pick Up",
    "date_created": "2024-09-17T16:37:05.000",
    "date_modified": "2024-09-17T16:37:07.000",
    "request_status": "Pending",
    "responsible_agency": "Department of Sanitation",
    "final_address": "4040 Vendome Pl",
    "address_councildis": "B",
    "status": "Assigned to Contractor",
    "contractor": "IV Waste",
    "rowid": "1132643",
    "final_x": "3668696.02318",
    "final_y": "530268.034369",
    "longitude": "-90.10854305394817",
    "latitude": "29.952435736361668",
    "geocoded_column": {
      "latitude": "29.952435736361668",
      "longitude": "-90.10854305394817"
    }
  },
  {
    "service_request": "2024-1132642",
    "request_type": "Trash/Recycling",
    "request_reason": "Return Recycling Cart",
    "date_created": "2024-09-17T16:36:36.000",
    "date_modified": "2024-09-17T16:36:37.000",
    "request_status": "Pending",
    "responsible_agency": "Department of Sanitation",
    "final_address": "1509 N Rocheblave St",
    "address_councildis": "D",
    "status": "Pending",
    "rowid": "1132642",
    "final_x": "3679518.66773",
    "final_y": "539011.909322",
    "longitude": "-90.0740666694187",
    "latitude": "29.976155884528392",
    "geocoded_column": {
      "latitude": "29.976155884528392",
      "longitude": "-90.0740666694187"
    }
  },
  {
    "service_request": "2024-1132640",
    "request_type": "Trash/Recycling",
    "request_reason": "Order Recycling Cart",
    "date_created": "2024-09-17T16:35:44.000",
    "date_modified": "2024-09-17T16:35:45.000",
    "request_status": "Pending",
    "responsible_agency": "Department of Sanitation",
    "final_address": "2232 St Nick Dr",
    "address_councildis": "C",
    "status": "Pending",
    "rowid": "1132640",
    "final_x": "3699803.17674",
    "final_y": "522732.02873",
    "longitude": "-90.01059617709042",
    "latitude": "29.930763417459477",
    "geocoded_column": {
      "latitude": "29.930763417459477",
      "longitude": "-90.01059617709042"
    }
  },
  {
    "service_request": "2024-1132641",
    "request_type": "Trash/Recycling",
    "request_reason": "Storm Debris Collection",
    "date_created": "2024-09-17T16:35:44.000",
    "date_modified": "2024-09-17T16:35:45.000",
    "request_status": "Pending",
    "responsible_agency": "Department of Sanitation",
    "final_address": "2135 Lamanche St",
    "address_councildis": "E",
    "status": "Pending",
    "rowid": "1132641",
    "final_x": "3699472.43594",
    "final_y": "537680.903816",
    "longitude": "-90.0110957093178",
    "latitude": "29.97187804222866",
    "geocoded_column": {
      "latitude": "29.97187804222866",
      "longitude": "-90.0110957093178"
    }
  },
  {
    "service_request": "2024-1132639",
    "request_type": "Trash/Recycling",
    "request_reason": "Request a Large Item Pick Up",
    "date_created": "2024-09-17T16:35:03.000",
    "date_modified": "2024-09-17T16:35:05.000",
    "request_status": "Pending",
    "responsible_agency": "Department of Sanitation",
    "final_address": "20 Chatham Dr",
    "address_councildis": "D",
    "status": "Assigned to Contractor",
    "contractor": "IV Waste",
    "rowid": "1132639",
    "final_x": "3679832.0733",
    "final_y": "551177.339669",
    "longitude": "-90.0726541153853",
    "latitude": "30.009597053639535",
    "geocoded_column": {
      "latitude": "30.009597053639535",
      "longitude": "-90.0726541153853"
    }
  },
  {
    "service_request": "2024-1132638",
    "request_type": "Abandoned Vehicles",
    "request_reason": "Abandoned/Junk Vehicles",
    "date_created": "2024-09-17T16:34:04.000",
    "date_modified": "2024-09-17T16:34:06.000",
    "request_status": "Pending",
    "responsible_agency": "Department of Public Works",
    "final_address": "1641 Hollygrove St",
    "address_councildis": "A",
    "status": "Pending",
    "rowid": "1132638",
    "final_x": "3660797.21062",
    "final_y": "531751.273731",
    "longitude": "-90.13343498717845",
    "latitude": "29.956743959245436",
    "geocoded_column": {
      "latitude": "29.956743959245436",
      "longitude": "-90.13343498717845"
    }
  },
  {
    "service_request": "2024-1132636",
    "request_type": "Streetlights",
    "request_reason": "Streetlight Outage/Malfunction",
    "date_created": "2024-09-17T16:32:08.000",
    "date_modified": "2024-09-17T16:32:09.000",
    "request_status": "Pending",
    "responsible_agency": "Department of Public Works",
    "final_address": "CANAL BLVD & FLORIDA BLVD",
    "address_councildis": "A",
    "status": "Pending",
    "contractor": "Legacy Professional Services",
    "rowid": "1132636",
    "final_x": "3668371.3",
    "final_y": "545343.08",
    "longitude": "-90.10905980065687",
    "latitude": "29.993896598145398",
    "geocoded_column": {
      "latitude": "29.993896598145398",
      "longitude": "-90.10905980065687"
    }
  },
  {
    "service_request": "2024-1132635",
    "request_type": "Trash/Recycling",
    "request_reason": "Missed Trash Pick-Up",
    "date_created": "2024-09-17T16:32:01.000",
    "date_modified": "2024-09-17T16:32:02.000",
    "request_status": "Pending",
    "responsible_agency": "Department of Sanitation",
    "final_address": "13943 Dwyer Blvd",
    "address_councildis": "E",
    "status": "Assigned to Contractor",
    "contractor": "Waste Pro",
    "rowid": "1132635",
    "final_x": "3728010.59366",
    "final_y": "562847.085472",
    "longitude": "-89.91998876990938",
    "latitude": "30.04013859774557",
    "geocoded_column": {
      "latitude": "30.04013859774557",
      "longitude": "-89.91998876990938"
    }
  },
  {
    "service_request": "2024-1132634",
    "request_type": "Streetlights",
    "request_reason": "Streetlight Outage/Malfunction",
    "date_created": "2024-09-17T16:31:36.000",
    "date_modified": "2024-09-17T16:31:37.000",
    "request_status": "Pending",
    "responsible_agency": "Department of Public Works",
    "final_address": "5725 General Diaz St",
    "address_councildis": "A",
    "status": "Pending",
    "contractor": "Legacy Professional Services",
    "rowid": "1132634",
    "final_x": "3669398.32666",
    "final_y": "545538.721616",
    "longitude": "-90.10580894181041",
    "latitude": "29.99440433255263",
    "geocoded_column": {
      "latitude": "29.99440433255263",
      "longitude": "-90.10580894181041"
    }
  },
  {
    "service_request": "2024-1132633",
    "request_type": "Streetlights",
    "request_reason": "Streetlight Outage/Malfunction",
    "date_created": "2024-09-17T16:30:36.000",
    "date_modified": "2024-09-17T16:30:37.000",
    "request_status": "Pending",
    "responsible_agency": "Department of Public Works",
    "final_address": "5703 General Diaz St",
    "address_councildis": "A",
    "status": "Pending",
    "contractor": "Legacy Professional Services",
    "rowid": "1132633",
    "final_x": "3669386.92756",
    "final_y": "545383.65992",
    "longitude": "-90.10585019741657",
    "latitude": "29.993978302089676",
    "geocoded_column": {
      "latitude": "29.993978302089676",
      "longitude": "-90.10585019741657"
    }
  },
  {
    "service_request": "2024-1132632",
    "request_type": "Property Maintenance",
    "request_reason": "Property Maintenance",
    "date_created": "2024-09-17T16:27:58.000",
    "date_modified": "2024-09-17T16:27:58.000",
    "request_status": "Pending",
    "responsible_agency": "Department of Code Enforcement",
    "final_address": "7816 Lehigh St",
    "address_councildis": "E",
    "status": "Pending",
    "rowid": "1132632",
    "final_x": "3710063.36913",
    "final_y": "566399.615203",
    "longitude": "-89.9765742628873",
    "latitude": "30.050503099351985",
    "geocoded_column": {
      "latitude": "30.050503099351985",
      "longitude": "-89.9765742628873"
    }
  },
  {
    "service_request": "2024-1132631",
    "request_type": "Roads and Streets",
    "request_reason": "Pothole",
    "date_created": "2024-09-17T16:26:37.000",
    "date_modified": "2024-09-17T16:28:21.000",
    "request_status": "Pending",
    "responsible_agency": "Department of Public Works",
    "final_address": "MEMORIAL PARK DR & ARIZONA ST",
    "address_councildis": "C",
    "status": "Pending",
    "rowid": "1132631",
    "final_x": "3692083.8",
    "final_y": "521803.08",
    "longitude": "-90.03499828191553",
    "latitude": "29.92845189157066",
    "geocoded_column": {
      "latitude": "29.92845189157066",
      "longitude": "-90.03499828191553"
    }
  },
  {
    "service_request": "2024-1132630",
    "request_type": "Trash/Recycling",
    "request_reason": "Repair Trash Cart",
    "date_created": "2024-09-17T16:25:06.000",
    "date_modified": "2024-09-17T16:25:07.000",
    "request_status": "Pending",
    "responsible_agency": "Department of Sanitation",
    "final_address": "317 Joseph St",
    "address_councildis": "A",
    "status": "Assigned to Contractor",
    "contractor": "IV Waste",
    "rowid": "1132630",
    "final_x": "3665809.01613",
    "final_y": "517296.027829",
    "longitude": "-90.11809334490091",
    "latitude": "29.916851386421325",
    "geocoded_column": {
      "latitude": "29.916851386421325",
      "longitude": "-90.11809334490091"
    }
  },
  {
    "service_request": "2024-1132629",
    "request_type": "Streetlights",
    "request_reason": "Streetlight Outage/Malfunction",
    "date_created": "2024-09-17T16:22:26.000",
    "date_modified": "2024-09-17T16:23:42.000",
    "request_status": "Pending",
    "responsible_agency": "Department of Public Works",
    "final_address": "2125 Laharpe St",
    "address_councildis": "D",
    "status": "Pending",
    "contractor": "Legacy Professional Services",
    "rowid": "1132629",
    "final_x": "3680415.81231",
    "final_y": "538762.038921",
    "longitude": "-90.07124191662122",
    "latitude": "29.97544168662399",
    "geocoded_column": {
      "latitude": "29.97544168662399",
      "longitude": "-90.07124191662122"
    }
  },
  {
    "service_request": "2024-1132628",
    "request_type": "Trash/Recycling",
    "request_reason": "Request a Large Item Pick Up",
    "date_created": "2024-09-17T16:22:10.000",
    "date_modified": "2024-09-17T16:23:34.000",
    "request_status": "Pending",
    "responsible_agency": "Department of Sanitation",
    "final_address": "8600 Lake Forest Blvd",
    "address_councildis": "E",
    "status": "Assigned to Contractor",
    "contractor": "Waste Pro",
    "rowid": "1132628",
    "final_x": "3706233.01867",
    "final_y": "557882.382491",
    "longitude": "-89.98899638685525",
    "latitude": "30.027208226926486",
    "geocoded_column": {
      "latitude": "30.027208226926486",
      "longitude": "-89.98899638685525"
    }
  },
  {
    "service_request": "2024-1132627",
    "request_type": "Property Maintenance",
    "request_reason": "Property Maintenance",
    "date_created": "2024-09-17T16:20:02.000",
    "date_modified": "2024-09-17T16:21:24.000",
    "request_status": "Pending",
    "responsible_agency": "Department of Code Enforcement",
    "final_address": "6700 Cindy Pl",
    "address_councildis": "E",
    "status": "Pending",
    "rowid": "1132627",
    "final_x": "3707199.446",
    "final_y": "558627.075036",
    "longitude": "-89.98591491844806",
    "latitude": "30.02922462809095",
    "geocoded_column": {
      "latitude": "30.02922462809095",
      "longitude": "-89.98591491844806"
    }
  },
  {
    "service_request": "2024-1132626",
    "request_type": "Streetlights",
    "request_reason": "Streetlight Outage/Malfunction",
    "date_created": "2024-09-17T16:18:23.000",
    "date_modified": "2024-09-17T16:18:55.000",
    "request_status": "Pending",
    "responsible_agency": "Department of Public Works",
    "final_address": "8008 Brevard Ave",
    "address_councildis": "E",
    "status": "Pending",
    "contractor": "Legacy Professional Services",
    "rowid": "1132626",
    "final_x": "3705721.62129",
    "final_y": "564523.608993",
    "longitude": "-89.99036638420274",
    "latitude": "30.045485472343625",
    "geocoded_column": {
      "latitude": "30.045485472343625",
      "longitude": "-89.99036638420274"
    }
  },
  {
    "service_request": "2024-1132625",
    "request_type": "Trash/Recycling",
    "request_reason": "Missed Trash Pick-Up",
    "date_created": "2024-09-17T16:16:45.000",
    "date_modified": "2024-09-17T16:16:47.000",
    "request_status": "Pending",
    "responsible_agency": "Department of Sanitation",
    "final_address": "8710 Scottsdale Dr",
    "address_councildis": "E",
    "status": "Assigned to Contractor",
    "contractor": "Waste Pro",
    "rowid": "1132625",
    "final_x": "3704928.1562",
    "final_y": "561737.181215",
    "longitude": "-89.99297711663168",
    "latitude": "30.03784944459812",
    "geocoded_column": {
      "latitude": "30.03784944459812",
      "longitude": "-89.99297711663168"
    }
  },
  {
    "service_request": "2024-1132624",
    "request_type": "Property Maintenance",
    "request_reason": "Property Maintenance",
    "date_created": "2024-09-17T16:15:52.000",
    "date_modified": "2024-09-17T16:15:52.000",
    "request_status": "Pending",
    "responsible_agency": "Department of Code Enforcement",
    "final_address": "2208 Pauger St",
    "address_councildis": "C",
    "status": "Pending",
    "rowid": "1132624",
    "final_x": "3683714.36873",
    "final_y": "537782.03124",
    "longitude": "-90.06085856723308",
    "latitude": "29.97264669367591",
    "geocoded_column": {
      "latitude": "29.97264669367591",
      "longitude": "-90.06085856723308"
    }
  },
  {
    "service_request": "2024-1132623",
    "request_type": "Property Maintenance",
    "request_reason": "Property Maintenance",
    "date_created": "2024-09-17T16:15:46.000",
    "date_modified": "2024-09-17T16:16:26.000",
    "request_status": "Pending",
    "responsible_agency": "Department of Code Enforcement",
    "final_address": "8008 Brevard Ave",
    "address_councildis": "E",
    "status": "Pending",
    "rowid": "1132623",
    "final_x": "3705721.62129",
    "final_y": "564523.608993",
    "longitude": "-89.99036638420274",
    "latitude": "30.045485472343625",
    "geocoded_column": {
      "latitude": "30.045485472343625",
      "longitude": "-89.99036638420274"
    }
  },
  {
    "service_request": "2024-1132622",
    "request_type": "Trash/Recycling",
    "request_reason": "Storm Debris Collection",
    "date_created": "2024-09-17T16:12:39.000",
    "date_modified": "2024-09-17T16:12:39.000",
    "request_status": "Pending",
    "responsible_agency": "Department of Sanitation",
    "final_address": "15 Sugarberry Pl",
    "address_councildis": "C",
    "status": "Pending",
    "rowid": "1132622",
    "final_x": "3717105.68639",
    "final_y": "516351.303669",
    "longitude": "-89.95621735740903",
    "latitude": "29.912658156383166",
    "geocoded_column": {
      "latitude": "29.912658156383166",
      "longitude": "-89.95621735740903"
    }
  },
  {
    "service_request": "2024-1132621",
    "request_type": "Trash/Recycling",
    "request_reason": "Storm Debris Collection",
    "date_created": "2024-09-17T16:12:08.000",
    "date_modified": "2024-09-17T16:12:08.000",
    "request_status": "Pending",
    "responsible_agency": "Department of Sanitation",
    "final_address": "3812 Socrates St",
    "address_councildis": "C",
    "status": "Pending",
    "rowid": "1132621",
    "final_x": "3698314.63351",
    "final_y": "526044.202238",
    "longitude": "-90.01517498338039",
    "latitude": "29.939917913808483",
    "geocoded_column": {
      "latitude": "29.939917913808483",
      "longitude": "-90.01517498338039"
    }
  },
  {
    "service_request": "2024-1132620",
    "request_type": "Trash/Recycling",
    "request_reason": "Storm Debris Collection",
    "date_created": "2024-09-17T16:11:45.000",
    "date_modified": "2024-09-17T16:11:45.000",
    "request_status": "Pending",
    "responsible_agency": "Department of Sanitation",
    "final_address": "1243 Richland Rd",
    "address_councildis": "C",
    "status": "Pending",
    "rowid": "1132620",
    "final_x": "3697917.67568",
    "final_y": "526612.254718",
    "longitude": "-90.01640761839936",
    "latitude": "29.941492411211158",
    "geocoded_column": {
      "latitude": "29.941492411211158",
      "longitude": "-90.01640761839936"
    }
  },
  {
    "service_request": "2024-1132619",
    "request_type": "Trash/Recycling",
    "request_reason": "Storm Debris Collection",
    "date_created": "2024-09-17T16:11:19.000",
    "date_modified": "2024-09-17T16:11:19.000",
    "request_status": "Pending",
    "responsible_agency": "Department of Sanitation",
    "final_address": "1200 BLK General Collins Ave",
    "address_councildis": "C",
    "status": "Pending",
    "rowid": "1132619",
    "final_x": "3698576.26948",
    "final_y": "526515.499906",
    "longitude": "-90.01433183695437",
    "latitude": "29.94120553977414",
    "geocoded_column": {
      "latitude": "29.94120553977414",
      "longitude": "-90.01433183695437"
    }
  },
  {
    "service_request": "2024-1132618",
    "request_type": "Property Maintenance",
    "request_reason": "Property Maintenance",
    "date_created": "2024-09-17T16:10:59.000",
    "date_modified": "2024-09-17T16:11:00.000",
    "request_status": "Pending",
    "responsible_agency": "Department of Code Enforcement",
    "final_address": "2003 Kerlerec St",
    "address_councildis": "D",
    "status": "Pending",
    "rowid": "1132618",
    "final_x": "3680363.51253",
    "final_y": "537812.14292",
    "longitude": "-90.0714401322197",
    "latitude": "29.972831384594304",
    "geocoded_column": {
      "latitude": "29.972831384594304",
      "longitude": "-90.0714401322197"
    }
  },
  {
    "service_request": "2024-1132617",
    "request_type": "Trash/Recycling",
    "request_reason": "Storm Debris Collection",
    "date_created": "2024-09-17T16:10:42.000",
    "date_modified": "2024-09-17T16:10:42.000",
    "request_status": "Pending",
    "responsible_agency": "Department of Sanitation",
    "final_address": "1320 General Collins Ave",
    "address_councildis": "C",
    "status": "Pending",
    "rowid": "1132617",
    "final_x": "3698636.86839",
    "final_y": "526330.24083",
    "longitude": "-90.0141472497775",
    "latitude": "29.940694223616166",
    "geocoded_column": {
      "latitude": "29.940694223616166",
      "longitude": "-90.0141472497775"
    }
  },
  {
    "service_request": "2024-1132616",
    "request_type": "Trash/Recycling",
    "request_reason": "Storm Debris Collection",
    "date_created": "2024-09-17T16:10:10.000",
    "date_modified": "2024-09-17T16:10:10.000",
    "request_status": "Pending",
    "responsible_agency": "Department of Sanitation",
    "final_address": "1400 BLK General Collins Ave",
    "address_councildis": "C",
    "status": "Pending",
    "rowid": "1132616",
    "final_x": "3698533.70329",
    "final_y": "525533.243669",
    "longitude": "-90.0145019191335",
    "latitude": "29.938506023929403",
    "geocoded_column": {
      "latitude": "29.938506023929403",
      "longitude": "-90.0145019191335"
    }
  },
  {
    "service_request": "2024-1132615",
    "request_type": "Trash/Recycling",
    "request_reason": "Storm Debris Collection",
    "date_created": "2024-09-17T16:09:38.000",
    "date_modified": "2024-09-17T16:09:38.000",
    "request_status": "Pending",
    "responsible_agency": "Department of Sanitation",
    "final_address": "1515 General Collins Ave",
    "address_councildis": "C",
    "status": "Pending",
    "rowid": "1132615",
    "final_x": "3698432.04304",
    "final_y": "525564.417661",
    "longitude": "-90.01482173653862",
    "latitude": "29.938594958525236",
    "geocoded_column": {
      "latitude": "29.938594958525236",
      "longitude": "-90.01482173653862"
    }
  },
  {
    "service_request": "2024-1132614",
    "request_type": "Trash/Recycling",
    "request_reason": "Request a Large Item Pick Up",
    "date_created": "2024-09-17T16:08:25.000",
    "date_modified": "2024-09-17T16:08:27.000",
    "request_status": "Pending",
    "responsible_agency": "Department of Sanitation",
    "final_address": "7701 Sandy Cove Dr",
    "address_councildis": "E",
    "status": "Assigned to Contractor",
    "contractor": "Waste Pro",
    "rowid": "1132614",
    "final_x": "3715422.05951",
    "final_y": "569682.840742",
    "longitude": "-89.95951310105352",
    "latitude": "30.059355066162887",
    "geocoded_column": {
      "latitude": "30.059355066162887",
      "longitude": "-89.95951310105352"
    }
  },
  {
    "service_request": "2024-1132613",
    "request_type": "Trash/Recycling",
    "request_reason": "Replace Trash Cart",
    "date_created": "2024-09-17T16:05:09.000",
    "date_modified": "2024-09-17T16:05:10.000",
    "request_status": "Pending",
    "responsible_agency": "Department of Sanitation",
    "final_address": "5371 Charlotte Dr",
    "address_councildis": "D",
    "status": "Assigned to Contractor",
    "contractor": "IV Waste",
    "rowid": "1132613",
    "final_x": "3680175.03522",
    "final_y": "552186.528918",
    "longitude": "-90.07153546760732",
    "latitude": "30.01236158043314",
    "geocoded_column": {
      "latitude": "30.01236158043314",
      "longitude": "-90.07153546760732"
    }
  },
  {
    "service_request": "2024-1132612",
    "request_type": "Parks & Parkways",
    "request_reason": "Request Tree Service (Right of Way/Public Property)",
    "date_created": "2024-09-17T16:04:25.000",
    "date_modified": "2024-09-17T16:04:26.000",
    "request_status": "Pending",
    "responsible_agency": "Department of Parks & Parkway",
    "final_address": "5120 St Charles Ave",
    "address_councildis": "B",
    "status": "Pending",
    "rowid": "1132612",
    "final_x": "3668257.95028",
    "final_y": "520882.598329",
    "longitude": "-90.1102426213579",
    "latitude": "29.926641679511686",
    "geocoded_column": {
      "latitude": "29.926641679511686",
      "longitude": "-90.1102426213579"
    }
  },
  {
    "service_request": "2024-1132611",
    "request_type": "Trash/Recycling",
    "request_reason": "Repair Trash Cart",
    "date_created": "2024-09-17T16:02:56.000",
    "date_modified": "2024-09-17T16:02:57.000",
    "request_status": "Pending",
    "responsible_agency": "Department of Sanitation",
    "final_address": "924 Cadiz St",
    "address_councildis": "B",
    "status": "Assigned to Contractor",
    "contractor": "IV Waste",
    "rowid": "1132611",
    "final_x": "3670254.53588",
    "final_y": "518943.137911",
    "longitude": "-90.10400561273318",
    "latitude": "29.921250028508346",
    "geocoded_column": {
      "latitude": "29.921250028508346",
      "longitude": "-90.10400561273318"
    }
  },
  {
    "service_request": "2024-1132610",
    "request_type": "Safety & Permits",
    "request_reason": "Licenses & Permits",
    "date_created": "2024-09-17T16:02:15.000",
    "date_modified": "2024-09-17T16:02:15.000",
    "request_status": "Pending",
    "responsible_agency": "Safety and Permits",
    "final_address": "1301 Lowerline St",
    "address_councildis": "A",
    "status": "Pending",
    "rowid": "1132610",
    "final_x": "3663936.01907",
    "final_y": "527129.486399",
    "longitude": "-90.12367766068427",
    "latitude": "29.943944783899397",
    "geocoded_column": {
      "latitude": "29.943944783899397",
      "longitude": "-90.12367766068427"
    }
  },
  {
    "service_request": "2024-1132609",
    "request_type": "Street and Traffic Signs",
    "request_reason": "One Way Sign Missing or Damaged",
    "date_created": "2024-09-17T16:01:40.000",
    "date_modified": "2024-09-17T16:01:41.000",
    "request_status": "Pending",
    "responsible_agency": "Department of Public Works",
    "final_address": "ESPLANADE AVE & N JOHNSON ST",
    "address_councildis": "D",
    "status": "Pending",
    "rowid": "1132609",
    "final_x": "3680159.2",
    "final_y": "537468.48",
    "longitude": "-90.07209733608087",
    "latitude": "29.97189261527131",
    "geocoded_column": {
      "latitude": "29.97189261527131",
      "longitude": "-90.07209733608087"
    }
  },
  {
    "service_request": "2024-1132608",
    "request_type": "Trash/Recycling",
    "request_reason": "Illegal Dumping",
    "date_created": "2024-09-17T16:00:36.000",
    "date_modified": "2024-09-17T16:00:37.000",
    "request_status": "Pending",
    "responsible_agency": "Department of Sanitation",
    "final_address": "ST CHARLES AVE & DUFOSSAT ST",
    "address_councildis": "B",
    "status": "Pending",
    "rowid": "1132608",
    "final_x": "3668121.6",
    "final_y": "521127.98",
    "longitude": "-90.11066477801029",
    "latitude": "29.927320402449894",
    "geocoded_column": {
      "latitude": "29.927320402449894",
      "longitude": "-90.11066477801029"
    }
  },
  {
    "service_request": "2024-1132606",
    "request_type": "Trash/Recycling",
    "request_reason": "Return Trash Cart",
    "date_created": "2024-09-17T15:59:28.000",
    "date_modified": "2024-09-17T15:59:29.000",
    "request_status": "Pending",
    "responsible_agency": "Department of Sanitation",
    "final_address": "1822 Short St",
    "address_councildis": "A",
    "status": "Assigned to Contractor",
    "contractor": "IV Waste",
    "rowid": "1132606",
    "final_x": "3663812.6889",
    "final_y": "529787.821697",
    "longitude": "-90.12397846625423",
    "latitude": "29.951257930475386",
    "geocoded_column": {
      "latitude": "29.951257930475386",
      "longitude": "-90.12397846625423"
    }
  },
  {
    "service_request": "2024-1132605",
    "request_type": "Trash/Recycling",
    "request_reason": "Missed Trash Pick-Up",
    "date_created": "2024-09-17T15:54:54.000",
    "date_modified": "2024-09-17T15:54:55.000",
    "request_status": "Pending",
    "responsible_agency": "Department of Sanitation",
    "final_address": "9310 Hayne Blvd",
    "address_councildis": "E",
    "status": "Assigned to Contractor",
    "contractor": "Waste Pro",
    "rowid": "1132605",
    "final_x": "3705555.61521",
    "final_y": "564630.089633",
    "longitude": "-89.99088709768064",
    "latitude": "30.045783600497586",
    "geocoded_column": {
      "latitude": "30.045783600497586",
      "longitude": "-89.99088709768064"
    }
  },
  {
    "service_request": "2024-1132604",
    "request_type": "Trash/Recycling",
    "request_reason": "Replace Trash Cart",
    "date_created": "2024-09-17T15:54:25.000",
    "date_modified": "2024-09-17T15:54:26.000",
    "request_status": "Pending",
    "responsible_agency": "Department of Sanitation",
    "final_address": "4835 Laine Ave",
    "address_councildis": "E",
    "status": "Assigned to Contractor",
    "contractor": "Waste Pro",
    "rowid": "1132604",
    "final_x": "3705700.86999",
    "final_y": "556026.694745",
    "longitude": "-89.99074662150112",
    "latitude": "30.02212296266946",
    "geocoded_column": {
      "latitude": "30.02212296266946",
      "longitude": "-89.99074662150112"
    }
  },
  {
    "service_request": "2024-1132603",
    "request_type": "Trash/Recycling",
    "request_reason": "Storm Debris Collection",
    "date_created": "2024-09-17T15:52:37.000",
    "date_modified": "2024-09-17T15:52:38.000",
    "request_status": "Pending",
    "responsible_agency": "Department of Sanitation",
    "final_address": "7431 Seven Oaks Rd",
    "address_councildis": "E",
    "status": "Pending",
    "rowid": "1132603",
    "final_x": "3712566.69944",
    "final_y": "565471.332194",
    "longitude": "-89.96869713997445",
    "latitude": "30.047868958029817",
    "geocoded_column": {
      "latitude": "30.047868958029817",
      "longitude": "-89.96869713997445"
    }
  },
  {
    "service_request": "2024-1132602",
    "request_type": "Trash/Recycling",
    "request_reason": "MIssed Recycling Pick-Up",
    "date_created": "2024-09-17T15:50:32.000",
    "date_modified": "2024-09-17T15:50:33.000",
    "request_status": "Pending",
    "responsible_agency": "Department of Sanitation",
    "final_address": "2549 Columbus St",
    "address_councildis": "D",
    "status": "Assigned to Contractor",
    "contractor": "IV Waste",
    "rowid": "1132602",
    "final_x": "3678818.17608",
    "final_y": "539472.589834",
    "longitude": "-90.0762630660567",
    "latitude": "29.977443746062747",
    "geocoded_column": {
      "latitude": "29.977443746062747",
      "longitude": "-90.0762630660567"
    }
  },
  {
    "service_request": "2024-1132601",
    "request_type": "Trash/Recycling",
    "request_reason": "Missed Trash Pick-Up",
    "date_created": "2024-09-17T15:50:22.000",
    "date_modified": "2024-09-17T15:50:23.000",
    "request_status": "Pending",
    "responsible_agency": "Department of Sanitation",
    "final_address": "2549 Columbus St",
    "address_councildis": "D",
    "status": "Assigned to Contractor",
    "contractor": "IV Waste",
    "rowid": "1132601",
    "final_x": "3678818.17608",
    "final_y": "539472.589834",
    "longitude": "-90.0762630660567",
    "latitude": "29.977443746062747",
    "geocoded_column": {
      "latitude": "29.977443746062747",
      "longitude": "-90.0762630660567"
    }
  },
  {
    "service_request": "2024-1132600",
    "request_type": "Trash/Recycling",
    "request_reason": "Repair Trash Cart",
    "date_created": "2024-09-17T15:49:51.000",
    "date_modified": "2024-09-17T15:49:52.000",
    "request_status": "Pending",
    "responsible_agency": "Department of Sanitation",
    "final_address": "514 Walnut St",
    "address_councildis": "A",
    "status": "Assigned to Contractor",
    "contractor": "IV Waste",
    "rowid": "1132600",
    "final_x": "3662950.28947",
    "final_y": "523780.358715",
    "longitude": "-90.12690122748427",
    "latitude": "29.934764324342282",
    "geocoded_column": {
      "latitude": "29.934764324342282",
      "longitude": "-90.12690122748427"
    }
  },
  {
    "service_request": "2024-1132599",
    "request_type": "Street and Traffic Signs",
    "request_reason": "Street Name Sign Damaged or Missing",
    "date_created": "2024-09-17T15:48:50.000",
    "date_modified": "2024-09-17T15:49:51.000",
    "request_status": "Pending",
    "responsible_agency": "Department of Public Works",
    "final_address": "EADS ST & ATHIS ST",
    "address_councildis": "D",
    "rowid": "1132599",
    "final_x": "3686837.8",
    "final_y": "554489.18",
    "longitude": "-90.05040345485682",
    "latitude": "30.018489598932256",
    "geocoded_column": {
      "latitude": "30.018489598932256",
      "longitude": "-90.05040345485682"
    }
  },
  {
    "service_request": "2024-1132598",
    "request_type": "Abandoned Vehicles",
    "request_reason": "Abandoned/Junk Vehicles",
    "date_created": "2024-09-17T15:47:41.000",
    "date_modified": "2024-09-17T15:47:41.000",
    "request_status": "Pending",
    "responsible_agency": "Department of Public Works",
    "final_address": "3019 Martin Luther King, Jr. Blvd",
    "address_councildis": "B",
    "status": "Pending",
    "rowid": "1132598",
    "final_x": "3674941.87841",
    "final_y": "528308.661248",
    "longitude": "-90.08888866350759",
    "latitude": "29.946863058356012",
    "geocoded_column": {
      "latitude": "29.946863058356012",
      "longitude": "-90.08888866350759"
    }
  },
  {
    "service_request": "2024-1132597",
    "request_type": "Property Maintenance",
    "request_reason": "Property Maintenance",
    "date_created": "2024-09-17T15:47:19.000",
    "date_modified": "2024-09-17T15:47:19.000",
    "request_status": "Pending",
    "responsible_agency": "Department of Code Enforcement",
    "final_address": "2019 Port St",
    "address_councildis": "D",
    "status": "Pending",
    "rowid": "1132597",
    "final_x": "3688349.31068",
    "final_y": "539925.962122",
    "longitude": "-90.04614455327936",
    "latitude": "29.978399403788284",
    "geocoded_column": {
      "latitude": "29.978399403788284",
      "longitude": "-90.04614455327936"
    }
  },
  {
    "service_request": "2024-1132596",
    "request_type": "Mosquito, Termite & Rodent Control",
    "request_reason": "Mosquito Complaint",
    "date_created": "2024-09-17T15:47:06.000",
    "date_modified": "2024-09-17T16:15:43.000",
    "case_close_date": "2024-09-17T11:15:43.000",
    "request_status": "Closed",
    "responsible_agency": "Mosquito, Termite & Rodent Control Board",
    "final_address": "14566 Beekman Rd",
    "address_councildis": "E",
    "status": "Resolved",
    "rowid": "1132596",
    "final_x": "3721086.73612",
    "final_y": "572994.197289",
    "longitude": "-89.94148055501043",
    "latitude": "30.06827194174913",
    "geocoded_column": {
      "latitude": "30.06827194174913",
      "longitude": "-89.94148055501043"
    }
  },
  {
    "service_request": "2024-1132595",
    "request_type": "Trash/Recycling",
    "request_reason": "Missed Trash Pick-Up",
    "date_created": "2024-09-17T15:46:42.000",
    "date_modified": "2024-09-17T15:46:44.000",
    "request_status": "Pending",
    "responsible_agency": "Department of Sanitation",
    "final_address": "6411 Memphis St",
    "address_councildis": "A",
    "status": "Assigned to Contractor",
    "contractor": "IV Waste",
    "rowid": "1132595",
    "final_x": "3669516.70433",
    "final_y": "550082.914388",
    "longitude": "-90.1052811564466",
    "latitude": "30.006895796650873",
    "geocoded_column": {
      "latitude": "30.006895796650873",
      "longitude": "-90.1052811564466"
    }
  },
  {
    "service_request": "2024-1132594",
    "request_type": "Abandoned Vehicles",
    "request_reason": "Abandoned/Junk Vehicles",
    "date_created": "2024-09-17T15:45:27.000",
    "date_modified": "2024-09-17T15:45:28.000",
    "request_status": "Pending",
    "responsible_agency": "Department of Public Works",
    "final_address": "1730 Murl St",
    "address_councildis": "C",
    "status": "Pending",
    "rowid": "1132594",
    "final_x": "3695409.03811",
    "final_y": "524899.063036",
    "longitude": "-90.02438962950227",
    "latitude": "29.936860764719942",
    "geocoded_column": {
      "latitude": "29.936860764719942",
      "longitude": "-90.02438962950227"
    }
  },
  {
    "service_request": "2024-1132593",
    "request_type": "Trash/Recycling",
    "request_reason": "Storm Debris Collection",
    "date_created": "2024-09-17T15:44:57.000",
    "date_modified": "2024-09-17T16:22:44.000",
    "request_status": "Pending",
    "responsible_agency": "Department of Sanitation",
    "final_address": "1738 Murl St",
    "address_councildis": "C",
    "rowid": "1132593",
    "final_x": "3695406.9921",
    "final_y": "524847.802428",
    "longitude": "-90.0243979374932",
    "latitude": "29.936719879942498",
    "geocoded_column": {
      "latitude": "29.936719879942498",
      "longitude": "-90.0243979374932"
    }
  },
  {
    "service_request": "2024-1132592",
    "request_type": "Hurricane Francine Tree-Related Issues or Emergencies\t",
    "request_reason": "Hurricane Francine Tree-Related Issues or Emergencies",
    "date_created": "2024-09-17T15:42:48.000",
    "date_modified": "2024-09-17T15:42:48.000",
    "request_status": "Pending",
    "responsible_agency": "Department of Parks & Parkway",
    "final_address": "6501 Wales St",
    "address_councildis": "E",
    "status": "Pending",
    "rowid": "1132592",
    "final_x": "3696926.26973",
    "final_y": "560269.432733",
    "longitude": "-90.01831815522675",
    "latitude": "30.034068646920286",
    "geocoded_column": {
      "latitude": "30.034068646920286",
      "longitude": "-90.01831815522675"
    }
  },
  {
    "service_request": "2024-1132591",
    "request_type": "Trash/Recycling",
    "request_reason": "Storm Debris Collection",
    "date_created": "2024-09-17T15:42:39.000",
    "date_modified": "2024-09-17T15:42:40.000",
    "request_status": "Pending",
    "responsible_agency": "Department of Sanitation",
    "final_address": "3150 Castine St",
    "address_councildis": "D",
    "status": "Pending",
    "rowid": "1132591",
    "final_x": "3677439.4973",
    "final_y": "544026.43739",
    "longitude": "-90.08046013658992",
    "latitude": "29.990006764056016",
    "geocoded_column": {
      "latitude": "29.990006764056016",
      "longitude": "-90.08046013658992"
    }
  },
  {
    "service_request": "2024-1132590",
    "request_type": "Abandoned Vehicles",
    "request_reason": "Abandoned/Junk Vehicles",
    "date_created": "2024-09-17T15:40:41.000",
    "date_modified": "2024-09-17T15:54:05.000",
    "request_status": "Pending",
    "responsible_agency": "Department of Public Works",
    "final_address": "340 33Rd St",
    "address_councildis": "A",
    "status": "Pending",
    "rowid": "1132590",
    "final_x": "3664960.1977",
    "final_y": "550932.735957",
    "longitude": "-90.1196480010975",
    "latitude": "30.00936600109564",
    "geocoded_column": {
      "latitude": "30.00936600109564",
      "longitude": "-90.1196480010975"
    }
  },
  {
    "service_request": "2024-1132589",
    "request_type": "Hurricane Francine Tree-Related Issues or Emergencies\t",
    "request_reason": "Hurricane Francine Tree-Related Issues or Emergencies",
    "date_created": "2024-09-17T15:40:19.000",
    "date_modified": "2024-09-17T15:40:19.000",
    "request_status": "Pending",
    "responsible_agency": "Department of Parks & Parkway",
    "final_address": "6501 Wales St",
    "address_councildis": "E",
    "status": "Pending",
    "rowid": "1132589",
    "final_x": "3696926.26973",
    "final_y": "560269.432733",
    "longitude": "-90.01831815522675",
    "latitude": "30.034068646920286",
    "geocoded_column": {
      "latitude": "30.034068646920286",
      "longitude": "-90.01831815522675"
    }
  },
  {
    "service_request": "2024-1132588",
    "request_type": "Drainage",
    "request_reason": "Catch Basin Clogged",
    "date_created": "2024-09-17T15:36:59.000",
    "date_modified": "2024-09-17T15:36:59.000",
    "request_status": "Pending",
    "responsible_agency": "Department of Public Works",
    "final_address": "2800 BLK Dante St",
    "address_councildis": "A",
    "status": "Pending",
    "rowid": "1132588",
    "final_x": "3665409.79644",
    "final_y": "533237.29519",
    "longitude": "-90.11882012413197",
    "latitude": "29.96069641179029",
    "geocoded_column": {
      "latitude": "29.96069641179029",
      "longitude": "-90.11882012413197"
    }
  },
  {
    "service_request": "2024-1132587",
    "request_type": "Drainage",
    "request_reason": "Catch Basin Clogged",
    "date_created": "2024-09-17T15:35:52.000",
    "date_modified": "2024-09-17T15:35:52.000",
    "request_status": "Pending",
    "responsible_agency": "Department of Public Works",
    "final_address": "2624 S Carrollton Ave",
    "address_councildis": "A",
    "status": "Pending",
    "rowid": "1132587",
    "final_x": "3665533.55693",
    "final_y": "532326.114243",
    "longitude": "-90.11845981796333",
    "latitude": "29.95818735507411",
    "geocoded_column": {
      "latitude": "29.95818735507411",
      "longitude": "-90.11845981796333"
    }
  },
  {
    "service_request": "2024-1132586",
    "request_type": "Hurricane Francine Tree-Related Issues or Emergencies\t",
    "request_reason": "Hurricane Francine Tree-Related Issues or Emergencies",
    "date_created": "2024-09-17T15:33:00.000",
    "date_modified": "2024-09-17T15:33:01.000",
    "request_status": "Pending",
    "responsible_agency": "Department of Parks & Parkway",
    "final_address": "722 Louisa St",
    "address_councildis": "C",
    "status": "Pending",
    "rowid": "1132586",
    "final_x": "3689190.58281",
    "final_y": "534517.950789",
    "longitude": "-90.04367975914064",
    "latitude": "29.963503261728903",
    "geocoded_column": {
      "latitude": "29.963503261728903",
      "longitude": "-90.04367975914064"
    }
  },
  {
    "service_request": "2024-1132585",
    "request_type": "Abandoned Vehicles",
    "request_reason": "Abandoned/Junk Vehicles",
    "date_created": "2024-09-17T15:31:55.000",
    "date_modified": "2024-09-17T15:32:24.000",
    "request_status": "Pending",
    "responsible_agency": "Department of Public Works",
    "final_address": "2556 Hudson Pl",
    "address_councildis": "C",
    "status": "Pending",
    "rowid": "1132585",
    "final_x": "3703466.38052",
    "final_y": "521581.695929",
    "longitude": "-89.99907433766394",
    "latitude": "29.927483618361997",
    "geocoded_column": {
      "latitude": "29.927483618361997",
      "longitude": "-89.99907433766394"
    }
  },
  {
    "service_request": "2024-1132584",
    "request_type": "Street and Traffic Signs",
    "request_reason": "Additional Signage Request",
    "date_created": "2024-09-17T15:31:15.000",
    "date_modified": "2024-09-17T15:31:16.000",
    "request_status": "Pending",
    "responsible_agency": "Department of Public Works",
    "final_address": "N LOPEZ ST & LAFITTE AVE",
    "address_councildis": "A",
    "status": "Pending",
    "rowid": "1132584",
    "final_x": "3674786.5",
    "final_y": "537434.68",
    "longitude": "-90.08906635766922",
    "latitude": "29.97196119146807",
    "geocoded_column": {
      "latitude": "29.97196119146807",
      "longitude": "-90.08906635766922"
    }
  },
  {
    "service_request": "2024-1132583",
    "request_type": "Trash/Recycling",
    "request_reason": "Storm Debris Collection",
    "date_created": "2024-09-17T15:31:11.000",
    "date_modified": "2024-09-17T15:31:56.000",
    "request_status": "Pending",
    "responsible_agency": "Department of Sanitation",
    "final_address": "15019 Emory Rd",
    "address_councildis": "E",
    "status": "Pending",
    "rowid": "1132583",
    "final_x": "3721045.39922",
    "final_y": "574177.038186",
    "longitude": "-89.94156581075254",
    "latitude": "30.0715256341567",
    "geocoded_column": {
      "latitude": "30.0715256341567",
      "longitude": "-89.94156581075254"
    }
  },
  {
    "service_request": "2024-1132582",
    "request_type": "Trash/Recycling",
    "request_reason": "Request a Large Item Pick Up",
    "date_created": "2024-09-17T15:27:40.000",
    "date_modified": "2024-09-17T15:27:41.000",
    "request_status": "Pending",
    "responsible_agency": "Department of Sanitation",
    "final_address": "3124 Annette St",
    "address_councildis": "D",
    "status": "Assigned to Contractor",
    "contractor": "IV Waste",
    "rowid": "1132582",
    "final_x": "3682459.01077",
    "final_y": "544105.04251",
    "longitude": "-90.06460210392699",
    "latitude": "29.990071034110095",
    "geocoded_column": {
      "latitude": "29.990071034110095",
      "longitude": "-90.06460210392699"
    }
  },
  {
    "service_request": "2024-1132581",
    "request_type": "Trash/Recycling",
    "request_reason": "Storm Debris Collection",
    "date_created": "2024-09-17T15:26:38.000",
    "date_modified": "2024-09-17T15:26:39.000",
    "request_status": "Pending",
    "responsible_agency": "Department of Sanitation",
    "final_address": "2510 N Prieur St",
    "address_councildis": "D",
    "status": "Pending",
    "rowid": "1132581",
    "final_x": "3687080.2207",
    "final_y": "539401.334346",
    "longitude": "-90.05017134812796",
    "latitude": "29.97699600149534",
    "geocoded_column": {
      "latitude": "29.97699600149534",
      "longitude": "-90.05017134812796"
    }
  },
  {
    "service_request": "2024-1132580",
    "request_type": "Trash/Recycling",
    "request_reason": "Return Trash Cart",
    "date_created": "2024-09-17T15:25:45.000",
    "date_modified": "2024-09-17T15:25:47.000",
    "request_status": "Pending",
    "responsible_agency": "Department of Sanitation",
    "final_address": "3203 Lafitte Ave",
    "address_councildis": "A",
    "status": "Assigned to Contractor",
    "contractor": "IV Waste",
    "rowid": "1132580",
    "final_x": "3674770.72136",
    "final_y": "537484.576136",
    "longitude": "-90.0891144781263",
    "latitude": "29.972098859997146",
    "geocoded_column": {
      "latitude": "29.972098859997146",
      "longitude": "-90.0891144781263"
    }
  },
  {
    "service_request": "2024-1132579",
    "request_type": "Roads and Streets",
    "request_reason": "Pothole",
    "date_created": "2024-09-17T15:24:18.000",
    "date_modified": "2024-09-17T15:24:18.000",
    "request_status": "Pending",
    "responsible_agency": "Department of Public Works",
    "final_address": "2663 Republic St",
    "address_councildis": "D",
    "status": "Pending",
    "rowid": "1132579",
    "final_x": "3680766.50427",
    "final_y": "542206.886029",
    "longitude": "-90.07001438467918",
    "latitude": "29.984903190948675",
    "geocoded_column": {
      "latitude": "29.984903190948675",
      "longitude": "-90.07001438467918"
    }
  },
  {
    "service_request": "2024-1132578",
    "request_type": "Abandoned Vehicles",
    "request_reason": "Abandoned/Junk Vehicles",
    "date_created": "2024-09-17T15:23:21.000",
    "date_modified": "2024-09-17T15:23:22.000",
    "request_status": "Pending",
    "responsible_agency": "Department of Public Works",
    "final_address": "4635 Charlene Dr",
    "address_councildis": "E",
    "status": "Pending",
    "rowid": "1132578",
    "final_x": "3708049.08952",
    "final_y": "554789.052056",
    "longitude": "-89.98337297589134",
    "latitude": "30.01864406347757",
    "geocoded_column": {
      "latitude": "30.01864406347757",
      "longitude": "-89.98337297589134"
    }
  },
  {
    "service_request": "2024-1132577",
    "request_type": "Drainage",
    "request_reason": "Catch Basin Clogged",
    "date_created": "2024-09-17T15:22:42.000",
    "date_modified": "2024-09-17T15:22:43.000",
    "request_status": "Pending",
    "responsible_agency": "Department of Public Works",
    "final_address": "8321 Apricot St",
    "address_councildis": "A",
    "status": "Pending",
    "rowid": "1132577",
    "final_x": "3665190.8633",
    "final_y": "533247.795076",
    "longitude": "-90.11951112382182",
    "latitude": "29.96073166193421",
    "geocoded_column": {
      "latitude": "29.96073166193421",
      "longitude": "-90.11951112382182"
    }
  },
  {
    "service_request": "2024-1132576",
    "request_type": "Trash/Recycling",
    "request_reason": "Dead Animal Pick Up",
    "date_created": "2024-09-17T15:21:53.000",
    "date_modified": "2024-09-17T15:21:55.000",
    "request_status": "Pending",
    "responsible_agency": "Department of Sanitation",
    "final_address": "6658 Fleur-De-Lis Dr",
    "address_councildis": "A",
    "status": "Assigned to Contractor",
    "contractor": "IV Waste",
    "rowid": "1132576",
    "final_x": "3665329.48583",
    "final_y": "552468.801622",
    "longitude": "-90.11842983284131",
    "latitude": "30.013578885731878",
    "geocoded_column": {
      "latitude": "30.013578885731878",
      "longitude": "-90.11842983284131"
    }
  },