[
  {
    "service_request": "2024-1067532",
    "request_type": "Roads/Drainage",
    "request_reason": "Pothole",
    "date_created": "2024-02-13T23:31:10.000",
    "date_modified": "2024-02-13T23:31:10.000",
    "request_status": "Pending",
    "responsible_agency": "Department of Public Works",
    "final_address": "1312 Milan St",
    "address_councildis": "B",
    "status": "Pending",
    "rowid": "1067532",
    "final_x": "3671625.82823",
    "final_y": "520286.919608",
    "longitude": "-90.09963137110304",
    "latitude": "29.92490447494246",
    "geocoded_column": {
      "latitude": "29.92490447494246",
      "longitude": "-90.09963137110304"
    }
  },
  {
    "service_request": "2024-1067531",
    "request_type": "Safety & Permits",
    "request_reason": "Licenses & Permits",
    "date_created": "2024-02-13T22:46:11.000",
    "date_modified": "2024-02-13T22:46:11.000",
    "request_status": "Pending",
    "responsible_agency": "Safety and Permits",
    "final_address": "2601 Royal St",
    "address_councildis": "C",
    "status": "Pending",
    "rowid": "1067531",
    "final_x": "3686778.46486",
    "final_y": "534992.593542",
    "longitude": "-90.05128018210614",
    "latitude": "29.964882793535896",
    "geocoded_column": {
      "latitude": "29.964882793535896",
      "longitude": "-90.05128018210614"
    }
  },
  {
    "service_request": "2024-1067530",
    "request_type": "Abandoned Vehicles",
    "request_reason": "Abandoned/Junk Vehicles",
    "date_created": "2024-02-13T22:07:03.000",
    "date_modified": "2024-02-13T22:07:03.000",
    "request_status": "Pending",
    "responsible_agency": "Department of Public Works",
    "final_address": "3111 Constance St",
    "address_councildis": "B",
    "status": "Pending",
    "rowid": "1067530",
    "final_x": "3676209.84341",
    "final_y": "519874.911288",
    "longitude": "-90.08517529152964",
    "latitude": "29.923635078754216",
    "geocoded_column": {
      "latitude": "29.923635078754216",
      "longitude": "-90.08517529152964"
    }
  },
  {
    "service_request": "2024-1067529",
    "request_type": "Health Related Request",
    "request_reason": "Noise Ordinance Complaint",
    "date_created": "2024-02-13T21:27:25.000",
    "date_modified": "2024-02-13T21:27:25.000",
    "request_status": "Pending",
    "responsible_agency": "Health Department",
    "final_address": "740 Burgundy St, New Orleans, Louisiana, 70116",
    "address_councildis": "C",
    "status": "Pending",
    "rowid": "1067529",
    "final_x": "3681919.1012",
    "final_y": "533357.792004",
    "longitude": "-90.06668280273463",
    "latitude": "29.96053625365705",
    "geocoded_column": {
      "latitude": "29.96053625365705",
      "longitude": "-90.06668280273463"
    }
  },
  {
    "service_request": "2024-1067528",
    "request_type": "Traffic Signals/Signs/Striping/Streetlights",
    "request_reason": "Street Light Outage/Malfunction",
    "date_created": "2024-02-13T21:23:24.000",
    "date_modified": "2024-02-13T21:23:24.000",
    "request_status": "Pending",
    "responsible_agency": "Department of Public Works",
    "final_address": "1556 De Battista Pl",
    "address_councildis": "C",
    "status": "Assigned to Contractor",
    "contractor": "Legacy Professional Services",
    "rowid": "1067528",
    "final_x": "3699811.86519",
    "final_y": "525354.927037",
    "longitude": "-90.01047315624429",
    "latitude": "29.93797520228674",
    "geocoded_column": {
      "latitude": "29.93797520228674",
      "longitude": "-90.01047315624429"
    }
  },
  {
    "service_request": "2024-1067527",
    "request_type": "Mosquito, Termite & Rodent Control",
    "request_reason": "Rodent Complaint (Rats)",
    "date_created": "2024-02-13T21:04:48.000",
    "date_modified": "2024-02-13T21:04:48.000",
    "request_status": "Pending",
    "responsible_agency": "Mosquito, Termite & Rodent Control Board",
    "final_address": "864 Roosevelt Pl",
    "address_councildis": "A",
    "status": "Pending",
    "rowid": "1067527",
    "final_x": "3673639.15873",
    "final_y": "540116.414603",
    "longitude": "-90.09259814454103",
    "latitude": "29.979369256575872",
    "geocoded_column": {
      "latitude": "29.979369256575872",
      "longitude": "-90.09259814454103"
    }
  },
  {
    "service_request": "2024-1067526",
    "request_type": "Property Maintenance",
    "request_reason": "Property Maintenance",
    "date_created": "2024-02-13T21:00:18.000",
    "date_modified": "2024-02-13T21:00:18.000",
    "request_status": "Pending",
    "responsible_agency": "Department of Code Enforcement",
    "final_address": "6011 Bullard Ave",
    "address_councildis": "E",
    "status": "Pending",
    "rowid": "1067526",
    "final_x": "3715808.26693",
    "final_y": "564514.977889",
    "longitude": "-89.95848833968968",
    "latitude": "30.045132824976395",
    "geocoded_column": {
      "latitude": "30.045132824976395",
      "longitude": "-89.95848833968968"
    }
  },
  {
    "service_request": "2024-1067525",
    "request_type": "Trash/Recycling",
    "request_reason": "Request a Large Item Pick Up",
    "date_created": "2024-02-13T19:48:53.000",
    "date_modified": "2024-02-13T19:48:54.000",
    "request_status": "Pending",
    "responsible_agency": "Department of Sanitation",
    "final_address": "1212 N Rocheblave St",
    "address_councildis": "D",
    "status": "Assigned to Contractor",
    "contractor": "Richards Disposal",
    "rowid": "1067525",
    "final_x": "3678751.36578",
    "final_y": "537879.817097",
    "longitude": "-90.07652925202147",
    "latitude": "29.97306618499876",
    "geocoded_column": {
      "latitude": "29.97306618499876",
      "longitude": "-90.07652925202147"
    }
  },
  {
    "service_request": "2024-1067524",
    "request_type": "Trash/Recycling",
    "request_reason": "Request a Large Item Pick Up",
    "date_created": "2024-02-13T19:47:35.000",
    "date_modified": "2024-02-13T19:47:36.000",
    "request_status": "Pending",
    "responsible_agency": "Department of Sanitation",
    "final_address": "1212 N Rocheblave St",
    "address_councildis": "D",
    "status": "Assigned to Contractor",
    "contractor": "Richards Disposal",
    "rowid": "1067524",
    "final_x": "3678751.36578",
    "final_y": "537879.817097",
    "longitude": "-90.07652925202147",
    "latitude": "29.97306618499876",
    "geocoded_column": {
      "latitude": "29.97306618499876",
      "longitude": "-90.07652925202147"
    }
  },
  {
    "service_request": "2024-1067521",
    "request_type": "Trash/Recycling",
    "request_reason": "Request a Large Item Pick Up",
    "date_created": "2024-02-13T17:44:09.000",
    "date_modified": "2024-02-13T17:44:10.000",
    "request_status": "Pending",
    "responsible_agency": "Department of Sanitation",
    "final_address": "5232 Coliseum St",
    "address_councildis": "B",
    "status": "Assigned to Contractor",
    "contractor": "Richards Disposal",
    "rowid": "1067521",
    "final_x": "3667778.29389",
    "final_y": "519623.747704",
    "longitude": "-90.11179913452519",
    "latitude": "29.923194308155182",
    "geocoded_column": {
      "latitude": "29.923194308155182",
      "longitude": "-90.11179913452519"
    }
  },
  {
    "service_request": "2024-1067520",
    "request_type": "Trash/Recycling",
    "request_reason": "Replace Trash Cart",
    "date_created": "2024-02-13T17:30:45.000",
    "date_modified": "2024-02-13T17:30:46.000",
    "request_status": "Pending",
    "responsible_agency": "Department of Sanitation",
    "final_address": "1502 General Pershing St",
    "address_councildis": "B",
    "status": "Assigned to Contractor",
    "contractor": "Richards Disposal",
    "rowid": "1067520",
    "final_x": "3671219.93703",
    "final_y": "520650.519609",
    "longitude": "-90.10090029460524",
    "latitude": "29.925916269034804",
    "geocoded_column": {
      "latitude": "29.925916269034804",
      "longitude": "-90.10090029460524"
    }
  },
  {
    "service_request": "2024-1067519",
    "request_type": "Trash/Recycling",
    "request_reason": "Missed Trash Pick-Up",
    "date_created": "2024-02-13T17:23:20.000",
    "date_modified": "2024-02-13T17:23:20.000",
    "request_status": "Pending",
    "responsible_agency": "Department of Sanitation",
    "final_address": "6354 Pratt Dr",
    "address_councildis": "D",
    "status": "Assigned to Contractor",
    "contractor": "IV Waste",
    "rowid": "1067519",
    "final_x": "3679258.26127",
    "final_y": "557353.115547",
    "longitude": "-90.07425259270359",
    "latitude": "30.026595542918724",
    "geocoded_column": {
      "latitude": "30.026595542918724",
      "longitude": "-90.07425259270359"
    }
  },
  {
    "service_request": "2024-1067518",
    "request_type": "Roads/Drainage",
    "request_reason": "WaterMain Break",
    "date_created": "2024-02-13T17:03:34.000",
    "date_modified": "2024-02-13T17:03:34.000",
    "request_status": "Pending",
    "responsible_agency": "Department of Public Works",
    "final_address": "1028 Jackson Ave",
    "address_councildis": "B",
    "status": "Pending",
    "rowid": "1067518",
    "final_x": "3678902.21256",
    "final_y": "521936.241658",
    "longitude": "-90.07660510628455",
    "latitude": "29.929222148465417",
    "geocoded_column": {
      "latitude": "29.929222148465417",
      "longitude": "-90.07660510628455"
    }
  },
  {
    "service_request": "2024-1067517",
    "request_type": "Abandoned Vehicles",
    "request_reason": "Vehicle Blocking Your Driveway",
    "date_created": "2024-02-13T17:01:58.000",
    "date_modified": "2024-02-13T17:01:58.000",
    "request_status": "Pending",
    "responsible_agency": "Department of Public Works",
    "final_address": "1524 Euterpe St",
    "address_councildis": "B",
    "status": "Pending",
    "rowid": "1067517",
    "final_x": "3679110.07138",
    "final_y": "524831.1879",
    "longitude": "-90.075848643482",
    "latitude": "29.937176028726743",
    "geocoded_column": {
      "latitude": "29.937176028726743",
      "longitude": "-90.075848643482"
    }
  },
  {
    "service_request": "2024-1067516",
    "request_type": "Abandoned Vehicles",
    "request_reason": "Vehicle Blocking Your Driveway",
    "date_created": "2024-02-13T16:55:20.000",
    "date_modified": "2024-02-13T16:55:20.000",
    "request_status": "Pending",
    "responsible_agency": "Department of Public Works",
    "final_address": "1524 Euterpe St",
    "address_councildis": "B",
    "status": "Pending",
    "rowid": "1067516",
    "final_x": "3679110.07138",
    "final_y": "524831.1879",
    "longitude": "-90.075848643482",
    "latitude": "29.937176028726743",
    "geocoded_column": {
      "latitude": "29.937176028726743",
      "longitude": "-90.075848643482"
    }
  },
  {
    "service_request": "2024-1067515",
    "request_type": "Roads/Drainage",
    "request_reason": "Pothole",
    "date_created": "2024-02-13T16:28:59.000",
    "date_modified": "2024-02-13T16:28:59.000",
    "request_status": "Pending",
    "responsible_agency": "Department of Public Works",
    "final_address": "1301 Constantinople St",
    "address_councildis": "B",
    "status": "Pending",
    "rowid": "1067515",
    "final_x": "3672430.66305",
    "final_y": "520250.7726",
    "longitude": "-90.09709199725775",
    "latitude": "29.924781230435865",
    "geocoded_column": {
      "latitude": "29.924781230435865",
      "longitude": "-90.09709199725775"
    }
  },
  {
    "service_request": "2024-1067514",
    "request_type": "Abandoned Vehicles",
    "request_reason": "Vehicle Blocking Your Driveway",
    "date_created": "2024-02-13T16:19:52.000",
    "date_modified": "2024-02-13T16:19:52.000",
    "request_status": "Pending",
    "responsible_agency": "Department of Public Works",
    "final_address": "1633 Third St",
    "address_councildis": "B",
    "status": "Pending",
    "rowid": "1067514",
    "final_x": "3676298.84629",
    "final_y": "523147.287867",
    "longitude": "-90.08478178566985",
    "latitude": "29.932630386043655",
    "geocoded_column": {
      "latitude": "29.932630386043655",
      "longitude": "-90.08478178566985"
    }
  },
  {
    "service_request": "2024-1067513",
    "request_type": "Roads/Drainage",
    "request_reason": "WaterMain Break",
    "date_created": "2024-02-13T16:12:29.000",
    "date_modified": "2024-02-13T16:12:29.000",
    "request_status": "Pending",
    "responsible_agency": "Department of Public Works",
    "final_address": "801 Jackson Ave",
    "address_councildis": "B",
    "status": "Pending",
    "rowid": "1067513",
    "final_x": "3679542.93755",
    "final_y": "521261.312761",
    "longitude": "-90.07460586548063",
    "latitude": "29.927346976581564",
    "geocoded_column": {
      "latitude": "29.927346976581564",
      "longitude": "-90.07460586548063"
    }
  },
  {
    "service_request": "2024-1067512",
    "request_type": "Roads/Drainage",
    "request_reason": "Pothole",
    "date_created": "2024-02-13T16:00:09.000",
    "date_modified": "2024-02-13T16:00:09.000",
    "request_status": "Pending",
    "responsible_agency": "Department of Public Works",
    "final_address": "4216 Chestnut St",
    "address_councildis": "B",
    "status": "Pending",
    "rowid": "1067512",
    "final_x": "3671574.31393",
    "final_y": "519539.203703",
    "longitude": "-90.09981939416457",
    "latitude": "29.922850019854593",
    "geocoded_column": {
      "latitude": "29.922850019854593",
      "longitude": "-90.09981939416457"
    }
  },
  {
    "service_request": "2024-1067511",
    "request_type": "Healthy Homes",
    "request_reason": "Healthy Homes",
    "date_created": "2024-02-13T15:49:59.000",
    "date_modified": "2024-02-13T15:49:59.000",
    "request_status": "Pending",
    "responsible_agency": "Department of Code Enforcement",
    "final_address": "8827 Plum St",
    "address_councildis": "A",
    "status": "Pending",
    "rowid": "1067511",
    "final_x": "3660211.39117",
    "final_y": "530491.026882",
    "longitude": "-90.13532643392307",
    "latitude": "29.953295540681772",
    "geocoded_column": {
      "latitude": "29.953295540681772",
      "longitude": "-90.13532643392307"
    }
  },
  {
    "service_request": "2024-1067510",
    "request_type": "Trash/Recycling",
    "request_reason": "Repair Trash Cart",
    "date_created": "2024-02-13T15:32:53.000",
    "date_modified": "2024-02-13T15:32:53.000",
    "request_status": "Pending",
    "responsible_agency": "Department of Sanitation",
    "final_address": "11040 Roger Dr",
    "address_councildis": "E",
    "status": "Assigned to Contractor",
    "contractor": "Waste Pro",
    "rowid": "1067510",
    "final_x": "3712397.49253",
    "final_y": "563579.453024",
    "longitude": "-89.96930310364468",
    "latitude": "30.042672594059926",
    "geocoded_column": {
      "latitude": "30.042672594059926",
      "longitude": "-89.96930310364468"
    }
  },
  {
    "service_request": "2024-1067509",
    "request_type": "Traffic Signals/Signs/Striping/Streetlights",
    "request_reason": "Additional signage",
    "date_created": "2024-02-13T15:11:53.000",
    "date_modified": "2024-02-13T15:11:53.000",
    "request_status": "Pending",
    "responsible_agency": "Department of Public Works",
    "final_address": "BULLARD AVE & BULLARD EXIT & I 10 E ONRAMP",
    "address_councildis": "E",
    "status": "Pending",
    "rowid": "1067509",
    "final_x": "3715053.1",
    "final_y": "564701.98",
    "longitude": "-89.96086792252497",
    "latitude": "30.04567189724097",
    "geocoded_column": {
      "latitude": "30.04567189724097",
      "longitude": "-89.96086792252497"
    }
  },
  {
    "service_request": "2024-1067508",
    "request_type": "Trash/Recycling",
    "request_reason": "Replace Trash Cart",
    "date_created": "2024-02-13T15:08:26.000",
    "date_modified": "2024-02-13T15:08:27.000",
    "request_status": "Pending",
    "responsible_agency": "Department of Sanitation",
    "final_address": "934 Lowerline St",
    "address_councildis": "A",
    "status": "Assigned to Contractor",
    "contractor": "Richards Disposal",
    "rowid": "1067508",
    "final_x": "3663220.68999",
    "final_y": "526213.879934",
    "longitude": "-90.1259666221192",
    "latitude": "29.941447903729415",
    "geocoded_column": {
      "latitude": "29.941447903729415",
      "longitude": "-90.1259666221192"
    }
  },
  {
    "service_request": "2024-1067506",
    "request_type": "Abandoned Vehicles",
    "request_reason": "Vehicle Blocking Your Driveway",
    "date_created": "2024-02-13T14:13:42.000",
    "date_modified": "2024-02-13T14:13:42.000",
    "request_status": "Pending",
    "responsible_agency": "Department of Public Works",
    "final_address": "4600 St Charles Ave",
    "address_councildis": "B",
    "status": "Pending",
    "rowid": "1067506",
    "final_x": "3670036.8329",
    "final_y": "520679.569337",
    "longitude": "-90.1046340313551",
    "latitude": "29.9260310834917",
    "geocoded_column": {
      "latitude": "29.9260310834917",
      "longitude": "-90.1046340313551"
    }
  },
  {
    "service_request": "2024-1067505",
    "request_type": "Roads/Drainage",
    "request_reason": "Debris in Roadway",
    "date_created": "2024-02-13T12:29:38.000",
    "date_modified": "2024-02-13T12:29:38.000",
    "request_status": "Pending",
    "responsible_agency": "Department of Public Works",
    "final_address": "0 BLK Interstate 10",
    "status": "Pending",
    "rowid": "1067505",
    "final_x": "3749078.15502",
    "final_y": "605653.561774",
    "longitude": "-89.85166076471643",
    "latitude": "30.157105189447982",
    "geocoded_column": {
      "latitude": "30.157105189447982",
      "longitude": "-89.85166076471643"
    }
  },
  {
    "service_request": "2024-1067504",
    "request_type": "Trash/Recycling",
    "request_reason": "Order Recycling Cart",
    "date_created": "2024-02-13T11:54:36.000",
    "date_modified": "2024-02-13T11:54:36.000",
    "request_status": "Pending",
    "responsible_agency": "Department of Sanitation",
    "final_address": "1016 Delaronde St",
    "address_councildis": "C",
    "status": "Pending",
    "rowid": "1067504",
    "final_x": "3688726.69628",
    "final_y": "531184.827202",
    "longitude": "-90.04526298060404",
    "latitude": "29.954352674859955",
    "geocoded_column": {
      "latitude": "29.954352674859955",
      "longitude": "-90.04526298060404"
    }
  },
  {
    "service_request": "2024-1067503",
    "request_type": "Trash/Recycling",
    "request_reason": "Replace Trash Cart",
    "date_created": "2024-02-13T11:30:31.000",
    "date_modified": "2024-02-13T11:30:32.000",
    "request_status": "Pending",
    "responsible_agency": "Department of Sanitation",
    "final_address": "417 S Norman C Francis Prkwy",
    "address_councildis": "B",
    "status": "Assigned to Contractor",
    "contractor": "Richards Disposal",
    "rowid": "1067503",
    "final_x": "3672262.09294",
    "final_y": "535734.045063",
    "longitude": "-90.09709680413803",
    "latitude": "29.967360151997806",
    "geocoded_column": {
      "latitude": "29.967360151997806",
      "longitude": "-90.09709680413803"
    }
  },
  {
    "service_request": "2024-1067502",
    "request_type": "Traffic Signals/Signs/Striping/Streetlights",
    "request_reason": "Street Light Outage/Malfunction",
    "date_created": "2024-02-13T10:36:37.000",
    "date_modified": "2024-02-13T10:36:37.000",
    "request_status": "Pending",
    "responsible_agency": "Department of Public Works",
    "final_address": "6854 General Haig St",
    "address_councildis": "A",
    "status": "Assigned to Contractor",
    "contractor": "Legacy Professional Services",
    "rowid": "1067502",
    "final_x": "3670957.52987",
    "final_y": "552940.598935",
    "longitude": "-90.1006320666859",
    "latitude": "30.01471088208776",
    "geocoded_column": {
      "latitude": "30.01471088208776",
      "longitude": "-90.1006320666859"
    }
  },
  {
    "service_request": "2024-1067501",
    "request_type": "Abandoned Vehicles",
    "request_reason": "Vehicle Blocking Your Driveway",
    "date_created": "2024-02-13T10:34:36.000",
    "date_modified": "2024-02-13T10:34:36.000",
    "request_status": "Pending",
    "responsible_agency": "Department of Public Works",
    "final_address": "1031 Henriette Delille St, New Orleans, Louisiana, 70116",
    "address_councildis": "C",
    "status": "Pending",
    "rowid": "1067501",
    "final_x": "3681851.85519",
    "final_y": "534737.509574",
    "longitude": "-90.0668469959105",
    "latitude": "29.964332048849617",
    "geocoded_column": {
      "latitude": "29.964332048849617",
      "longitude": "-90.0668469959105"
    }
  },
  {
    "service_request": "2024-1067500",
    "request_type": "Traffic Signals/Signs/Striping/Streetlights",
    "request_reason": "Street Light Outage/Malfunction",
    "date_created": "2024-02-13T10:24:49.000",
    "date_modified": "2024-02-13T10:24:49.000",
    "request_status": "Pending",
    "responsible_agency": "Department of Public Works",
    "final_address": "132 Wilshire Pl",
    "address_councildis": "D",
    "status": "Assigned to Contractor",
    "contractor": "Legacy Professional Services",
    "rowid": "1067500",
    "final_x": "3677436.72187",
    "final_y": "544656.064975",
    "longitude": "-90.08044715719815",
    "latitude": "29.991738103126032",
    "geocoded_column": {
      "latitude": "29.991738103126032",
      "longitude": "-90.08044715719815"
    }
  },
  {
    "service_request": "2024-1067499",
    "request_type": "Safety & Permits",
    "request_reason": "Construction permit",
    "date_created": "2024-02-13T10:16:54.000",
    "date_modified": "2024-02-13T10:16:54.000",
    "request_status": "Pending",
    "responsible_agency": "Department of Code Enforcement",
    "final_address": "114 Chalfant Pl",
    "address_councildis": "D",
    "status": "Pending",
    "rowid": "1067499",
    "final_x": "3677649.29717",
    "final_y": "544472.263695",
    "longitude": "-90.07978202842793",
    "latitude": "29.99122632113406",
    "geocoded_column": {
      "latitude": "29.99122632113406",
      "longitude": "-90.07978202842793"
    }
  },
  {
    "service_request": "2024-1067498",
    "request_type": "Traffic Signals/Signs/Striping/Streetlights",
    "request_reason": "Disabled Parking Sign ",
    "date_created": "2024-02-13T09:57:21.000",
    "date_modified": "2024-02-13T09:57:21.000",
    "request_status": "Pending",
    "responsible_agency": "Department of Public Works",
    "final_address": "ST CHARLES AVE & WASHINGTON AVE",
    "address_councildis": "B",
    "status": "Pending",
    "rowid": "1067498",
    "final_x": "3675940.1",
    "final_y": "522504.88",
    "longitude": "-90.08593639663825",
    "latitude": "29.930874717273824",
    "geocoded_column": {
      "latitude": "29.930874717273824",
      "longitude": "-90.08593639663825"
    }
  },
  {
    "service_request": "2024-1067497",
    "request_type": "Traffic Signals/Signs/Striping/Streetlights",
    "request_reason": "Disabled Parking Sign ",
    "date_created": "2024-02-13T09:55:40.000",
    "date_modified": "2024-02-13T09:55:40.000",
    "request_status": "Pending",
    "responsible_agency": "Department of Public Works",
    "final_address": "ST CHARLES AVE & WASHINGTON AVE",
    "address_councildis": "B",
    "status": "Pending",
    "rowid": "1067497",
    "final_x": "3675940.1",
    "final_y": "522504.88",
    "longitude": "-90.08593639663825",
    "latitude": "29.930874717273824",
    "geocoded_column": {
      "latitude": "29.930874717273824",
      "longitude": "-90.08593639663825"
    }
  },
  {
    "service_request": "2024-1067496",
    "request_type": "Traffic Signals/Signs/Striping/Streetlights",
    "request_reason": "Disabled Parking Sign ",
    "date_created": "2024-02-13T09:55:25.000",
    "date_modified": "2024-02-13T09:55:25.000",
    "request_status": "Pending",
    "responsible_agency": "Department of Public Works",
    "final_address": "ST CHARLES AVE & WASHINGTON AVE",
    "address_councildis": "B",
    "status": "Pending",
    "rowid": "1067496",
    "final_x": "3675940.1",
    "final_y": "522504.88",
    "longitude": "-90.08593639663825",
    "latitude": "29.930874717273824",
    "geocoded_column": {
      "latitude": "29.930874717273824",
      "longitude": "-90.08593639663825"
    }
  },
  {
    "service_request": "2024-1067494",
    "request_type": "Healthy Homes",
    "request_reason": "Healthy Homes",
    "date_created": "2024-02-13T09:53:20.000",
    "date_modified": "2024-02-13T09:53:20.000",
    "request_status": "Pending",
    "responsible_agency": "Department of Code Enforcement",
    "final_address": "2531 Chartres St",
    "address_councildis": "C",
    "status": "Pending",
    "rowid": "1067494",
    "final_x": "3686533.86082",
    "final_y": "534652.270214",
    "longitude": "-90.05206464192453",
    "latitude": "29.963954545436522",
    "geocoded_column": {
      "latitude": "29.963954545436522",
      "longitude": "-90.05206464192453"
    }
  },
  {
    "service_request": "2024-1067493",
    "request_type": "Traffic Signals/Signs/Striping/Streetlights",
    "request_reason": "Disabled Parking Sign ",
    "date_created": "2024-02-13T09:53:16.000",
    "date_modified": "2024-02-13T09:53:16.000",
    "request_status": "Pending",
    "responsible_agency": "Department of Public Works",
    "final_address": "ST CHARLES AVE & WASHINGTON AVE",
    "address_councildis": "B",
    "status": "Pending",
    "rowid": "1067493",
    "final_x": "3675940.1",
    "final_y": "522504.88",
    "longitude": "-90.08593639663825",
    "latitude": "29.930874717273824",
    "geocoded_column": {
      "latitude": "29.930874717273824",
      "longitude": "-90.08593639663825"
    }
  },
  {
    "service_request": "2024-1067492",
    "request_type": "Property Maintenance",
    "request_reason": "Property Maintenance",
    "date_created": "2024-02-13T09:51:10.000",
    "date_modified": "2024-02-13T09:51:10.000",
    "request_status": "Pending",
    "responsible_agency": "Department of Code Enforcement",
    "final_address": "ST CHARLES AVE & WASHINGTON AVE",
    "address_councildis": "B",
    "status": "Pending",
    "rowid": "1067492",
    "final_x": "3675940.1",
    "final_y": "522504.88",
    "longitude": "-90.08593639663825",
    "latitude": "29.930874717273824",
    "geocoded_column": {
      "latitude": "29.930874717273824",
      "longitude": "-90.08593639663825"
    }
  },
  {
    "service_request": "2024-1067491",
    "request_type": "Trash/Recycling",
    "request_reason": "Request a Large Item Pick Up",
    "date_created": "2024-02-13T09:23:19.000",
    "date_modified": "2024-02-13T09:23:20.000",
    "request_status": "Pending",
    "responsible_agency": "Department of Sanitation",
    "final_address": "4601 S Miro St",
    "address_councildis": "B",
    "status": "Assigned to Contractor",
    "contractor": "Richards Disposal",
    "rowid": "1067491",
    "final_x": "3669371.83604",
    "final_y": "527795.568895",
    "longitude": "-90.10649272743805",
    "latitude": "29.945617383605434",
    "geocoded_column": {
      "latitude": "29.945617383605434",
      "longitude": "-90.10649272743805"
    }
  },
  {
    "service_request": "2024-1067489",
    "request_type": "Utility Poles",
    "request_reason": "Utility Pole Leaning",
    "date_created": "2024-02-13T09:18:14.000",
    "date_modified": "2024-02-13T09:18:19.000",
    "request_status": "Pending",
    "responsible_agency": "Utility Company Collective",
    "final_address": "4601 S Miro St",
    "address_councildis": "B",
    "status": "Pending",
    "rowid": "1067489",
    "final_x": "3669371.83604",
    "final_y": "527795.568895",
    "longitude": "-90.10649272743805",
    "latitude": "29.945617383605434",
    "geocoded_column": {
      "latitude": "29.945617383605434",
      "longitude": "-90.10649272743805"
    }
  },
  {
    "service_request": "2024-1067488",
    "request_type": "Abandoned Vehicles",
    "request_reason": "Abandoned/Junk Vehicles",
    "date_created": "2024-02-13T09:16:39.000",
    "date_modified": "2024-02-13T09:16:39.000",
    "request_status": "Pending",
    "responsible_agency": "Department of Public Works",
    "final_address": "2809 Saint Charles Ave, New Orleans, Louisiana, 70115",
    "status": "Pending",
    "rowid": "1067488",
    "longitude": "0.0",
    "latitude": "0.0",
    "geocoded_column": {
      "latitude": "0.0",
      "longitude": "0.0"
    }
  },
  {
    "service_request": "2024-1067487",
    "request_type": "Abandoned Vehicles",
    "request_reason": "Vehicle Blocking Your Driveway",
    "date_created": "2024-02-13T08:18:34.000",
    "date_modified": "2024-02-13T08:18:34.000",
    "request_status": "Pending",
    "responsible_agency": "Department of Public Works",
    "final_address": "5150 Wilton Dr",
    "address_councildis": "D",
    "status": "Pending",
    "rowid": "1067487",
    "final_x": "3681868.02684",
    "final_y": "551386.704853",
    "longitude": "-90.06621451066518",
    "latitude": "30.010110983103274",
    "geocoded_column": {
      "latitude": "30.010110983103274",
      "longitude": "-90.06621451066518"
    }
  },
  {
    "service_request": "2024-1067486",
    "request_type": "Trash/Recycling",
    "request_reason": "Request a Large Item Pick Up",
    "date_created": "2024-02-13T06:50:55.000",
    "date_modified": "2024-02-13T06:50:55.000",
    "request_status": "Pending",
    "responsible_agency": "Department of Sanitation",
    "final_address": "4601 S Miro St",
    "address_councildis": "B",
    "status": "Assigned to Contractor",
    "contractor": "Richards Disposal",
    "rowid": "1067486",
    "final_x": "3669371.83604",
    "final_y": "527795.568895",
    "longitude": "-90.10649272743805",
    "latitude": "29.945617383605434",
    "geocoded_column": {
      "latitude": "29.945617383605434",
      "longitude": "-90.10649272743805"
    }
  },
  {
    "service_request": "2024-1067485",
    "request_type": "Trash/Recycling",
    "request_reason": "Request a Large Item Pick Up",
    "date_created": "2024-02-13T06:44:01.000",
    "date_modified": "2024-02-13T06:44:02.000",
    "request_status": "Pending",
    "responsible_agency": "Department of Sanitation",
    "final_address": "4601 S Miro St",
    "address_councildis": "B",
    "status": "Assigned to Contractor",
    "contractor": "Richards Disposal",
    "rowid": "1067485",
    "final_x": "3669371.83604",
    "final_y": "527795.568895",
    "longitude": "-90.10649272743805",
    "latitude": "29.945617383605434",
    "geocoded_column": {
      "latitude": "29.945617383605434",
      "longitude": "-90.10649272743805"
    }
  },
  {
    "service_request": "2024-1067484",
    "request_type": "Property Maintenance",
    "request_reason": "Property Maintenance",
    "date_created": "2024-02-13T06:42:52.000",
    "date_modified": "2024-02-13T06:42:52.000",
    "request_status": "Pending",
    "responsible_agency": "Department of Code Enforcement",
    "final_address": "4929 Dryades St",
    "address_councildis": "B",
    "status": "Pending",
    "rowid": "1067484",
    "final_x": "3668858.3161",
    "final_y": "521870.587706",
    "longitude": "-90.10831408110502",
    "latitude": "29.929340700960022",
    "geocoded_column": {
      "latitude": "29.929340700960022",
      "longitude": "-90.10831408110502"
    }
  },
  {
    "service_request": "2024-1067480",
    "request_type": "Trash/Recycling",
    "request_reason": "Dead Animal Pick Up",
    "date_created": "2024-02-13T04:51:01.000",
    "date_modified": "2024-02-13T12:53:05.000",
    "case_close_date": "2024-02-13T06:53:05.000",
    "request_status": "Closed",
    "responsible_agency": "Department of Sanitation",
    "final_address": "3835 Paris Ave",
    "address_councildis": "D",
    "status": "Invalid Request",
    "contractor": "IV Waste",
    "contractor_action": "Invalid Request",
    "rowid": "1067480",
    "final_x": "3679673.00981",
    "final_y": "546520.331217",
    "longitude": "-90.07331844483731",
    "latitude": "29.996796753072204",
    "geocoded_column": {
      "latitude": "29.996796753072204",
      "longitude": "-90.07331844483731"
    }
  },
  {
    "service_request": "2024-1067479",
    "request_type": "Property Maintenance",
    "request_reason": "Property Maintenance",
    "date_created": "2024-02-13T03:22:32.000",
    "date_modified": "2024-02-13T03:22:32.000",
    "request_status": "Pending",
    "responsible_agency": "Department of Code Enforcement",
    "final_address": "1503 St Charles Ave",
    "address_councildis": "B",
    "status": "Pending",
    "rowid": "1067479",
    "final_x": "3679124.78261",
    "final_y": "525517.556669",
    "longitude": "-90.07577841752351",
    "latitude": "29.939062872018212",
    "geocoded_column": {
      "latitude": "29.939062872018212",
      "longitude": "-90.07577841752351"
    }
  },
  {
    "service_request": "2024-1067478",
    "request_type": "Roads/Drainage",
    "request_reason": "Pothole",
    "date_created": "2024-02-13T00:25:25.000",
    "date_modified": "2024-02-13T00:25:25.000",
    "request_status": "Pending",
    "responsible_agency": "Department of Public Works",
    "final_address": "1301 Constantinople St",
    "address_councildis": "B",
    "status": "Pending",
    "rowid": "1067478",
    "final_x": "3672430.66305",
    "final_y": "520250.7726",
    "longitude": "-90.09709199725775",
    "latitude": "29.924781230435865",
    "geocoded_column": {
      "latitude": "29.924781230435865",
      "longitude": "-90.09709199725775"
    }
  },
  {
    "service_request": "2024-1067477",
    "request_type": "Trash/Recycling",
    "request_reason": "Repair Recycling Cart",
    "date_created": "2024-02-13T00:08:25.000",
    "date_modified": "2024-02-13T00:08:25.000",
    "request_status": "Pending",
    "responsible_agency": "Department of Sanitation",
    "final_address": "5425 Franklin Ave",
    "address_councildis": "D",
    "status": "Pending",
    "rowid": "1067477",
    "final_x": "3686677.74358",
    "final_y": "553114.630487",
    "longitude": "-90.05095777925624",
    "latitude": "30.014715020740915",
    "geocoded_column": {
      "latitude": "30.014715020740915",
      "longitude": "-90.05095777925624"
    }
  },
  {
    "service_request": "2024-1067476",
    "request_type": "Trash/Recycling",
    "request_reason": "Replace Trash Cart",
    "date_created": "2024-02-13T00:03:47.000",
    "date_modified": "2024-02-13T00:03:48.000",
    "request_status": "Pending",
    "responsible_agency": "Department of Sanitation",
    "final_address": "5425 Franklin Ave",
    "address_councildis": "D",
    "status": "Assigned to Contractor",
    "contractor": "IV Waste",
    "rowid": "1067476",
    "final_x": "3686677.74358",
    "final_y": "553114.630487",
    "longitude": "-90.05095777925624",
    "latitude": "30.014715020740915",
    "geocoded_column": {
      "latitude": "30.014715020740915",
      "longitude": "-90.05095777925624"
    }
  },
  {
    "service_request": "2024-1067475",
    "request_type": "Roads/Drainage",
    "request_reason": "Road Shoulder Repair",
    "date_created": "2024-02-12T23:12:55.000",
    "date_modified": "2024-02-12T23:12:55.000",
    "request_status": "Pending",
    "responsible_agency": "Department of Public Works",
    "final_address": "1300 BLK General Taylor St",
    "address_councildis": "B",
    "status": "Pending",
    "rowid": "1067475",
    "final_x": "3672786.50282",
    "final_y": "520381.696557",
    "longitude": "-90.09596426398673",
    "latitude": "29.925130668170585",
    "geocoded_column": {
      "latitude": "29.925130668170585",
      "longitude": "-90.09596426398673"
    }
  },
  {
    "service_request": "2024-1067474",
    "request_type": "Trash/Recycling",
    "request_reason": "Request a Large Item Pick Up",
    "date_created": "2024-02-12T21:50:25.000",
    "date_modified": "2024-02-12T21:50:26.000",
    "request_status": "Pending",
    "responsible_agency": "Department of Sanitation",
    "final_address": "108 Neil Ave",
    "address_councildis": "C",
    "status": "Assigned to Contractor",
    "contractor": "Richards Disposal",
    "rowid": "1067474",
    "final_x": "3705948.17387",
    "final_y": "518833.316855",
    "longitude": "-89.99134160368092",
    "latitude": "29.91984683768692",
    "geocoded_column": {
      "latitude": "29.91984683768692",
      "longitude": "-89.99134160368092"
    }
  },
  {
    "service_request": "2024-1067473",
    "request_type": "Roads/Drainage",
    "request_reason": "Pothole",
    "date_created": "2024-02-12T21:15:11.000",
    "date_modified": "2024-02-12T21:15:11.000",
    "request_status": "Pending",
    "responsible_agency": "Department of Public Works",
    "final_address": "5923 Pitt St",
    "address_councildis": "A",
    "status": "Pending",
    "rowid": "1067473",
    "final_x": "3665490.05639",
    "final_y": "521140.942649",
    "longitude": "-90.11897149996602",
    "latitude": "29.92743299392239",
    "geocoded_column": {
      "latitude": "29.92743299392239",
      "longitude": "-90.11897149996602"
    }
  },
  {
    "service_request": "2024-1067472",
    "request_type": "Roads/Drainage",
    "request_reason": "Pothole",
    "date_created": "2024-02-12T21:11:51.000",
    "date_modified": "2024-02-12T21:11:51.000",
    "request_status": "Pending",
    "responsible_agency": "Department of Public Works",
    "final_address": "5815 Hurst St",
    "address_councildis": "A",
    "status": "Pending",
    "rowid": "1067472",
    "final_x": "3665949.78439",
    "final_y": "521779.196794",
    "longitude": "-90.11749886798262",
    "latitude": "29.929174586020036",
    "geocoded_column": {
      "latitude": "29.929174586020036",
      "longitude": "-90.11749886798262"
    }
  },
  {
    "service_request": "2024-1067471",
    "request_type": "Roads/Drainage",
    "request_reason": "Pothole",
    "date_created": "2024-02-12T21:10:05.000",
    "date_modified": "2024-02-12T21:10:05.000",
    "request_status": "Pending",
    "responsible_agency": "Department of Public Works",
    "final_address": "6026 Benjamin St",
    "address_councildis": "A",
    "status": "Pending",
    "rowid": "1067471",
    "final_x": "3665368.24487",
    "final_y": "522189.506042",
    "longitude": "-90.11932096041569",
    "latitude": "29.93031976110733",
    "geocoded_column": {
      "latitude": "29.93031976110733",
      "longitude": "-90.11932096041569"
    }
  },
  {
    "service_request": "2024-1067470",
    "request_type": "Traffic Signals/Signs/Striping/Streetlights",
    "request_reason": "Street Light Knocked Down/Leaning",
    "date_created": "2024-02-12T20:53:51.000",
    "date_modified": "2024-02-12T20:53:52.000",
    "request_status": "Pending",
    "responsible_agency": "Department of Public Works",
    "final_address": "1139 Royal St",
    "address_councildis": "C",
    "status": "Pending",
    "contractor": "Legacy Professional Services",
    "rowid": "1067470",
    "final_x": "3683602.96668",
    "final_y": "533880.393605",
    "longitude": "-90.06134718096988",
    "latitude": "29.961921939143927",
    "geocoded_column": {
      "latitude": "29.961921939143927",
      "longitude": "-90.06134718096988"
    }
  },
  {
    "service_request": "2024-1067469",
    "request_type": "Traffic Signals/Signs/Striping/Streetlights",
    "request_reason": "Street Light Knocked Down/Leaning",
    "date_created": "2024-02-12T20:53:25.000",
    "date_modified": "2024-02-12T20:53:26.000",
    "request_status": "Pending",
    "responsible_agency": "Department of Public Works",
    "final_address": "1139 Royal St",
    "address_councildis": "C",
    "status": "Pending",
    "contractor": "Legacy Professional Services",
    "rowid": "1067469",
    "final_x": "3683602.96668",
    "final_y": "533880.393605",
    "longitude": "-90.06134718096988",
    "latitude": "29.961921939143927",
    "geocoded_column": {
      "latitude": "29.961921939143927",
      "longitude": "-90.06134718096988"
    }
  },
  {
    "service_request": "2024-1067468",
    "request_type": "Traffic Signals/Signs/Striping/Streetlights",
    "request_reason": "Street Light Knocked Down/Leaning",
    "date_created": "2024-02-12T20:52:30.000",
    "date_modified": "2024-02-12T20:52:31.000",
    "request_status": "Pending",
    "responsible_agency": "Department of Public Works",
    "final_address": "1139 Royal St",
    "address_councildis": "C",
    "status": "Pending",
    "contractor": "Legacy Professional Services",
    "rowid": "1067468",
    "final_x": "3683602.96668",
    "final_y": "533880.393605",
    "longitude": "-90.06134718096988",
    "latitude": "29.961921939143927",
    "geocoded_column": {
      "latitude": "29.961921939143927",
      "longitude": "-90.06134718096988"
    }
  },
  {
    "service_request": "2024-1067467",
    "request_type": "Trash/Recycling",
    "request_reason": "Repair Trash Cart",
    "date_created": "2024-02-12T20:25:44.000",
    "date_modified": "2024-02-12T20:25:44.000",
    "request_status": "Pending",
    "responsible_agency": "Department of Sanitation",
    "final_address": "1261 St Denis St",
    "address_councildis": "D",
    "status": "Assigned to Contractor",
    "contractor": "IV Waste",
    "rowid": "1067467",
    "final_x": "3677193.24776",
    "final_y": "545722.099152",
    "longitude": "-90.08117944245616",
    "latitude": "29.994676641279078",
    "geocoded_column": {
      "latitude": "29.994676641279078",
      "longitude": "-90.08117944245616"
    }
  },
  {
    "service_request": "2024-1067465",
    "request_type": "Trash/Recycling",
    "request_reason": "Missed Trash Pick-Up",
    "date_created": "2024-02-12T19:09:52.000",
    "date_modified": "2024-02-13T09:56:45.000",
    "case_close_date": "2024-02-13T03:56:45.000",
    "request_status": "Closed",
    "responsible_agency": "Department of Sanitation",
    "final_address": "6320 Orleans Ave, New Orleans, Louisiana, 70124",
    "address_councildis": "A",
    "status": "Invalid Request",
    "contractor": "IV Waste",
    "contractor_action": "Invalid Request",
    "rowid": "1067465",
    "final_x": "3671024.27879",
    "final_y": "549287.741267",
    "longitude": "-90.10054534227785",
    "latitude": "30.00466483621735",
    "geocoded_column": {
      "latitude": "30.00466483621735",
      "longitude": "-90.10054534227785"
    }
  },
  {
    "service_request": "2024-1067464",
    "request_type": "Trash/Recycling",
    "request_reason": "Request a Large Item Pick Up",
    "date_created": "2024-02-12T18:03:50.000",
    "date_modified": "2024-02-12T18:03:51.000",
    "request_status": "Pending",
    "responsible_agency": "Department of Sanitation",
    "final_address": "908 Delachaise St",
    "address_councildis": "B",
    "status": "Assigned to Contractor",
    "contractor": "Richards Disposal",
    "rowid": "1067464",
    "final_x": "3674839.40609",
    "final_y": "518856.353207",
    "longitude": "-90.08953616448521",
    "latitude": "29.92087534758994",
    "geocoded_column": {
      "latitude": "29.92087534758994",
      "longitude": "-90.08953616448521"
    }
  },
  {
    "service_request": "2024-1067463",
    "request_type": "Health Related Request",
    "request_reason": "Noise Ordinance Complaint",
    "date_created": "2024-02-12T17:47:15.000",
    "date_modified": "2024-02-12T17:47:15.000",
    "request_status": "Pending",
    "responsible_agency": "Health Department",
    "final_address": "3651 Rue Denise, New Orleans, Louisiana, 70131",
    "address_councildis": "C",
    "status": "Pending",
    "rowid": "1067463",
    "final_x": "3704201.08542",
    "final_y": "517054.713141",
    "longitude": "-89.99692174591713",
    "latitude": "29.915012437581023",
    "geocoded_column": {
      "latitude": "29.915012437581023",
      "longitude": "-89.99692174591713"
    }
  },
  {
    "service_request": "2024-1067462",
    "request_type": "Roads/Drainage",
    "request_reason": "Catch Basin - Broken/Damage",
    "date_created": "2024-02-12T17:23:39.000",
    "date_modified": "2024-02-12T17:23:39.000",
    "request_status": "Pending",
    "responsible_agency": "Department of Public Works",
    "final_address": "5403 S Prieur St",
    "address_councildis": "A",
    "status": "Pending",
    "rowid": "1067462",
    "final_x": "3668447.66983",
    "final_y": "526671.822398",
    "longitude": "-90.10944852908565",
    "latitude": "29.94255462037792",
    "geocoded_column": {
      "latitude": "29.94255462037792",
      "longitude": "-90.10944852908565"
    }
  },
  {
    "service_request": "2024-1067461",
    "request_type": "Roads/Drainage",
    "request_reason": "Road Shoulder Repair",
    "date_created": "2024-02-12T17:21:41.000",
    "date_modified": "2024-02-12T17:21:41.000",
    "request_status": "Pending",
    "responsible_agency": "Department of Public Works",
    "final_address": "4705 Venus St",
    "address_councildis": "D",
    "status": "Pending",
    "rowid": "1067461",
    "final_x": "3686596.79401",
    "final_y": "550376.865172",
    "longitude": "-90.05131032056786",
    "latitude": "30.00718965874292",
    "geocoded_column": {
      "latitude": "30.00718965874292",
      "longitude": "-90.05131032056786"
    }
  },
  {
    "service_request": "2024-1067460",
    "request_type": "Trash/Recycling",
    "request_reason": "Request a Large Item Pick Up",
    "date_created": "2024-02-12T16:57:32.000",
    "date_modified": "2024-02-12T16:57:33.000",
    "request_status": "Pending",
    "responsible_agency": "Department of Sanitation",
    "final_address": "4601 S Miro St",
    "address_councildis": "B",
    "status": "Assigned to Contractor",
    "contractor": "Richards Disposal",
    "rowid": "1067460",
    "final_x": "3669371.83604",
    "final_y": "527795.568895",
    "longitude": "-90.10649272743805",
    "latitude": "29.945617383605434",
    "geocoded_column": {
      "latitude": "29.945617383605434",
      "longitude": "-90.10649272743805"
    }
  },
  {
    "service_request": "2024-1067459",
    "request_type": "Trash/Recycling",
    "request_reason": "Request a Large Item Pick Up",
    "date_created": "2024-02-12T16:45:12.000",
    "date_modified": "2024-02-12T16:45:13.000",
    "request_status": "Pending",
    "responsible_agency": "Department of Sanitation",
    "final_address": "3023 Banks St",
    "address_councildis": "B",
    "status": "Assigned to Contractor",
    "contractor": "Richards Disposal",
    "rowid": "1067459",
    "final_x": "3673498.75355",
    "final_y": "535070.779142",
    "longitude": "-90.09321407371681",
    "latitude": "29.96549964952291",
    "geocoded_column": {
      "latitude": "29.96549964952291",
      "longitude": "-90.09321407371681"
    }
  },
  {
    "service_request": "2024-1067458",
    "request_type": "Trash/Recycling",
    "request_reason": "Request a Large Item Pick Up",
    "date_created": "2024-02-12T16:28:47.000",
    "date_modified": "2024-02-12T16:29:13.000",
    "request_status": "Pending",
    "responsible_agency": "Department of Sanitation",
    "final_address": "4922 Nottingham Dr",
    "address_councildis": "E",
    "status": "Assigned to Contractor",
    "contractor": "Waste Pro",
    "rowid": "1067458",
    "final_x": "3716235.92927",
    "final_y": "557703.600027",
    "longitude": "-89.95739523803537",
    "latitude": "30.02639016428215",
    "geocoded_column": {
      "latitude": "30.02639016428215",
      "longitude": "-89.95739523803537"
    }
  },
  {
    "service_request": "2024-1067457",
    "request_type": "Abandoned Vehicles",
    "request_reason": "Abandoned/Junk Vehicles",
    "date_created": "2024-02-12T16:28:43.000",
    "date_modified": "2024-02-12T16:28:43.000",
    "request_status": "Pending",
    "responsible_agency": "Department of Public Works",
    "final_address": "2016 St Andrew St",
    "address_councildis": "B",
    "status": "Pending",
    "rowid": "1067457",
    "final_x": "3677099.55829",
    "final_y": "525524.993533",
    "longitude": "-90.08217204149207",
    "latitude": "29.939144281784138",
    "geocoded_column": {
      "latitude": "29.939144281784138",
      "longitude": "-90.08217204149207"
    }
  },
  {
    "service_request": "2024-1067456",
    "request_type": "Trash/Recycling",
    "request_reason": "Request a Large Item Pick Up",
    "date_created": "2024-02-12T16:18:55.000",
    "date_modified": "2024-02-12T16:18:56.000",
    "request_status": "Pending",
    "responsible_agency": "Department of Sanitation",
    "final_address": "4631 Frenchmen St",
    "address_councildis": "D",
    "status": "Assigned to Contractor",
    "contractor": "IV Waste",
    "rowid": "1067456",
    "final_x": "3683555.12757",
    "final_y": "549771.737172",
    "longitude": "-90.06094100199938",
    "latitude": "30.00561899960689",
    "geocoded_column": {
      "latitude": "30.00561899960689",
      "longitude": "-90.06094100199938"
    }
  },
  {
    "service_request": "2024-1067455",
    "request_type": "Property Maintenance",
    "request_reason": "Property Maintenance",
    "date_created": "2024-02-12T16:07:45.000",
    "date_modified": "2024-02-12T16:07:45.000",
    "request_status": "Pending",
    "responsible_agency": "Department of Code Enforcement",
    "final_address": "7557 Avalon Way",
    "address_councildis": "E",
    "status": "Pending",
    "rowid": "1067455",
    "final_x": "3709214.0995",
    "final_y": "564330.452385",
    "longitude": "-89.97933576004013",
    "latitude": "30.04484135616043",
    "geocoded_column": {
      "latitude": "30.04484135616043",
      "longitude": "-89.97933576004013"
    }
  },
  {
    "service_request": "2024-1067454",
    "request_type": "Trash/Recycling",
    "request_reason": "Missed Trash Pick-Up",
    "date_created": "2024-02-12T16:06:54.000",
    "date_modified": "2024-02-12T16:06:55.000",
    "request_status": "Pending",
    "responsible_agency": "Department of Sanitation",
    "final_address": "7049 Queensway Dr",
    "address_councildis": "E",
    "status": "Assigned to Contractor",
    "contractor": "Waste Pro",
    "rowid": "1067454",
    "final_x": "3719209.84479",
    "final_y": "569547.874662",
    "longitude": "-89.94754549055219",
    "latitude": "30.058858550449006",
    "geocoded_column": {
      "latitude": "30.058858550449006",
      "longitude": "-89.94754549055219"
    }
  },
  {
    "service_request": "2024-1067453",
    "request_type": "Trash/Recycling",
    "request_reason": "Missed Trash Pick-Up",
    "date_created": "2024-02-12T15:58:16.000",
    "date_modified": "2024-02-12T15:58:17.000",
    "request_status": "Pending",
    "responsible_agency": "Department of Sanitation",
    "final_address": "7021 Ridgefield Dr",
    "address_councildis": "E",
    "status": "Assigned to Contractor",
    "contractor": "Waste Pro",
    "rowid": "1067453",
    "final_x": "3719496.90335",
    "final_y": "569565.477926",
    "longitude": "-89.94663746144306",
    "latitude": "30.05889740313564",
    "geocoded_column": {
      "latitude": "30.05889740313564",
      "longitude": "-89.94663746144306"
    }
  },
  {
    "service_request": "2024-1067452",
    "request_type": "Trash/Recycling",
    "request_reason": "Dead Animal Pick Up",
    "date_created": "2024-02-12T15:50:28.000",
    "date_modified": "2024-02-12T15:50:28.000",
    "request_status": "Pending",
    "responsible_agency": "Department of Sanitation",
    "final_address": "417 N Galvez St",
    "address_councildis": "B",
    "status": "Assigned to Contractor",
    "contractor": "Richards Disposal",
    "rowid": "1067452",
    "final_x": "3677674.38363",
    "final_y": "534993.150022",
    "longitude": "-90.08003029096527",
    "latitude": "29.965161272592475",
    "geocoded_column": {
      "latitude": "29.965161272592475",
      "longitude": "-90.08003029096527"
    }
  },
  {
    "service_request": "2024-1067451",
    "request_type": "Roads/Drainage",
    "request_reason": "Catch Basin - Clogged",
    "date_created": "2024-02-12T15:43:19.000",
    "date_modified": "2024-02-12T15:43:19.000",
    "request_status": "Pending",
    "responsible_agency": "Department of Public Works",
    "final_address": "1513 Gardena Dr",
    "address_councildis": "D",
    "status": "Pending",
    "rowid": "1067451",
    "final_x": "3678792.95016",
    "final_y": "551618.064725",
    "longitude": "-90.07592179239859",
    "latitude": "30.010840284087493",
    "geocoded_column": {
      "latitude": "30.010840284087493",
      "longitude": "-90.07592179239859"
    }
  },
  {
    "service_request": "2024-1067450",
    "request_type": "Roads/Drainage",
    "request_reason": "Catch Basin - Clogged",
    "date_created": "2024-02-12T15:27:54.000",
    "date_modified": "2024-02-12T15:27:54.000",
    "request_status": "Pending",
    "responsible_agency": "Department of Public Works",
    "final_address": "2336 State St",
    "address_councildis": "A",
    "status": "Pending",
    "rowid": "1067450",
    "final_x": "3666609.5769",
    "final_y": "525356.029757",
    "longitude": "-90.11529599407518",
    "latitude": "29.93899046935",
    "geocoded_column": {
      "latitude": "29.93899046935",
      "longitude": "-90.11529599407518"
    }
  },
  {
    "service_request": "2024-1067449",
    "request_type": "Abandoned Vehicles",
    "request_reason": "Abandoned/Junk Vehicles",
    "date_created": "2024-02-12T15:23:34.000",
    "date_modified": "2024-02-12T15:23:34.000",
    "request_status": "Pending",
    "responsible_agency": "Department of Public Works",
    "final_address": "4901 Canal St Apt B",
    "address_councildis": "A",
    "status": "Pending",
    "rowid": "1067449",
    "final_x": "3668589.0777",
    "final_y": "540431.714315",
    "longitude": "-90.10853770358128",
    "latitude": "29.98038561747281",
    "geocoded_column": {
      "latitude": "29.98038561747281",
      "longitude": "-90.10853770358128"
    }
  },
  {
    "service_request": "2024-1067448",
    "request_type": "Trash/Recycling",
    "request_reason": "Request a Large Item Pick Up",
    "date_created": "2024-02-12T15:14:58.000",
    "date_modified": "2024-02-12T15:14:58.000",
    "request_status": "Pending",
    "responsible_agency": "Department of Sanitation",
    "final_address": "2622 Urquhart St",
    "address_councildis": "C",
    "status": "Assigned to Contractor",
    "contractor": "IV Waste",
    "rowid": "1067448",
    "final_x": "3687483.67676",
    "final_y": "537118.642056",
    "longitude": "-90.04897791770404",
    "latitude": "29.970706970307322",
    "geocoded_column": {
      "latitude": "29.970706970307322",
      "longitude": "-90.04897791770404"
    }
  },
  {
    "service_request": "2024-1067447",
    "request_type": "Trash/Recycling",
    "request_reason": "Order Recycling Cart",
    "date_created": "2024-02-12T15:14:45.000",
    "date_modified": "2024-02-12T15:14:45.000",
    "request_status": "Pending",
    "responsible_agency": "Department of Sanitation",
    "final_address": "3505 Encampment St",
    "address_councildis": "D",
    "status": "Pending",
    "rowid": "1067447",
    "final_x": "3676730.35976",
    "final_y": "545368.896784",
    "longitude": "-90.08265382932962",
    "latitude": "29.99371935917097",
    "geocoded_column": {
      "latitude": "29.99371935917097",
      "longitude": "-90.08265382932962"
    }
  },
  {
    "service_request": "2024-1067446",
    "request_type": "Trash/Recycling",
    "request_reason": "Order Recycling Cart",
    "date_created": "2024-02-12T15:07:16.000",
    "date_modified": "2024-02-12T15:08:23.000",
    "request_status": "Pending",
    "responsible_agency": "Department of Sanitation",
    "final_address": "11019 N Hardy St",
    "address_councildis": "E",
    "status": "Pending",
    "rowid": "1067446",
    "final_x": "3712989.06738",
    "final_y": "562461.961119",
    "longitude": "-89.96747560849154",
    "latitude": "30.039580564339666",
    "geocoded_column": {
      "latitude": "30.039580564339666",
      "longitude": "-89.96747560849154"
    }
  },
  {
    "service_request": "2024-1067445",
    "request_type": "Abandoned Vehicles",
    "request_reason": "Abandoned/Junk Vehicles",
    "date_created": "2024-02-12T15:03:08.000",
    "date_modified": "2024-02-12T15:06:47.000",
    "request_status": "Pending",
    "responsible_agency": "Department of Public Works",
    "final_address": "2600 BLK Dreux Ave",
    "address_councildis": "D",
    "status": "Pending",
    "rowid": "1067445",
    "final_x": "3686858.64987",
    "final_y": "552239.476673",
    "longitude": "-90.0504171628996",
    "latitude": "30.0123031009261",
    "geocoded_column": {
      "latitude": "30.0123031009261",
      "longitude": "-90.0504171628996"
    }
  },
  {
    "service_request": "2024-1067444",
    "request_type": "Trash/Recycling",
    "request_reason": "Request a Large Item Pick Up",
    "date_created": "2024-02-12T14:46:12.000",
    "date_modified": "2024-02-12T14:46:13.000",
    "request_status": "Pending",
    "responsible_agency": "Department of Sanitation",
    "final_address": "721 Philip St",
    "address_councildis": "B",
    "status": "Assigned to Contractor",
    "contractor": "Richards Disposal",
    "rowid": "1067444",
    "final_x": "3679363.83279",
    "final_y": "520850.985081",
    "longitude": "-90.0751854768973",
    "latitude": "29.926224118259004",
    "geocoded_column": {
      "latitude": "29.926224118259004",
      "longitude": "-90.0751854768973"
    }
  },
  {
    "service_request": "2024-1067443",
    "request_type": "Trash/Recycling",
    "request_reason": "Missed Trash Pick-Up",
    "date_created": "2024-02-12T14:44:37.000",
    "date_modified": "2024-02-12T14:44:37.000",
    "request_status": "Pending",
    "responsible_agency": "Department of Sanitation",
    "final_address": "14643 Emory Rd",
    "address_councildis": "E",
    "status": "Assigned to Contractor",
    "contractor": "Waste Pro",
    "rowid": "1067443",
    "final_x": "3720147.09234",
    "final_y": "573482.533738",
    "longitude": "-89.9444322178259",
    "latitude": "30.06964601099963",
    "geocoded_column": {
      "latitude": "30.06964601099963",
      "longitude": "-89.9444322178259"
    }
  },
  {
    "service_request": "2024-1067442",
    "request_type": "Trash/Recycling",
    "request_reason": "Request a Large Item Pick Up",
    "date_created": "2024-02-12T14:41:02.000",
    "date_modified": "2024-02-12T14:41:02.000",
    "request_status": "Pending",
    "responsible_agency": "Department of Sanitation",
    "final_address": "7204 Willow St, New Orleans, Louisiana, 70118",
    "address_councildis": "A",
    "status": "Assigned to Contractor",
    "contractor": "Richards Disposal",
    "rowid": "1067442",
    "final_x": "3664446.02016",
    "final_y": "527111.795263",
    "longitude": "-90.1220680306627",
    "latitude": "29.94388132474126",
    "geocoded_column": {
      "latitude": "29.94388132474126",
      "longitude": "-90.1220680306627"
    }
  },
  {
    "service_request": "2024-1067441",
    "request_type": "Traffic Signals/Signs/Striping/Streetlights",
    "request_reason": "Striping/Road Surface Markings",
    "date_created": "2024-02-12T14:40:11.000",
    "date_modified": "2024-02-12T14:40:11.000",
    "request_status": "Pending",
    "responsible_agency": "Department of Public Works",
    "final_address": "3300 BLK Peoples Ave",
    "address_councildis": "D",
    "status": "Pending",
    "rowid": "1067441",
    "final_x": "3688615.98658",
    "final_y": "545448.363287",
    "longitude": "-90.04510620475381",
    "latitude": "29.993575794631912",
    "geocoded_column": {
      "latitude": "29.993575794631912",
      "longitude": "-90.04510620475381"
    }
  },
  {
    "service_request": "2024-1067440",
    "request_type": "Trash/Recycling",
    "request_reason": "Request a Large Item Pick Up",
    "date_created": "2024-02-12T14:32:57.000",
    "date_modified": "2024-02-12T14:32:58.000",
    "request_status": "Pending",
    "responsible_agency": "Department of Sanitation",
    "final_address": "4521 Lennox Blvd",
    "address_councildis": "C",
    "status": "Assigned to Contractor",
    "contractor": "Richards Disposal",
    "rowid": "1067440",
    "final_x": "3700699.25885",
    "final_y": "514428.060723",
    "longitude": "-90.00807058416629",
    "latitude": "29.907901873730804",
    "geocoded_column": {
      "latitude": "29.907901873730804",
      "longitude": "-90.00807058416629"
    }
  },
  {
    "service_request": "2024-1067439",
    "request_type": "Trash/Recycling",
    "request_reason": "Request a Large Item Pick Up",
    "date_created": "2024-02-12T14:31:08.000",
    "date_modified": "2024-02-12T14:31:09.000",
    "request_status": "Pending",
    "responsible_agency": "Department of Sanitation",
    "final_address": "4521 Lennox Blvd",
    "address_councildis": "C",
    "status": "Assigned to Contractor",
    "contractor": "Richards Disposal",
    "rowid": "1067439",
    "final_x": "3700699.25885",
    "final_y": "514428.060723",
    "longitude": "-90.00807058416629",
    "latitude": "29.907901873730804",
    "geocoded_column": {
      "latitude": "29.907901873730804",
      "longitude": "-90.00807058416629"
    }
  },
  {
    "service_request": "2024-1067438",
    "request_type": "Roads/Drainage",
    "request_reason": "Pothole",
    "date_created": "2024-02-12T14:28:54.000",
    "date_modified": "2024-02-12T14:28:54.000",
    "request_status": "Pending",
    "responsible_agency": "Department of Public Works",
    "final_address": "BANKS ST & S BROAD ST",
    "address_councildis": "B",
    "status": "Pending",
    "rowid": "1067438",
    "final_x": "3674610.8",
    "final_y": "534180.58",
    "longitude": "-90.08973278513542",
    "latitude": "29.963018761407483",
    "geocoded_column": {
      "latitude": "29.963018761407483",
      "longitude": "-90.08973278513542"
    }
  },
  {
    "service_request": "2024-1067437",
    "request_type": "Health Related Request",
    "request_reason": "Noise Ordinance Complaint",
    "date_created": "2024-02-12T14:27:56.000",
    "date_modified": "2024-02-12T14:27:56.000",
    "request_status": "Pending",
    "responsible_agency": "Health Department",
    "final_address": "3651 Rue Denise, New Orleans, Louisiana, 70131",
    "address_councildis": "C",
    "status": "Pending",
    "rowid": "1067437",
    "final_x": "3704201.08542",
    "final_y": "517054.713141",
    "longitude": "-89.99692174591713",
    "latitude": "29.915012437581023",
    "geocoded_column": {
      "latitude": "29.915012437581023",
      "longitude": "-89.99692174591713"
    }
  },
  {
    "service_request": "2024-1067436",
    "request_type": "Trash/Recycling",
    "request_reason": "Replace Recycling Cart",
    "date_created": "2024-02-12T14:23:53.000",
    "date_modified": "2024-02-12T14:23:53.000",
    "request_status": "Pending",
    "responsible_agency": "Department of Sanitation",
    "final_address": "67 Yosemite Dr",
    "address_councildis": "C",
    "status": "Pending",
    "rowid": "1067436",
    "final_x": "3699538.6977",
    "final_y": "516458.169077",
    "longitude": "-90.01165954335063",
    "latitude": "29.91352084269502",
    "geocoded_column": {
      "latitude": "29.91352084269502",
      "longitude": "-90.01165954335063"
    }
  },
  {
    "service_request": "2024-1067435",
    "request_type": "Trash/Recycling",
    "request_reason": "Replace Recycling Cart",
    "date_created": "2024-02-12T14:21:19.000",
    "date_modified": "2024-02-12T14:21:19.000",
    "request_status": "Pending",
    "responsible_agency": "Department of Sanitation",
    "final_address": "67 Yosemite Dr",
    "address_councildis": "C",
    "status": "Pending",
    "rowid": "1067435",
    "final_x": "3699538.6977",
    "final_y": "516458.169077",
    "longitude": "-90.01165954335063",
    "latitude": "29.91352084269502",
    "geocoded_column": {
      "latitude": "29.91352084269502",
      "longitude": "-90.01165954335063"
    }
  },
  {
    "service_request": "2024-1067434",
    "request_type": "Trash/Recycling",
    "request_reason": "Request a Large Item Pick Up",
    "date_created": "2024-02-12T14:13:31.000",
    "date_modified": "2024-02-12T14:13:32.000",
    "request_status": "Pending",
    "responsible_agency": "Department of Sanitation",
    "final_address": "8024 Reelfoot St",
    "address_councildis": "E",
    "status": "Assigned to Contractor",
    "contractor": "Waste Pro",
    "rowid": "1067434",
    "final_x": "3715928.0206",
    "final_y": "571360.26276",
    "longitude": "-89.95785016404433",
    "latitude": "30.063950591610215",
    "geocoded_column": {
      "latitude": "30.063950591610215",
      "longitude": "-89.95785016404433"
    }
  },
  {
    "service_request": "2024-1067433",
    "request_type": "Trash/Recycling",
    "request_reason": "Dead Animal Pick Up",
    "date_created": "2024-02-12T14:12:49.000",
    "date_modified": "2024-02-12T14:12:50.000",
    "request_status": "Pending",
    "responsible_agency": "Department of Sanitation",
    "final_address": "506 Verret St",
    "address_councildis": "C",
    "status": "Assigned to Contractor",
    "contractor": "Richards Disposal",
    "rowid": "1067433",
    "final_x": "3687028.91382",
    "final_y": "529840.578305",
    "longitude": "-90.05067140642808",
    "latitude": "29.95070881966826",
    "geocoded_column": {
      "latitude": "29.95070881966826",
      "longitude": "-90.05067140642808"
    }
  },
  {
    "service_request": "2024-1067432",
    "request_type": "Property Maintenance",
    "request_reason": "Property Maintenance",
    "date_created": "2024-02-12T14:02:48.000",
    "date_modified": "2024-02-12T14:23:41.000",
    "case_close_date": "2024-02-12T08:23:41.000",
    "request_status": "Closed",
    "responsible_agency": "Department of Code Enforcement",
    "final_address": "1801 Fern St",
    "address_councildis": "A",
    "status": "Resolved",
    "rowid": "1067432",
    "final_x": "3664008.98976",
    "final_y": "529411.681537",
    "longitude": "-90.12337118363833",
    "latitude": "29.950217968234927",
    "geocoded_column": {
      "latitude": "29.950217968234927",
      "longitude": "-90.12337118363833"
    }
  },
  {
    "service_request": "2024-1067431",
    "request_type": "Abandoned Vehicles",
    "request_reason": "Abandoned/Junk Vehicles",
    "date_created": "2024-02-12T13:59:30.000",
    "date_modified": "2024-02-12T14:04:37.000",
    "request_status": "Pending",
    "responsible_agency": "Department of Public Works",
    "final_address": "1801 Fern St",
    "address_councildis": "A",
    "status": "Pending",
    "rowid": "1067431",
    "final_x": "3664008.98976",
    "final_y": "529411.681537",
    "longitude": "-90.12337118363833",
    "latitude": "29.950217968234927",
    "geocoded_column": {
      "latitude": "29.950217968234927",
      "longitude": "-90.12337118363833"
    }
  },
  {
    "service_request": "2024-1067430",
    "request_type": "Abandoned Vehicles",
    "request_reason": "Abandoned/Junk Vehicles",
    "date_created": "2024-02-12T13:51:22.000",
    "date_modified": "2024-02-12T13:51:22.000",
    "request_status": "Pending",
    "responsible_agency": "Department of Public Works",
    "final_address": "GENERAL TAYLOR & S SARATOGA ST",
    "address_councildis": "B",
    "status": "Pending",
    "rowid": "1067430",
    "final_x": "3672220.1",
    "final_y": "522800.68",
    "longitude": "-90.0976698743677",
    "latitude": "29.93179890141308",
    "geocoded_column": {
      "latitude": "29.93179890141308",
      "longitude": "-90.0976698743677"
    }
  },
  {
    "service_request": "2024-1067429",
    "request_type": "Trash/Recycling",
    "request_reason": "Order Recycling Cart",
    "date_created": "2024-02-12T13:49:21.000",
    "date_modified": "2024-02-12T13:49:21.000",
    "request_status": "Pending",
    "responsible_agency": "Department of Sanitation",
    "final_address": "1907 Marengo St",
    "address_councildis": "B",
    "status": "Pending",
    "rowid": "1067429",
    "final_x": "3671904.87297",
    "final_y": "522148.071738",
    "longitude": "-90.09868721255789",
    "latitude": "29.930013782239445",
    "geocoded_column": {
      "latitude": "29.930013782239445",
      "longitude": "-90.09868721255789"
    }
  },
  {
    "service_request": "2024-1067428",
    "request_type": "Trash/Recycling",
    "request_reason": "Missed Trash Pick-Up",
    "date_created": "2024-02-12T13:43:39.000",
    "date_modified": "2024-02-12T15:08:08.000",
    "case_close_date": "2024-02-12T09:08:08.000",
    "request_status": "Closed",
    "responsible_agency": "Department of Sanitation",
    "final_address": "21 Lake Breeze Dr",
    "address_councildis": "E",
    "status": "Invalid Request",
    "contractor": "Waste Pro",
    "contractor_action": "Invalid Request",
    "rowid": "1067428",
    "final_x": "3762963.30064",
    "final_y": "571966.403368",
    "longitude": "-89.80914674686842",
    "latitude": "30.063980820741193",
    "geocoded_column": {
      "latitude": "30.063980820741193",
      "longitude": "-89.80914674686842"
    }
  },
  {
    "service_request": "2024-1067427",
    "request_type": "Abandoned Vehicles",
    "request_reason": "Vehicle Blocking Your Driveway",
    "date_created": "2024-02-12T13:42:17.000",
    "date_modified": "2024-02-12T13:42:17.000",
    "request_status": "Pending",
    "responsible_agency": "Department of Public Works",
    "final_address": "1104 Arabella St",
    "address_councildis": "A",
    "status": "Pending",
    "rowid": "1067427",
    "final_x": "3666006.08557",
    "final_y": "520010.418296",
    "longitude": "-90.11738038890164",
    "latitude": "29.92430936077309",
    "geocoded_column": {
      "latitude": "29.92430936077309",
      "longitude": "-90.11738038890164"
    }
  },
  {
    "service_request": "2024-1067426",
    "request_type": "Parks & Parkways",
    "request_reason": "Request Tree Service (Right of Way/Public Property)",
    "date_created": "2024-02-12T13:41:36.000",
    "date_modified": "2024-02-12T13:41:37.000",
    "request_status": "Pending",
    "responsible_agency": "Department of Parks & Parkway",
    "final_address": "3934 Camp St",
    "address_councildis": "B",
    "status": "Pending",
    "rowid": "1067426",
    "final_x": "3672694.99195",
    "final_y": "519273.999735",
    "longitude": "-90.09629088460952",
    "latitude": "29.922087573312083",
    "geocoded_column": {
      "latitude": "29.922087573312083",
      "longitude": "-90.09629088460952"
    }
  },
  {
    "service_request": "2024-1067425",
    "request_type": "Trash/Recycling",
    "request_reason": "Repair Trash Cart",
    "date_created": "2024-02-12T13:29:32.000",
    "date_modified": "2024-02-12T13:29:33.000",
    "request_status": "Pending",
    "responsible_agency": "Department of Sanitation",
    "final_address": "7241 Lake Barrington Dr",
    "address_councildis": "E",
    "status": "Assigned to Contractor",
    "contractor": "Waste Pro",
    "rowid": "1067425",
    "final_x": "3712239.47115",
    "final_y": "564616.763681",
    "longitude": "-89.96976349690928",
    "latitude": "30.045529951629003",
    "geocoded_column": {
      "latitude": "30.045529951629003",
      "longitude": "-89.96976349690928"
    }
  },
  {
    "service_request": "2024-1067424",
    "request_type": "Property Maintenance",
    "request_reason": "Property Maintenance",
    "date_created": "2024-02-12T13:27:37.000",
    "date_modified": "2024-02-12T13:43:31.000",
    "case_close_date": "2024-02-12T07:43:31.000",
    "request_status": "Closed",
    "responsible_agency": "Department of Code Enforcement",
    "final_address": "5804 Baccich St",
    "address_councildis": "D",
    "status": "Resolved",
    "rowid": "1067424",
    "final_x": "3687500.1357",
    "final_y": "554658.4886",
    "longitude": "-90.04830472218224",
    "latitude": "30.018934727606766",
    "geocoded_column": {
      "latitude": "30.018934727606766",
      "longitude": "-90.04830472218224"
    }
  },
  {
    "service_request": "2024-1067423",
    "request_type": "Parks & Parkways",
    "request_reason": "Request Tree Service (Right of Way/Public Property)",
    "date_created": "2024-02-12T13:18:22.000",
    "date_modified": "2024-02-12T13:25:42.000",
    "request_status": "Pending",
    "responsible_agency": "Department of Parks & Parkway",
    "final_address": "4701 Odin St",
    "address_councildis": "D",
    "status": "Pending",
    "rowid": "1067423",
    "final_x": "3690936.55689",
    "final_y": "553791.507287",
    "longitude": "-90.03747785826559",
    "latitude": "30.016444437450414",
    "geocoded_column": {
      "latitude": "30.016444437450414",
      "longitude": "-90.03747785826559"
    }
  },
  {
    "service_request": "2024-1067422",
    "request_type": "Roads/Drainage",
    "request_reason": "Street Flooding / Drainage",
    "date_created": "2024-02-12T13:07:51.000",
    "date_modified": "2024-02-12T13:07:51.000",
    "request_status": "Pending",
    "responsible_agency": "Department of Public Works",
    "final_address": "4124 DHemecourt St",
    "address_councildis": "A",
    "status": "Pending",
    "rowid": "1067422",
    "final_x": "3669542.63028",
    "final_y": "536989.3042",
    "longitude": "-90.10564246075056",
    "latitude": "29.970892089579657",
    "geocoded_column": {
      "latitude": "29.970892089579657",
      "longitude": "-90.10564246075056"
    }
  },
  {
    "service_request": "2024-1067421",
    "request_type": "Abandoned Vehicles",
    "request_reason": "Abandoned/Junk Vehicles",
    "date_created": "2024-02-12T12:53:52.000",
    "date_modified": "2024-02-12T12:53:53.000",
    "request_status": "Pending",
    "responsible_agency": "Department of Public Works",
    "final_address": "1718 Philip St",
    "address_councildis": "B",
    "status": "Pending",
    "rowid": "1067421",
    "final_x": "3676818.45397",
    "final_y": "523782.331323",
    "longitude": "-90.08311955246246",
    "latitude": "29.9343609694746",
    "geocoded_column": {
      "latitude": "29.9343609694746",
      "longitude": "-90.08311955246246"
    }
  },
  {
    "service_request": "2024-1067420",
    "request_type": "Trash/Recycling",
    "request_reason": "Request a Large Item Pick Up",
    "date_created": "2024-02-12T12:51:57.000",
    "date_modified": "2024-02-12T12:51:57.000",
    "request_status": "Pending",
    "responsible_agency": "Department of Sanitation",
    "final_address": "10219 Seawood St",
    "address_councildis": "E",
    "status": "Assigned to Contractor",
    "contractor": "Waste Pro",
    "rowid": "1067420",
    "final_x": "3713182.46878",
    "final_y": "557509.868827",
    "longitude": "-89.96705101690144",
    "latitude": "30.02595794519987",
    "geocoded_column": {
      "latitude": "30.02595794519987",
      "longitude": "-89.96705101690144"
    }
  },
  {
    "service_request": "2024-1067419",
    "request_type": "Trash/Recycling",
    "request_reason": "Illegal Dumping",
    "date_created": "2024-02-12T12:51:31.000",
    "date_modified": "2024-02-12T12:51:31.000",
    "request_status": "Pending",
    "responsible_agency": "Department of Sanitation",
    "final_address": "5137 Basinview Dr",
    "address_councildis": "E",
    "status": "Pending",
    "rowid": "1067419",
    "final_x": "3698661.01872",
    "final_y": "556347.165658",
    "longitude": "-90.01297898540341",
    "latitude": "30.02322906320276",
    "geocoded_column": {
      "latitude": "30.02322906320276",
      "longitude": "-90.01297898540341"
    }
  },
  {
    "service_request": "2024-1067418",
    "request_type": "Trash/Recycling",
    "request_reason": "Repair Trash Cart",
    "date_created": "2024-02-12T12:51:21.000",
    "date_modified": "2024-02-12T12:51:22.000",
    "request_status": "Pending",
    "responsible_agency": "Department of Sanitation",
    "final_address": "720 Hidalgo St",
    "address_councildis": "A",
    "status": "Assigned to Contractor",
    "contractor": "IV Waste",
    "rowid": "1067418",
    "final_x": "3668480.22305",
    "final_y": "544086.359374",
    "longitude": "-90.10875815320821",
    "latitude": "29.990437846986776",
    "geocoded_column": {
      "latitude": "29.990437846986776",
      "longitude": "-90.10875815320821"
    }
  },
  {
    "service_request": "2024-1067417",
    "request_type": "Traffic Signals/Signs/Striping/Streetlights",
    "request_reason": "Street Name Sign Damaged or Missing",
    "date_created": "2024-02-12T12:47:55.000",
    "date_modified": "2024-02-12T12:48:48.000",
    "request_status": "Pending",
    "responsible_agency": "Department of Public Works",
    "final_address": "35 Pinewood Ct",
    "address_councildis": "C",
    "status": "Pending",
    "rowid": "1067417",
    "final_x": "3695791.35446",
    "final_y": "522915.209147",
    "longitude": "-90.02325425206837",
    "latitude": "29.931393833149336",
    "geocoded_column": {
      "latitude": "29.931393833149336",
      "longitude": "-90.02325425206837"
    }
  },
  {
    "service_request": "2024-1067416",
    "request_type": "Trash/Recycling",
    "request_reason": "Illegal Dumping",
    "date_created": "2024-02-12T12:46:18.000",
    "date_modified": "2024-02-12T13:36:47.000",
    "case_close_date": "2024-02-12T07:36:47.000",
    "request_status": "Closed",
    "responsible_agency": "Department of Code Enforcement",
    "final_address": "35 Pinewood Ct",
    "address_councildis": "C",
    "status": "Resolved",
    "rowid": "1067416",
    "final_x": "3695791.35446",
    "final_y": "522915.209147",
    "longitude": "-90.02325425206837",
    "latitude": "29.931393833149336",
    "geocoded_column": {
      "latitude": "29.931393833149336",
      "longitude": "-90.02325425206837"
    }
  },
  {
    "service_request": "2024-1067415",
    "request_type": "Trash/Recycling",
    "request_reason": "Missed Trash Pick-Up",
    "date_created": "2024-02-12T12:44:43.000",
    "date_modified": "2024-02-12T15:47:43.000",
    "case_close_date": "2024-02-12T09:47:43.000",
    "request_status": "Closed",
    "responsible_agency": "Department of Sanitation",
    "final_address": "4414 Eastview Dr",
    "address_councildis": "E",
    "status": "Invalid Request",
    "contractor": "Waste Pro",
    "contractor_action": "Invalid Request",
    "rowid": "1067415",
    "final_x": "3705185.81732",
    "final_y": "553408.312087",
    "longitude": "-89.99247086115143",
    "latitude": "30.014940003012693",
    "geocoded_column": {
      "latitude": "30.014940003012693",
      "longitude": "-89.99247086115143"
    }
  },
  {
    "service_request": "2024-1067414",
    "request_type": "Property Maintenance",
    "request_reason": "Property Maintenance",
    "date_created": "2024-02-12T12:43:24.000",
    "date_modified": "2024-02-12T13:52:21.000",
    "case_close_date": "2024-02-12T07:52:21.000",
    "request_status": "Closed",
    "responsible_agency": "Department of Code Enforcement",
    "final_address": "2018 Poland Ave",
    "address_councildis": "D",
    "status": "Resolved",
    "rowid": "1067414",
    "final_x": "3693514.30569",
    "final_y": "538597.496073",
    "longitude": "-90.02987941595049",
    "latitude": "29.974586047629757",
    "geocoded_column": {
      "latitude": "29.974586047629757",
      "longitude": "-90.02987941595049"
    }
  },
  {
    "service_request": "2024-1067413",
    "request_type": "Abandoned Vehicles",
    "request_reason": "Abandoned/Junk Vehicles",
    "date_created": "2024-02-12T12:41:44.000",
    "date_modified": "2024-02-12T12:42:54.000",
    "request_status": "Pending",
    "responsible_agency": "Department of Public Works",
    "final_address": "5316 Michoud Blvd",
    "address_councildis": "E",
    "status": "Pending",
    "rowid": "1067413",
    "final_x": "3724591.7422",
    "final_y": "563496.421856",
    "longitude": "-89.93076816003688",
    "latitude": "30.042039512735908",
    "geocoded_column": {
      "latitude": "30.042039512735908",
      "longitude": "-89.93076816003688"
    }
  },
  {
    "service_request": "2024-1067412",
    "request_type": "Roads/Drainage",
    "request_reason": "Pothole",
    "date_created": "2024-02-12T12:41:15.000",
    "date_modified": "2024-02-12T12:41:16.000",
    "request_status": "Pending",
    "responsible_agency": "Department of Public Works",
    "final_address": "2219 Columbus St",
    "address_councildis": "D",
    "status": "Pending",
    "rowid": "1067412",
    "final_x": "3679973.01749",
    "final_y": "538652.968009",
    "longitude": "-90.07264417242433",
    "latitude": "29.97515518245077",
    "geocoded_column": {
      "latitude": "29.97515518245077",
      "longitude": "-90.07264417242433"
    }
  },
  {
    "service_request": "2024-1067411",
    "request_type": "Trash/Recycling",
    "request_reason": "Illegal Dumping",
    "date_created": "2024-02-12T12:37:17.000",
    "date_modified": "2024-02-12T12:37:18.000",
    "request_status": "Pending",
    "responsible_agency": "Department of Sanitation",
    "final_address": "N DORGENOIS ST & WINTHROP ST",
    "address_councildis": "E",
    "status": "Pending",
    "rowid": "1067411",
    "final_x": "3700671.8",
    "final_y": "538646.58",
    "longitude": "-90.00727265876282",
    "latitude": "29.97449519205967",
    "geocoded_column": {
      "latitude": "29.97449519205967",
      "longitude": "-90.00727265876282"
    }
  },
  {
    "service_request": "2024-1067410",
    "request_type": "Trash/Recycling",
    "request_reason": "Order Trash Cart",
    "date_created": "2024-02-12T12:35:52.000",
    "date_modified": "2024-02-12T12:35:53.000",
    "request_status": "Pending",
    "responsible_agency": "Department of Sanitation",
    "final_address": "423 S Gayoso St",
    "address_councildis": "B",
    "status": "Assigned to Contractor",
    "contractor": "Richards Disposal",
    "rowid": "1067410",
    "final_x": "3673450.52929",
    "final_y": "534751.560198",
    "longitude": "-90.0933772728994",
    "latitude": "29.96462333973958",
    "geocoded_column": {
      "latitude": "29.96462333973958",
      "longitude": "-90.0933772728994"
    }
  },
  {
    "service_request": "2024-1067409",
    "request_type": "Trash/Recycling",
    "request_reason": "Request a Large Item Pick Up",
    "date_created": "2024-02-12T12:25:20.000",
    "date_modified": "2024-02-12T13:38:33.000",
    "case_close_date": "2024-02-12T07:38:33.000",
    "request_status": "Closed",
    "responsible_agency": "Department of Sanitation",
    "final_address": "TYNECASTLE DR & PRESSBURG ST",
    "address_councildis": "E",
    "status": "Wrong Agency",
    "contractor": "Waste Pro",
    "contractor_action": "Invalid Request",
    "rowid": "1067409",
    "final_x": "3718453.9",
    "final_y": "557770.18",
    "longitude": "-89.95038425455085",
    "latitude": "30.02649981355417",
    "geocoded_column": {
      "latitude": "30.02649981355417",
      "longitude": "-89.95038425455085"
    }
  },
  {
    "service_request": "2024-1067408",
    "request_type": "Trash/Recycling",
    "request_reason": "Request a Large Item Pick Up",
    "date_created": "2024-02-12T12:24:52.000",
    "date_modified": "2024-02-12T12:24:53.000",
    "request_status": "Pending",
    "responsible_agency": "Department of Sanitation",
    "final_address": "4743 Gabriel Dr",
    "address_councildis": "E",
    "status": "Assigned to Contractor",
    "contractor": "Waste Pro",
    "rowid": "1067408",
    "final_x": "3708945.37918",
    "final_y": "555779.236633",
    "longitude": "-89.98050411256139",
    "latitude": "30.021337620275233",
    "geocoded_column": {
      "latitude": "30.021337620275233",
      "longitude": "-89.98050411256139"
    }
  },
  {
    "service_request": "2024-1067407",
    "request_type": "Trash/Recycling",
    "request_reason": "Order Trash Cart",
    "date_created": "2024-02-12T12:23:40.000",
    "date_modified": "2024-02-12T12:23:41.000",
    "request_status": "Pending",
    "responsible_agency": "Department of Sanitation",
    "final_address": "203 Cherokee St",
    "address_councildis": "A",
    "status": "Assigned to Contractor",
    "contractor": "Richards Disposal",
    "rowid": "1067407",
    "final_x": "3661056.14138",
    "final_y": "524165.777084",
    "longitude": "-90.13286830723894",
    "latitude": "29.93587880464482",
    "geocoded_column": {
      "latitude": "29.93587880464482",
      "longitude": "-90.13286830723894"
    }
  },
  {
    "service_request": "2024-1067406",
    "request_type": "Trash/Recycling",
    "request_reason": "Request a Large Item Pick Up",
    "date_created": "2024-02-12T12:22:25.000",
    "date_modified": "2024-02-12T12:22:26.000",
    "request_status": "Pending",
    "responsible_agency": "Department of Sanitation",
    "final_address": "10934 Curran Rd",
    "address_councildis": "E",
    "status": "Assigned to Contractor",
    "contractor": "Waste Pro",
    "rowid": "1067406",
    "final_x": "3710305.32965",
    "final_y": "565912.629091",
    "longitude": "-89.97582775325162",
    "latitude": "30.049156204447808",
    "geocoded_column": {
      "latitude": "30.049156204447808",
      "longitude": "-89.97582775325162"
    }
  },
  {
    "service_request": "2024-1067405",
    "request_type": "Trash/Recycling",
    "request_reason": "Request a Large Item Pick Up",
    "date_created": "2024-02-12T12:22:17.000",
    "date_modified": "2024-02-12T12:22:18.000",
    "request_status": "Pending",
    "responsible_agency": "Department of Sanitation",
    "final_address": "7661 Inlet Ln",
    "address_councildis": "E",
    "status": "Assigned to Contractor",
    "contractor": "Waste Pro",
    "rowid": "1067405",
    "final_x": "3714494.61221",
    "final_y": "568742.975909",
    "longitude": "-89.96248020619889",
    "latitude": "30.056801367088358",
    "geocoded_column": {
      "latitude": "30.056801367088358",
      "longitude": "-89.96248020619889"
    }
  },
  {
    "service_request": "2024-1067404",
    "request_type": "Trash/Recycling",
    "request_reason": "Missed Trash Pick-Up",
    "date_created": "2024-02-12T12:21:28.000",
    "date_modified": "2024-02-12T12:21:28.000",
    "request_status": "Pending",
    "responsible_agency": "Department of Sanitation",
    "final_address": "1306 Calhoun St",
    "address_councildis": "A",
    "status": "Assigned to Contractor",
    "contractor": "Richards Disposal",
    "rowid": "1067404",
    "final_x": "3664103.11738",
    "final_y": "521391.034809",
    "longitude": "-90.12334140557269",
    "latitude": "29.928161012734737",
    "geocoded_column": {
      "latitude": "29.928161012734737",
      "longitude": "-90.12334140557269"
    }
  },
  {
    "service_request": "2024-1067403",
    "request_type": "Abandoned Vehicles",
    "request_reason": "Abandoned/Junk Vehicles",
    "date_created": "2024-02-12T12:11:09.000",
    "date_modified": "2024-02-12T12:11:09.000",
    "request_status": "Pending",
    "responsible_agency": "Department of Public Works",
    "final_address": "2711 Third St",
    "address_councildis": "B",
    "status": "Pending",
    "rowid": "1067403",
    "final_x": "3674229.16782",
    "final_y": "526274.744702",
    "longitude": "-90.09120857008621",
    "latitude": "29.941291720822615",
    "geocoded_column": {
      "latitude": "29.941291720822615",
      "longitude": "-90.09120857008621"
    }
  },
  {
    "service_request": "2024-1067402",
    "request_type": "Traffic Signals/Signs/Striping/Streetlights",
    "request_reason": "Request for Stop Sign",
    "date_created": "2024-02-12T12:09:56.000",
    "date_modified": "2024-02-12T12:09:56.000",
    "request_status": "Pending",
    "responsible_agency": "Department of Public Works",
    "final_address": "S CARROLLTON AVE & ST CHARLES AVE",
    "address_councildis": "A",
    "status": "Pending",
    "rowid": "1067402",
    "final_x": "3660671.9",
    "final_y": "526777.68",
    "longitude": "-90.13399506302743",
    "latitude": "29.943071775555143",
    "geocoded_column": {
      "latitude": "29.943071775555143",
      "longitude": "-90.13399506302743"
    }
  },
  {
    "service_request": "2024-1067401",
    "request_type": "Utility Poles",
    "request_reason": "Utility Pole Leaning",
    "date_created": "2024-02-12T12:09:38.000",
    "date_modified": "2024-02-12T12:09:48.000",
    "request_status": "Pending",
    "responsible_agency": "Utility Company Collective",
    "final_address": "NASHVILLE AVE & S CLAIBORNE AVE",
    "address_councildis": "A",
    "status": "Pending",
    "rowid": "1067401",
    "final_x": "3667687.8",
    "final_y": "526816.48",
    "longitude": "-90.1118427528031",
    "latitude": "29.94297467722136",
    "geocoded_column": {
      "latitude": "29.94297467722136",
      "longitude": "-90.1118427528031"
    }
  },
  {
    "service_request": "2024-1067400",
    "request_type": "Trash/Recycling",
    "request_reason": "Missed Trash Pick-Up",
    "date_created": "2024-02-12T12:00:14.000",
    "date_modified": "2024-02-12T12:31:29.000",
    "case_close_date": "2024-02-12T06:31:29.000",
    "request_status": "Closed",
    "responsible_agency": "Department of Sanitation",
    "final_address": "13400 Wales St",
    "address_councildis": "E",
    "status": "Invalid Request",
    "contractor": "Waste Pro",
    "contractor_action": "Invalid Request",
    "rowid": "1067400",
    "final_x": "3716481.08792",
    "final_y": "571066.783207",
    "longitude": "-89.9561130476811",
    "latitude": "30.06312537842503",
    "geocoded_column": {
      "latitude": "30.06312537842503",
      "longitude": "-89.9561130476811"
    }
  },
  {
    "service_request": "2024-1067399",
    "request_type": "Roads/Drainage",
    "request_reason": "Catch Basin - Clogged",
    "date_created": "2024-02-12T11:52:30.000",
    "date_modified": "2024-02-12T11:52:30.000",
    "request_status": "Pending",
    "responsible_agency": "Department of Public Works",
    "final_address": "34 Marywood Ct",
    "address_councildis": "E",
    "status": "Pending",
    "rowid": "1067399",
    "final_x": "3712359.05771",
    "final_y": "566966.636644",
    "longitude": "-89.96929713902874",
    "latitude": "30.051987236231128",
    "geocoded_column": {
      "latitude": "30.051987236231128",
      "longitude": "-89.96929713902874"
    }
  },
  {
    "service_request": "2024-1067398",
    "request_type": "Trash/Recycling",
    "request_reason": "Replace Trash Cart",
    "date_created": "2024-02-12T11:47:05.000",
    "date_modified": "2024-02-12T11:47:05.000",
    "request_status": "Pending",
    "responsible_agency": "Department of Sanitation",
    "final_address": "7200 Oak St",
    "address_councildis": "A",
    "status": "Assigned to Contractor",
    "contractor": "Richards Disposal",
    "rowid": "1067398",
    "final_x": "3664092.10029",
    "final_y": "526486.99987",
    "longitude": "-90.1232062903975",
    "latitude": "29.942173619963896",
    "geocoded_column": {
      "latitude": "29.942173619963896",
      "longitude": "-90.1232062903975"
    }
  },
  {
    "service_request": "2024-1067397",
    "request_type": "Traffic Signals/Signs/Striping/Streetlights",
    "request_reason": "Street Light Outage/Malfunction",
    "date_created": "2024-02-12T11:44:17.000",
    "date_modified": "2024-02-12T11:45:33.000",
    "request_status": "Pending",
    "responsible_agency": "Department of Public Works",
    "final_address": "1504 Congress St",
    "address_councildis": "D",
    "status": "Assigned to Contractor",
    "contractor": "Legacy Professional Services",
    "rowid": "1067397",
    "final_x": "3691062.0792",
    "final_y": "537151.085064",
    "longitude": "-90.03767577140871",
    "latitude": "29.97068540390083",
    "geocoded_column": {
      "latitude": "29.97068540390083",
      "longitude": "-90.03767577140871"
    }
  },
  {
    "service_request": "2024-1067396",
    "request_type": "Traffic Signals/Signs/Striping/Streetlights",
    "request_reason": "Traffic Sign Missing/Damaged",
    "date_created": "2024-02-12T11:36:42.000",
    "date_modified": "2024-02-12T11:36:43.000",
    "request_status": "Pending",
    "responsible_agency": "Department of Public Works",
    "final_address": "MAPLE ST & PINE ST",
    "address_councildis": "A",
    "status": "Pending",
    "rowid": "1067396",
    "final_x": "3663129.2",
    "final_y": "525484.38",
    "longitude": "-90.12627973745822",
    "latitude": "29.939444661617483",
    "geocoded_column": {
      "latitude": "29.939444661617483",
      "longitude": "-90.12627973745822"
    }
  },
  {
    "service_request": "2024-1067395",
    "request_type": "Trash/Recycling",
    "request_reason": "Request a Large Item Pick Up",
    "date_created": "2024-02-12T11:35:58.000",
    "date_modified": "2024-02-12T11:35:59.000",
    "request_status": "Pending",
    "responsible_agency": "Department of Sanitation",
    "final_address": "8412 Apple St",
    "address_councildis": "A",
    "status": "Assigned to Contractor",
    "contractor": "Richards Disposal",
    "rowid": "1067395",
    "final_x": "3664406.58247",
    "final_y": "532916.358724",
    "longitude": "-90.12199880544732",
    "latitude": "29.959843141550177",
    "geocoded_column": {
      "latitude": "29.959843141550177",
      "longitude": "-90.12199880544732"
    }
  },
  {
    "service_request": "2024-1067394",
    "request_type": "Trash/Recycling",
    "request_reason": "Replace Trash Cart",
    "date_created": "2024-02-12T11:33:36.000",
    "date_modified": "2024-02-12T13:43:44.000",
    "case_close_date": "2024-02-12T07:43:44.000",
    "request_status": "Closed",
    "responsible_agency": "Department of Sanitation",
    "final_address": "2310 Odin St",
    "address_councildis": "D",
    "status": "Duplicate Request",
    "contractor": "IV Waste",
    "contractor_action": "duplicate",
    "rowid": "1067394",
    "final_x": "3684536.15535",
    "final_y": "553072.079127",
    "longitude": "-90.05772564461412",
    "latitude": "30.014663748779675",
    "geocoded_column": {
      "latitude": "30.014663748779675",
      "longitude": "-90.05772564461412"
    }
  },
  {
    "service_request": "2024-1067393",
    "request_type": "Trash/Recycling",
    "request_reason": "Replace Trash Cart",
    "date_created": "2024-02-12T11:29:45.000",
    "date_modified": "2024-02-12T11:29:45.000",
    "request_status": "Pending",
    "responsible_agency": "Department of Sanitation",
    "final_address": "2310 Odin St",
    "address_councildis": "D",
    "status": "Assigned to Contractor",
    "contractor": "IV Waste",
    "rowid": "1067393",
    "final_x": "3684536.15535",
    "final_y": "553072.079127",
    "longitude": "-90.05772564461412",
    "latitude": "30.014663748779675",
    "geocoded_column": {
      "latitude": "30.014663748779675",
      "longitude": "-90.05772564461412"
    }
  },
  {
    "service_request": "2024-1067392",
    "request_type": "Trash/Recycling",
    "request_reason": "Illegal Dumping",
    "date_created": "2024-02-12T11:29:37.000",
    "date_modified": "2024-02-12T11:30:10.000",
    "case_close_date": "2024-02-12T05:30:10.000",
    "request_status": "Closed",
    "responsible_agency": "Department of Sanitation",
    "final_address": "506 N Rendon St",
    "address_councildis": "A",
    "status": "Resolved",
    "rowid": "1067392",
    "final_x": "3674590.31169",
    "final_y": "537655.418312",
    "longitude": "-90.08967838641742",
    "latitude": "29.972574003229298",
    "geocoded_column": {
      "latitude": "29.972574003229298",
      "longitude": "-90.08967838641742"
    }
  },
  {
    "service_request": "2024-1067391",
    "request_type": "Trash/Recycling",
    "request_reason": "Request a Large Item Pick Up",
    "date_created": "2024-02-12T11:29:36.000",
    "date_modified": "2024-02-12T11:29:37.000",
    "request_status": "Pending",
    "responsible_agency": "Department of Sanitation",
    "final_address": "2132 Lizardi St",
    "address_councildis": "E",
    "status": "Assigned to Contractor",
    "contractor": "Waste Pro",
    "rowid": "1067391",
    "final_x": "3697623.52394",
    "final_y": "538114.795657",
    "longitude": "-90.01691909002827",
    "latitude": "29.973129624283953",
    "geocoded_column": {
      "latitude": "29.973129624283953",
      "longitude": "-90.01691909002827"
    }
  },
  {
    "service_request": "2024-1067390",
    "request_type": "Trash/Recycling",
    "request_reason": "Request a Large Item Pick Up",
    "date_created": "2024-02-12T11:27:26.000",
    "date_modified": "2024-02-12T13:42:51.000",
    "request_status": "Pending",
    "responsible_agency": "Department of Sanitation",
    "final_address": "105 Winthrop Pl",
    "address_councildis": "D",
    "status": "Assigned to Contractor",
    "contractor": "IV Waste",
    "rowid": "1067390",
    "final_x": "3677759.70005",
    "final_y": "543884.25883",
    "longitude": "-90.07945361588732",
    "latitude": "29.98960619196076",
    "geocoded_column": {
      "latitude": "29.98960619196076",
      "longitude": "-90.07945361588732"
    }
  },
  {
    "service_request": "2024-1067389",
    "request_type": "Trash/Recycling",
    "request_reason": "Request a Large Item Pick Up",
    "date_created": "2024-02-12T11:25:10.000",
    "date_modified": "2024-02-12T11:25:11.000",
    "request_status": "Pending",
    "responsible_agency": "Department of Sanitation",
    "final_address": "7530 Elmdale Rd",
    "address_councildis": "E",
    "status": "Assigned to Contractor",
    "contractor": "Waste Pro",
    "rowid": "1067389",
    "final_x": "3709645.71",
    "final_y": "564440.242913",
    "longitude": "-89.97796757692961",
    "latitude": "30.045129205456572",
    "geocoded_column": {
      "latitude": "30.045129205456572",
      "longitude": "-89.97796757692961"
    }
  },
  {
    "service_request": "2024-1067388",
    "request_type": "Trash/Recycling",
    "request_reason": "Request a Large Item Pick Up",
    "date_created": "2024-02-12T11:23:08.000",
    "date_modified": "2024-02-12T11:23:08.000",
    "request_status": "Pending",
    "responsible_agency": "Department of Sanitation",
    "final_address": "7430 Eastmore Rd",
    "address_councildis": "E",
    "status": "Assigned to Contractor",
    "contractor": "Waste Pro",
    "rowid": "1067388",
    "final_x": "3700324.05207",
    "final_y": "559965.407325",
    "longitude": "-90.00759191458707",
    "latitude": "30.033125037234008",
    "geocoded_column": {
      "latitude": "30.033125037234008",
      "longitude": "-90.00759191458707"
    }
  },
  {
    "service_request": "2024-1067387",
    "request_type": "Traffic Signals/Signs/Striping/Streetlights",
    "request_reason": "Street Name Sign Damaged or Missing",
    "date_created": "2024-02-12T11:20:48.000",
    "date_modified": "2024-02-12T11:20:48.000",
    "request_status": "Pending",
    "responsible_agency": "Department of Public Works",
    "final_address": "HAYNE BLVD & ALABAMA ST",
    "address_councildis": "D",
    "status": "Pending",
    "rowid": "1067387",
    "final_x": "3694477.6",
    "final_y": "559858.88",
    "longitude": "-90.02607103024322",
    "latitude": "30.03301682655515",
    "geocoded_column": {
      "latitude": "30.03301682655515",
      "longitude": "-90.02607103024322"
    }
  },
  {
    "service_request": "2024-1067386",
    "request_type": "Trash/Recycling",
    "request_reason": "Replace Trash Cart",
    "date_created": "2024-02-12T11:18:52.000",
    "date_modified": "2024-02-12T11:18:52.000",
    "request_status": "Pending",
    "responsible_agency": "Department of Sanitation",
    "final_address": "4332 Eastview Dr",
    "address_councildis": "E",
    "status": "Assigned to Contractor",
    "contractor": "Waste Pro",
    "rowid": "1067386",
    "final_x": "3705236.61444",
    "final_y": "553213.083223",
    "longitude": "-89.99231758679326",
    "latitude": "30.014401563992216",
    "geocoded_column": {
      "latitude": "30.014401563992216",
      "longitude": "-89.99231758679326"
    }
  },