[
  {
    "service_request": "2024-1078221",
    "request_type": "Trash/Recycling",
    "request_reason": "Replace Recycling Cart",
    "date_created": "2024-03-24T23:44:15.000",
    "date_modified": "2024-03-24T23:44:15.000",
    "request_status": "Pending",
    "responsible_agency": "Department of Sanitation",
    "final_address": "1808 W Homestead Dr",
    "address_councildis": "C",
    "status": "Pending",
    "rowid": "1078221",
    "final_x": "3696964.57635",
    "final_y": "525304.051517",
    "longitude": "-90.01946408329191",
    "latitude": "29.93792539104885",
    "geocoded_column": {
      "latitude": "29.93792539104885",
      "longitude": "-90.01946408329191"
    }
  },
  {
    "service_request": "2024-1078220",
    "request_type": "Roads/Drainage",
    "request_reason": "Pothole",
    "date_created": "2024-03-24T23:10:03.000",
    "date_modified": "2024-03-24T23:10:03.000",
    "request_status": "Pending",
    "responsible_agency": "Department of Public Works",
    "final_address": "1312 Milan St",
    "address_councildis": "B",
    "status": "Pending",
    "rowid": "1078220",
    "final_x": "3671625.82823",
    "final_y": "520286.919608",
    "longitude": "-90.09963137110304",
    "latitude": "29.92490447494246",
    "geocoded_column": {
      "latitude": "29.92490447494246",
      "longitude": "-90.09963137110304"
    }
  },
  {
    "service_request": "2024-1078219",
    "request_type": "Health Related Request",
    "request_reason": "Noise Ordinance Complaint",
    "date_created": "2024-03-24T22:37:32.000",
    "date_modified": "2024-03-24T22:37:32.000",
    "request_status": "Pending",
    "responsible_agency": "Health Department",
    "final_address": " 1500 Canal St, New Orleans, LA 70112",
    "address_councildis": "B",
    "status": "Pending",
    "rowid": "1078219",
    "final_x": "3679081.04053",
    "final_y": "532173.512067",
    "longitude": "-90.07568587566018",
    "latitude": "29.957365844181673",
    "geocoded_column": {
      "latitude": "29.957365844181673",
      "longitude": "-90.07568587566018"
    }
  },
  {
    "service_request": "2024-1078218",
    "request_type": "Roads/Drainage",
    "request_reason": "Service Cut",
    "date_created": "2024-03-24T22:32:41.000",
    "date_modified": "2024-03-24T22:32:41.000",
    "request_status": "Pending",
    "responsible_agency": "Department of Public Works",
    "final_address": "4000 BLK Downman Rd",
    "address_councildis": "D",
    "status": "Pending",
    "rowid": "1078218",
    "final_x": "3696124.90922",
    "final_y": "552283.476257",
    "longitude": "-90.02113954840148",
    "latitude": "30.01213555987978",
    "geocoded_column": {
      "latitude": "30.01213555987978",
      "longitude": "-90.02113954840148"
    }
  },
  {
    "service_request": "2024-1078215",
    "request_type": "Roads/Drainage",
    "request_reason": "Pothole",
    "date_created": "2024-03-24T22:10:02.000",
    "date_modified": "2024-03-24T22:10:02.000",
    "request_status": "Pending",
    "responsible_agency": "Department of Public Works",
    "final_address": "1122 Aline St",
    "address_councildis": "B",
    "status": "Pending",
    "rowid": "1078215",
    "final_x": "3674288.77825",
    "final_y": "519514.088503",
    "longitude": "-90.09125174299426",
    "latitude": "29.92270033208624",
    "geocoded_column": {
      "latitude": "29.92270033208624",
      "longitude": "-90.09125174299426"
    }
  },
  {
    "service_request": "2024-1078214",
    "request_type": "Roads/Drainage",
    "request_reason": "Pothole",
    "date_created": "2024-03-24T21:06:40.000",
    "date_modified": "2024-03-24T21:06:40.000",
    "request_status": "Pending",
    "responsible_agency": "Department of Public Works",
    "final_address": "SENATE ST & JUMONVILLE ST",
    "address_councildis": "D",
    "status": "Pending",
    "rowid": "1078214",
    "final_x": "3678014.4",
    "final_y": "547233.48",
    "longitude": "-90.07853323740751",
    "latitude": "29.9988077062996",
    "geocoded_column": {
      "latitude": "29.9988077062996",
      "longitude": "-90.07853323740751"
    }
  },
  {
    "service_request": "2024-1078213",
    "request_type": "Trash/Recycling",
    "request_reason": "Replace Trash Cart",
    "date_created": "2024-03-24T20:24:31.000",
    "date_modified": "2024-03-24T20:24:32.000",
    "request_status": "Pending",
    "responsible_agency": "Department of Sanitation",
    "final_address": "8014 Panola St",
    "address_councildis": "A",
    "status": "Assigned to Contractor",
    "contractor": "Richards Disposal",
    "rowid": "1078213",
    "final_x": "3664287.00224",
    "final_y": "530481.272578",
    "longitude": "-90.12245767395585",
    "latitude": "29.95315092241425",
    "geocoded_column": {
      "latitude": "29.95315092241425",
      "longitude": "-90.12245767395585"
    }
  },
  {
    "service_request": "2024-1078212",
    "request_type": "Trash/Recycling",
    "request_reason": "Replace Trash Cart",
    "date_created": "2024-03-24T20:22:27.000",
    "date_modified": "2024-03-24T20:22:28.000",
    "request_status": "Pending",
    "responsible_agency": "Department of Sanitation",
    "final_address": "8020 Panola St",
    "address_councildis": "A",
    "status": "Assigned to Contractor",
    "contractor": "Richards Disposal",
    "rowid": "1078212",
    "final_x": "3664272.86349",
    "final_y": "530495.461762",
    "longitude": "-90.12250184474047",
    "latitude": "29.953190348898374",
    "geocoded_column": {
      "latitude": "29.953190348898374",
      "longitude": "-90.12250184474047"
    }
  },
  {
    "service_request": "2024-1078211",
    "request_type": "Trash/Recycling",
    "request_reason": "Replace Trash Cart",
    "date_created": "2024-03-24T20:22:03.000",
    "date_modified": "2024-03-24T20:22:03.000",
    "request_status": "Pending",
    "responsible_agency": "Department of Sanitation",
    "final_address": "8016 Panola St",
    "address_councildis": "A",
    "status": "Assigned to Contractor",
    "contractor": "Richards Disposal",
    "rowid": "1078211",
    "final_x": "3664280.44551",
    "final_y": "530486.55469",
    "longitude": "-90.1224782011036",
    "latitude": "29.953165637029777",
    "geocoded_column": {
      "latitude": "29.953165637029777",
      "longitude": "-90.1224782011036"
    }
  },
  {
    "service_request": "2024-1078210",
    "request_type": "Trash/Recycling",
    "request_reason": "Replace Trash Cart",
    "date_created": "2024-03-24T20:21:09.000",
    "date_modified": "2024-03-24T20:21:09.000",
    "request_status": "Pending",
    "responsible_agency": "Department of Sanitation",
    "final_address": "8018 Panola St",
    "address_councildis": "A",
    "status": "Assigned to Contractor",
    "contractor": "Richards Disposal",
    "rowid": "1078210",
    "final_x": "3664276.65453",
    "final_y": "530491.00845",
    "longitude": "-90.12249002281837",
    "latitude": "29.953177993579686",
    "geocoded_column": {
      "latitude": "29.953177993579686",
      "longitude": "-90.12249002281837"
    }
  },
  {
    "service_request": "2024-1078209",
    "request_type": "Trash/Recycling",
    "request_reason": "Replace Trash Cart",
    "date_created": "2024-03-24T19:53:05.000",
    "date_modified": "2024-03-24T19:53:06.000",
    "request_status": "Pending",
    "responsible_agency": "Department of Sanitation",
    "final_address": "2204 Octavia St",
    "address_councildis": "A",
    "status": "Assigned to Contractor",
    "contractor": "Richards Disposal",
    "rowid": "1078209",
    "final_x": "3667456.33172",
    "final_y": "523772.683899",
    "longitude": "-90.11267593212925",
    "latitude": "29.934611998580188",
    "geocoded_column": {
      "latitude": "29.934611998580188",
      "longitude": "-90.11267593212925"
    }
  },
  {
    "service_request": "2024-1078208",
    "request_type": "Safety & Permits",
    "request_reason": "Licenses & Permits",
    "date_created": "2024-03-24T19:39:01.000",
    "date_modified": "2024-03-24T19:39:01.000",
    "request_status": "Pending",
    "responsible_agency": "Safety and Permits",
    "final_address": "1301 General Ogden St",
    "address_councildis": "A",
    "status": "Pending",
    "rowid": "1078208",
    "final_x": "3660151.73862",
    "final_y": "530538.13965",
    "longitude": "-90.13551323699676",
    "latitude": "29.95342680046426",
    "geocoded_column": {
      "latitude": "29.95342680046426",
      "longitude": "-90.13551323699676"
    }
  },
  {
    "service_request": "2024-1078207",
    "request_type": "Healthy Homes",
    "request_reason": "Healthy Homes",
    "date_created": "2024-03-24T19:31:47.000",
    "date_modified": "2024-03-24T19:31:47.000",
    "request_status": "Pending",
    "responsible_agency": "Department of Code Enforcement",
    "final_address": "8827 Plum St",
    "address_councildis": "A",
    "status": "Pending",
    "rowid": "1078207",
    "final_x": "3660211.39117",
    "final_y": "530491.026882",
    "longitude": "-90.13532643392307",
    "latitude": "29.953295540681772",
    "geocoded_column": {
      "latitude": "29.953295540681772",
      "longitude": "-90.13532643392307"
    }
  },
  {
    "service_request": "2024-1078206",
    "request_type": "Trash/Recycling",
    "request_reason": "Start Trash Service",
    "date_created": "2024-03-24T19:23:17.000",
    "date_modified": "2024-03-24T19:23:17.000",
    "request_status": "Pending",
    "responsible_agency": "Department of Sanitation",
    "final_address": "4818 Virgilian St",
    "address_councildis": "D",
    "status": "Assigned to Contractor",
    "contractor": "Waste Pro",
    "rowid": "1078206",
    "final_x": "3697361.92055",
    "final_y": "554162.723288",
    "longitude": "-90.01716311656732",
    "latitude": "30.017263771775724",
    "geocoded_column": {
      "latitude": "30.017263771775724",
      "longitude": "-90.01716311656732"
    }
  },
  {
    "service_request": "2024-1078205",
    "request_type": "Trash/Recycling",
    "request_reason": "Request a Large Item Pick Up",
    "date_created": "2024-03-24T19:17:30.000",
    "date_modified": "2024-03-24T19:17:31.000",
    "request_status": "Pending",
    "responsible_agency": "Department of Sanitation",
    "final_address": "2220 Fourth St",
    "address_councildis": "B",
    "status": "Assigned to Contractor",
    "contractor": "Richards Disposal",
    "rowid": "1078205",
    "final_x": "3674874.94286",
    "final_y": "524624.429372",
    "longitude": "-90.08922630456942",
    "latitude": "29.936734629385583",
    "geocoded_column": {
      "latitude": "29.936734629385583",
      "longitude": "-90.08922630456942"
    }
  },
  {
    "service_request": "2024-1078204",
    "request_type": "Trash/Recycling",
    "request_reason": "Start Trash Service",
    "date_created": "2024-03-24T19:15:06.000",
    "date_modified": "2024-03-24T19:15:07.000",
    "request_status": "Pending",
    "responsible_agency": "Department of Sanitation",
    "final_address": "2220 Fourth St",
    "address_councildis": "B",
    "status": "Assigned to Contractor",
    "contractor": "Richards Disposal",
    "rowid": "1078204",
    "final_x": "3674874.94286",
    "final_y": "524624.429372",
    "longitude": "-90.08922630456942",
    "latitude": "29.936734629385583",
    "geocoded_column": {
      "latitude": "29.936734629385583",
      "longitude": "-90.08922630456942"
    }
  },
  {
    "service_request": "2024-1078203",
    "request_type": "Trash/Recycling",
    "request_reason": "Illegal Dumping",
    "date_created": "2024-03-24T18:48:56.000",
    "date_modified": "2024-03-24T18:48:56.000",
    "request_status": "Pending",
    "responsible_agency": "Department of Sanitation",
    "final_address": "502 Washington Ave",
    "address_councildis": "B",
    "status": "Pending",
    "rowid": "1078203",
    "final_x": "3678132.23867",
    "final_y": "519099.118903",
    "longitude": "-90.079133799684",
    "latitude": "29.921444181441732",
    "geocoded_column": {
      "latitude": "29.921444181441732",
      "longitude": "-90.079133799684"
    }
  },
  {
    "service_request": "2024-1078202",
    "request_type": "Roads/Drainage",
    "request_reason": "Pothole",
    "date_created": "2024-03-24T18:40:17.000",
    "date_modified": "2024-03-24T18:40:17.000",
    "request_status": "Pending",
    "responsible_agency": "Department of Public Works",
    "final_address": "6026 Benjamin St",
    "address_councildis": "A",
    "status": "Pending",
    "rowid": "1078202",
    "final_x": "3665368.24487",
    "final_y": "522189.506042",
    "longitude": "-90.11932096041569",
    "latitude": "29.93031976110733",
    "geocoded_column": {
      "latitude": "29.93031976110733",
      "longitude": "-90.11932096041569"
    }
  },
  {
    "service_request": "2024-1078201",
    "request_type": "Traffic Signals/Signs/Striping/Streetlights",
    "request_reason": "Additional signage",
    "date_created": "2024-03-24T18:38:38.000",
    "date_modified": "2024-03-24T18:38:38.000",
    "request_status": "Pending",
    "responsible_agency": "Department of Public Works",
    "final_address": "1501 Valmont St",
    "address_councildis": "B",
    "status": "Pending",
    "rowid": "1078201",
    "final_x": "3667813.08282",
    "final_y": "520523.041144",
    "longitude": "-90.11165905276934",
    "latitude": "29.925666060819516",
    "geocoded_column": {
      "latitude": "29.925666060819516",
      "longitude": "-90.11165905276934"
    }
  },
  {
    "service_request": "2024-1078200",
    "request_type": "Roads/Drainage",
    "request_reason": "Pothole",
    "date_created": "2024-03-24T18:35:18.000",
    "date_modified": "2024-03-24T18:35:18.000",
    "request_status": "Pending",
    "responsible_agency": "Department of Public Works",
    "final_address": "6070 Chestnut St",
    "address_councildis": "A",
    "status": "Pending",
    "rowid": "1078200",
    "final_x": "3664412.78983",
    "final_y": "519991.592952",
    "longitude": "-90.12241052146828",
    "latitude": "29.92430399204139",
    "geocoded_column": {
      "latitude": "29.92430399204139",
      "longitude": "-90.12241052146828"
    }
  },
  {
    "service_request": "2024-1078198",
    "request_type": "Trash/Recycling",
    "request_reason": "Request a Large Item Pick Up",
    "date_created": "2024-03-24T18:22:42.000",
    "date_modified": "2024-03-24T18:22:48.000",
    "request_status": "Pending",
    "responsible_agency": "Department of Sanitation",
    "final_address": "8600 Bill St",
    "address_councildis": "E",
    "status": "Assigned to Contractor",
    "contractor": "Waste Pro",
    "rowid": "1078198",
    "final_x": "3703752.76196",
    "final_y": "563147.187104",
    "longitude": "-89.99663964373622",
    "latitude": "30.04176415876771",
    "geocoded_column": {
      "latitude": "30.04176415876771",
      "longitude": "-89.99663964373622"
    }
  },
  {
    "service_request": "2024-1078197",
    "request_type": "Trash/Recycling",
    "request_reason": "Request a Large Item Pick Up",
    "date_created": "2024-03-24T18:17:43.000",
    "date_modified": "2024-03-24T18:17:44.000",
    "request_status": "Pending",
    "responsible_agency": "Department of Sanitation",
    "final_address": "725 Jourdan Ave",
    "address_councildis": "E",
    "status": "Assigned to Contractor",
    "contractor": "Waste Pro",
    "rowid": "1078197",
    "final_x": "3694717.26006",
    "final_y": "533234.935876",
    "longitude": "-90.02627340230015",
    "latitude": "29.9598032283643",
    "geocoded_column": {
      "latitude": "29.9598032283643",
      "longitude": "-90.02627340230015"
    }
  },
  {
    "service_request": "2024-1078196",
    "request_type": "Roads/Drainage",
    "request_reason": "Catch Basin - Broken/Damage",
    "date_created": "2024-03-24T18:07:39.000",
    "date_modified": "2024-03-24T18:07:39.000",
    "request_status": "Pending",
    "responsible_agency": "Department of Public Works",
    "final_address": "1401 Henry Clay Ave",
    "address_councildis": "A",
    "status": "Pending",
    "rowid": "1078196",
    "final_x": "3664609.97485",
    "final_y": "521479.125625",
    "longitude": "-90.12173842311657",
    "latitude": "29.928388507765806",
    "geocoded_column": {
      "latitude": "29.928388507765806",
      "longitude": "-90.12173842311657"
    }
  },
  {
    "service_request": "2024-1078195",
    "request_type": "Safety & Permits",
    "request_reason": "Licenses & Permits",
    "date_created": "2024-03-24T18:06:02.000",
    "date_modified": "2024-03-24T18:06:02.000",
    "request_status": "Pending",
    "responsible_agency": "Safety and Permits",
    "final_address": "2425 Soniat St",
    "address_councildis": "B",
    "status": "Pending",
    "rowid": "1078195",
    "final_x": "3668575.52628",
    "final_y": "524545.439612",
    "longitude": "-90.10911658246853",
    "latitude": "29.936703997707408",
    "geocoded_column": {
      "latitude": "29.936703997707408",
      "longitude": "-90.10911658246853"
    }
  },
  {
    "service_request": "2024-1078193",
    "request_type": "Abandoned Vehicles",
    "request_reason": "Abandoned/Junk Vehicles",
    "date_created": "2024-03-24T17:42:46.000",
    "date_modified": "2024-03-24T17:42:46.000",
    "request_status": "Pending",
    "responsible_agency": "Department of Public Works",
    "final_address": "1705 Napoleon Ave",
    "address_councildis": "B",
    "status": "Pending",
    "rowid": "1078193",
    "final_x": "3670906.13332",
    "final_y": "521303.914617",
    "longitude": "-90.10186871552304",
    "latitude": "29.92772217334688",
    "geocoded_column": {
      "latitude": "29.92772217334688",
      "longitude": "-90.10186871552304"
    }
  },
  {
    "service_request": "2024-1078192",
    "request_type": "Trash/Recycling",
    "request_reason": "Request a Large Item Pick Up",
    "date_created": "2024-03-24T17:40:31.000",
    "date_modified": "2024-03-24T17:40:31.000",
    "request_status": "Pending",
    "responsible_agency": "Department of Sanitation",
    "final_address": "S ROCHEBLAVE ST & CADIZ ST & UPPERLINE ST",
    "address_councildis": "B",
    "status": "Assigned to Contractor",
    "contractor": "Richards Disposal",
    "rowid": "1078192",
    "final_x": "3669328.5",
    "final_y": "528392.18",
    "longitude": "-90.10660938724311",
    "latitude": "29.947259145639045",
    "geocoded_column": {
      "latitude": "29.947259145639045",
      "longitude": "-90.10660938724311"
    }
  },
  {
    "service_request": "2024-1078191",
    "request_type": "Roads/Drainage",
    "request_reason": "Damaged Sidewalk",
    "date_created": "2024-03-24T17:36:20.000",
    "date_modified": "2024-03-24T17:36:20.000",
    "request_status": "Pending",
    "responsible_agency": "Department of Public Works",
    "final_address": "2135 Magazine St",
    "address_councildis": "B",
    "status": "Pending",
    "rowid": "1078191",
    "final_x": "3678893.21858",
    "final_y": "522160.51865",
    "longitude": "-90.07662573353326",
    "latitude": "29.92983910803545",
    "geocoded_column": {
      "latitude": "29.92983910803545",
      "longitude": "-90.07662573353326"
    }
  },
  {
    "service_request": "2024-1078190",
    "request_type": "Roads/Drainage",
    "request_reason": "Pothole",
    "date_created": "2024-03-24T17:35:46.000",
    "date_modified": "2024-03-24T17:35:46.000",
    "request_status": "Pending",
    "responsible_agency": "Department of Public Works",
    "final_address": "773 Canal Roadway",
    "address_councildis": "A",
    "status": "Pending",
    "rowid": "1078190",
    "final_x": "3668807.46196",
    "final_y": "544838.168911",
    "longitude": "-90.10769908391285",
    "latitude": "29.992495445112088",
    "geocoded_column": {
      "latitude": "29.992495445112088",
      "longitude": "-90.10769908391285"
    }
  },
  {
    "service_request": "2024-1078189",
    "request_type": "Tax and Revenue",
    "request_reason": "Occupational License Tax",
    "date_created": "2024-03-24T17:29:53.000",
    "date_modified": "2024-03-24T17:29:53.000",
    "request_status": "Pending",
    "responsible_agency": "Bureau of Revenue",
    "final_address": "8234 Cohn St",
    "address_councildis": "A",
    "status": "Pending",
    "rowid": "1078189",
    "final_x": "3663132.75469",
    "final_y": "530576.03085",
    "longitude": "-90.12609915143555",
    "latitude": "29.953444965905106",
    "geocoded_column": {
      "latitude": "29.953444965905106",
      "longitude": "-90.12609915143555"
    }
  },
  {
    "service_request": "2024-1078188",
    "request_type": "Trash/Recycling",
    "request_reason": "Illegal Dumping",
    "date_created": "2024-03-24T17:27:54.000",
    "date_modified": "2024-03-24T17:27:54.000",
    "request_status": "Pending",
    "responsible_agency": "Department of Sanitation",
    "final_address": "6930 Martin Dr",
    "address_councildis": "E",
    "status": "Pending",
    "rowid": "1078188",
    "final_x": "3699030.9153",
    "final_y": "557926.290267",
    "longitude": "-90.01175264948685",
    "latitude": "30.027559326171158",
    "geocoded_column": {
      "latitude": "30.027559326171158",
      "longitude": "-90.01175264948685"
    }
  },
  {
    "service_request": "2024-1078187",
    "request_type": "Traffic Signals/Signs/Striping/Streetlights",
    "request_reason": "Traffic Sign Missing/Damaged",
    "date_created": "2024-03-24T17:27:45.000",
    "date_modified": "2024-03-24T17:27:45.000",
    "request_status": "Pending",
    "responsible_agency": "Department of Public Works",
    "final_address": "1820 Paul Morphy St",
    "address_councildis": "D",
    "status": "Pending",
    "rowid": "1078187",
    "final_x": "3679832.03714",
    "final_y": "541695.500236",
    "longitude": "-90.0729837312601",
    "latitude": "29.983525354370226",
    "geocoded_column": {
      "latitude": "29.983525354370226",
      "longitude": "-90.0729837312601"
    }
  },
  {
    "service_request": "2024-1078186",
    "request_type": "Abandoned Vehicles",
    "request_reason": "Abandoned/Junk Vehicles",
    "date_created": "2024-03-24T17:21:14.000",
    "date_modified": "2024-03-24T17:21:14.000",
    "request_status": "Pending",
    "responsible_agency": "Department of Public Works",
    "final_address": "1705 Napoleon Ave",
    "address_councildis": "B",
    "status": "Pending",
    "rowid": "1078186",
    "final_x": "3670906.13332",
    "final_y": "521303.914617",
    "longitude": "-90.10186871552304",
    "latitude": "29.92772217334688",
    "geocoded_column": {
      "latitude": "29.92772217334688",
      "longitude": "-90.10186871552304"
    }
  },
  {
    "service_request": "2024-1078185",
    "request_type": "Roads/Drainage",
    "request_reason": "Pothole",
    "date_created": "2024-03-24T16:41:18.000",
    "date_modified": "2024-03-24T16:41:18.000",
    "request_status": "Pending",
    "responsible_agency": "Department of Public Works",
    "final_address": "1301 Constantinople St",
    "address_councildis": "B",
    "status": "Pending",
    "rowid": "1078185",
    "final_x": "3672430.66305",
    "final_y": "520250.7726",
    "longitude": "-90.09709199725775",
    "latitude": "29.924781230435865",
    "geocoded_column": {
      "latitude": "29.924781230435865",
      "longitude": "-90.09709199725775"
    }
  },
  {
    "service_request": "2024-1078184",
    "request_type": "Roads/Drainage",
    "request_reason": "Pothole",
    "date_created": "2024-03-24T16:24:03.000",
    "date_modified": "2024-03-24T16:24:03.000",
    "request_status": "Pending",
    "responsible_agency": "Department of Public Works",
    "final_address": "1312 Milan St",
    "address_councildis": "B",
    "status": "Pending",
    "rowid": "1078184",
    "final_x": "3671625.82823",
    "final_y": "520286.919608",
    "longitude": "-90.09963137110304",
    "latitude": "29.92490447494246",
    "geocoded_column": {
      "latitude": "29.92490447494246",
      "longitude": "-90.09963137110304"
    }
  },
  {
    "service_request": "2024-1078183",
    "request_type": "Abandoned Vehicles",
    "request_reason": "Vehicle Blocking Your Driveway",
    "date_created": "2024-03-24T16:20:31.000",
    "date_modified": "2024-03-24T16:20:31.000",
    "request_status": "Pending",
    "responsible_agency": "Department of Public Works",
    "final_address": "2501 Amelia St, New Orleans, Louisiana, 70115",
    "address_councildis": "B",
    "status": "Pending",
    "rowid": "1078183",
    "final_x": "3672390.71553",
    "final_y": "524322.746748",
    "longitude": "-90.09707941732725",
    "latitude": "29.93597903240438",
    "geocoded_column": {
      "latitude": "29.93597903240438",
      "longitude": "-90.09707941732725"
    }
  },
  {
    "service_request": "2024-1078182",
    "request_type": "Trash/Recycling",
    "request_reason": "Request a Large Item Pick Up",
    "date_created": "2024-03-24T16:13:53.000",
    "date_modified": "2024-03-24T16:13:53.000",
    "request_status": "Pending",
    "responsible_agency": "Department of Sanitation",
    "final_address": "726 Josephine St",
    "address_councildis": "B",
    "status": "Assigned to Contractor",
    "contractor": "Richards Disposal",
    "rowid": "1078182",
    "final_x": "3679884.98575",
    "final_y": "521307.248505",
    "longitude": "-90.07352451091471",
    "latitude": "29.927462948613066",
    "geocoded_column": {
      "latitude": "29.927462948613066",
      "longitude": "-90.07352451091471"
    }
  },
  {
    "service_request": "2024-1078181",
    "request_type": "Roads/Drainage",
    "request_reason": "Pothole",
    "date_created": "2024-03-24T16:06:40.000",
    "date_modified": "2024-03-24T16:06:40.000",
    "request_status": "Pending",
    "responsible_agency": "Department of Public Works",
    "final_address": "6070 Chestnut St",
    "address_councildis": "A",
    "status": "Pending",
    "rowid": "1078181",
    "final_x": "3664412.78983",
    "final_y": "519991.592952",
    "longitude": "-90.12241052146828",
    "latitude": "29.92430399204139",
    "geocoded_column": {
      "latitude": "29.92430399204139",
      "longitude": "-90.12241052146828"
    }
  },
  {
    "service_request": "2024-1078180",
    "request_type": "Abandoned Vehicles",
    "request_reason": "Vehicle Blocking Your Driveway",
    "date_created": "2024-03-24T15:58:06.000",
    "date_modified": "2024-03-24T15:58:06.000",
    "request_status": "Pending",
    "responsible_agency": "Department of Public Works",
    "final_address": "426 Delery St",
    "address_councildis": "E",
    "status": "Pending",
    "rowid": "1078180",
    "final_x": "3699533.31895",
    "final_y": "530787.871874",
    "longitude": "-90.0111546263561",
    "latitude": "29.95292273459336",
    "geocoded_column": {
      "latitude": "29.95292273459336",
      "longitude": "-90.0111546263561"
    }
  },
  {
    "service_request": "2024-1078179",
    "request_type": "Trash/Recycling",
    "request_reason": "Request a Large Item Pick Up",
    "date_created": "2024-03-24T15:53:28.000",
    "date_modified": "2024-03-24T15:53:28.000",
    "request_status": "Pending",
    "responsible_agency": "Department of Sanitation",
    "final_address": "420 Delery St",
    "address_councildis": "E",
    "status": "Assigned to Contractor",
    "contractor": "Waste Pro",
    "rowid": "1078179",
    "final_x": "3699517.16925",
    "final_y": "530761.234626",
    "longitude": "-90.01120659014201",
    "latitude": "29.952850003967722",
    "geocoded_column": {
      "latitude": "29.952850003967722",
      "longitude": "-90.01120659014201"
    }
  },
  {
    "service_request": "2024-1078178",
    "request_type": "Roads/Drainage",
    "request_reason": "Pothole",
    "date_created": "2024-03-24T15:36:22.000",
    "date_modified": "2024-03-24T15:36:22.000",
    "request_status": "Pending",
    "responsible_agency": "Department of Public Works",
    "final_address": "4216 Chestnut St",
    "address_councildis": "B",
    "status": "Pending",
    "rowid": "1078178",
    "final_x": "3671574.31393",
    "final_y": "519539.203703",
    "longitude": "-90.09981939416457",
    "latitude": "29.922850019854593",
    "geocoded_column": {
      "latitude": "29.922850019854593",
      "longitude": "-90.09981939416457"
    }
  },
  {
    "service_request": "2024-1078177",
    "request_type": "Roads/Drainage",
    "request_reason": "Catch Basin - Clogged",
    "date_created": "2024-03-24T15:16:45.000",
    "date_modified": "2024-03-24T15:16:45.000",
    "request_status": "Pending",
    "responsible_agency": "Department of Public Works",
    "final_address": "7901 Cohn St",
    "address_councildis": "A",
    "status": "Pending",
    "rowid": "1078177",
    "final_x": "3664186.00058",
    "final_y": "529713.473089",
    "longitude": "-90.12280220729791",
    "latitude": "29.951042656738874",
    "geocoded_column": {
      "latitude": "29.951042656738874",
      "longitude": "-90.12280220729791"
    }
  },
  {
    "service_request": "2024-1078176",
    "request_type": "Trash/Recycling",
    "request_reason": "Request a Large Item Pick Up",
    "date_created": "2024-03-24T15:08:48.000",
    "date_modified": "2024-03-24T15:08:48.000",
    "request_status": "Pending",
    "responsible_agency": "Department of Sanitation",
    "final_address": "3135 Plymouth Pl",
    "address_councildis": "C",
    "status": "Assigned to Contractor",
    "contractor": "Richards Disposal",
    "rowid": "1078176",
    "final_x": "3702771.25438",
    "final_y": "519632.767352",
    "longitude": "-90.00134018135363",
    "latitude": "29.92214697741362",
    "geocoded_column": {
      "latitude": "29.92214697741362",
      "longitude": "-90.00134018135363"
    }
  },
  {
    "service_request": "2024-1078175",
    "request_type": "Traffic Signals/Signs/Striping/Streetlights",
    "request_reason": "Additional signage",
    "date_created": "2024-03-24T14:34:39.000",
    "date_modified": "2024-03-24T14:34:39.000",
    "request_status": "Pending",
    "responsible_agency": "Department of Public Works",
    "final_address": "S RAMPART ST & JULIA ST",
    "address_councildis": "B",
    "status": "Pending",
    "rowid": "1078175",
    "final_x": "3679015.5",
    "final_y": "528373.38",
    "longitude": "-90.07602450307112",
    "latitude": "29.946918734653103",
    "geocoded_column": {
      "latitude": "29.946918734653103",
      "longitude": "-90.07602450307112"
    }
  },
  {
    "service_request": "2024-1078174",
    "request_type": "Trash/Recycling",
    "request_reason": "Request a Large Item Pick Up",
    "date_created": "2024-03-24T14:33:45.000",
    "date_modified": "2024-03-24T14:33:45.000",
    "request_status": "Pending",
    "responsible_agency": "Department of Sanitation",
    "final_address": "943 Chapelle St",
    "address_councildis": "A",
    "status": "Assigned to Contractor",
    "contractor": "IV Waste",
    "rowid": "1078174",
    "final_x": "3670761.54887",
    "final_y": "552559.091286",
    "longitude": "-90.10126423398849",
    "latitude": "30.013667666979924",
    "geocoded_column": {
      "latitude": "30.013667666979924",
      "longitude": "-90.10126423398849"
    }
  },
  {
    "service_request": "2024-1078172",
    "request_type": "Property Maintenance",
    "request_reason": "Property Maintenance",
    "date_created": "2024-03-24T14:21:40.000",
    "date_modified": "2024-03-24T14:21:40.000",
    "request_status": "Pending",
    "responsible_agency": "Department of Code Enforcement",
    "final_address": "4725 Crowder Blvd",
    "address_councildis": "E",
    "status": "Pending",
    "rowid": "1078172",
    "final_x": "3706512.90871",
    "final_y": "555631.709401",
    "longitude": "-89.98819545579224",
    "latitude": "30.021010719294235",
    "geocoded_column": {
      "latitude": "30.021010719294235",
      "longitude": "-89.98819545579224"
    }
  },
  {
    "service_request": "2024-1078171",
    "request_type": "Roads/Drainage",
    "request_reason": "Debris in Roadway",
    "date_created": "2024-03-24T14:19:37.000",
    "date_modified": "2024-03-24T14:19:37.000",
    "request_status": "Pending",
    "responsible_agency": "Department of Public Works",
    "final_address": "541 Audubon St",
    "address_councildis": "A",
    "status": "Pending",
    "rowid": "1078171",
    "final_x": "3662921.3417",
    "final_y": "524026.812348",
    "longitude": "-90.12698442419376",
    "latitude": "29.935442831917573",
    "geocoded_column": {
      "latitude": "29.935442831917573",
      "longitude": "-90.12698442419376"
    }
  },
  {
    "service_request": "2024-1078170",
    "request_type": "Traffic Signals/Signs/Striping/Streetlights",
    "request_reason": "Request for Stop Sign",
    "date_created": "2024-03-24T14:19:20.000",
    "date_modified": "2024-03-24T14:19:20.000",
    "request_status": "Pending",
    "responsible_agency": "Department of Public Works",
    "final_address": "URSULINES AVE & N ROBERTSON ST",
    "address_councildis": "C",
    "status": "Pending",
    "rowid": "1078170",
    "final_x": "3680971.6",
    "final_y": "535547.08",
    "longitude": "-90.06959857346699",
    "latitude": "29.966584813342305",
    "geocoded_column": {
      "latitude": "29.966584813342305",
      "longitude": "-90.06959857346699"
    }
  },
  {
    "service_request": "2024-1078169",
    "request_type": "Trash/Recycling",
    "request_reason": "Request a Large Item Pick Up",
    "date_created": "2024-03-24T14:07:26.000",
    "date_modified": "2024-03-24T14:07:26.000",
    "request_status": "Pending",
    "responsible_agency": "Department of Sanitation",
    "final_address": "2004 Foucher St",
    "address_councildis": "B",
    "status": "Assigned to Contractor",
    "contractor": "Richards Disposal",
    "rowid": "1078169",
    "final_x": "3672957.81211",
    "final_y": "522685.469562",
    "longitude": "-90.09534492336628",
    "latitude": "29.931460214519984",
    "geocoded_column": {
      "latitude": "29.931460214519984",
      "longitude": "-90.09534492336628"
    }
  },
  {
    "service_request": "2024-1078168",
    "request_type": "Trash/Recycling",
    "request_reason": "Request a Large Item Pick Up",
    "date_created": "2024-03-24T14:07:23.000",
    "date_modified": "2024-03-24T14:07:24.000",
    "request_status": "Pending",
    "responsible_agency": "Department of Sanitation",
    "final_address": "127 Lavergne St",
    "address_councildis": "C",
    "status": "Assigned to Contractor",
    "contractor": "Richards Disposal",
    "rowid": "1078168",
    "final_x": "3686464.38818",
    "final_y": "531103.426434",
    "longitude": "-90.05240931061171",
    "latitude": "29.954198583978037",
    "geocoded_column": {
      "latitude": "29.954198583978037",
      "longitude": "-90.05240931061171"
    }
  },
  {
    "service_request": "2024-1078167",
    "request_type": "Parks & Parkways",
    "request_reason": "Request Tree Service (Right of Way/Public Property)",
    "date_created": "2024-03-24T14:06:56.000",
    "date_modified": "2024-03-24T14:06:56.000",
    "request_status": "Pending",
    "responsible_agency": "Department of Parks & Parkway",
    "final_address": "7724 Nelson St",
    "address_councildis": "A",
    "status": "Pending",
    "rowid": "1078167",
    "final_x": "3666014.62183",
    "final_y": "530969.338754",
    "longitude": "-90.11698622085756",
    "latitude": "29.954442632351967",
    "geocoded_column": {
      "latitude": "29.954442632351967",
      "longitude": "-90.11698622085756"
    }
  },
  {
    "service_request": "2024-1078166",
    "request_type": "Trash/Recycling",
    "request_reason": "Request a Large Item Pick Up",
    "date_created": "2024-03-24T13:59:13.000",
    "date_modified": "2024-03-24T13:59:13.000",
    "request_status": "Pending",
    "responsible_agency": "Department of Sanitation",
    "final_address": "1307 Peniston St",
    "address_councildis": "B",
    "status": "Assigned to Contractor",
    "contractor": "Richards Disposal",
    "rowid": "1078166",
    "final_x": "3673107.44475",
    "final_y": "520393.576184",
    "longitude": "-90.09495074606146",
    "latitude": "29.92515379964785",
    "geocoded_column": {
      "latitude": "29.92515379964785",
      "longitude": "-90.09495074606146"
    }
  },
  {
    "service_request": "2024-1078165",
    "request_type": "Traffic Signals/Signs/Striping/Streetlights",
    "request_reason": "Traffic Sign Missing/Damaged",
    "date_created": "2024-03-24T13:44:02.000",
    "date_modified": "2024-03-24T13:44:02.000",
    "request_status": "Pending",
    "responsible_agency": "Department of Public Works",
    "final_address": "URSULINES AVE & N BROAD ST",
    "address_councildis": "A",
    "status": "Pending",
    "rowid": "1078165",
    "final_x": "3677566.85",
    "final_y": "538168.79",
    "longitude": "-90.0802602063957",
    "latitude": "29.973896432457124",
    "geocoded_column": {
      "latitude": "29.973896432457124",
      "longitude": "-90.0802602063957"
    }
  },
  {
    "service_request": "2024-1078164",
    "request_type": "Traffic Signals/Signs/Striping/Streetlights",
    "request_reason": "Traffic Sign Missing/Damaged",
    "date_created": "2024-03-24T13:41:46.000",
    "date_modified": "2024-03-24T13:41:46.000",
    "request_status": "Pending",
    "responsible_agency": "Department of Public Works",
    "final_address": "100 BLK City Park Ave",
    "address_councildis": "A",
    "status": "Pending",
    "rowid": "1078164",
    "final_x": "3667667.35164",
    "final_y": "540976.849592",
    "longitude": "-90.11143055800902",
    "latitude": "29.98191161380258",
    "geocoded_column": {
      "latitude": "29.98191161380258",
      "longitude": "-90.11143055800902"
    }
  },
  {
    "service_request": "2024-1078163",
    "request_type": "Traffic Signals/Signs/Striping/Streetlights",
    "request_reason": "Street Name Sign Damaged or Missing",
    "date_created": "2024-03-24T13:37:38.000",
    "date_modified": "2024-03-24T13:37:38.000",
    "request_status": "Pending",
    "responsible_agency": "Department of Public Works",
    "final_address": "CHARTRES ST & CONTI ST",
    "address_councildis": "C",
    "status": "Pending",
    "rowid": "1078163",
    "final_x": "3682169.3",
    "final_y": "531369.18",
    "longitude": "-90.06596218251738",
    "latitude": "29.95506064048952",
    "geocoded_column": {
      "latitude": "29.95506064048952",
      "longitude": "-90.06596218251738"
    }
  },
  {
    "service_request": "2024-1078162",
    "request_type": "Traffic Signals/Signs/Striping/Streetlights",
    "request_reason": "Traffic Sign Missing/Damaged",
    "date_created": "2024-03-24T13:36:10.000",
    "date_modified": "2024-03-24T13:36:10.000",
    "request_status": "Pending",
    "responsible_agency": "Department of Public Works",
    "final_address": "CONTI ST & ROYAL ST",
    "address_councildis": "C",
    "status": "Pending",
    "rowid": "1078162",
    "final_x": "3681884.9",
    "final_y": "531585.78",
    "longitude": "-90.0668526511526",
    "latitude": "29.95566486337308",
    "geocoded_column": {
      "latitude": "29.95566486337308",
      "longitude": "-90.0668526511526"
    }
  },
  {
    "service_request": "2024-1078161",
    "request_type": "Trash/Recycling",
    "request_reason": "Illegal Dumping",
    "date_created": "2024-03-24T13:26:57.000",
    "date_modified": "2024-03-24T13:26:57.000",
    "request_status": "Pending",
    "responsible_agency": "Department of Sanitation",
    "final_address": "2200 BLK Soniat St",
    "address_councildis": "B",
    "status": "Pending",
    "rowid": "1078161",
    "final_x": "3668508.68493",
    "final_y": "523747.571387",
    "longitude": "-90.10935451113016",
    "latitude": "29.934512079617477",
    "geocoded_column": {
      "latitude": "29.934512079617477",
      "longitude": "-90.10935451113016"
    }
  },
  {
    "service_request": "2024-1078160",
    "request_type": "Abandoned Vehicles",
    "request_reason": "Abandoned/Junk Vehicles",
    "date_created": "2024-03-24T13:01:35.000",
    "date_modified": "2024-03-24T13:01:35.000",
    "request_status": "Pending",
    "responsible_agency": "Department of Public Works",
    "final_address": "ST PHILIP ST & N DORGENOIS ST",
    "address_councildis": "D",
    "status": "Pending",
    "rowid": "1078160",
    "final_x": "3677838.9",
    "final_y": "537508.78",
    "longitude": "-90.07942382220789",
    "latitude": "29.972073447952983",
    "geocoded_column": {
      "latitude": "29.972073447952983",
      "longitude": "-90.07942382220789"
    }
  },
  {
    "service_request": "2024-1078159",
    "request_type": "Trash/Recycling",
    "request_reason": "Request a Large Item Pick Up",
    "date_created": "2024-03-24T12:58:06.000",
    "date_modified": "2024-03-24T12:58:06.000",
    "request_status": "Pending",
    "responsible_agency": "Department of Sanitation",
    "final_address": "4800 Savoie Ct",
    "address_councildis": "E",
    "status": "Assigned to Contractor",
    "contractor": "Waste Pro",
    "rowid": "1078159",
    "final_x": "3725330.61504",
    "final_y": "560775.393822",
    "longitude": "-89.92853850387546",
    "latitude": "30.03453291923316",
    "geocoded_column": {
      "latitude": "30.03453291923316",
      "longitude": "-89.92853850387546"
    }
  },
  {
    "service_request": "2024-1078158",
    "request_type": "Trash/Recycling",
    "request_reason": "Order Recycling Cart",
    "date_created": "2024-03-24T12:48:42.000",
    "date_modified": "2024-03-24T12:48:42.000",
    "request_status": "Pending",
    "responsible_agency": "Department of Sanitation",
    "final_address": "2827 Dryades St Apt 1B",
    "address_councildis": "B",
    "status": "Pending",
    "rowid": "1078158",
    "final_x": "3675080.10632",
    "final_y": "523335.109947",
    "longitude": "-90.08862280985458",
    "latitude": "29.933183294652654",
    "geocoded_column": {
      "latitude": "29.933183294652654",
      "longitude": "-90.08862280985458"
    }
  },
  {
    "service_request": "2024-1078157",
    "request_type": "Property Maintenance",
    "request_reason": "Property Maintenance",
    "date_created": "2024-03-24T12:32:49.000",
    "date_modified": "2024-03-24T12:32:49.000",
    "request_status": "Pending",
    "responsible_agency": "Department of Code Enforcement",
    "final_address": "4725 Babylon St",
    "address_councildis": "D",
    "status": "Pending",
    "rowid": "1078157",
    "final_x": "3696700.58243",
    "final_y": "554091.939608",
    "longitude": "-90.01925523106198",
    "latitude": "30.017090014266145",
    "geocoded_column": {
      "latitude": "30.017090014266145",
      "longitude": "-90.01925523106198"
    }
  },
  {
    "service_request": "2024-1078156",
    "request_type": "Parks & Parkways",
    "request_reason": "Request Tree Service (Right of Way/Public Property)",
    "date_created": "2024-03-24T12:24:22.000",
    "date_modified": "2024-03-24T12:24:22.000",
    "request_status": "Pending",
    "responsible_agency": "Department of Parks & Parkway",
    "final_address": "1801 Fern St",
    "address_councildis": "A",
    "status": "Pending",
    "rowid": "1078156",
    "final_x": "3664008.98976",
    "final_y": "529411.681537",
    "longitude": "-90.12337118363833",
    "latitude": "29.950217968234927",
    "geocoded_column": {
      "latitude": "29.950217968234927",
      "longitude": "-90.12337118363833"
    }
  },
  {
    "service_request": "2024-1078155",
    "request_type": "Trash/Recycling",
    "request_reason": "Request a Large Item Pick Up",
    "date_created": "2024-03-24T12:11:41.000",
    "date_modified": "2024-03-24T12:11:42.000",
    "request_status": "Pending",
    "responsible_agency": "Department of Sanitation",
    "final_address": "5810 Pratt Dr",
    "address_councildis": "D",
    "status": "Assigned to Contractor",
    "contractor": "IV Waste",
    "rowid": "1078155",
    "final_x": "3680159.51439",
    "final_y": "554006.18204",
    "longitude": "-90.07152119517099",
    "latitude": "30.01736543739235",
    "geocoded_column": {
      "latitude": "30.01736543739235",
      "longitude": "-90.07152119517099"
    }
  },
  {
    "service_request": "2024-1078154",
    "request_type": "Trash/Recycling",
    "request_reason": "Request a Large Item Pick Up",
    "date_created": "2024-03-24T11:59:25.000",
    "date_modified": "2024-03-24T11:59:26.000",
    "request_status": "Pending",
    "responsible_agency": "Department of Sanitation",
    "final_address": "439 S Telemachus St",
    "address_councildis": "B",
    "status": "Assigned to Contractor",
    "contractor": "Richards Disposal",
    "rowid": "1078154",
    "final_x": "3671356.67451",
    "final_y": "536172.642503",
    "longitude": "-90.09994122684584",
    "latitude": "29.968592976708674",
    "geocoded_column": {
      "latitude": "29.968592976708674",
      "longitude": "-90.09994122684584"
    }
  },
  {
    "service_request": "2024-1078153",
    "request_type": "Trash/Recycling",
    "request_reason": "Request a Large Item Pick Up",
    "date_created": "2024-03-24T11:52:00.000",
    "date_modified": "2024-03-24T11:52:01.000",
    "request_status": "Pending",
    "responsible_agency": "Department of Sanitation",
    "final_address": "2829 Grand-Route St John St",
    "address_councildis": "A",
    "status": "Assigned to Contractor",
    "contractor": "IV Waste",
    "rowid": "1078153",
    "final_x": "3678070.21742",
    "final_y": "540329.701003",
    "longitude": "-90.07859572738079",
    "latitude": "29.979823047302485",
    "geocoded_column": {
      "latitude": "29.979823047302485",
      "longitude": "-90.07859572738079"
    }
  },
  {
    "service_request": "2024-1078152",
    "request_type": "Trash/Recycling",
    "request_reason": "Request a Large Item Pick Up",
    "date_created": "2024-03-24T11:50:30.000",
    "date_modified": "2024-03-24T11:50:31.000",
    "request_status": "Pending",
    "responsible_agency": "Department of Sanitation",
    "final_address": "2725 Prancer St",
    "address_councildis": "C",
    "status": "Assigned to Contractor",
    "contractor": "Richards Disposal",
    "rowid": "1078152",
    "final_x": "3699519.41661",
    "final_y": "520876.776121",
    "longitude": "-90.01155952183032",
    "latitude": "29.925671115606246",
    "geocoded_column": {
      "latitude": "29.925671115606246",
      "longitude": "-90.01155952183032"
    }
  },
  {
    "service_request": "2024-1078151",
    "request_type": "Property Maintenance",
    "request_reason": "Property Maintenance",
    "date_created": "2024-03-24T11:44:48.000",
    "date_modified": "2024-03-24T11:44:48.000",
    "request_status": "Pending",
    "responsible_agency": "Department of Code Enforcement",
    "final_address": "3321 Mistletoe St",
    "address_councildis": "A",
    "status": "Pending",
    "rowid": "1078151",
    "final_x": "3664301.7168",
    "final_y": "536627.879367",
    "longitude": "-90.12220606979547",
    "latitude": "29.97005165133894",
    "geocoded_column": {
      "latitude": "29.97005165133894",
      "longitude": "-90.12220606979547"
    }
  },
  {
    "service_request": "2024-1078150",
    "request_type": "Abandoned Vehicles",
    "request_reason": "Abandoned/Junk Vehicles",
    "date_created": "2024-03-24T11:28:05.000",
    "date_modified": "2024-03-24T11:28:05.000",
    "request_status": "Pending",
    "responsible_agency": "Department of Public Works",
    "final_address": "3817 Tchoupitoulas St",
    "address_councildis": "B",
    "status": "Pending",
    "rowid": "1078150",
    "final_x": "3673530.47009",
    "final_y": "517753.775414",
    "longitude": "-90.09370553878611",
    "latitude": "29.917882614097408",
    "geocoded_column": {
      "latitude": "29.917882614097408",
      "longitude": "-90.09370553878611"
    }
  },
  {
    "service_request": "2024-1078149",
    "request_type": "Trash/Recycling",
    "request_reason": "Order Trash Cart",
    "date_created": "2024-03-24T11:26:23.000",
    "date_modified": "2024-03-24T11:26:23.000",
    "request_status": "Pending",
    "responsible_agency": "Department of Sanitation",
    "final_address": "1811 River Oaks Dr",
    "address_councildis": "C",
    "status": "Assigned to Contractor",
    "contractor": "Richards Disposal",
    "rowid": "1078149",
    "final_x": "3701641.80573",
    "final_y": "524058.940028",
    "longitude": "-90.00474335842702",
    "latitude": "29.93435347292639",
    "geocoded_column": {
      "latitude": "29.93435347292639",
      "longitude": "-90.00474335842702"
    }
  },
  {
    "service_request": "2024-1078148",
    "request_type": "Property Maintenance",
    "request_reason": "Property Maintenance",
    "date_created": "2024-03-24T11:25:37.000",
    "date_modified": "2024-03-24T11:25:37.000",
    "request_status": "Pending",
    "responsible_agency": "Department of Code Enforcement",
    "final_address": "3817 Tchoupitoulas St",
    "address_councildis": "B",
    "status": "Pending",
    "rowid": "1078148",
    "final_x": "3673530.47009",
    "final_y": "517753.775414",
    "longitude": "-90.09370553878611",
    "latitude": "29.917882614097408",
    "geocoded_column": {
      "latitude": "29.917882614097408",
      "longitude": "-90.09370553878611"
    }
  },
  {
    "service_request": "2024-1078147",
    "request_type": "Trash/Recycling",
    "request_reason": "Request a Large Item Pick Up",
    "date_created": "2024-03-24T10:41:00.000",
    "date_modified": "2024-03-24T10:41:01.000",
    "request_status": "Pending",
    "responsible_agency": "Department of Sanitation",
    "final_address": "6237 Wadsworth Dr",
    "address_councildis": "D",
    "status": "Assigned to Contractor",
    "contractor": "IV Waste",
    "rowid": "1078147",
    "final_x": "3681662.43938",
    "final_y": "556094.608218",
    "longitude": "-90.0666996167924",
    "latitude": "30.023062252331925",
    "geocoded_column": {
      "latitude": "30.023062252331925",
      "longitude": "-90.0666996167924"
    }
  },
  {
    "service_request": "2024-1078146",
    "request_type": "Trash/Recycling",
    "request_reason": "Request a Large Item Pick Up",
    "date_created": "2024-03-24T10:40:37.000",
    "date_modified": "2024-03-24T10:40:37.000",
    "request_status": "Pending",
    "responsible_agency": "Department of Sanitation",
    "final_address": "4426 St Ann St",
    "address_councildis": "A",
    "status": "Assigned to Contractor",
    "contractor": "Richards Disposal",
    "rowid": "1078146",
    "final_x": "3671368.97876",
    "final_y": "541366.265164",
    "longitude": "-90.09972578857975",
    "latitude": "29.982873316061024",
    "geocoded_column": {
      "latitude": "29.982873316061024",
      "longitude": "-90.09972578857975"
    }
  },
  {
    "service_request": "2024-1078145",
    "request_type": "Trash/Recycling",
    "request_reason": "Replace Trash Cart",
    "date_created": "2024-03-24T10:39:04.000",
    "date_modified": "2024-03-24T10:39:05.000",
    "request_status": "Pending",
    "responsible_agency": "Department of Sanitation",
    "final_address": "4212 Loyola Ave",
    "address_councildis": "B",
    "status": "Assigned to Contractor",
    "contractor": "Richards Disposal",
    "rowid": "1078145",
    "final_x": "3671289.11879",
    "final_y": "523026.612667",
    "longitude": "-90.10060121355045",
    "latitude": "29.932447716342377",
    "geocoded_column": {
      "latitude": "29.932447716342377",
      "longitude": "-90.10060121355045"
    }
  },
  {
    "service_request": "2024-1078144",
    "request_type": "Trash/Recycling",
    "request_reason": "Request a Large Item Pick Up",
    "date_created": "2024-03-24T10:28:49.000",
    "date_modified": "2024-03-24T10:28:49.000",
    "request_status": "Pending",
    "responsible_agency": "Department of Sanitation",
    "final_address": "1464 Granada Dr",
    "address_councildis": "D",
    "status": "Assigned to Contractor",
    "contractor": "IV Waste",
    "rowid": "1078144",
    "final_x": "3678126.45582",
    "final_y": "550504.606868",
    "longitude": "-90.07806604803172",
    "latitude": "30.007798767522345",
    "geocoded_column": {
      "latitude": "30.007798767522345",
      "longitude": "-90.07806604803172"
    }
  },
  {
    "service_request": "2024-1078143",
    "request_type": "Trash/Recycling",
    "request_reason": "Order Recycling Cart",
    "date_created": "2024-03-24T09:48:41.000",
    "date_modified": "2024-03-24T09:48:41.000",
    "request_status": "Pending",
    "responsible_agency": "Department of Sanitation",
    "final_address": "2641 Governor Nicholls St",
    "address_councildis": "D",
    "status": "Pending",
    "rowid": "1078143",
    "final_x": "3678049.30293",
    "final_y": "538378.458249",
    "longitude": "-90.07872926196316",
    "latitude": "29.97445843203254",
    "geocoded_column": {
      "latitude": "29.97445843203254",
      "longitude": "-90.07872926196316"
    }
  },
  {
    "service_request": "2024-1078142",
    "request_type": "Trash/Recycling",
    "request_reason": "Return Trash Cart",
    "date_created": "2024-03-24T09:45:42.000",
    "date_modified": "2024-03-24T09:45:42.000",
    "request_status": "Pending",
    "responsible_agency": "Department of Sanitation",
    "final_address": "2703 Dryades St",
    "address_councildis": "B",
    "status": "Assigned to Contractor",
    "contractor": "Richards Disposal",
    "rowid": "1078142",
    "final_x": "3675528.32865",
    "final_y": "523617.028155",
    "longitude": "-90.08719812095978",
    "latitude": "29.933945082142554",
    "geocoded_column": {
      "latitude": "29.933945082142554",
      "longitude": "-90.08719812095978"
    }
  },
  {
    "service_request": "2024-1078141",
    "request_type": "Trash/Recycling",
    "request_reason": "Order Trash Cart",
    "date_created": "2024-03-24T09:41:58.000",
    "date_modified": "2024-03-24T09:41:58.000",
    "request_status": "Pending",
    "responsible_agency": "Department of Sanitation",
    "final_address": "2220 Fourth St",
    "address_councildis": "B",
    "status": "Assigned to Contractor",
    "contractor": "Richards Disposal",
    "rowid": "1078141",
    "final_x": "3674874.94286",
    "final_y": "524624.429372",
    "longitude": "-90.08922630456942",
    "latitude": "29.936734629385583",
    "geocoded_column": {
      "latitude": "29.936734629385583",
      "longitude": "-90.08922630456942"
    }
  },
  {
    "service_request": "2024-1078140",
    "request_type": "Roads/Drainage",
    "request_reason": "Catch Basin - Broken/Damage",
    "date_created": "2024-03-24T09:37:02.000",
    "date_modified": "2024-03-24T09:37:02.000",
    "request_status": "Pending",
    "responsible_agency": "Department of Public Works",
    "final_address": "1141 Crete St",
    "address_councildis": "A",
    "status": "Pending",
    "rowid": "1078140",
    "final_x": "3677691.86914",
    "final_y": "539042.605194",
    "longitude": "-90.0798351780741",
    "latitude": "29.97629536412032",
    "geocoded_column": {
      "latitude": "29.97629536412032",
      "longitude": "-90.0798351780741"
    }
  },
  {
    "service_request": "2024-1078139",
    "request_type": "Roads/Drainage",
    "request_reason": "Damaged Sidewalk",
    "date_created": "2024-03-24T09:35:41.000",
    "date_modified": "2024-03-24T09:35:41.000",
    "request_status": "Pending",
    "responsible_agency": "Department of Public Works",
    "final_address": "2031 Robert St",
    "address_councildis": "B",
    "status": "Pending",
    "rowid": "1078139",
    "final_x": "3668827.98606",
    "final_y": "523107.915451",
    "longitude": "-90.10836807023756",
    "latitude": "29.932743848465634",
    "geocoded_column": {
      "latitude": "29.932743848465634",
      "longitude": "-90.10836807023756"
    }
  },
  {
    "service_request": "2024-1078138",
    "request_type": "Trash/Recycling",
    "request_reason": "Request a Large Item Pick Up",
    "date_created": "2024-03-24T09:30:40.000",
    "date_modified": "2024-03-24T09:30:41.000",
    "request_status": "Pending",
    "responsible_agency": "Department of Sanitation",
    "final_address": "316 Filmore Ave",
    "address_councildis": "A",
    "status": "Assigned to Contractor",
    "contractor": "IV Waste",
    "rowid": "1078138",
    "final_x": "3667637.9913",
    "final_y": "552056.960214",
    "longitude": "-90.11115001255564",
    "latitude": "30.012378962914116",
    "geocoded_column": {
      "latitude": "30.012378962914116",
      "longitude": "-90.11115001255564"
    }
  },
  {
    "service_request": "2024-1078137",
    "request_type": "Trash/Recycling",
    "request_reason": "Request a Large Item Pick Up",
    "date_created": "2024-03-24T09:29:35.000",
    "date_modified": "2024-03-24T09:29:36.000",
    "request_status": "Pending",
    "responsible_agency": "Department of Sanitation",
    "final_address": "New Orleans,LA",
    "status": "Assigned to Contractor",
    "rowid": "1078137",
    "longitude": "0.0",
    "latitude": "0.0",
    "geocoded_column": {
      "latitude": "0.0",
      "longitude": "0.0"
    }
  },
  {
    "service_request": "2024-1078136",
    "request_type": "Roads/Drainage",
    "request_reason": "Catch Basin - Clogged",
    "date_created": "2024-03-24T09:25:38.000",
    "date_modified": "2024-03-24T09:25:38.000",
    "request_status": "Pending",
    "responsible_agency": "Department of Public Works",
    "final_address": "7121 Walmsley Ave Apt A",
    "address_councildis": "B",
    "status": "Pending",
    "rowid": "1078136",
    "final_x": "3667345.64442",
    "final_y": "531282.950338",
    "longitude": "-90.11277281193233",
    "latitude": "29.955266043775822",
    "geocoded_column": {
      "latitude": "29.955266043775822",
      "longitude": "-90.11277281193233"
    }
  },
  {
    "service_request": "2024-1078135",
    "request_type": "Property Maintenance",
    "request_reason": "Property Maintenance",
    "date_created": "2024-03-24T09:10:31.000",
    "date_modified": "2024-03-24T09:10:31.000",
    "request_status": "Pending",
    "responsible_agency": "Department of Code Enforcement",
    "final_address": "6409 Louis Xiv St",
    "address_councildis": "A",
    "status": "Pending",
    "rowid": "1078135",
    "final_x": "3668393.85735",
    "final_y": "550184.316564",
    "longitude": "-90.1088251179191",
    "latitude": "30.00720765891034",
    "geocoded_column": {
      "latitude": "30.00720765891034",
      "longitude": "-90.1088251179191"
    }
  },
  {
    "service_request": "2024-1078133",
    "request_type": "Roads/Drainage",
    "request_reason": "Damaged Sidewalk",
    "date_created": "2024-03-24T08:57:27.000",
    "date_modified": "2024-03-24T08:57:27.000",
    "request_status": "Pending",
    "responsible_agency": "Department of Public Works",
    "final_address": "2031 Robert St, New Orleans, Louisiana, 70115",
    "address_councildis": "B",
    "status": "Pending",
    "rowid": "1078133",
    "final_x": "3668827.98606",
    "final_y": "523107.915451",
    "longitude": "-90.10836807023756",
    "latitude": "29.932743848465634",
    "geocoded_column": {
      "latitude": "29.932743848465634",
      "longitude": "-90.10836807023756"
    }
  },
  {
    "service_request": "2024-1078132",
    "request_type": "Trash/Recycling",
    "request_reason": "Illegal Dumping",
    "date_created": "2024-03-24T08:42:01.000",
    "date_modified": "2024-03-24T08:42:01.000",
    "request_status": "Pending",
    "responsible_agency": "Department of Sanitation",
    "final_address": "2642 Gordon St",
    "address_councildis": "E",
    "status": "Pending",
    "rowid": "1078132",
    "final_x": "3701414.46685",
    "final_y": "539142.209674",
    "longitude": "-90.0049090065503",
    "latitude": "29.975834339872655",
    "geocoded_column": {
      "latitude": "29.975834339872655",
      "longitude": "-90.0049090065503"
    }
  },
  {
    "service_request": "2024-1078130",
    "request_type": "Trash/Recycling",
    "request_reason": "Repair Recycling Cart",
    "date_created": "2024-03-24T08:26:24.000",
    "date_modified": "2024-03-24T08:26:24.000",
    "request_status": "Pending",
    "responsible_agency": "Department of Sanitation",
    "final_address": "1030 Milan St",
    "address_councildis": "B",
    "status": "Pending",
    "rowid": "1078130",
    "final_x": "3671703.20315",
    "final_y": "519478.744055",
    "longitude": "-90.09941459577338",
    "latitude": "29.922679959266173",
    "geocoded_column": {
      "latitude": "29.922679959266173",
      "longitude": "-90.09941459577338"
    }
  },
  {
    "service_request": "2024-1078129",
    "request_type": "Trash/Recycling",
    "request_reason": "Replace Trash Cart",
    "date_created": "2024-03-24T07:36:36.000",
    "date_modified": "2024-03-24T07:36:36.000",
    "request_status": "Pending",
    "responsible_agency": "Department of Sanitation",
    "final_address": "2528 Sage St",
    "address_councildis": "D",
    "status": "Assigned to Contractor",
    "contractor": "IV Waste",
    "rowid": "1078129",
    "final_x": "3686950.44982",
    "final_y": "545425.594",
    "longitude": "-90.05036817051861",
    "latitude": "29.99356456931541",
    "geocoded_column": {
      "latitude": "29.99356456931541",
      "longitude": "-90.05036817051861"
    }
  },
  {
    "service_request": "2024-1078128",
    "request_type": "Trash/Recycling",
    "request_reason": "Replace Trash Cart",
    "date_created": "2024-03-24T07:35:21.000",
    "date_modified": "2024-03-24T07:35:22.000",
    "request_status": "Pending",
    "responsible_agency": "Department of Sanitation",
    "final_address": "2528 Sage St",
    "address_councildis": "D",
    "status": "Assigned to Contractor",
    "contractor": "IV Waste",
    "rowid": "1078128",
    "final_x": "3686950.44982",
    "final_y": "545425.594",
    "longitude": "-90.05036817051861",
    "latitude": "29.99356456931541",
    "geocoded_column": {
      "latitude": "29.99356456931541",
      "longitude": "-90.05036817051861"
    }
  },
  {
    "service_request": "2024-1078127",
    "request_type": "Trash/Recycling",
    "request_reason": "Replace Trash Cart",
    "date_created": "2024-03-24T07:34:16.000",
    "date_modified": "2024-03-24T07:34:17.000",
    "request_status": "Pending",
    "responsible_agency": "Department of Sanitation",
    "final_address": "2528 Sage St",
    "address_councildis": "D",
    "status": "Assigned to Contractor",
    "contractor": "IV Waste",
    "rowid": "1078127",
    "final_x": "3686950.44982",
    "final_y": "545425.594",
    "longitude": "-90.05036817051861",
    "latitude": "29.99356456931541",
    "geocoded_column": {
      "latitude": "29.99356456931541",
      "longitude": "-90.05036817051861"
    }
  },
  {
    "service_request": "2024-1078126",
    "request_type": "Trash/Recycling",
    "request_reason": "Return Trash Cart",
    "date_created": "2024-03-24T07:25:35.000",
    "date_modified": "2024-03-24T07:25:35.000",
    "request_status": "Pending",
    "responsible_agency": "Department of Sanitation",
    "final_address": "8329 Hickory St",
    "address_councildis": "A",
    "status": "Assigned to Contractor",
    "contractor": "Richards Disposal",
    "rowid": "1078126",
    "final_x": "3662684.26682",
    "final_y": "530626.369858",
    "longitude": "-90.12751361976352",
    "latitude": "29.95359636696716",
    "geocoded_column": {
      "latitude": "29.95359636696716",
      "longitude": "-90.12751361976352"
    }
  },
  {
    "service_request": "2024-1078124",
    "request_type": "Roads/Drainage",
    "request_reason": "Pothole",
    "date_created": "2024-03-24T01:43:02.000",
    "date_modified": "2024-03-24T01:43:02.000",
    "request_status": "Pending",
    "responsible_agency": "Department of Public Works",
    "final_address": "1903 Fourth St Apt B",
    "address_councildis": "B",
    "status": "Pending",
    "rowid": "1078124",
    "final_x": "3675608.64456",
    "final_y": "523681.027579",
    "longitude": "-90.08694236898323",
    "latitude": "29.934118657714276",
    "geocoded_column": {
      "latitude": "29.934118657714276",
      "longitude": "-90.08694236898323"
    }
  },
  {
    "service_request": "2024-1078123",
    "request_type": "Trash/Recycling",
    "request_reason": "Replace Trash Cart",
    "date_created": "2024-03-24T01:39:47.000",
    "date_modified": "2024-03-24T01:39:48.000",
    "request_status": "Pending",
    "responsible_agency": "Department of Sanitation",
    "final_address": "1901 Fourth St",
    "address_councildis": "B",
    "status": "Assigned to Contractor",
    "contractor": "Richards Disposal",
    "rowid": "1078123",
    "final_x": "3675591.54785",
    "final_y": "523659.428411",
    "longitude": "-90.08699708441615",
    "latitude": "29.934059778392328",
    "geocoded_column": {
      "latitude": "29.934059778392328",
      "longitude": "-90.08699708441615"
    }
  },
  {
    "service_request": "2024-1078122",
    "request_type": "Trash/Recycling",
    "request_reason": "Request a Large Item Pick Up",
    "date_created": "2024-03-23T23:43:34.000",
    "date_modified": "2024-03-23T23:43:34.000",
    "request_status": "Pending",
    "responsible_agency": "Department of Sanitation",
    "final_address": "3516 Delachaise St",
    "address_councildis": "B",
    "status": "Assigned to Contractor",
    "contractor": "Richards Disposal",
    "rowid": "1078122",
    "final_x": "3671305.46139",
    "final_y": "527838.951359",
    "longitude": "-90.10038615089142",
    "latitude": "29.945679602762244",
    "geocoded_column": {
      "latitude": "29.945679602762244",
      "longitude": "-90.10038615089142"
    }
  },
  {
    "service_request": "2024-1078121",
    "request_type": "Traffic Signals/Signs/Striping/Streetlights",
    "request_reason": "Street Light Outage/Malfunction",
    "date_created": "2024-03-23T23:23:27.000",
    "date_modified": "2024-03-23T23:23:28.000",
    "request_status": "Pending",
    "responsible_agency": "Department of Public Works",
    "final_address": "4613 Dart St",
    "address_councildis": "B",
    "status": "Assigned to Contractor",
    "contractor": "Legacy Professional Services",
    "rowid": "1078121",
    "final_x": "3669369.46055",
    "final_y": "531598.108419",
    "longitude": "-90.10637166921542",
    "latitude": "29.95607319259939",
    "geocoded_column": {
      "latitude": "29.95607319259939",
      "longitude": "-90.10637166921542"
    }
  },
  {
    "service_request": "2024-1078120",
    "request_type": "Traffic Signals/Signs/Striping/Streetlights",
    "request_reason": "Street Light Outage/Malfunction",
    "date_created": "2024-03-23T23:21:39.000",
    "date_modified": "2024-03-23T23:21:39.000",
    "request_status": "Pending",
    "responsible_agency": "Department of Public Works",
    "final_address": "VENDOME PL & MARTIN LUTHER KING JR BLVD & S NORMAN C FRANCIS PKWY",
    "address_councildis": "B",
    "status": "Assigned to Contractor",
    "contractor": "Legacy Professional Services",
    "rowid": "1078120",
    "final_x": "3669505.4",
    "final_y": "531596.08",
    "longitude": "-90.10594248626451",
    "latitude": "29.956063611907474",
    "geocoded_column": {
      "latitude": "29.956063611907474",
      "longitude": "-90.10594248626451"
    }
  },
  {
    "service_request": "2024-1078119",
    "request_type": "Safety & Permits",
    "request_reason": "Licenses & Permits",
    "date_created": "2024-03-23T23:18:06.000",
    "date_modified": "2024-03-23T23:18:06.000",
    "request_status": "Pending",
    "responsible_agency": "Safety and Permits",
    "final_address": "141 N Carrollton Ave",
    "address_councildis": "A",
    "status": "Pending",
    "rowid": "1078119",
    "final_x": "3671330.76455",
    "final_y": "538669.852105",
    "longitude": "-90.09993816278549",
    "latitude": "29.975460228077974",
    "geocoded_column": {
      "latitude": "29.975460228077974",
      "longitude": "-90.09993816278549"
    }
  },
  {
    "service_request": "2024-1078118",
    "request_type": "Utility Poles",
    "request_reason": "Utility Pole Leaning",
    "date_created": "2024-03-23T22:21:01.000",
    "date_modified": "2024-03-23T22:21:06.000",
    "request_status": "Pending",
    "responsible_agency": "Utility Company Collective",
    "final_address": "5301 Press Dr",
    "address_councildis": "D",
    "status": "Pending",
    "rowid": "1078118",
    "final_x": "3689389.56361",
    "final_y": "552990.037847",
    "longitude": "-90.0423942055325",
    "latitude": "30.014288708112943",
    "geocoded_column": {
      "latitude": "30.014288708112943",
      "longitude": "-90.0423942055325"
    }
  },
  {
    "service_request": "2024-1078117",
    "request_type": "Abandoned Vehicles",
    "request_reason": "Abandoned/Junk Vehicles",
    "date_created": "2024-03-23T22:06:49.000",
    "date_modified": "2024-03-23T22:06:49.000",
    "request_status": "Pending",
    "responsible_agency": "Department of Public Works",
    "final_address": "GENTILLY BLVD & ANNETTE ST",
    "address_councildis": "D",
    "status": "Pending",
    "rowid": "1078117",
    "final_x": "3682373.11",
    "final_y": "545667.23",
    "longitude": "-90.06481881310665",
    "latitude": "29.994369110989695",
    "geocoded_column": {
      "latitude": "29.994369110989695",
      "longitude": "-90.06481881310665"
    }
  },
  {
    "service_request": "2024-1078116",
    "request_type": "Traffic Signals/Signs/Striping/Streetlights",
    "request_reason": "Traffic Sign Missing/Damaged",
    "date_created": "2024-03-23T21:23:15.000",
    "date_modified": "2024-03-23T21:23:15.000",
    "request_status": "Pending",
    "responsible_agency": "Department of Public Works",
    "final_address": "5701 Bullard Ave",
    "address_councildis": "E",
    "status": "Pending",
    "rowid": "1078116",
    "final_x": "3716983.38597",
    "final_y": "562443.001631",
    "longitude": "-89.95485322485179",
    "latitude": "30.039396911398153",
    "geocoded_column": {
      "latitude": "30.039396911398153",
      "longitude": "-89.95485322485179"
    }
  },
  {
    "service_request": "2024-1078112",
    "request_type": "Traffic Signals/Signs/Striping/Streetlights",
    "request_reason": "Street Name Sign Damaged or Missing",
    "date_created": "2024-03-23T21:00:09.000",
    "date_modified": "2024-03-23T21:00:09.000",
    "request_status": "Pending",
    "responsible_agency": "Department of Public Works",
    "final_address": "11400 N Easterlyn Cir",
    "address_councildis": "E",
    "status": "Pending",
    "rowid": "1078112",
    "final_x": "3718217.46405",
    "final_y": "560665.27555",
    "longitude": "-89.95102099563032",
    "latitude": "30.034468005661754",
    "geocoded_column": {
      "latitude": "30.034468005661754",
      "longitude": "-89.95102099563032"
    }
  },
  {
    "service_request": "2024-1078111",
    "request_type": "Health Related Request",
    "request_reason": "Noise Ordinance Complaint",
    "date_created": "2024-03-23T19:40:56.000",
    "date_modified": "2024-03-23T19:40:56.000",
    "request_status": "Pending",
    "responsible_agency": "Health Department",
    "final_address": "1010 N Derbigny St, New Orleans, Louisiana, 70116",
    "address_councildis": "D",
    "status": "Pending",
    "rowid": "1078111",
    "final_x": "3680229.22856",
    "final_y": "535771.445383",
    "longitude": "-90.07193517492334",
    "latitude": "29.967224233344343",
    "geocoded_column": {
      "latitude": "29.967224233344343",
      "longitude": "-90.07193517492334"
    }
  },
  {
    "service_request": "2024-1078110",
    "request_type": "Trash/Recycling",
    "request_reason": "Illegal Dumping",
    "date_created": "2024-03-23T19:06:48.000",
    "date_modified": "2024-03-23T19:06:48.000",
    "request_status": "Pending",
    "responsible_agency": "Department of Sanitation",
    "final_address": "3625 Lancaster St",
    "address_councildis": "C",
    "status": "Pending",
    "rowid": "1078110",
    "final_x": "3709772.58673",
    "final_y": "517380.174261",
    "longitude": "-89.97932411462621",
    "latitude": "29.91572748947679",
    "geocoded_column": {
      "latitude": "29.91572748947679",
      "longitude": "-89.97932411462621"
    }
  },
  {
    "service_request": "2024-1078109",
    "request_type": "Health Related Request",
    "request_reason": "Noise Ordinance Complaint",
    "date_created": "2024-03-23T19:05:44.000",
    "date_modified": "2024-03-23T19:05:44.000",
    "request_status": "Pending",
    "responsible_agency": "Health Department",
    "final_address": "1010 N Derbigny St, New Orleans, Louisiana, 70116",
    "address_councildis": "D",
    "status": "Pending",
    "rowid": "1078109",
    "final_x": "3680229.22856",
    "final_y": "535771.445383",
    "longitude": "-90.07193517492334",
    "latitude": "29.967224233344343",
    "geocoded_column": {
      "latitude": "29.967224233344343",
      "longitude": "-90.07193517492334"
    }
  },
  {
    "service_request": "2024-1078108",
    "request_type": "Trash/Recycling",
    "request_reason": "Request a Large Item Pick Up",
    "date_created": "2024-03-23T19:03:26.000",
    "date_modified": "2024-03-23T19:03:27.000",
    "request_status": "Pending",
    "responsible_agency": "Department of Sanitation",
    "final_address": "3326 Lancaster St",
    "address_councildis": "C",
    "status": "Assigned to Contractor",
    "contractor": "Richards Disposal",
    "rowid": "1078108",
    "final_x": "3709981.27973",
    "final_y": "518408.350134",
    "longitude": "-89.97862703749254",
    "latitude": "29.91854783109217",
    "geocoded_column": {
      "latitude": "29.91854783109217",
      "longitude": "-89.97862703749254"
    }
  },
  {
    "service_request": "2024-1078107",
    "request_type": "Property Maintenance",
    "request_reason": "Property Maintenance",
    "date_created": "2024-03-23T18:48:34.000",
    "date_modified": "2024-03-23T18:48:34.000",
    "request_status": "Pending",
    "responsible_agency": "Department of Code Enforcement",
    "final_address": "5018 Constance St",
    "address_councildis": "B",
    "status": "Pending",
    "rowid": "1078107",
    "final_x": "3668479.48814",
    "final_y": "518157.039926",
    "longitude": "-90.10963516921593",
    "latitude": "29.919140751944695",
    "geocoded_column": {
      "latitude": "29.919140751944695",
      "longitude": "-90.10963516921593"
    }
  },
  {
    "service_request": "2024-1078106",
    "request_type": "Trash/Recycling",
    "request_reason": "Order Trash Cart",
    "date_created": "2024-03-23T18:39:33.000",
    "date_modified": "2024-03-23T18:39:33.000",
    "request_status": "Pending",
    "responsible_agency": "Department of Sanitation",
    "final_address": "2216 Jena St",
    "address_councildis": "B",
    "status": "Assigned to Contractor",
    "contractor": "Richards Disposal",
    "rowid": "1078106",
    "final_x": "3670186.01492",
    "final_y": "523107.795707",
    "longitude": "-90.10408087402607",
    "latitude": "29.932703529417164",
    "geocoded_column": {
      "latitude": "29.932703529417164",
      "longitude": "-90.10408087402607"
    }
  },
  {
    "service_request": "2024-1078105",
    "request_type": "Property Maintenance",
    "request_reason": "Property Maintenance",
    "date_created": "2024-03-23T18:16:20.000",
    "date_modified": "2024-03-23T18:16:20.000",
    "request_status": "Pending",
    "responsible_agency": "Department of Code Enforcement",
    "final_address": "5018 Constance St",
    "address_councildis": "B",
    "status": "Pending",
    "rowid": "1078105",
    "final_x": "3668479.48814",
    "final_y": "518157.039926",
    "longitude": "-90.10963516921593",
    "latitude": "29.919140751944695",
    "geocoded_column": {
      "latitude": "29.919140751944695",
      "longitude": "-90.10963516921593"
    }
  },
  {
    "service_request": "2024-1078104",
    "request_type": "Trash/Recycling",
    "request_reason": "Replace Trash Cart",
    "date_created": "2024-03-23T18:09:15.000",
    "date_modified": "2024-03-23T18:09:15.000",
    "request_status": "Pending",
    "responsible_agency": "Department of Sanitation",
    "final_address": "2424 Calhoun St",
    "address_councildis": "A",
    "status": "Assigned to Contractor",
    "contractor": "Richards Disposal",
    "rowid": "1078104",
    "final_x": "3666075.44135",
    "final_y": "525917.771965",
    "longitude": "-90.11696350296958",
    "latitude": "29.94055068194443",
    "geocoded_column": {
      "latitude": "29.94055068194443",
      "longitude": "-90.11696350296958"
    }
  },
  {
    "service_request": "2024-1078103",
    "request_type": "Trash/Recycling",
    "request_reason": "Order Recycling Cart",
    "date_created": "2024-03-23T18:08:51.000",
    "date_modified": "2024-03-23T18:08:51.000",
    "request_status": "Pending",
    "responsible_agency": "Department of Sanitation",
    "final_address": "3001 Dumaine St Apt 1A",
    "address_councildis": "A",
    "status": "Pending",
    "rowid": "1078103",
    "final_x": "3676167.99739",
    "final_y": "538320.964745",
    "longitude": "-90.08467286057149",
    "latitude": "29.97435685005207",
    "geocoded_column": {
      "latitude": "29.97435685005207",
      "longitude": "-90.08467286057149"
    }
  },
  {
    "service_request": "2024-1078102",
    "request_type": "Trash/Recycling",
    "request_reason": "Order Trash Cart",
    "date_created": "2024-03-23T17:07:09.000",
    "date_modified": "2024-03-23T17:07:09.000",
    "request_status": "Pending",
    "responsible_agency": "Department of Sanitation",
    "final_address": "2120 New Orleans St",
    "address_councildis": "D",
    "status": "Assigned to Contractor",
    "contractor": "IV Waste",
    "rowid": "1078102",
    "final_x": "3682062.85532",
    "final_y": "540012.770251",
    "longitude": "-90.06599642282848",
    "latitude": "29.978830777013222",
    "geocoded_column": {
      "latitude": "29.978830777013222",
      "longitude": "-90.06599642282848"
    }
  },
  {
    "service_request": "2024-1078101",
    "request_type": "Property Maintenance",
    "request_reason": "Property Maintenance",
    "date_created": "2024-03-23T17:00:34.000",
    "date_modified": "2024-03-23T17:00:34.000",
    "request_status": "Pending",
    "responsible_agency": "Department of Code Enforcement",
    "final_address": "4023 Danneel St",
    "address_councildis": "B",
    "status": "Pending",
    "rowid": "1078101",
    "final_x": "3671980.75905",
    "final_y": "522464.924538",
    "longitude": "-90.0984368723641",
    "latitude": "29.930882776894574",
    "geocoded_column": {
      "latitude": "29.930882776894574",
      "longitude": "-90.0984368723641"
    }
  },
  {
    "service_request": "2024-1078100",
    "request_type": "Parks & Parkways",
    "request_reason": "Request Tree Service (Right of Way/Public Property)",
    "date_created": "2024-03-23T16:59:52.000",
    "date_modified": "2024-03-23T16:59:52.000",
    "request_status": "Pending",
    "responsible_agency": "Department of Parks & Parkway",
    "final_address": "3235 Camp St",
    "address_councildis": "B",
    "status": "Pending",
    "rowid": "1078100",
    "final_x": "3675287.90792",
    "final_y": "520208.41868",
    "longitude": "-90.08807406510483",
    "latitude": "29.924579698272574",
    "geocoded_column": {
      "latitude": "29.924579698272574",
      "longitude": "-90.08807406510483"
    }
  },
  {
    "service_request": "2024-1078099",
    "request_type": "Trash/Recycling",
    "request_reason": "Replace Trash Cart",
    "date_created": "2024-03-23T16:57:56.000",
    "date_modified": "2024-03-23T16:57:57.000",
    "request_status": "Pending",
    "responsible_agency": "Department of Sanitation",
    "final_address": "3217 Cadiz St",
    "address_councildis": "B",
    "status": "Assigned to Contractor",
    "contractor": "Richards Disposal",
    "rowid": "1078099",
    "final_x": "3669554.59156",
    "final_y": "526666.726654",
    "longitude": "-90.1059538843088",
    "latitude": "29.94250805254452",
    "geocoded_column": {
      "latitude": "29.94250805254452",
      "longitude": "-90.1059538843088"
    }
  },
  {
    "service_request": "2024-1078098",
    "request_type": "Property Maintenance",
    "request_reason": "Property Maintenance",
    "date_created": "2024-03-23T16:56:28.000",
    "date_modified": "2024-03-23T16:56:28.000",
    "request_status": "Pending",
    "responsible_agency": "Department of Code Enforcement",
    "final_address": "5018 Constance St",
    "address_councildis": "B",
    "status": "Pending",
    "rowid": "1078098",
    "final_x": "3668479.48814",
    "final_y": "518157.039926",
    "longitude": "-90.10963516921593",
    "latitude": "29.919140751944695",
    "geocoded_column": {
      "latitude": "29.919140751944695",
      "longitude": "-90.10963516921593"
    }
  },
  {
    "service_request": "2024-1078097",
    "request_type": "Trash/Recycling",
    "request_reason": "Replace Trash Cart",
    "date_created": "2024-03-23T16:53:55.000",
    "date_modified": "2024-03-23T16:53:55.000",
    "request_status": "Pending",
    "responsible_agency": "Department of Sanitation",
    "final_address": "9537 Stroelitz St",
    "address_councildis": "A",
    "status": "Assigned to Contractor",
    "contractor": "Richards Disposal",
    "rowid": "1078097",
    "final_x": "3664116.04685",
    "final_y": "538479.929033",
    "longitude": "-90.12273064130778",
    "latitude": "29.975149568791746",
    "geocoded_column": {
      "latitude": "29.975149568791746",
      "longitude": "-90.12273064130778"
    }
  },
  {
    "service_request": "2024-1078096",
    "request_type": "Trash/Recycling",
    "request_reason": "MIssed Recycling Pick-Up",
    "date_created": "2024-03-23T16:53:35.000",
    "date_modified": "2024-03-23T16:53:36.000",
    "request_status": "Pending",
    "responsible_agency": "Department of Sanitation",
    "final_address": "625 S Rocheblave St",
    "address_councildis": "B",
    "status": "Assigned to Contractor",
    "contractor": "Richards Disposal",
    "rowid": "1078096",
    "final_x": "3674667.03649",
    "final_y": "532757.690692",
    "longitude": "-90.08960396867559",
    "latitude": "29.959104614912476",
    "geocoded_column": {
      "latitude": "29.959104614912476",
      "longitude": "-90.08960396867559"
    }
  },
  {
    "service_request": "2024-1078095",
    "request_type": "Trash/Recycling",
    "request_reason": "Order Trash Cart",
    "date_created": "2024-03-23T16:40:20.000",
    "date_modified": "2024-03-23T16:40:21.000",
    "request_status": "Pending",
    "responsible_agency": "Department of Sanitation",
    "final_address": "7713 Haney Dr",
    "address_councildis": "E",
    "status": "Assigned to Contractor",
    "contractor": "Waste Pro",
    "rowid": "1078095",
    "final_x": "3712453.14738",
    "final_y": "567564.916388",
    "longitude": "-89.96897723742069",
    "latitude": "30.053629181755557",
    "geocoded_column": {
      "latitude": "30.053629181755557",
      "longitude": "-89.96897723742069"
    }
  },
  {
    "service_request": "2024-1078094",
    "request_type": "Trash/Recycling",
    "request_reason": "Request a Large Item Pick Up",
    "date_created": "2024-03-23T16:31:58.000",
    "date_modified": "2024-03-23T16:31:59.000",
    "request_status": "Pending",
    "responsible_agency": "Department of Sanitation",
    "final_address": "2307 Ursulines Ave, New Orleans, Louisiana, 70119",
    "address_councildis": "D",
    "status": "Assigned to Contractor",
    "contractor": "Richards Disposal",
    "rowid": "1078094",
    "final_x": "3678954.97339",
    "final_y": "537206.29076",
    "longitude": "-90.075909561947",
    "latitude": "29.971208076653554",
    "geocoded_column": {
      "latitude": "29.971208076653554",
      "longitude": "-90.075909561947"
    }
  },
  {
    "service_request": "2024-1078093",
    "request_type": "Roads/Drainage",
    "request_reason": "Street Flooding / Drainage",
    "date_created": "2024-03-23T16:21:50.000",
    "date_modified": "2024-03-23T16:21:50.000",
    "request_status": "Pending",
    "responsible_agency": "Department of Public Works",
    "final_address": "819 N Robertson St",
    "address_councildis": "C",
    "status": "Pending",
    "rowid": "1078093",
    "final_x": "3680352.81973",
    "final_y": "534792.254278",
    "longitude": "-90.07157892392334",
    "latitude": "29.96452805119721",
    "geocoded_column": {
      "latitude": "29.96452805119721",
      "longitude": "-90.07157892392334"
    }
  },
  {
    "service_request": "2024-1078092",
    "request_type": "Trash/Recycling",
    "request_reason": "Request a Large Item Pick Up",
    "date_created": "2024-03-23T16:18:27.000",
    "date_modified": "2024-03-23T16:18:27.000",
    "request_status": "Pending",
    "responsible_agency": "Department of Sanitation",
    "final_address": "3530 Gentilly Blvd",
    "address_councildis": "D",
    "status": "Assigned to Contractor",
    "contractor": "IV Waste",
    "rowid": "1078092",
    "final_x": "3685829.58473",
    "final_y": "548704.449491",
    "longitude": "-90.05379314312758",
    "latitude": "30.002614702567044",
    "geocoded_column": {
      "latitude": "30.002614702567044",
      "longitude": "-90.05379314312758"
    }
  },
  {
    "service_request": "2024-1078091",
    "request_type": "Trash/Recycling",
    "request_reason": "Order Recycling Cart",
    "date_created": "2024-03-23T16:15:09.000",
    "date_modified": "2024-03-23T16:15:09.000",
    "request_status": "Pending",
    "responsible_agency": "Department of Sanitation",
    "final_address": "525 Elmira Ave",
    "address_councildis": "C",
    "status": "Pending",
    "rowid": "1078091",
    "final_x": "3688151.66006",
    "final_y": "529677.999489",
    "longitude": "-90.04713212007032",
    "latitude": "29.950227177862267",
    "geocoded_column": {
      "latitude": "29.950227177862267",
      "longitude": "-90.04713212007032"
    }
  },
  {
    "service_request": "2024-1078090",
    "request_type": "Roads/Drainage",
    "request_reason": "Street Flooding / Drainage",
    "date_created": "2024-03-23T16:12:42.000",
    "date_modified": "2024-03-23T16:12:42.000",
    "request_status": "Pending",
    "responsible_agency": "Department of Public Works",
    "final_address": "819 N Robertson St",
    "address_councildis": "C",
    "status": "Pending",
    "rowid": "1078090",
    "final_x": "3680352.81973",
    "final_y": "534792.254278",
    "longitude": "-90.07157892392334",
    "latitude": "29.96452805119721",
    "geocoded_column": {
      "latitude": "29.96452805119721",
      "longitude": "-90.07157892392334"
    }
  },
  {
    "service_request": "2024-1078089",
    "request_type": "Trash/Recycling",
    "request_reason": "Request a Large Item Pick Up",
    "date_created": "2024-03-23T16:08:37.000",
    "date_modified": "2024-03-23T16:08:38.000",
    "request_status": "Pending",
    "responsible_agency": "Department of Sanitation",
    "final_address": "6014 Kuebel Dr",
    "address_councildis": "E",
    "status": "Assigned to Contractor",
    "contractor": "Waste Pro",
    "rowid": "1078089",
    "final_x": "3694998.35088",
    "final_y": "559657.036829",
    "longitude": "-90.0244327023045",
    "latitude": "30.032445488926125",
    "geocoded_column": {
      "latitude": "30.032445488926125",
      "longitude": "-90.0244327023045"
    }
  },
  {
    "service_request": "2024-1078088",
    "request_type": "Trash/Recycling",
    "request_reason": "Request a Large Item Pick Up",
    "date_created": "2024-03-23T16:05:08.000",
    "date_modified": "2024-03-23T16:05:08.000",
    "request_status": "Pending",
    "responsible_agency": "Department of Sanitation",
    "final_address": "4404 Frenchmen St",
    "address_councildis": "D",
    "status": "Assigned to Contractor",
    "contractor": "IV Waste",
    "rowid": "1078088",
    "final_x": "3683524.08898",
    "final_y": "548950.706451",
    "longitude": "-90.06106785988585",
    "latitude": "30.003362408834263",
    "geocoded_column": {
      "latitude": "30.003362408834263",
      "longitude": "-90.06106785988585"
    }
  },
  {
    "service_request": "2024-1078087",
    "request_type": "Trash/Recycling",
    "request_reason": "Request a Large Item Pick Up",
    "date_created": "2024-03-23T16:01:00.000",
    "date_modified": "2024-03-23T16:01:01.000",
    "request_status": "Pending",
    "responsible_agency": "Department of Sanitation",
    "final_address": "4404 Frenchmen St",
    "address_councildis": "D",
    "status": "Assigned to Contractor",
    "contractor": "IV Waste",
    "rowid": "1078087",
    "final_x": "3683524.08898",
    "final_y": "548950.706451",
    "longitude": "-90.06106785988585",
    "latitude": "30.003362408834263",
    "geocoded_column": {
      "latitude": "30.003362408834263",
      "longitude": "-90.06106785988585"
    }
  },
  {
    "service_request": "2024-1078086",
    "request_type": "Roads/Drainage",
    "request_reason": "Street Subsidence (Sinking)",
    "date_created": "2024-03-23T15:49:45.000",
    "date_modified": "2024-03-23T15:49:45.000",
    "request_status": "Pending",
    "responsible_agency": "Department of Public Works",
    "final_address": "519 Bouny St",
    "address_councildis": "C",
    "status": "Pending",
    "rowid": "1078086",
    "final_x": "3686190.31638",
    "final_y": "529586.179649",
    "longitude": "-90.0533282356411",
    "latitude": "29.950035095452254",
    "geocoded_column": {
      "latitude": "29.950035095452254",
      "longitude": "-90.0533282356411"
    }
  },
  {
    "service_request": "2024-1078085",
    "request_type": "Abandoned Vehicles",
    "request_reason": "Abandoned/Junk Vehicles",
    "date_created": "2024-03-23T15:31:09.000",
    "date_modified": "2024-03-23T15:31:09.000",
    "request_status": "Pending",
    "responsible_agency": "Department of Public Works",
    "final_address": "909 Wilson Dr",
    "address_councildis": "A",
    "status": "Pending",
    "rowid": "1078085",
    "final_x": "3674073.39406",
    "final_y": "540015.062923",
    "longitude": "-90.09123012553843",
    "latitude": "29.979077638195328",
    "geocoded_column": {
      "latitude": "29.979077638195328",
      "longitude": "-90.09123012553843"
    }
  },
  {
    "service_request": "2024-1078084",
    "request_type": "Roads/Drainage",
    "request_reason": "Catch Basin - Clogged",
    "date_created": "2024-03-23T15:30:39.000",
    "date_modified": "2024-03-23T15:30:39.000",
    "request_status": "Pending",
    "responsible_agency": "Department of Public Works",
    "final_address": "0 BLK Killdeer St",
    "address_councildis": "D",
    "status": "Pending",
    "rowid": "1078084",
    "final_x": "3675934.23504",
    "final_y": "556061.818438",
    "longitude": "-90.08480062483775",
    "latitude": "30.02314495703387",
    "geocoded_column": {
      "latitude": "30.02314495703387",
      "longitude": "-90.08480062483775"
    }
  },
  {
    "service_request": "2024-1078082",
    "request_type": "Parks & Parkways",
    "request_reason": "Request Tree Service (Right of Way/Public Property)",
    "date_created": "2024-03-23T14:53:51.000",
    "date_modified": "2024-03-23T14:53:51.000",
    "request_status": "Pending",
    "responsible_agency": "Department of Parks & Parkway",
    "final_address": "3304 Banks St",
    "address_councildis": "B",
    "status": "Pending",
    "rowid": "1078082",
    "final_x": "3672758.79265",
    "final_y": "535464.130886",
    "longitude": "-90.09553742378749",
    "latitude": "29.96660323442835",
    "geocoded_column": {
      "latitude": "29.96660323442835",
      "longitude": "-90.09553742378749"
    }
  },
  {
    "service_request": "2024-1078081",
    "request_type": "Trash/Recycling",
    "request_reason": "Illegal Dumping",
    "date_created": "2024-03-23T14:45:04.000",
    "date_modified": "2024-03-23T14:45:04.000",
    "request_status": "Pending",
    "responsible_agency": "Department of Sanitation",
    "final_address": "5100 LaSalle St",
    "address_councildis": "B",
    "status": "Pending",
    "rowid": "1078081",
    "final_x": "3668440.0521",
    "final_y": "523352.444539",
    "longitude": "-90.10958450624467",
    "latitude": "29.933427623030152",
    "geocoded_column": {
      "latitude": "29.933427623030152",
      "longitude": "-90.10958450624467"
    }
  },
  {
    "service_request": "2024-1078080",
    "request_type": "Roads/Drainage",
    "request_reason": "Pothole",
    "date_created": "2024-03-23T14:42:25.000",
    "date_modified": "2024-03-23T14:42:25.000",
    "request_status": "Pending",
    "responsible_agency": "Department of Public Works",
    "final_address": "804 Webster St",
    "address_councildis": "A",
    "status": "Pending",
    "rowid": "1078080",
    "final_x": "3664124.39348",
    "final_y": "519522.014135",
    "longitude": "-90.1233365457699",
    "latitude": "29.923021174551675",
    "geocoded_column": {
      "latitude": "29.923021174551675",
      "longitude": "-90.1233365457699"
    }
  },
  {
    "service_request": "2024-1078079",
    "request_type": "Roads/Drainage",
    "request_reason": "Pothole",
    "date_created": "2024-03-23T14:41:12.000",
    "date_modified": "2024-03-23T14:41:12.000",
    "request_status": "Pending",
    "responsible_agency": "Department of Public Works",
    "final_address": "1467 Calhoun St",
    "address_councildis": "A",
    "status": "Pending",
    "rowid": "1078079",
    "final_x": "3664513.96282",
    "final_y": "522111.427002",
    "longitude": "-90.1220204125977",
    "latitude": "29.93012992828717",
    "geocoded_column": {
      "latitude": "29.93012992828717",
      "longitude": "-90.1220204125977"
    }
  },
  {
    "service_request": "2024-1078078",
    "request_type": "Trash/Recycling",
    "request_reason": "Replace Trash Cart",
    "date_created": "2024-03-23T14:35:23.000",
    "date_modified": "2024-03-23T14:35:24.000",
    "request_status": "Pending",
    "responsible_agency": "Department of Sanitation",
    "final_address": "1429 Cambronne St",
    "address_councildis": "A",
    "status": "Assigned to Contractor",
    "contractor": "Richards Disposal",
    "rowid": "1078078",
    "final_x": "3661829.73888",
    "final_y": "529773.019777",
    "longitude": "-90.13024016540754",
    "latitude": "29.951274627861807",
    "geocoded_column": {
      "latitude": "29.951274627861807",
      "longitude": "-90.13024016540754"
    }
  },
  {
    "service_request": "2024-1078077",
    "request_type": "Roads/Drainage",
    "request_reason": "Catch Basin - Broken/Damage",
    "date_created": "2024-03-23T14:25:46.000",
    "date_modified": "2024-03-23T14:25:46.000",
    "request_status": "Pending",
    "responsible_agency": "Department of Public Works",
    "final_address": "3417 Iberville St",
    "address_councildis": "B",
    "status": "Pending",
    "rowid": "1078077",
    "final_x": "3673283.82945",
    "final_y": "537269.6642",
    "longitude": "-90.09381767912201",
    "latitude": "29.97155223583142",
    "geocoded_column": {
      "latitude": "29.97155223583142",
      "longitude": "-90.09381767912201"
    }
  },
  {
    "service_request": "2024-1078076",
    "request_type": "Property Maintenance",
    "request_reason": "Property Maintenance",
    "date_created": "2024-03-23T14:21:47.000",
    "date_modified": "2024-03-23T14:21:47.000",
    "request_status": "Pending",
    "responsible_agency": "Department of Code Enforcement",
    "final_address": "3228 Laurel St",
    "address_councildis": "B",
    "status": "Pending",
    "rowid": "1078076",
    "final_x": "3675927.28302",
    "final_y": "519201.277047",
    "longitude": "-90.08609037757296",
    "latitude": "29.921791261978107",
    "geocoded_column": {
      "latitude": "29.921791261978107",
      "longitude": "-90.08609037757296"
    }
  },
  {
    "service_request": "2024-1078075",
    "request_type": "Trash/Recycling",
    "request_reason": "MIssed Recycling Pick-Up",
    "date_created": "2024-03-23T13:39:59.000",
    "date_modified": "2024-03-23T13:39:59.000",
    "request_status": "Pending",
    "responsible_agency": "Department of Sanitation",
    "final_address": "3118 Hamilton St",
    "address_councildis": "A",
    "status": "Assigned to Contractor",
    "contractor": "Richards Disposal",
    "rowid": "1078075",
    "final_x": "3664010.80244",
    "final_y": "535913.144903",
    "longitude": "-90.1231486503308",
    "latitude": "29.968094819180052",
    "geocoded_column": {
      "latitude": "29.968094819180052",
      "longitude": "-90.1231486503308"
    }
  },
  {
    "service_request": "2024-1078074",
    "request_type": "Trash/Recycling",
    "request_reason": "MIssed Recycling Pick-Up",
    "date_created": "2024-03-23T13:38:52.000",
    "date_modified": "2024-03-23T13:38:53.000",
    "request_status": "Pending",
    "responsible_agency": "Department of Sanitation",
    "final_address": "3122 Hamilton St",
    "address_councildis": "A",
    "status": "Assigned to Contractor",
    "contractor": "Richards Disposal",
    "rowid": "1078074",
    "final_x": "3664036.48359",
    "final_y": "535942.806919",
    "longitude": "-90.12306655849386",
    "latitude": "29.96817563412154",
    "geocoded_column": {
      "latitude": "29.96817563412154",
      "longitude": "-90.12306655849386"
    }
  },
  {
    "service_request": "2024-1078073",
    "request_type": "Trash/Recycling",
    "request_reason": "Missed Trash Pick-Up",
    "date_created": "2024-03-23T13:26:39.000",
    "date_modified": "2024-03-23T13:26:39.000",
    "request_status": "Pending",
    "responsible_agency": "Department of Sanitation",
    "final_address": "7323 Perth St, New Orleans, Louisiana, 70126",
    "address_councildis": "E",
    "status": "Assigned to Contractor",
    "contractor": "Waste Pro",
    "rowid": "1078073",
    "final_x": "3698467.32701",
    "final_y": "558964.103964",
    "longitude": "-90.01349575987467",
    "latitude": "30.030430776551963",
    "geocoded_column": {
      "latitude": "30.030430776551963",
      "longitude": "-90.01349575987467"
    }
  },
  {
    "service_request": "2024-1078071",
    "request_type": "Trash/Recycling",
    "request_reason": "Missed Trash Pick-Up",
    "date_created": "2024-03-23T13:23:05.000",
    "date_modified": "2024-03-23T13:23:06.000",
    "request_status": "Pending",
    "responsible_agency": "Department of Sanitation",
    "final_address": "0 BLK Brazillier Island Rd",
    "address_councildis": "E",
    "status": "Assigned to Contractor",
    "contractor": "Waste Pro",
    "rowid": "1078071",
    "final_x": "3773009.98708",
    "final_y": "581831.225233",
    "longitude": "-89.77696586292899",
    "latitude": "30.090733086971042",
    "geocoded_column": {
      "latitude": "30.090733086971042",
      "longitude": "-89.77696586292899"
    }
  },
  {
    "service_request": "2024-1078070",
    "request_type": "Trash/Recycling",
    "request_reason": "Illegal Dumping",
    "date_created": "2024-03-23T13:11:57.000",
    "date_modified": "2024-03-23T13:11:57.000",
    "request_status": "Pending",
    "responsible_agency": "Department of Sanitation",
    "final_address": "5900 BLK N Roman St",
    "address_councildis": "E",
    "status": "Pending",
    "rowid": "1078070",
    "final_x": "3699992.44578",
    "final_y": "535997.957319",
    "longitude": "-90.00951485203669",
    "latitude": "29.967234035987275",
    "geocoded_column": {
      "latitude": "29.967234035987275",
      "longitude": "-90.00951485203669"
    }
  },
  {
    "service_request": "2024-1078069",
    "request_type": "Roads/Drainage",
    "request_reason": "Pothole",
    "date_created": "2024-03-23T13:04:53.000",
    "date_modified": "2024-03-23T13:04:53.000",
    "request_status": "Pending",
    "responsible_agency": "Department of Public Works",
    "final_address": "6030 Chestnut St",
    "address_councildis": "A",
    "status": "Pending",
    "rowid": "1078069",
    "final_x": "3664661.37773",
    "final_y": "519852.51884",
    "longitude": "-90.1216304547064",
    "latitude": "29.923914355909606",
    "geocoded_column": {
      "latitude": "29.923914355909606",
      "longitude": "-90.1216304547064"
    }
  },