[
  {
    "service_request": "2026-1278310",
    "request_type": "Health Related Request",
    "request_reason": "Noise Ordinance Complaint",
    "date_created": "2026-05-02T23:54:26.000",
    "date_modified": "2026-05-02T23:54:29.000",
    "request_status": "Pending",
    "responsible_agency": "Health Department",
    "final_address": "800 Bourbon St, New Orleans, Louisiana, 70116",
    "address_councildis": "C",
    "status": "Pending",
    "rowid": "1278310",
    "final_x": "3682553.51528",
    "final_y": "533013.631428",
    "longitude": "-90.06469148499534",
    "latitude": "29.95957063099051",
    "geocoded_column": {
      "latitude": "29.95957063099051",
      "longitude": "-90.06469148499534"
    }
  },
  {
    "service_request": "2026-1278309",
    "request_type": "General Services",
    "request_reason": "General Service Request",
    "date_created": "2026-05-02T23:25:23.000",
    "date_modified": "2026-05-02T23:25:26.000",
    "request_status": "Pending",
    "responsible_agency": "Orleans Parish Communication District",
    "final_address": "18 W Park Pl",
    "address_councildis": "A",
    "status": "Pending",
    "rowid": "1278309",
    "final_x": "3670117.60206",
    "final_y": "543765.082126",
    "longitude": "-90.10359696627691",
    "latitude": "29.98950622741276",
    "geocoded_column": {
      "latitude": "29.98950622741276",
      "longitude": "-90.10359696627691"
    }
  },
  {
    "service_request": "2026-1278308",
    "request_type": "Street and Traffic Signs",
    "request_reason": "Traffic or Parking Sign Damaged or Missing",
    "date_created": "2026-05-02T22:32:44.000",
    "date_modified": "2026-05-02T22:32:46.000",
    "request_status": "Pending",
    "responsible_agency": "Department of Public Works",
    "final_address": "7529 Zimple St",
    "address_councildis": "A",
    "status": "Pending",
    "rowid": "1278308",
    "final_x": "3663151.71047",
    "final_y": "526867.521214",
    "longitude": "-90.12616266365171",
    "latitude": "29.943247207035967",
    "geocoded_column": {
      "latitude": "29.943247207035967",
      "longitude": "-90.12616266365171"
    }
  },
  {
    "service_request": "2026-1278307",
    "request_type": "Health Related Request",
    "request_reason": "Noise Ordinance Complaint",
    "date_created": "2026-05-02T22:28:27.000",
    "date_modified": "2026-05-02T22:28:28.000",
    "request_status": "Pending",
    "responsible_agency": "Health Department",
    "final_address": "3130 Desoto St, New Orleans, Louisiana, 70119",
    "status": "Pending",
    "rowid": "1278307",
    "longitude": "0.0",
    "latitude": "0.0",
    "geocoded_column": {
      "latitude": "0.0",
      "longitude": "0.0"
    }
  },
  {
    "service_request": "2026-1278306",
    "request_type": "Trash/Recycling",
    "request_reason": "Request a Large Item Pick Up",
    "date_created": "2026-05-02T22:20:52.000",
    "date_modified": "2026-05-02T22:20:54.000",
    "request_status": "Pending",
    "responsible_agency": "Department of Sanitation",
    "final_address": "8215 Burthe St",
    "address_councildis": "A",
    "status": "Assigned to Contractor",
    "contractor": "IV Waste",
    "rowid": "1278306",
    "final_x": "3660902.96051",
    "final_y": "527971.959615",
    "longitude": "-90.13322605182505",
    "latitude": "29.9463490124055",
    "geocoded_column": {
      "latitude": "29.9463490124055",
      "longitude": "-90.13322605182505"
    }
  },
  {
    "service_request": "2026-1278305",
    "request_type": "Streetlights",
    "request_reason": "Streetlight Outage/Malfunction",
    "date_created": "2026-05-02T21:53:12.000",
    "date_modified": "2026-05-02T21:53:14.000",
    "request_status": "Pending",
    "responsible_agency": "Department of Public Works",
    "final_address": "514 Walnut St",
    "address_councildis": "A",
    "status": "Pending",
    "rowid": "1278305",
    "final_x": "3662950.28947",
    "final_y": "523780.358715",
    "longitude": "-90.12690122748427",
    "latitude": "29.934764324342282",
    "geocoded_column": {
      "latitude": "29.934764324342282",
      "longitude": "-90.12690122748427"
    }
  },
  {
    "service_request": "2026-1278304",
    "request_type": "Abandoned Vehicles",
    "request_reason": "Abandoned/Junk Vehicles",
    "date_created": "2026-05-02T20:14:04.000",
    "date_modified": "2026-05-02T20:14:06.000",
    "request_status": "Pending",
    "responsible_agency": "Department of Public Works",
    "final_address": "1530 First St",
    "address_councildis": "B",
    "status": "Pending",
    "rowid": "1278304",
    "final_x": "3677079.76046",
    "final_y": "522958.837243",
    "longitude": "-90.08232299846765",
    "latitude": "29.93208878796463",
    "geocoded_column": {
      "latitude": "29.93208878796463",
      "longitude": "-90.08232299846765"
    }
  },
  {
    "service_request": "2026-1278303",
    "request_type": "General Services",
    "request_reason": "General Service Request",
    "date_created": "2026-05-02T20:12:52.000",
    "date_modified": "2026-05-02T20:12:54.000",
    "request_status": "Pending",
    "responsible_agency": "Orleans Parish Communication District",
    "final_address": "7700 Green St",
    "address_councildis": "A",
    "status": "Pending",
    "rowid": "1278303",
    "final_x": "3664179.61652",
    "final_y": "528675.807424",
    "longitude": "-90.12285697759076",
    "latitude": "29.94818959642747",
    "geocoded_column": {
      "latitude": "29.94818959642747",
      "longitude": "-90.12285697759076"
    }
  },
  {
    "service_request": "2026-1278302",
    "request_type": "Trash/Recycling",
    "request_reason": "Request a Large Item Pick Up",
    "date_created": "2026-05-02T20:07:53.000",
    "date_modified": "2026-05-02T20:07:55.000",
    "request_status": "Pending",
    "responsible_agency": "Department of Sanitation",
    "final_address": "6863 Argonne Blvd",
    "address_councildis": "A",
    "status": "Assigned to Contractor",
    "contractor": "IV Waste",
    "rowid": "1278302",
    "final_x": "3670753.71278",
    "final_y": "553002.998679",
    "longitude": "-90.10127391152116",
    "latitude": "30.014888486763482",
    "geocoded_column": {
      "latitude": "30.014888486763482",
      "longitude": "-90.10127391152116"
    }
  },
  {
    "service_request": "2026-1278301",
    "request_type": "Roads and Streets",
    "request_reason": "Pothole",
    "date_created": "2026-05-02T20:03:08.000",
    "date_modified": "2026-05-02T20:03:10.000",
    "request_status": "Pending",
    "responsible_agency": "Department of Public Works",
    "final_address": "5507 Wildair Dr",
    "address_councildis": "D",
    "status": "Pending",
    "rowid": "1278301",
    "final_x": "3681659.87823",
    "final_y": "553093.441047",
    "longitude": "-90.06681252724952",
    "latitude": "30.01481021655733",
    "geocoded_column": {
      "latitude": "30.01481021655733",
      "longitude": "-90.06681252724952"
    }
  },
  {
    "service_request": "2026-1278300",
    "request_type": "Street and Traffic Signs",
    "request_reason": "Street Name Sign Damaged or Missing",
    "date_created": "2026-05-02T19:36:46.000",
    "date_modified": "2026-05-02T19:36:48.000",
    "request_status": "Pending",
    "responsible_agency": "Department of Public Works",
    "final_address": "3701 Jackson St",
    "address_councildis": "C",
    "status": "Pending",
    "rowid": "1278300",
    "final_x": "3712904.00722",
    "final_y": "515900.907636",
    "longitude": "-89.96949583411298",
    "latitude": "29.911557907773698",
    "geocoded_column": {
      "latitude": "29.911557907773698",
      "longitude": "-89.96949583411298"
    }
  },
  {
    "service_request": "2026-1278299",
    "request_type": "Trash/Recycling",
    "request_reason": "Order Second Trash Cart",
    "date_created": "2026-05-02T19:23:03.000",
    "date_modified": "2026-05-02T19:23:05.000",
    "request_status": "Pending",
    "responsible_agency": "Department of Sanitation",
    "final_address": "404 S Hennessey St",
    "address_councildis": "A",
    "status": "Assigned to Contractor",
    "contractor": "IV Waste",
    "rowid": "1278299",
    "final_x": "3669540.19425",
    "final_y": "537895.928457",
    "longitude": "-90.10561947583037",
    "latitude": "29.973385073686295",
    "geocoded_column": {
      "latitude": "29.973385073686295",
      "longitude": "-90.10561947583037"
    }
  },
  {
    "service_request": "2026-1278298",
    "request_type": "Trash/Recycling",
    "request_reason": "Request a Large Item Pick Up",
    "date_created": "2026-05-02T19:09:50.000",
    "date_modified": "2026-05-02T19:09:52.000",
    "request_status": "Pending",
    "responsible_agency": "Department of Sanitation",
    "final_address": "8853 Curran Rd",
    "address_councildis": "E",
    "status": "Assigned to Contractor",
    "contractor": "Waste Pro",
    "rowid": "1278298",
    "final_x": "3704911.28555",
    "final_y": "563010.089504",
    "longitude": "-89.9929833760537",
    "latitude": "30.041349982862226",
    "geocoded_column": {
      "latitude": "30.041349982862226",
      "longitude": "-89.9929833760537"
    }
  },
  {
    "service_request": "2026-1278297",
    "request_type": "Abandoned Vehicles",
    "request_reason": "Abandoned/Junk Vehicles",
    "date_created": "2026-05-02T19:03:48.000",
    "date_modified": "2026-05-02T19:03:49.000",
    "request_status": "Pending",
    "responsible_agency": "Department of Public Works",
    "final_address": "2013 Burdette St",
    "address_councildis": "A",
    "status": "Pending",
    "rowid": "1278297",
    "final_x": "3664808.34701",
    "final_y": "529757.073665",
    "longitude": "-90.12083568388132",
    "latitude": "29.951144450953368",
    "geocoded_column": {
      "latitude": "29.951144450953368",
      "longitude": "-90.12083568388132"
    }
  },
  {
    "service_request": "2026-1278296",
    "request_type": "Drainage",
    "request_reason": "Catch Basin Frame and Cover Missing or Damaged",
    "date_created": "2026-05-02T19:02:38.000",
    "date_modified": "2026-05-02T19:02:42.000",
    "request_status": "Pending",
    "responsible_agency": "Sewerage & Water Board",
    "final_address": "2403 N Claiborne Ave",
    "address_councildis": "D",
    "status": "Pending",
    "rowid": "1278296",
    "final_x": "3686429.42191",
    "final_y": "538302.481033",
    "longitude": "-90.05226557571262",
    "latitude": "29.97399456387742",
    "geocoded_column": {
      "latitude": "29.97399456387742",
      "longitude": "-90.05226557571262"
    }
  },
  {
    "service_request": "2026-1278295",
    "request_type": "Trash/Recycling",
    "request_reason": "Request a Large Item Pick Up",
    "date_created": "2026-05-02T18:45:26.000",
    "date_modified": "2026-05-02T18:45:27.000",
    "request_status": "Pending",
    "responsible_agency": "Department of Sanitation",
    "final_address": "1500 BLK Saint Roch Ave",
    "address_councildis": "C",
    "status": "Assigned to Contractor",
    "contractor": "IV Waste",
    "rowid": "1278295",
    "final_x": "3686320.94622",
    "final_y": "538077.794039",
    "longitude": "-90.05261609704058",
    "latitude": "29.973380087607474",
    "geocoded_column": {
      "latitude": "29.973380087607474",
      "longitude": "-90.05261609704058"
    }
  },
  {
    "service_request": "2026-1278294",
    "request_type": "Trash/Recycling",
    "request_reason": "Request a Large Item Pick Up",
    "date_created": "2026-05-02T18:24:55.000",
    "date_modified": "2026-05-02T18:24:58.000",
    "request_status": "Pending",
    "responsible_agency": "Department of Sanitation",
    "final_address": "5661 Clements Dr",
    "address_councildis": "E",
    "status": "Assigned to Contractor",
    "contractor": "Waste Pro",
    "rowid": "1278294",
    "final_x": "3702569.44305",
    "final_y": "556412.327386",
    "longitude": "-90.00062690190053",
    "latitude": "30.02328381908828",
    "geocoded_column": {
      "latitude": "30.02328381908828",
      "longitude": "-90.00062690190053"
    }
  },
  {
    "service_request": "2026-1278293",
    "request_type": "Trash/Recycling",
    "request_reason": "Replace Trash Cart",
    "date_created": "2026-05-02T18:12:16.000",
    "date_modified": "2026-05-02T18:12:18.000",
    "request_status": "Pending",
    "responsible_agency": "Department of Sanitation",
    "final_address": "5720 Dauphine St",
    "address_councildis": "E",
    "status": "Assigned to Contractor",
    "contractor": "Waste Pro",
    "rowid": "1278293",
    "final_x": "3698227.16695",
    "final_y": "532458.528323",
    "longitude": "-90.0152181703886",
    "latitude": "29.957557826765882",
    "geocoded_column": {
      "latitude": "29.957557826765882",
      "longitude": "-90.0152181703886"
    }
  },
  {
    "service_request": "2026-1278292",
    "request_type": "Trash/Recycling",
    "request_reason": "Request a Large Item Pick Up",
    "date_created": "2026-05-02T18:02:19.000",
    "date_modified": "2026-05-02T18:02:21.000",
    "request_status": "Pending",
    "responsible_agency": "Department of Sanitation",
    "final_address": "4811 Lennox Blvd",
    "address_councildis": "C",
    "status": "Assigned to Contractor",
    "contractor": "Richards Disposal",
    "rowid": "1278292",
    "final_x": "3700623.70538",
    "final_y": "512802.215089",
    "longitude": "-90.0083683749412",
    "latitude": "29.903433749356413",
    "geocoded_column": {
      "latitude": "29.903433749356413",
      "longitude": "-90.0083683749412"
    }
  },
  {
    "service_request": "2026-1278291",
    "request_type": "Trash/Recycling",
    "request_reason": "Request a Large Item Pick Up",
    "date_created": "2026-05-02T17:30:23.000",
    "date_modified": "2026-05-02T17:30:26.000",
    "request_status": "Pending",
    "responsible_agency": "Department of Sanitation",
    "final_address": "4738 Cleveland Ave",
    "address_councildis": "A",
    "status": "Assigned to Contractor",
    "contractor": "IV Waste",
    "rowid": "1278291",
    "final_x": "3668579.25953",
    "final_y": "539680.44545",
    "longitude": "-90.10859407582134",
    "latitude": "29.978320170453397",
    "geocoded_column": {
      "latitude": "29.978320170453397",
      "longitude": "-90.10859407582134"
    }
  },
  {
    "service_request": "2026-1278290",
    "request_type": "Trash/Recycling",
    "request_reason": "Replace Trash Cart",
    "date_created": "2026-05-02T17:19:40.000",
    "date_modified": "2026-05-02T17:19:42.000",
    "request_status": "Pending",
    "responsible_agency": "Department of Sanitation",
    "final_address": "4322 Fields St",
    "address_councildis": "C",
    "status": "Assigned to Contractor",
    "contractor": "Richards Disposal",
    "rowid": "1278290",
    "final_x": "3707917.2755",
    "final_y": "514841.446131",
    "longitude": "-89.985274406567",
    "latitude": "29.90880701844939",
    "geocoded_column": {
      "latitude": "29.90880701844939",
      "longitude": "-89.985274406567"
    }
  },
  {
    "service_request": "2026-1278289",
    "request_type": "Trash/Recycling",
    "request_reason": "Request a Large Item Pick Up",
    "date_created": "2026-05-02T17:16:16.000",
    "date_modified": "2026-05-02T17:16:18.000",
    "request_status": "Pending",
    "responsible_agency": "Department of Sanitation",
    "final_address": "920 Jena St",
    "address_councildis": "B",
    "status": "Assigned to Contractor",
    "contractor": "IV Waste",
    "rowid": "1278289",
    "final_x": "3670575.67124",
    "final_y": "518927.914359",
    "longitude": "-90.10299244412109",
    "latitude": "29.92119869110157",
    "geocoded_column": {
      "latitude": "29.92119869110157",
      "longitude": "-90.10299244412109"
    }
  },
  {
    "service_request": "2026-1278288",
    "request_type": "General Services",
    "request_reason": "General Service Request",
    "date_created": "2026-05-02T16:43:16.000",
    "date_modified": "2026-05-02T16:43:18.000",
    "request_status": "Pending",
    "responsible_agency": "Orleans Parish Communication District",
    "final_address": "2125 Jefferson Ave",
    "address_councildis": "B",
    "status": "Pending",
    "rowid": "1278288",
    "final_x": "3667872.59393",
    "final_y": "523517.977211",
    "longitude": "-90.11137037176854",
    "latitude": "29.933899436909137",
    "geocoded_column": {
      "latitude": "29.933899436909137",
      "longitude": "-90.11137037176854"
    }
  },
  {
    "service_request": "2026-1278287",
    "request_type": "Trash/Recycling",
    "request_reason": "Order Trash Cart",
    "date_created": "2026-05-02T16:42:45.000",
    "date_modified": "2026-05-02T16:42:47.000",
    "request_status": "Pending",
    "responsible_agency": "Department of Sanitation",
    "final_address": "7724 Woodbine Dr",
    "address_councildis": "E",
    "status": "Assigned to Contractor",
    "contractor": "Waste Pro",
    "rowid": "1278287",
    "final_x": "3701774.05777",
    "final_y": "561679.961375",
    "longitude": "-90.00294687878706",
    "latitude": "30.03779318337346",
    "geocoded_column": {
      "latitude": "30.03779318337346",
      "longitude": "-90.00294687878706"
    }
  },
  {
    "service_request": "2026-1278286",
    "request_type": "Tree Service",
    "request_reason": "Tree Trim",
    "date_created": "2026-05-02T16:41:01.000",
    "date_modified": "2026-05-02T16:41:02.000",
    "request_status": "Pending",
    "responsible_agency": "Department of Parks & Parkways",
    "final_address": "6501 Wales St",
    "address_councildis": "E",
    "status": "Pending",
    "rowid": "1278286",
    "final_x": "3696926.26973",
    "final_y": "560269.432733",
    "longitude": "-90.01831815522675",
    "latitude": "30.034068646920286",
    "geocoded_column": {
      "latitude": "30.034068646920286",
      "longitude": "-90.01831815522675"
    }
  },
  {
    "service_request": "2026-1278285",
    "request_type": "Drainage",
    "request_reason": "Ditch and Culvert Maintenance",
    "date_created": "2026-05-02T16:39:42.000",
    "date_modified": "2026-05-02T16:39:44.000",
    "request_status": "Pending",
    "responsible_agency": "Department of Public Works",
    "final_address": "7828 Mercier St",
    "address_councildis": "E",
    "status": "Pending",
    "rowid": "1278285",
    "final_x": "3710972.83921",
    "final_y": "567137.170212",
    "longitude": "-89.97367211454346",
    "latitude": "30.052501435261128",
    "geocoded_column": {
      "latitude": "30.052501435261128",
      "longitude": "-89.97367211454346"
    }
  },
  {
    "service_request": "2026-1278284",
    "request_type": "Roads and Streets",
    "request_reason": "Road Shoulder Damage",
    "date_created": "2026-05-02T16:21:44.000",
    "date_modified": "2026-05-02T16:21:45.000",
    "request_status": "Pending",
    "responsible_agency": "Department of Public Works",
    "final_address": "3734 Napoleon Ave",
    "address_councildis": "B",
    "status": "Pending",
    "rowid": "1278284",
    "final_x": "3669962.67047",
    "final_y": "528409.312704",
    "longitude": "-90.10460648491336",
    "latitude": "29.947287571262486",
    "geocoded_column": {
      "latitude": "29.947287571262486",
      "longitude": "-90.10460648491336"
    }
  },
  {
    "service_request": "2026-1278283",
    "request_type": "Traffic Signals",
    "request_reason": "Traffic Signal Malfunctioning or Damaged",
    "date_created": "2026-05-02T16:17:32.000",
    "date_modified": "2026-05-02T16:17:34.000",
    "request_status": "Pending",
    "responsible_agency": "Department of Public Works",
    "final_address": "200 BLK City Park Ave",
    "address_councildis": "A",
    "status": "Pending",
    "rowid": "1278283",
    "final_x": "3668497.61671",
    "final_y": "541266.80669",
    "longitude": "-90.10879839015797",
    "latitude": "29.98268452654479",
    "geocoded_column": {
      "latitude": "29.98268452654479",
      "longitude": "-90.10879839015797"
    }
  },
  {
    "service_request": "2026-1278282",
    "request_type": "Trash/Recycling",
    "request_reason": "Request a Large Item Pick Up",
    "date_created": "2026-05-02T16:03:46.000",
    "date_modified": "2026-05-02T16:03:47.000",
    "request_status": "Pending",
    "responsible_agency": "Department of Sanitation",
    "final_address": "4920 Gilbert St",
    "address_councildis": "E",
    "status": "Assigned to Contractor",
    "contractor": "Waste Pro",
    "rowid": "1278282",
    "final_x": "3729348.70637",
    "final_y": "562621.733216",
    "longitude": "-89.915768784021",
    "latitude": "30.039473522618636",
    "geocoded_column": {
      "latitude": "30.039473522618636",
      "longitude": "-89.915768784021"
    }
  },
  {
    "service_request": "2026-1278281",
    "request_type": "Property Maintenance",
    "request_reason": "Property Maintenance",
    "date_created": "2026-05-02T15:21:59.000",
    "date_modified": "2026-05-02T15:22:00.000",
    "request_status": "Pending",
    "responsible_agency": "Department of Code Enforcement",
    "final_address": "9660 Lake Forest Blvd",
    "address_councildis": "E",
    "status": "Pending",
    "rowid": "1278281",
    "final_x": "3708821.22795",
    "final_y": "558477.50838",
    "longitude": "-89.98079575534882",
    "latitude": "30.028760841115314",
    "geocoded_column": {
      "latitude": "30.028760841115314",
      "longitude": "-89.98079575534882"
    }
  },
  {
    "service_request": "2026-1278280",
    "request_type": "Trash/Recycling",
    "request_reason": "Request a Large Item Pick Up",
    "date_created": "2026-05-02T14:37:59.000",
    "date_modified": "2026-05-02T14:38:00.000",
    "request_status": "Pending",
    "responsible_agency": "Department of Sanitation",
    "final_address": "3765 Inwood Ave",
    "address_councildis": "C",
    "status": "Assigned to Contractor",
    "contractor": "Richards Disposal",
    "rowid": "1278280",
    "final_x": "3704885.12523",
    "final_y": "514588.910131",
    "longitude": "-89.99485360176823",
    "latitude": "29.90821037078622",
    "geocoded_column": {
      "latitude": "29.90821037078622",
      "longitude": "-89.99485360176823"
    }
  },
  {
    "service_request": "2026-1278278",
    "request_type": "Trash/Recycling",
    "request_reason": "Request a Large Item Pick Up",
    "date_created": "2026-05-02T13:56:14.000",
    "date_modified": "2026-05-02T13:56:16.000",
    "request_status": "Pending",
    "responsible_agency": "Department of Sanitation",
    "final_address": "3121 Orleans Ave",
    "address_councildis": "A",
    "status": "Assigned to Contractor",
    "contractor": "IV Waste",
    "rowid": "1278278",
    "final_x": "3675182.12865",
    "final_y": "538290.144969",
    "longitude": "-90.08778752934143",
    "latitude": "29.974301609846606",
    "geocoded_column": {
      "latitude": "29.974301609846606",
      "longitude": "-90.08778752934143"
    }
  },
  {
    "service_request": "2026-1278277",
    "request_type": "General Services",
    "request_reason": "General Service Request",
    "date_created": "2026-05-02T13:44:40.000",
    "date_modified": "2026-05-02T13:44:42.000",
    "request_status": "Pending",
    "responsible_agency": "Orleans Parish Communication District",
    "final_address": "5907 Milne Blvd",
    "address_councildis": "A",
    "status": "Pending",
    "rowid": "1278277",
    "final_x": "3667043.12858",
    "final_y": "546986.746065",
    "longitude": "-90.11320002983432",
    "latitude": "29.99845506826767",
    "geocoded_column": {
      "latitude": "29.99845506826767",
      "longitude": "-90.11320002983432"
    }
  },
  {
    "service_request": "2026-1278276",
    "request_type": "Safety & Permits",
    "request_reason": "Zoning Enforcement",
    "date_created": "2026-05-02T13:15:34.000",
    "date_modified": "2026-05-02T13:15:38.000",
    "request_status": "Pending",
    "responsible_agency": "Safety and Permits",
    "final_address": "4535 Croyden Ave",
    "address_councildis": "C",
    "status": "Pending",
    "rowid": "1278276",
    "final_x": "3702282.76497",
    "final_y": "523914.246652",
    "longitude": "-90.00272518767098",
    "latitude": "29.933935165961632",
    "geocoded_column": {
      "latitude": "29.933935165961632",
      "longitude": "-90.00272518767098"
    }
  },
  {
    "service_request": "2026-1278275",
    "request_type": "Safety & Permits",
    "request_reason": "Licenses & Permits",
    "date_created": "2026-05-02T13:01:27.000",
    "date_modified": "2026-05-02T13:01:29.000",
    "request_status": "Pending",
    "responsible_agency": "Safety and Permits",
    "final_address": "2025 Calhoun St",
    "address_councildis": "A",
    "status": "Pending",
    "rowid": "1278275",
    "final_x": "3665628.75802",
    "final_y": "524633.619452",
    "longitude": "-90.11841674957182",
    "latitude": "29.937032703964956",
    "geocoded_column": {
      "latitude": "29.937032703964956",
      "longitude": "-90.11841674957182"
    }
  },
  {
    "service_request": "2026-1278274",
    "request_type": "Trash/Recycling",
    "request_reason": "Replace Recycling Cart",
    "date_created": "2026-05-02T12:56:40.000",
    "date_modified": "2026-05-02T12:56:43.000",
    "request_status": "Pending",
    "responsible_agency": "Department of Sanitation",
    "final_address": "3318 Cleveland Ave",
    "address_councildis": "B",
    "status": "Pending",
    "rowid": "1278274",
    "final_x": "3673158.59048",
    "final_y": "536192.347975",
    "longitude": "-90.09424999495639",
    "latitude": "29.968593704758426",
    "geocoded_column": {
      "latitude": "29.968593704758426",
      "longitude": "-90.09424999495639"
    }
  },
  {
    "service_request": "2026-1278273",
    "request_type": "Trash/Recycling",
    "request_reason": "Repair Trash Cart",
    "date_created": "2026-05-02T12:37:16.000",
    "date_modified": "2026-05-02T12:37:17.000",
    "request_status": "Pending",
    "responsible_agency": "Department of Sanitation",
    "final_address": "6557 West End Blvd",
    "address_councildis": "A",
    "status": "Assigned to Contractor",
    "contractor": "IV Waste",
    "rowid": "1278273",
    "final_x": "3666765.13133",
    "final_y": "551449.470485",
    "longitude": "-90.11392819772189",
    "latitude": "30.010734149359056",
    "geocoded_column": {
      "latitude": "30.010734149359056",
      "longitude": "-90.11392819772189"
    }
  },
  {
    "service_request": "2026-1278272",
    "request_type": "Trash/Recycling",
    "request_reason": "Damaged Caused By Contractor",
    "date_created": "2026-05-02T12:37:13.000",
    "date_modified": "2026-05-02T12:37:15.000",
    "request_status": "Pending",
    "responsible_agency": "Department of Sanitation",
    "final_address": "15 Rosedown Ct",
    "address_councildis": "C",
    "status": "Assigned to Contractor",
    "contractor": "Richards Disposal",
    "rowid": "1278272",
    "final_x": "3720735.71974",
    "final_y": "511164.45016",
    "longitude": "-89.94495845156342",
    "latitude": "29.898275693211964",
    "geocoded_column": {
      "latitude": "29.898275693211964",
      "longitude": "-89.94495845156342"
    }
  },
  {
    "service_request": "2026-1278271",
    "request_type": "Trash/Recycling",
    "request_reason": "Request a Large Item Pick Up",
    "date_created": "2026-05-02T12:35:54.000",
    "date_modified": "2026-05-02T12:35:55.000",
    "request_status": "Pending",
    "responsible_agency": "Department of Sanitation",
    "final_address": "8315 Spruce St",
    "address_councildis": "A",
    "status": "Assigned to Contractor",
    "contractor": "IV Waste",
    "rowid": "1278271",
    "final_x": "3663247.97504",
    "final_y": "531056.087298",
    "longitude": "-90.12571935745673",
    "latitude": "29.954761627349836",
    "geocoded_column": {
      "latitude": "29.954761627349836",
      "longitude": "-90.12571935745673"
    }
  },
  {
    "service_request": "2026-1278270",
    "request_type": "Trash/Recycling",
    "request_reason": "Order Recycling Cart",
    "date_created": "2026-05-02T12:34:51.000",
    "date_modified": "2026-05-02T12:34:53.000",
    "request_status": "Pending",
    "responsible_agency": "Department of Sanitation",
    "final_address": "6557 West End Blvd",
    "address_councildis": "A",
    "status": "Pending",
    "rowid": "1278270",
    "final_x": "3666765.13133",
    "final_y": "551449.470485",
    "longitude": "-90.11392819772189",
    "latitude": "30.010734149359056",
    "geocoded_column": {
      "latitude": "30.010734149359056",
      "longitude": "-90.11392819772189"
    }
  },
  {
    "service_request": "2026-1278269",
    "request_type": "Trash/Recycling",
    "request_reason": "Replace Trash Cart",
    "date_created": "2026-05-02T12:26:46.000",
    "date_modified": "2026-05-02T12:26:48.000",
    "request_status": "Pending",
    "responsible_agency": "Department of Sanitation",
    "final_address": "6050 Curran Rd",
    "address_councildis": "E",
    "status": "Assigned to Contractor",
    "contractor": "Waste Pro",
    "rowid": "1278269",
    "final_x": "3695428.85808",
    "final_y": "558835.64214",
    "longitude": "-90.02310195400588",
    "latitude": "30.030173438762414",
    "geocoded_column": {
      "latitude": "30.030173438762414",
      "longitude": "-90.02310195400588"
    }
  },
  {
    "service_request": "2026-1278268",
    "request_type": "Drainage",
    "request_reason": "Catch Basin Not Draining",
    "date_created": "2026-05-02T12:05:48.000",
    "date_modified": "2026-05-02T12:05:50.000",
    "request_status": "Pending",
    "responsible_agency": "Sewerage & Water Board",
    "final_address": "1707 Chimney Wood Ln",
    "address_councildis": "E",
    "status": "Pending",
    "rowid": "1278268",
    "final_x": "3695784.70512",
    "final_y": "557757.050715",
    "longitude": "-90.02201648713849",
    "latitude": "30.027196530876047",
    "geocoded_column": {
      "latitude": "30.027196530876047",
      "longitude": "-90.02201648713849"
    }
  },
  {
    "service_request": "2026-1278267",
    "request_type": "Utility Poles",
    "request_reason": "Utility Pole Down",
    "date_created": "2026-05-02T12:03:53.000",
    "date_modified": "2026-05-02T12:03:55.000",
    "request_status": "Pending",
    "responsible_agency": "Utility Company Collective",
    "final_address": "8410 Panola St",
    "address_councildis": "A",
    "status": "Pending",
    "rowid": "1278267",
    "final_x": "3663195.32506",
    "final_y": "531479.573955",
    "longitude": "-90.12587151546492",
    "latitude": "29.955927604064236",
    "geocoded_column": {
      "latitude": "29.955927604064236",
      "longitude": "-90.12587151546492"
    }
  },
  {
    "service_request": "2026-1278266",
    "request_type": "Property Maintenance",
    "request_reason": "Property Maintenance",
    "date_created": "2026-05-02T12:00:39.000",
    "date_modified": "2026-05-02T12:00:40.000",
    "request_status": "Pending",
    "responsible_agency": "Department of Code Enforcement",
    "final_address": "3316 Conti St",
    "address_councildis": "B",
    "status": "Pending",
    "rowid": "1278266",
    "final_x": "3674133.00859",
    "final_y": "537453.494344",
    "longitude": "-90.0911295477282",
    "latitude": "29.97203242062243",
    "geocoded_column": {
      "latitude": "29.97203242062243",
      "longitude": "-90.0911295477282"
    }
  },
  {
    "service_request": "2026-1278265",
    "request_type": "Trash/Recycling",
    "request_reason": "Request a Large Item Pick Up",
    "date_created": "2026-05-02T11:56:54.000",
    "date_modified": "2026-05-02T11:56:56.000",
    "request_status": "Pending",
    "responsible_agency": "Department of Sanitation",
    "final_address": "311 Eliza St",
    "address_councildis": "C",
    "status": "Assigned to Contractor",
    "contractor": "Richards Disposal",
    "rowid": "1278265",
    "final_x": "3686447.65129",
    "final_y": "529467.897729",
    "longitude": "-90.05251988555302",
    "latitude": "29.94970195366802",
    "geocoded_column": {
      "latitude": "29.94970195366802",
      "longitude": "-90.05251988555302"
    }
  },
  {
    "service_request": "2026-1278264",
    "request_type": "Trash/Recycling",
    "request_reason": "Request a Large Item Pick Up",
    "date_created": "2026-05-02T11:37:38.000",
    "date_modified": "2026-05-02T11:37:40.000",
    "request_status": "Pending",
    "responsible_agency": "Department of Sanitation",
    "final_address": "6919 Louis Xiv St",
    "address_councildis": "A",
    "status": "Assigned to Contractor",
    "contractor": "IV Waste",
    "rowid": "1278264",
    "final_x": "3668739.33959",
    "final_y": "553513.626839",
    "longitude": "-90.10762112636773",
    "latitude": "30.016351935776555",
    "geocoded_column": {
      "latitude": "30.016351935776555",
      "longitude": "-90.10762112636773"
    }
  },
  {
    "service_request": "2026-1278263",
    "request_type": "Trash/Recycling",
    "request_reason": "Missed Trash Pick-Up",
    "date_created": "2026-05-02T11:35:17.000",
    "date_modified": "2026-05-02T11:35:19.000",
    "request_status": "Pending",
    "responsible_agency": "Department of Sanitation",
    "final_address": "3136 Dauphine St",
    "address_councildis": "C",
    "status": "Assigned to Contractor",
    "contractor": "IV Waste",
    "rowid": "1278263",
    "final_x": "3688991.90447",
    "final_y": "534736.393414",
    "longitude": "-90.04429940202593",
    "latitude": "29.964110049921565",
    "geocoded_column": {
      "latitude": "29.964110049921565",
      "longitude": "-90.04429940202593"
    }
  },
  {
    "service_request": "2026-1278262",
    "request_type": "Streetlights",
    "request_reason": "Streetlight Outage/Malfunction",
    "date_created": "2026-05-02T11:32:49.000",
    "date_modified": "2026-05-02T11:32:50.000",
    "request_status": "Pending",
    "responsible_agency": "Department of Public Works",
    "final_address": "4651 Cardenas Dr",
    "address_councildis": "E",
    "status": "Pending",
    "rowid": "1278262",
    "final_x": "3713794.5669",
    "final_y": "555936.320473",
    "longitude": "-89.96517625594103",
    "latitude": "30.021611226840555",
    "geocoded_column": {
      "latitude": "30.021611226840555",
      "longitude": "-89.96517625594103"
    }
  },
  {
    "service_request": "2026-1278261",
    "request_type": "Utility Poles",
    "request_reason": "Utility Pole Leaning",
    "date_created": "2026-05-02T11:32:24.000",
    "date_modified": "2026-05-02T11:32:27.000",
    "request_status": "Pending",
    "responsible_agency": "Utility Company Collective",
    "final_address": "0 BLK Acadiana Pl",
    "address_councildis": "E",
    "status": "Pending",
    "rowid": "1278261",
    "final_x": "3725131.4083",
    "final_y": "564393.680055",
    "longitude": "-89.92902788187175",
    "latitude": "30.04448842646984",
    "geocoded_column": {
      "latitude": "30.04448842646984",
      "longitude": "-89.92902788187175"
    }
  },
  {
    "service_request": "2026-1278260",
    "request_type": "Utility Poles",
    "request_reason": "Utility Pole Down",
    "date_created": "2026-05-02T11:26:56.000",
    "date_modified": "2026-05-02T11:26:58.000",
    "request_status": "Pending",
    "responsible_agency": "Utility Company Collective",
    "final_address": "8410 Panola St",
    "address_councildis": "A",
    "status": "Pending",
    "rowid": "1278260",
    "final_x": "3663195.32506",
    "final_y": "531479.573955",
    "longitude": "-90.12587151546492",
    "latitude": "29.955927604064236",
    "geocoded_column": {
      "latitude": "29.955927604064236",
      "longitude": "-90.12587151546492"
    }
  },
  {
    "service_request": "2026-1278259",
    "request_type": "Utility Poles",
    "request_reason": "Utility Pole Down",
    "date_created": "2026-05-02T11:26:08.000",
    "date_modified": "2026-05-02T11:26:10.000",
    "request_status": "Pending",
    "responsible_agency": "Utility Company Collective",
    "final_address": "8410 Panola St",
    "address_councildis": "A",
    "status": "Pending",
    "rowid": "1278259",
    "final_x": "3663195.32506",
    "final_y": "531479.573955",
    "longitude": "-90.12587151546492",
    "latitude": "29.955927604064236",
    "geocoded_column": {
      "latitude": "29.955927604064236",
      "longitude": "-90.12587151546492"
    }
  },
  {
    "service_request": "2026-1278258",
    "request_type": "Traffic Signals",
    "request_reason": "Traffic Signal Malfunctioning or Damaged",
    "date_created": "2026-05-02T11:25:36.000",
    "date_modified": "2026-05-02T11:25:39.000",
    "request_status": "Pending",
    "responsible_agency": "Department of Public Works",
    "final_address": "100 Allen Toussaint Blvd",
    "address_councildis": "A",
    "status": "Pending",
    "rowid": "1278258",
    "final_x": "3666940.75642",
    "final_y": "554786.392088",
    "longitude": "-90.11326107140346",
    "latitude": "30.01990437043757",
    "geocoded_column": {
      "latitude": "30.01990437043757",
      "longitude": "-90.11326107140346"
    }
  },
  {
    "service_request": "2026-1278257",
    "request_type": "Trash/Recycling",
    "request_reason": "Order Recycling Cart",
    "date_created": "2026-05-02T11:14:03.000",
    "date_modified": "2026-05-02T11:14:05.000",
    "request_status": "Pending",
    "responsible_agency": "Department of Sanitation",
    "final_address": "5356 Pasteur Blvd",
    "address_councildis": "D",
    "status": "Pending",
    "rowid": "1278257",
    "final_x": "3682799.22248",
    "final_y": "552917.428503",
    "longitude": "-90.06321891703023",
    "latitude": "30.01429156966537",
    "geocoded_column": {
      "latitude": "30.01429156966537",
      "longitude": "-90.06321891703023"
    }
  },
  {
    "service_request": "2026-1278256",
    "request_type": "Safety & Permits",
    "request_reason": "Zoning Enforcement",
    "date_created": "2026-05-02T10:41:55.000",
    "date_modified": "2026-05-02T10:41:58.000",
    "request_status": "Pending",
    "responsible_agency": "Safety and Permits",
    "final_address": "4730 Laurel St",
    "address_councildis": "B",
    "status": "Pending",
    "rowid": "1278256",
    "final_x": "3669757.21895",
    "final_y": "517880.899958",
    "longitude": "-90.10561135249256",
    "latitude": "29.918343871679735",
    "geocoded_column": {
      "latitude": "29.918343871679735",
      "longitude": "-90.10561135249256"
    }
  },
  {
    "service_request": "2026-1278255",
    "request_type": "Traffic Signals",
    "request_reason": "Traffic Signal Malfunctioning or Damaged",
    "date_created": "2026-05-02T10:08:23.000",
    "date_modified": "2026-05-02T10:08:25.000",
    "request_status": "Pending",
    "responsible_agency": "Department of Public Works",
    "final_address": "225 Baronne St",
    "address_councildis": "B",
    "status": "Pending",
    "rowid": "1278255",
    "final_x": "3680131.93973",
    "final_y": "530481.64653",
    "longitude": "-90.07242624205828",
    "latitude": "29.95268202778328",
    "geocoded_column": {
      "latitude": "29.95268202778328",
      "longitude": "-90.07242624205828"
    }
  },
  {
    "service_request": "2026-1278254",
    "request_type": "Trash/Recycling",
    "request_reason": "Request a Large Item Pick Up",
    "date_created": "2026-05-02T10:01:24.000",
    "date_modified": "2026-05-02T10:01:26.000",
    "request_status": "Pending",
    "responsible_agency": "Department of Sanitation",
    "final_address": "4343 Genoa St",
    "address_councildis": "E",
    "status": "Assigned to Contractor",
    "contractor": "Waste Pro",
    "rowid": "1278254",
    "final_x": "3760916.38589",
    "final_y": "573658.667946",
    "longitude": "-89.8155461661284",
    "latitude": "30.068708476580923",
    "geocoded_column": {
      "latitude": "30.068708476580923",
      "longitude": "-89.8155461661284"
    }
  },
  {
    "service_request": "2026-1278253",
    "request_type": "Trash/Recycling",
    "request_reason": "Repair Recycling Cart",
    "date_created": "2026-05-02T09:57:55.000",
    "date_modified": "2026-05-02T09:57:56.000",
    "request_status": "Pending",
    "responsible_agency": "Department of Sanitation",
    "final_address": "850 Conrad St",
    "address_councildis": "A",
    "status": "Pending",
    "rowid": "1278253",
    "final_x": "3670296.07162",
    "final_y": "554100.341144",
    "longitude": "-90.10268260492705",
    "latitude": "30.017919311675204",
    "geocoded_column": {
      "latitude": "30.017919311675204",
      "longitude": "-90.10268260492705"
    }
  },
  {
    "service_request": "2026-1278252",
    "request_type": "Drainage",
    "request_reason": "Drainage Manhole Cover Missing or Damaged",
    "date_created": "2026-05-02T09:57:52.000",
    "date_modified": "2026-05-02T09:57:55.000",
    "request_status": "Pending",
    "responsible_agency": "Sewerage & Water Board",
    "final_address": "1939 Burgundy St Unit 12",
    "address_councildis": "C",
    "status": "Pending",
    "rowid": "1278252",
    "final_x": "3684221.97967",
    "final_y": "535603.855366",
    "longitude": "-90.05933192649974",
    "latitude": "29.966641955718597",
    "geocoded_column": {
      "latitude": "29.966641955718597",
      "longitude": "-90.05933192649974"
    }
  },
  {
    "service_request": "2026-1278251",
    "request_type": "Trash/Recycling",
    "request_reason": "Request a Large Item Pick Up",
    "date_created": "2026-05-02T09:51:07.000",
    "date_modified": "2026-05-02T09:51:09.000",
    "request_status": "Pending",
    "responsible_agency": "Department of Sanitation",
    "final_address": "1476 Athis St",
    "address_councildis": "D",
    "status": "Assigned to Contractor",
    "contractor": "IV Waste",
    "rowid": "1278251",
    "final_x": "3678096.79528",
    "final_y": "553670.316439",
    "longitude": "-90.07805018768532",
    "latitude": "30.016504224785127",
    "geocoded_column": {
      "latitude": "30.016504224785127",
      "longitude": "-90.07805018768532"
    }
  },
  {
    "service_request": "2026-1278250",
    "request_type": "Trash/Recycling",
    "request_reason": "Missed Trash Pick-Up",
    "date_created": "2026-05-02T09:42:08.000",
    "date_modified": "2026-05-02T10:30:28.000",
    "case_close_date": "2026-05-02T05:30:27.000",
    "request_status": "Closed",
    "responsible_agency": "Department of Sanitation",
    "final_address": "1422 Melpomene St",
    "address_councildis": "B",
    "status": "Invalid Request",
    "contractor": "IV Waste",
    "contractor_action": "Invalid",
    "rowid": "1278250",
    "final_x": "3679828.56482",
    "final_y": "525085.630077",
    "longitude": "-90.07357148522154",
    "latitude": "29.937853959829017",
    "geocoded_column": {
      "latitude": "29.937853959829017",
      "longitude": "-90.07357148522154"
    }
  },
  {
    "service_request": "2026-1278249",
    "request_type": "Trash/Recycling",
    "request_reason": "Repair Recycling Cart",
    "date_created": "2026-05-02T09:36:41.000",
    "date_modified": "2026-05-02T09:36:42.000",
    "request_status": "Pending",
    "responsible_agency": "Department of Sanitation",
    "final_address": "3827 Bruxelles St",
    "address_councildis": "D",
    "status": "Pending",
    "rowid": "1278249",
    "final_x": "3680056.43778",
    "final_y": "546524.109457",
    "longitude": "-90.07210708504394",
    "latitude": "29.996795542886005",
    "geocoded_column": {
      "latitude": "29.996795542886005",
      "longitude": "-90.07210708504394"
    }
  },
  {
    "service_request": "2026-1278248",
    "request_type": "Roads and Streets",
    "request_reason": "Pothole",
    "date_created": "2026-05-02T09:34:29.000",
    "date_modified": "2026-05-02T09:34:30.000",
    "request_status": "Pending",
    "responsible_agency": "Department of Public Works",
    "final_address": "2817 Burgundy St",
    "address_councildis": "C",
    "status": "Pending",
    "rowid": "1278248",
    "final_x": "3687666.41455",
    "final_y": "535533.42247",
    "longitude": "-90.0484569488485",
    "latitude": "29.966342536907536",
    "geocoded_column": {
      "latitude": "29.966342536907536",
      "longitude": "-90.0484569488485"
    }
  },
  {
    "service_request": "2026-1278247",
    "request_type": "Trash/Recycling",
    "request_reason": "Damaged Caused By Contractor",
    "date_created": "2026-05-02T09:29:11.000",
    "date_modified": "2026-05-02T09:42:21.000",
    "case_close_date": "2026-05-02T04:42:20.000",
    "request_status": "Closed",
    "responsible_agency": "Department of Sanitation",
    "final_address": "0 BLK Acadiana Pl",
    "address_councildis": "E",
    "status": "Assigned to Contractor",
    "contractor": "Waste Pro",
    "contractor_action": "Additional information required from resident",
    "rowid": "1278247",
    "final_x": "3725131.4083",
    "final_y": "564393.680055",
    "longitude": "-89.92902788187175",
    "latitude": "30.04448842646984",
    "geocoded_column": {
      "latitude": "30.04448842646984",
      "longitude": "-89.92902788187175"
    }
  },
  {
    "service_request": "2026-1278246",
    "request_type": "Drainage",
    "request_reason": "Catch Basin Not Draining",
    "date_created": "2026-05-02T09:28:42.000",
    "date_modified": "2026-05-02T09:28:45.000",
    "request_status": "Pending",
    "responsible_agency": "Sewerage & Water Board",
    "final_address": "1204 Race St",
    "address_councildis": "B",
    "status": "Pending",
    "rowid": "1278246",
    "final_x": "3679673.1748",
    "final_y": "523922.88742",
    "longitude": "-90.07410240552706",
    "latitude": "29.93466149822084",
    "geocoded_column": {
      "latitude": "29.93466149822084",
      "longitude": "-90.07410240552706"
    }
  },
  {
    "service_request": "2026-1278245",
    "request_type": "Trash/Recycling",
    "request_reason": "Request a Large Item Pick Up",
    "date_created": "2026-05-02T09:03:25.000",
    "date_modified": "2026-05-02T09:03:26.000",
    "request_status": "Pending",
    "responsible_agency": "Department of Sanitation",
    "final_address": "4342 Genoa St",
    "address_councildis": "E",
    "status": "Assigned to Contractor",
    "contractor": "Waste Pro",
    "rowid": "1278245",
    "final_x": "3761023.01449",
    "final_y": "573632.229994",
    "longitude": "-89.81521020552164",
    "latitude": "30.06863190042958",
    "geocoded_column": {
      "latitude": "30.06863190042958",
      "longitude": "-89.81521020552164"
    }
  },
  {
    "service_request": "2026-1278244",
    "request_type": "Mosquito, Termite & Rodent Control",
    "request_reason": "Rodent Complaint (Mice & Rats)",
    "date_created": "2026-05-02T08:59:07.000",
    "date_modified": "2026-05-02T08:59:12.000",
    "request_status": "Pending",
    "responsible_agency": "Mosquito, Termite & Rodent Control Board",
    "final_address": "2731 Clover St",
    "address_councildis": "D",
    "status": "Pending",
    "rowid": "1278244",
    "final_x": "3688144.39388",
    "final_y": "546809.386641",
    "longitude": "-90.04654760810544",
    "latitude": "29.997332688002984",
    "geocoded_column": {
      "latitude": "29.997332688002984",
      "longitude": "-90.04654760810544"
    }
  },
  {
    "service_request": "2026-1278243",
    "request_type": "Trash/Recycling",
    "request_reason": "Replace Recycling Cart",
    "date_created": "2026-05-02T08:49:11.000",
    "date_modified": "2026-05-02T08:49:13.000",
    "request_status": "Pending",
    "responsible_agency": "Department of Sanitation",
    "final_address": "3018 Chippewa St",
    "address_councildis": "B",
    "status": "Pending",
    "rowid": "1278243",
    "final_x": "3677067.4036",
    "final_y": "519000.638519",
    "longitude": "-90.08249841410839",
    "latitude": "29.921205397627187",
    "geocoded_column": {
      "latitude": "29.921205397627187",
      "longitude": "-90.08249841410839"
    }
  },
  {
    "service_request": "2026-1278242",
    "request_type": "Trash/Recycling",
    "request_reason": "MIssed Recycling Pick-Up",
    "date_created": "2026-05-02T08:46:00.000",
    "date_modified": "2026-05-02T09:47:12.000",
    "case_close_date": "2026-05-02T04:47:11.000",
    "request_status": "Closed",
    "responsible_agency": "Department of Sanitation",
    "final_address": "3018 Chippewa St",
    "address_councildis": "B",
    "status": "Invalid Request",
    "contractor": "IV Waste",
    "contractor_action": "Invalid",
    "rowid": "1278242",
    "final_x": "3677067.4036",
    "final_y": "519000.638519",
    "longitude": "-90.08249841410839",
    "latitude": "29.921205397627187",
    "geocoded_column": {
      "latitude": "29.921205397627187",
      "longitude": "-90.08249841410839"
    }
  },
  {
    "service_request": "2026-1278241",
    "request_type": "Abandoned Vehicles",
    "request_reason": "Abandoned/Junk Vehicles",
    "date_created": "2026-05-02T08:45:06.000",
    "date_modified": "2026-05-02T08:45:07.000",
    "request_status": "Pending",
    "responsible_agency": "Department of Public Works",
    "final_address": "1128 N White St",
    "address_councildis": "A",
    "status": "Pending",
    "rowid": "1278241",
    "final_x": "3677354.07541",
    "final_y": "539000.588938",
    "longitude": "-90.08090348242831",
    "latitude": "29.976189990370123",
    "geocoded_column": {
      "latitude": "29.976189990370123",
      "longitude": "-90.08090348242831"
    }
  },
  {
    "service_request": "2026-1278240",
    "request_type": "Traffic Signals",
    "request_reason": "Traffic Signal Malfunctioning or Damaged",
    "date_created": "2026-05-02T08:45:04.000",
    "date_modified": "2026-05-02T08:45:07.000",
    "request_status": "Pending",
    "responsible_agency": "Department of Public Works",
    "final_address": "4068 Tulane Ave",
    "address_councildis": "A",
    "status": "Pending",
    "rowid": "1278240",
    "final_x": "3669355.07086",
    "final_y": "536128.353543",
    "longitude": "-90.10626391643623",
    "latitude": "29.968530287658712",
    "geocoded_column": {
      "latitude": "29.968530287658712",
      "longitude": "-90.10626391643623"
    }
  },
  {
    "service_request": "2026-1278239",
    "request_type": "Trash/Recycling",
    "request_reason": "Request a Large Item Pick Up",
    "date_created": "2026-05-02T08:11:30.000",
    "date_modified": "2026-05-02T08:11:32.000",
    "request_status": "Pending",
    "responsible_agency": "Department of Sanitation",
    "final_address": "6218 Memphis St",
    "address_councildis": "A",
    "status": "Assigned to Contractor",
    "contractor": "IV Waste",
    "rowid": "1278239",
    "final_x": "3669248.20666",
    "final_y": "548710.656211",
    "longitude": "-90.1061758448413",
    "latitude": "30.003130475260274",
    "geocoded_column": {
      "latitude": "30.003130475260274",
      "longitude": "-90.1061758448413"
    }
  },
  {
    "service_request": "2026-1278238",
    "request_type": "Trash/Recycling",
    "request_reason": "Request a Large Item Pick Up",
    "date_created": "2026-05-02T08:09:09.000",
    "date_modified": "2026-05-02T08:09:11.000",
    "request_status": "Pending",
    "responsible_agency": "Department of Sanitation",
    "final_address": "6218 Memphis St",
    "address_councildis": "A",
    "status": "Assigned to Contractor",
    "contractor": "IV Waste",
    "rowid": "1278238",
    "final_x": "3669248.20666",
    "final_y": "548710.656211",
    "longitude": "-90.1061758448413",
    "latitude": "30.003130475260274",
    "geocoded_column": {
      "latitude": "30.003130475260274",
      "longitude": "-90.1061758448413"
    }
  },
  {
    "service_request": "2026-1278237",
    "request_type": "Trash/Recycling",
    "request_reason": "Repair Recycling Cart",
    "date_created": "2026-05-02T08:08:26.000",
    "date_modified": "2026-05-02T08:08:28.000",
    "request_status": "Pending",
    "responsible_agency": "Department of Sanitation",
    "final_address": "205 28Th St",
    "address_councildis": "A",
    "status": "Pending",
    "rowid": "1278237",
    "final_x": "3665689.79981",
    "final_y": "550256.8333",
    "longitude": "-90.1173655878213",
    "latitude": "30.007486234225766",
    "geocoded_column": {
      "latitude": "30.007486234225766",
      "longitude": "-90.1173655878213"
    }
  },
  {
    "service_request": "2026-1278236",
    "request_type": "Trash/Recycling",
    "request_reason": "Replace Recycling Cart",
    "date_created": "2026-05-02T07:06:38.000",
    "date_modified": "2026-05-02T07:06:40.000",
    "request_status": "Pending",
    "responsible_agency": "Department of Sanitation",
    "final_address": "2401 Jefferson Ave",
    "address_councildis": "B",
    "status": "Pending",
    "rowid": "1278236",
    "final_x": "3668088.23521",
    "final_y": "524360.891132",
    "longitude": "-90.11066120456651",
    "latitude": "29.936210855020892",
    "geocoded_column": {
      "latitude": "29.936210855020892",
      "longitude": "-90.11066120456651"
    }
  },
  {
    "service_request": "2026-1278235",
    "request_type": "Trash/Recycling",
    "request_reason": "Missed Trash Pick-Up",
    "date_created": "2026-05-02T06:41:55.000",
    "date_modified": "2026-05-02T07:55:26.000",
    "case_close_date": "2026-05-02T02:55:24.000",
    "request_status": "Closed",
    "responsible_agency": "Department of Sanitation",
    "final_address": "2001 Alvar St",
    "address_councildis": "D",
    "status": "Invalid Request",
    "contractor": "IV Waste",
    "contractor_action": "Invalid",
    "rowid": "1278235",
    "final_x": "3692427.4223",
    "final_y": "538814.294409",
    "longitude": "-90.03330427661932",
    "latitude": "29.9752161174562",
    "geocoded_column": {
      "latitude": "29.9752161174562",
      "longitude": "-90.03330427661932"
    }
  },
  {
    "service_request": "2026-1278234",
    "request_type": "Trash/Recycling",
    "request_reason": "Replace Trash Cart",
    "date_created": "2026-05-02T06:16:51.000",
    "date_modified": "2026-05-02T06:16:53.000",
    "request_status": "Pending",
    "responsible_agency": "Department of Sanitation",
    "final_address": "3229 Jefferson Ave",
    "address_councildis": "B",
    "status": "Assigned to Contractor",
    "contractor": "IV Waste",
    "rowid": "1278234",
    "final_x": "3668715.27303",
    "final_y": "527165.536127",
    "longitude": "-90.1085869803501",
    "latitude": "29.943904311116032",
    "geocoded_column": {
      "latitude": "29.943904311116032",
      "longitude": "-90.1085869803501"
    }
  },
  {
    "service_request": "2026-1278233",
    "request_type": "Street and Traffic Signs",
    "request_reason": "Stop Sign Missing or Damaged",
    "date_created": "2026-05-02T06:06:54.000",
    "date_modified": "2026-05-02T06:06:56.000",
    "request_status": "Pending",
    "responsible_agency": "Department of Public Works",
    "final_address": "4500 Touro St",
    "address_councildis": "D",
    "status": "Pending",
    "rowid": "1278233",
    "final_x": "3683153.8596",
    "final_y": "549170.735187",
    "longitude": "-90.06222975961252",
    "latitude": "30.003978706653154",
    "geocoded_column": {
      "latitude": "30.003978706653154",
      "longitude": "-90.06222975961252"
    }
  },
  {
    "service_request": "2026-1278232",
    "request_type": "Abandoned Vehicles",
    "request_reason": "Abandoned/Junk Vehicles",
    "date_created": "2026-05-01T23:54:11.000",
    "date_modified": "2026-05-01T23:54:13.000",
    "request_status": "Pending",
    "responsible_agency": "Department of Public Works",
    "final_address": "3032 Elysian Fields Ave",
    "address_councildis": "D",
    "status": "Pending",
    "rowid": "1278232",
    "final_x": "3684214.01589",
    "final_y": "543927.469326",
    "longitude": "-90.05906475527435",
    "latitude": "29.989529222216106",
    "geocoded_column": {
      "latitude": "29.989529222216106",
      "longitude": "-90.05906475527435"
    }
  },
  {
    "service_request": "2026-1278231",
    "request_type": "Trash/Recycling",
    "request_reason": "Replace Trash Cart",
    "date_created": "2026-05-01T20:49:09.000",
    "date_modified": "2026-05-01T20:49:12.000",
    "request_status": "Pending",
    "responsible_agency": "Department of Sanitation",
    "final_address": "5418 S Miro St",
    "address_councildis": "B",
    "status": "Assigned to Contractor",
    "contractor": "IV Waste",
    "rowid": "1278231",
    "final_x": "3668568.08212",
    "final_y": "527598.807935",
    "longitude": "-90.10903708750608",
    "latitude": "29.945099993238504",
    "geocoded_column": {
      "latitude": "29.945099993238504",
      "longitude": "-90.10903708750608"
    }
  },
  {
    "service_request": "2026-1278230",
    "request_type": "Drainage",
    "request_reason": "Catch Basin Not Draining",
    "date_created": "2026-05-01T19:44:28.000",
    "date_modified": "2026-05-01T19:44:31.000",
    "request_status": "Pending",
    "responsible_agency": "Sewerage & Water Board",
    "final_address": "5570 Bellaire Dr",
    "address_councildis": "A",
    "status": "Pending",
    "rowid": "1278230",
    "final_x": "3664014.96032",
    "final_y": "544785.007119",
    "longitude": "-90.12283953344571",
    "latitude": "29.99248935148824",
    "geocoded_column": {
      "latitude": "29.99248935148824",
      "longitude": "-90.12283953344571"
    }
  },
  {
    "service_request": "2026-1278229",
    "request_type": "General Services",
    "request_reason": "General Service Request",
    "date_created": "2026-05-01T19:26:19.000",
    "date_modified": "2026-05-01T19:26:22.000",
    "request_status": "Pending",
    "responsible_agency": "Orleans Parish Communication District",
    "final_address": "5322 Wilton Dr",
    "address_councildis": "D",
    "status": "Pending",
    "rowid": "1278229",
    "final_x": "3681858.50236",
    "final_y": "552728.48335",
    "longitude": "-90.06619772280641",
    "latitude": "30.013800677365293",
    "geocoded_column": {
      "latitude": "30.013800677365293",
      "longitude": "-90.06619772280641"
    }
  },
  {
    "service_request": "2026-1278228",
    "request_type": "Utility Poles",
    "request_reason": "Wires Sagging/Hanging Low",
    "date_created": "2026-05-01T19:17:31.000",
    "date_modified": "2026-05-01T19:17:34.000",
    "request_status": "Pending",
    "responsible_agency": "Utility Company Collective",
    "final_address": "1621 Second St",
    "address_councildis": "B",
    "status": "Pending",
    "rowid": "1278228",
    "final_x": "3676601.62702",
    "final_y": "523246.920635",
    "longitude": "-90.08382250151332",
    "latitude": "29.93289526839372",
    "geocoded_column": {
      "latitude": "29.93289526839372",
      "longitude": "-90.08382250151332"
    }
  },
  {
    "service_request": "2026-1278227",
    "request_type": "Trash/Recycling",
    "request_reason": "Request a Large Item Pick Up",
    "date_created": "2026-05-01T18:59:25.000",
    "date_modified": "2026-05-01T18:59:26.000",
    "request_status": "Pending",
    "responsible_agency": "Department of Sanitation",
    "final_address": "400 BLK S Murat St",
    "address_councildis": "A",
    "status": "Assigned to Contractor",
    "contractor": "IV Waste",
    "rowid": "1278227",
    "final_x": "3668848.97723",
    "final_y": "538271.315305",
    "longitude": "-90.10778980819745",
    "latitude": "29.974437607480887",
    "geocoded_column": {
      "latitude": "29.974437607480887",
      "longitude": "-90.10778980819745"
    }
  },
  {
    "service_request": "2026-1278226",
    "request_type": "Property Maintenance",
    "request_reason": "Property Maintenance",
    "date_created": "2026-05-01T18:49:44.000",
    "date_modified": "2026-05-01T18:49:46.000",
    "request_status": "Pending",
    "responsible_agency": "Department of Code Enforcement",
    "final_address": "627 S Lopez St",
    "address_councildis": "B",
    "status": "Pending",
    "rowid": "1278226",
    "final_x": "3672439.24167",
    "final_y": "534424.468677",
    "longitude": "-90.0965820024751",
    "latitude": "29.96375399982286",
    "geocoded_column": {
      "latitude": "29.96375399982286",
      "longitude": "-90.0965820024751"
    }
  },
  {
    "service_request": "2026-1278225",
    "request_type": "Property Maintenance",
    "request_reason": "Property Maintenance",
    "date_created": "2026-05-01T18:28:16.000",
    "date_modified": "2026-05-01T18:28:18.000",
    "request_status": "Pending",
    "responsible_agency": "Department of Code Enforcement",
    "final_address": "2325 Governor Nicholls St",
    "address_councildis": "C",
    "status": "Pending",
    "rowid": "1278225",
    "final_x": "3679050.99067",
    "final_y": "537527.388616",
    "longitude": "-90.07559519518783",
    "latitude": "29.972088087917214",
    "geocoded_column": {
      "latitude": "29.972088087917214",
      "longitude": "-90.07559519518783"
    }
  },
  {
    "service_request": "2026-1278224",
    "request_type": "Property Maintenance",
    "request_reason": "Property Maintenance",
    "date_created": "2026-05-01T18:21:25.000",
    "date_modified": "2026-05-01T18:21:29.000",
    "request_status": "Pending",
    "responsible_agency": "Department of Code Enforcement",
    "final_address": "627 S Lopez St",
    "address_councildis": "B",
    "status": "Pending",
    "rowid": "1278224",
    "final_x": "3672439.24167",
    "final_y": "534424.468677",
    "longitude": "-90.0965820024751",
    "latitude": "29.96375399982286",
    "geocoded_column": {
      "latitude": "29.96375399982286",
      "longitude": "-90.0965820024751"
    }
  },
  {
    "service_request": "2026-1278223",
    "request_type": "Drainage",
    "request_reason": "Drainage Manhole Cover Missing or Damaged",
    "date_created": "2026-05-01T18:10:00.000",
    "date_modified": "2026-05-01T18:10:03.000",
    "request_status": "Pending",
    "responsible_agency": "Sewerage & Water Board",
    "final_address": "404 Nashville Ave",
    "address_councildis": "A",
    "status": "Pending",
    "rowid": "1278223",
    "final_x": "3665174.60839",
    "final_y": "517741.201142",
    "longitude": "-90.12008093079088",
    "latitude": "29.91809395972707",
    "geocoded_column": {
      "latitude": "29.91809395972707",
      "longitude": "-90.12008093079088"
    }
  },
  {
    "service_request": "2026-1278222",
    "request_type": "General Services",
    "request_reason": "General Service Request",
    "date_created": "2026-05-01T18:03:27.000",
    "date_modified": "2026-05-01T18:03:29.000",
    "request_status": "Pending",
    "responsible_agency": "Orleans Parish Communication District",
    "final_address": "841 Barracks St",
    "address_councildis": "C",
    "status": "Pending",
    "rowid": "1278222",
    "final_x": "3683359.00565",
    "final_y": "534637.147206",
    "longitude": "-90.06209105828535",
    "latitude": "29.964010195916835",
    "geocoded_column": {
      "latitude": "29.964010195916835",
      "longitude": "-90.06209105828535"
    }
  },
  {
    "service_request": "2026-1278221",
    "request_type": "Trash/Recycling",
    "request_reason": "MIssed Recycling Pick-Up",
    "date_created": "2026-05-01T17:45:04.000",
    "date_modified": "2026-05-01T17:45:12.000",
    "request_status": "Pending",
    "responsible_agency": "Department of Sanitation",
    "final_address": "4751 Knight Dr",
    "address_councildis": "E",
    "status": "Assigned to Contractor",
    "contractor": "Waste Pro",
    "rowid": "1278221",
    "final_x": "3708200.97246",
    "final_y": "555622.376345",
    "longitude": "-89.98286205284205",
    "latitude": "30.02093046042013",
    "geocoded_column": {
      "latitude": "30.02093046042013",
      "longitude": "-89.98286205284205"
    }
  },
  {
    "service_request": "2026-1278220",
    "request_type": "Healthy Homes",
    "request_reason": "Healthy Homes",
    "date_created": "2026-05-01T17:44:41.000",
    "date_modified": "2026-05-01T17:44:42.000",
    "request_status": "Pending",
    "responsible_agency": "Department of Code Enforcement",
    "final_address": "822 Nunez St",
    "address_councildis": "C",
    "status": "Pending",
    "rowid": "1278220",
    "final_x": "3686965.72617",
    "final_y": "528512.040512",
    "longitude": "-90.05091786853706",
    "latitude": "29.94705773875484",
    "geocoded_column": {
      "latitude": "29.94705773875484",
      "longitude": "-90.05091786853706"
    }
  },
  {
    "service_request": "2026-1278219",
    "request_type": "Traffic Signals",
    "request_reason": "Traffic Signal Malfunctioning or Damaged",
    "date_created": "2026-05-01T17:39:29.000",
    "date_modified": "2026-05-01T17:39:31.000",
    "request_status": "Pending",
    "responsible_agency": "Department of Public Works",
    "final_address": "GRAVIER ST & BARONNE ST",
    "address_councildis": "B",
    "status": "Pending",
    "rowid": "1278219",
    "final_x": "3680140.3",
    "final_y": "530388.48",
    "longitude": "-90.07240308134462",
    "latitude": "29.952425598239618",
    "geocoded_column": {
      "latitude": "29.952425598239618",
      "longitude": "-90.07240308134462"
    }
  },
  {
    "service_request": "2026-1278218",
    "request_type": "Utility Poles",
    "request_reason": "Utility Pole Down",
    "date_created": "2026-05-01T17:36:46.000",
    "date_modified": "2026-05-01T17:36:49.000",
    "request_status": "Pending",
    "responsible_agency": "Utility Company Collective",
    "final_address": "2529 Lincoln Ct",
    "address_councildis": "D",
    "status": "Pending",
    "rowid": "1278218",
    "final_x": "3682883.34952",
    "final_y": "541555.114508",
    "longitude": "-90.06335100387574",
    "latitude": "29.983046705070592",
    "geocoded_column": {
      "latitude": "29.983046705070592",
      "longitude": "-90.06335100387574"
    }
  },
  {
    "service_request": "2026-1278217",
    "request_type": "Tree Service",
    "request_reason": "Tree Trim",
    "date_created": "2026-05-01T17:22:15.000",
    "date_modified": "2026-05-01T17:22:17.000",
    "request_status": "Pending",
    "responsible_agency": "Department of Parks & Parkways",
    "final_address": "1120 Aline St Apt 1A",
    "address_councildis": "B",
    "status": "Pending",
    "rowid": "1278217",
    "final_x": "3674351.3012",
    "final_y": "519525.785335",
    "longitude": "-90.0910539823041",
    "latitude": "29.92273063089548",
    "geocoded_column": {
      "latitude": "29.92273063089548",
      "longitude": "-90.0910539823041"
    }
  },
  {
    "service_request": "2026-1278216",
    "request_type": "Trash/Recycling",
    "request_reason": "Replace Trash Cart",
    "date_created": "2026-05-01T17:18:51.000",
    "date_modified": "2026-05-01T17:18:53.000",
    "request_status": "Pending",
    "responsible_agency": "Department of Sanitation",
    "final_address": "2431 Rex Pl",
    "address_councildis": "B",
    "status": "Assigned to Contractor",
    "contractor": "IV Waste",
    "rowid": "1278216",
    "final_x": "3673636.8052",
    "final_y": "527742.237311",
    "longitude": "-90.09302862367997",
    "latitude": "29.94534448760292",
    "geocoded_column": {
      "latitude": "29.94534448760292",
      "longitude": "-90.09302862367997"
    }
  },
  {
    "service_request": "2026-1278215",
    "request_type": "Trash/Recycling",
    "request_reason": "Replace Trash Cart",
    "date_created": "2026-05-01T16:59:41.000",
    "date_modified": "2026-05-01T16:59:43.000",
    "request_status": "Pending",
    "responsible_agency": "Department of Sanitation",
    "final_address": "2056 Pleasure St",
    "address_councildis": "D",
    "status": "Assigned to Contractor",
    "contractor": "IV Waste",
    "rowid": "1278215",
    "final_x": "3683363.79439",
    "final_y": "545029.626703",
    "longitude": "-90.06171172545915",
    "latitude": "29.99258573491102",
    "geocoded_column": {
      "latitude": "29.99258573491102",
      "longitude": "-90.06171172545915"
    }
  },
  {
    "service_request": "2026-1278214",
    "request_type": "Trash/Recycling",
    "request_reason": "Request a Large Item Pick Up",
    "date_created": "2026-05-01T16:57:27.000",
    "date_modified": "2026-05-01T16:57:29.000",
    "request_status": "Pending",
    "responsible_agency": "Department of Sanitation",
    "final_address": "4835 Hauck Dr",
    "address_councildis": "E",
    "status": "Assigned to Contractor",
    "contractor": "Waste Pro",
    "rowid": "1278214",
    "final_x": "3714586.66219",
    "final_y": "557202.311643",
    "longitude": "-89.96262562212377",
    "latitude": "30.025066172233114",
    "geocoded_column": {
      "latitude": "30.025066172233114",
      "longitude": "-89.96262562212377"
    }
  },
  {
    "service_request": "2026-1278213",
    "request_type": "Trash/Recycling",
    "request_reason": "Repair Trash Cart",
    "date_created": "2026-05-01T16:54:26.000",
    "date_modified": "2026-05-01T16:54:28.000",
    "request_status": "Pending",
    "responsible_agency": "Department of Sanitation",
    "final_address": "1682 Southlawn Blvd",
    "address_councildis": "C",
    "status": "Assigned to Contractor",
    "contractor": "Richards Disposal",
    "rowid": "1278213",
    "final_x": "3695187.04816",
    "final_y": "524832.046012",
    "longitude": "-90.02509287512733",
    "latitude": "29.936683461914903",
    "geocoded_column": {
      "latitude": "29.936683461914903",
      "longitude": "-90.02509287512733"
    }
  },
  {
    "service_request": "2026-1278212",
    "request_type": "Trash/Recycling",
    "request_reason": "Missed Trash Pick-Up",
    "date_created": "2026-05-01T16:50:57.000",
    "date_modified": "2026-05-01T16:54:32.000",
    "case_close_date": "2026-05-01T11:54:32.000",
    "request_status": "Closed",
    "responsible_agency": "Department of Sanitation",
    "final_address": "3122 Laurel St",
    "address_councildis": "B",
    "status": "Invalid Request",
    "contractor": "IV Waste",
    "contractor_action": "Invalid Request",
    "rowid": "1278212",
    "final_x": "3676369.50312",
    "final_y": "519455.358327",
    "longitude": "-90.0846857361322",
    "latitude": "29.92247666045068",
    "geocoded_column": {
      "latitude": "29.92247666045068",
      "longitude": "-90.0846857361322"
    }
  },
  {
    "service_request": "2026-1278211",
    "request_type": "Utility Poles",
    "request_reason": "Wires Sagging/Hanging Low",
    "date_created": "2026-05-01T16:50:08.000",
    "date_modified": "2026-05-01T16:50:10.000",
    "request_status": "Pending",
    "responsible_agency": "Utility Company Collective",
    "final_address": "CANAL ST & CITY PARK AVE",
    "address_councildis": "A",
    "status": "Pending",
    "rowid": "1278211",
    "final_x": "3667729.2",
    "final_y": "540955.48",
    "longitude": "-90.11123593065541",
    "latitude": "29.981851040999903",
    "geocoded_column": {
      "latitude": "29.981851040999903",
      "longitude": "-90.11123593065541"
    }
  },
  {
    "service_request": "2026-1278210",
    "request_type": "Trash/Recycling",
    "request_reason": "Damaged Caused By Contractor",
    "date_created": "2026-05-01T16:45:40.000",
    "date_modified": "2026-05-01T16:45:41.000",
    "request_status": "Pending",
    "responsible_agency": "Department of Sanitation",
    "final_address": "5724 Campus Blvd",
    "address_councildis": "D",
    "status": "Assigned to Contractor",
    "contractor": "IV Waste",
    "rowid": "1278210",
    "final_x": "3688731.66467",
    "final_y": "554520.60444",
    "longitude": "-90.04441843555948",
    "latitude": "30.018517563924334",
    "geocoded_column": {
      "latitude": "30.018517563924334",
      "longitude": "-90.04441843555948"
    }
  },
  {
    "service_request": "2026-1278209",
    "request_type": "Trash/Recycling",
    "request_reason": "Request a Large Item Pick Up",
    "date_created": "2026-05-01T16:45:30.000",
    "date_modified": "2026-05-01T16:45:32.000",
    "request_status": "Pending",
    "responsible_agency": "Department of Sanitation",
    "final_address": "7801 Branch Dr",
    "address_councildis": "E",
    "status": "Assigned to Contractor",
    "contractor": "Waste Pro",
    "rowid": "1278209",
    "final_x": "3714364.85938",
    "final_y": "569256.51959",
    "longitude": "-89.96287091635176",
    "latitude": "30.0582176686775",
    "geocoded_column": {
      "latitude": "30.0582176686775",
      "longitude": "-89.96287091635176"
    }
  },
  {
    "service_request": "2026-1278208",
    "request_type": "Trash/Recycling",
    "request_reason": "Request a Large Item Pick Up",
    "date_created": "2026-05-01T16:36:40.000",
    "date_modified": "2026-05-01T16:36:42.000",
    "request_status": "Pending",
    "responsible_agency": "Department of Sanitation",
    "final_address": "650 S Rocheblave St",
    "address_councildis": "B",
    "status": "Assigned to Contractor",
    "contractor": "IV Waste",
    "rowid": "1278208",
    "final_x": "3674709.27924",
    "final_y": "532565.416196",
    "longitude": "-90.08947716720051",
    "latitude": "29.958574663578784",
    "geocoded_column": {
      "latitude": "29.958574663578784",
      "longitude": "-90.08947716720051"
    }
  },
  {
    "service_request": "2026-1278207",
    "request_type": "Streetlights",
    "request_reason": "New Streetlight Request",
    "date_created": "2026-05-01T16:34:53.000",
    "date_modified": "2026-05-01T16:34:55.000",
    "request_status": "Pending",
    "responsible_agency": "Department of Public Works",
    "final_address": "8821 Morrison Rd",
    "address_councildis": "E",
    "status": "Pending",
    "rowid": "1278207",
    "final_x": "3705316.54417",
    "final_y": "561773.861343",
    "longitude": "-89.99174836721942",
    "latitude": "30.03793780269736",
    "geocoded_column": {
      "latitude": "30.03793780269736",
      "longitude": "-89.99174836721942"
    }
  },
  {
    "service_request": "2026-1278206",
    "request_type": "Trash/Recycling",
    "request_reason": "Repair Trash Cart",
    "date_created": "2026-05-01T16:29:46.000",
    "date_modified": "2026-05-01T16:29:48.000",
    "request_status": "Pending",
    "responsible_agency": "Department of Sanitation",
    "final_address": "1836 St Bernard Ave Ste 2A",
    "address_councildis": "D",
    "status": "Assigned to Contractor",
    "contractor": "IV Waste",
    "rowid": "1278206",
    "final_x": "3681614.10799",
    "final_y": "538734.437065",
    "longitude": "-90.06745833978403",
    "latitude": "29.975329444860566",
    "geocoded_column": {
      "latitude": "29.975329444860566",
      "longitude": "-90.06745833978403"
    }
  },
  {
    "service_request": "2026-1278205",
    "request_type": "Abandoned Vehicles",
    "request_reason": "Abandoned/Junk Vehicles",
    "date_created": "2026-05-01T16:29:32.000",
    "date_modified": "2026-05-01T16:29:33.000",
    "request_status": "Pending",
    "responsible_agency": "Department of Public Works",
    "final_address": "1300 St Roch Ave",
    "address_councildis": "C",
    "status": "Pending",
    "rowid": "1278205",
    "final_x": "3686363.62108",
    "final_y": "537184.316104",
    "longitude": "-90.05251286325623",
    "latitude": "29.970922024112713",
    "geocoded_column": {
      "latitude": "29.970922024112713",
      "longitude": "-90.05251286325623"
    }
  },
  {
    "service_request": "2026-1278204",
    "request_type": "Trash/Recycling",
    "request_reason": "Request a Large Item Pick Up",
    "date_created": "2026-05-01T16:29:00.000",
    "date_modified": "2026-05-01T16:29:03.000",
    "request_status": "Pending",
    "responsible_agency": "Department of Sanitation",
    "final_address": "4643 Naples St",
    "address_councildis": "E",
    "status": "Assigned to Contractor",
    "contractor": "Waste Pro",
    "rowid": "1278204",
    "final_x": "3763027.62627",
    "final_y": "572714.994665",
    "longitude": "-89.80891193277432",
    "latitude": "30.066036748534753",
    "geocoded_column": {
      "latitude": "30.066036748534753",
      "longitude": "-89.80891193277432"
    }
  },
  {
    "service_request": "2026-1278203",
    "request_type": "Trash/Recycling",
    "request_reason": "Missed Trash Pick-Up",
    "date_created": "2026-05-01T16:26:09.000",
    "date_modified": "2026-05-01T16:54:06.000",
    "case_close_date": "2026-05-01T11:54:05.000",
    "request_status": "Closed",
    "responsible_agency": "Department of Sanitation",
    "final_address": "812 Valence St",
    "address_councildis": "B",
    "status": "Invalid Request",
    "contractor": "IV Waste",
    "contractor_action": "Invalid Request",
    "rowid": "1278203",
    "final_x": "3669918.6699",
    "final_y": "518419.427574",
    "longitude": "-90.10508351585003",
    "latitude": "29.919819894766714",
    "geocoded_column": {
      "latitude": "29.919819894766714",
      "longitude": "-90.10508351585003"
    }
  },
  {
    "service_request": "2026-1278202",
    "request_type": "Abandoned Vehicles",
    "request_reason": "Abandoned/Junk Vehicles",
    "date_created": "2026-05-01T16:25:09.000",
    "date_modified": "2026-05-01T16:25:10.000",
    "request_status": "Pending",
    "responsible_agency": "Department of Public Works",
    "final_address": "529 Esplanade Ave",
    "address_councildis": "C",
    "status": "Pending",
    "rowid": "1278202",
    "final_x": "3684519.16079",
    "final_y": "534151.174597",
    "longitude": "-90.05844447441287",
    "latitude": "29.962638496228887",
    "geocoded_column": {
      "latitude": "29.962638496228887",
      "longitude": "-90.05844447441287"
    }
  },
  {
    "service_request": "2026-1278201",
    "request_type": "Property Maintenance",
    "request_reason": "Property Maintenance",
    "date_created": "2026-05-01T16:25:07.000",
    "date_modified": "2026-05-01T16:25:08.000",
    "request_status": "Pending",
    "responsible_agency": "Department of Code Enforcement",
    "final_address": "1719 Pauline St",
    "address_councildis": "D",
    "status": "Pending",
    "rowid": "1278201",
    "final_x": "3691857.28732",
    "final_y": "537866.409417",
    "longitude": "-90.03513882353639",
    "latitude": "29.972627544221556",
    "geocoded_column": {
      "latitude": "29.972627544221556",
      "longitude": "-90.03513882353639"
    }
  },
  {
    "service_request": "2026-1278200",
    "request_type": "Drainage",
    "request_reason": "Drainage Manhole Cover Missing or Damaged",
    "date_created": "2026-05-01T16:22:43.000",
    "date_modified": "2026-05-01T16:22:44.000",
    "request_status": "Pending",
    "responsible_agency": "Sewerage & Water Board",
    "final_address": "1216 Royal St",
    "address_councildis": "C",
    "status": "Pending",
    "rowid": "1278200",
    "final_x": "3683783.74428",
    "final_y": "534032.960645",
    "longitude": "-90.06077096379863",
    "latitude": "29.9623359268501",
    "geocoded_column": {
      "latitude": "29.9623359268501",
      "longitude": "-90.06077096379863"
    }
  },
  {
    "service_request": "2026-1278199",
    "request_type": "Drainage",
    "request_reason": "Catch Basin Not Draining",
    "date_created": "2026-05-01T16:22:03.000",
    "date_modified": "2026-05-01T16:22:04.000",
    "request_status": "Pending",
    "responsible_agency": "Sewerage & Water Board",
    "final_address": "3800 Canal St",
    "address_councildis": "A",
    "status": "Pending",
    "rowid": "1278199",
    "final_x": "3671986.09812",
    "final_y": "537548.763208",
    "longitude": "-90.09790661212993",
    "latitude": "29.972358200415535",
    "geocoded_column": {
      "latitude": "29.972358200415535",
      "longitude": "-90.09790661212993"
    }
  },
  {
    "service_request": "2026-1278198",
    "request_type": "Drainage",
    "request_reason": "Catch Basin Not Draining",
    "date_created": "2026-05-01T16:17:37.000",
    "date_modified": "2026-05-01T16:17:39.000",
    "request_status": "Pending",
    "responsible_agency": "Sewerage & Water Board",
    "final_address": "432 Country Club Dr",
    "address_councildis": "A",
    "status": "Pending",
    "rowid": "1278198",
    "final_x": "3664160.71687",
    "final_y": "544266.165455",
    "longitude": "-90.12239643435693",
    "latitude": "29.991058478230965",
    "geocoded_column": {
      "latitude": "29.991058478230965",
      "longitude": "-90.12239643435693"
    }
  },
  {
    "service_request": "2026-1278197",
    "request_type": "Drainage",
    "request_reason": "Catch Basin Not Draining",
    "date_created": "2026-05-01T16:15:52.000",
    "date_modified": "2026-05-01T16:15:54.000",
    "request_status": "Pending",
    "responsible_agency": "Sewerage & Water Board",
    "final_address": "2742 St Charles Ave",
    "address_councildis": "B",
    "status": "Pending",
    "rowid": "1278197",
    "final_x": "3676022.74901",
    "final_y": "522469.35577",
    "longitude": "-90.08567670604667",
    "latitude": "29.93077456294261",
    "geocoded_column": {
      "latitude": "29.93077456294261",
      "longitude": "-90.08567670604667"
    }
  },
  {
    "service_request": "2026-1278196",
    "request_type": "Drainage",
    "request_reason": "Catch Basin Not Draining",
    "date_created": "2026-05-01T16:14:23.000",
    "date_modified": "2026-05-01T16:14:25.000",
    "request_status": "Pending",
    "responsible_agency": "Sewerage & Water Board",
    "final_address": "432 Country Club Dr",
    "address_councildis": "A",
    "status": "Pending",
    "rowid": "1278196",
    "final_x": "3664160.71687",
    "final_y": "544266.165455",
    "longitude": "-90.12239643435693",
    "latitude": "29.991058478230965",
    "geocoded_column": {
      "latitude": "29.991058478230965",
      "longitude": "-90.12239643435693"
    }
  },
  {
    "service_request": "2026-1278195",
    "request_type": "Trash/Recycling",
    "request_reason": "Request a Large Item Pick Up",
    "date_created": "2026-05-01T16:07:30.000",
    "date_modified": "2026-05-01T16:07:33.000",
    "request_status": "Pending",
    "responsible_agency": "Department of Sanitation",
    "final_address": "7110 Wayside Dr",
    "address_councildis": "E",
    "status": "Assigned to Contractor",
    "contractor": "Waste Pro",
    "rowid": "1278195",
    "final_x": "3717477.73125",
    "final_y": "567903.957349",
    "longitude": "-89.95308307848211",
    "latitude": "30.054395943733727",
    "geocoded_column": {
      "latitude": "30.054395943733727",
      "longitude": "-89.95308307848211"
    }
  },
  {
    "service_request": "2026-1278194",
    "request_type": "Drainage",
    "request_reason": "Catch Basin Not Draining",
    "date_created": "2026-05-01T16:02:55.000",
    "date_modified": "2026-05-01T16:03:24.000",
    "request_status": "Pending",
    "responsible_agency": "Sewerage & Water Board",
    "final_address": "2118 State St",
    "address_councildis": "A",
    "status": "Pending",
    "rowid": "1278194",
    "final_x": "3666308.85921",
    "final_y": "524606.481148",
    "longitude": "-90.1162705339383",
    "latitude": "29.93693823687302",
    "geocoded_column": {
      "latitude": "29.93693823687302",
      "longitude": "-90.1162705339383"
    }
  },
  {
    "service_request": "2026-1278193",
    "request_type": "Traffic Signals",
    "request_reason": "Traffic Signal Malfunctioning or Damaged",
    "date_created": "2026-05-01T16:00:55.000",
    "date_modified": "2026-05-01T16:00:57.000",
    "request_status": "Pending",
    "responsible_agency": "Department of Public Works",
    "final_address": "GENERAL MEYER AVE & KABEL DR",
    "address_councildis": "C",
    "status": "Pending",
    "rowid": "1278193",
    "final_x": "3700892.8",
    "final_y": "523810.68",
    "longitude": "-90.0071170031653",
    "latitude": "29.933694702763095",
    "geocoded_column": {
      "latitude": "29.933694702763095",
      "longitude": "-90.0071170031653"
    }
  },
  {
    "service_request": "2026-1278192",
    "request_type": "Traffic Signals",
    "request_reason": "Traffic Signal Malfunctioning or Damaged",
    "date_created": "2026-05-01T15:59:52.000",
    "date_modified": "2026-05-01T15:59:54.000",
    "request_status": "Pending",
    "responsible_agency": "Department of Public Works",
    "final_address": "S CLAIBORNE AVE & NASHVILLE AVE",
    "address_councildis": "A",
    "status": "Pending",
    "rowid": "1278192",
    "final_x": "3667623.9",
    "final_y": "526717.98",
    "longitude": "-90.1120478160284",
    "latitude": "29.942705706913497",
    "geocoded_column": {
      "latitude": "29.942705706913497",
      "longitude": "-90.1120478160284"
    }
  },
  {
    "service_request": "2026-1278191",
    "request_type": "Streetlights",
    "request_reason": "Streetlight Outage/Malfunction",
    "date_created": "2026-05-01T15:56:43.000",
    "date_modified": "2026-05-01T15:56:45.000",
    "request_status": "Pending",
    "responsible_agency": "Department of Public Works",
    "final_address": "1011 Piety St",
    "address_councildis": "C",
    "status": "Pending",
    "rowid": "1278191",
    "final_x": "3689779.46889",
    "final_y": "535454.070214",
    "longitude": "-90.04178680507383",
    "latitude": "29.966059025042473",
    "geocoded_column": {
      "latitude": "29.966059025042473",
      "longitude": "-90.04178680507383"
    }
  },
  {
    "service_request": "2026-1278190",
    "request_type": "Trash/Recycling",
    "request_reason": "Request a Large Item Pick Up",
    "date_created": "2026-05-01T15:51:06.000",
    "date_modified": "2026-05-01T15:51:08.000",
    "request_status": "Pending",
    "responsible_agency": "Department of Sanitation",
    "final_address": "1511 St Ann St",
    "address_councildis": "C",
    "status": "Assigned to Contractor",
    "contractor": "IV Waste",
    "rowid": "1278190",
    "final_x": "3680461.75637",
    "final_y": "534562.861637",
    "longitude": "-90.07124288922185",
    "latitude": "29.963894000940588",
    "geocoded_column": {
      "latitude": "29.963894000940588",
      "longitude": "-90.07124288922185"
    }
  },
  {
    "service_request": "2026-1278189",
    "request_type": "Tree Service",
    "request_reason": "Tree Trim",
    "date_created": "2026-05-01T15:49:39.000",
    "date_modified": "2026-05-01T16:02:18.000",
    "request_status": "Pending",
    "responsible_agency": "Department of Parks & Parkways",
    "final_address": "S WHITE ST & PALMYRA ST",
    "address_councildis": "B",
    "status": "Pending",
    "rowid": "1278189",
    "final_x": "3674398.5",
    "final_y": "534825.78",
    "longitude": "-90.09038110217303",
    "latitude": "29.964799178198223",
    "geocoded_column": {
      "latitude": "29.964799178198223",
      "longitude": "-90.09038110217303"
    }
  },
  {
    "service_request": "2026-1278188",
    "request_type": "Street and Traffic Signs",
    "request_reason": "Additional Signage Request",
    "date_created": "2026-05-01T15:48:01.000",
    "date_modified": "2026-05-01T15:58:31.000",
    "request_status": "Pending",
    "responsible_agency": "Department of Public Works",
    "final_address": "BANKS ST & JANE PL",
    "address_councildis": "B",
    "status": "Pending",
    "rowid": "1278188",
    "final_x": "3674386.3",
    "final_y": "534348.18",
    "longitude": "-90.09043598885509",
    "latitude": "29.96348630280667",
    "geocoded_column": {
      "latitude": "29.96348630280667",
      "longitude": "-90.09043598885509"
    }
  },
  {
    "service_request": "2026-1278187",
    "request_type": "Trash/Recycling",
    "request_reason": "Request a Large Item Pick Up",
    "date_created": "2026-05-01T15:47:46.000",
    "date_modified": "2026-05-01T15:47:49.000",
    "request_status": "Pending",
    "responsible_agency": "Department of Sanitation",
    "final_address": "2006 Marengo St",
    "address_councildis": "B",
    "status": "Assigned to Contractor",
    "contractor": "IV Waste",
    "rowid": "1278187",
    "final_x": "3671656.2834",
    "final_y": "522539.900282",
    "longitude": "-90.09945865057924",
    "latitude": "29.931098547526496",
    "geocoded_column": {
      "latitude": "29.931098547526496",
      "longitude": "-90.09945865057924"
    }
  },
  {
    "service_request": "2026-1278186",
    "request_type": "Streetlights",
    "request_reason": "Streetlight Outage/Malfunction",
    "date_created": "2026-05-01T15:47:17.000",
    "date_modified": "2026-05-01T15:56:51.000",
    "request_status": "Pending",
    "responsible_agency": "Department of Public Works",
    "final_address": "S WHITE ST & PALMYRA ST",
    "address_councildis": "B",
    "status": "Pending",
    "rowid": "1278186",
    "final_x": "3674398.5",
    "final_y": "534825.78",
    "longitude": "-90.09038110217303",
    "latitude": "29.964799178198223",
    "geocoded_column": {
      "latitude": "29.964799178198223",
      "longitude": "-90.09038110217303"
    }
  },
  {
    "service_request": "2026-1278185",
    "request_type": "Trash/Recycling",
    "request_reason": "Missed Trash Pick-Up",
    "date_created": "2026-05-01T15:46:28.000",
    "date_modified": "2026-05-01T15:46:30.000",
    "request_status": "Pending",
    "responsible_agency": "Department of Sanitation",
    "final_address": "2340 Tupelo St",
    "address_councildis": "E",
    "status": "Assigned to Contractor",
    "contractor": "Waste Pro",
    "rowid": "1278185",
    "final_x": "3701227.65841",
    "final_y": "537957.931657",
    "longitude": "-90.00554233857996",
    "latitude": "29.97258395934112",
    "geocoded_column": {
      "latitude": "29.97258395934112",
      "longitude": "-90.00554233857996"
    }
  },
  {
    "service_request": "2026-1278184",
    "request_type": "Drainage",
    "request_reason": "Catch Basin Not Draining",
    "date_created": "2026-05-01T15:45:23.000",
    "date_modified": "2026-05-01T15:56:24.000",
    "request_status": "Pending",
    "responsible_agency": "Sewerage & Water Board",
    "final_address": "2750 Palmyra St",
    "address_councildis": "B",
    "status": "Pending",
    "rowid": "1278184",
    "final_x": "3674465.53262",
    "final_y": "534681.321158",
    "longitude": "-90.09017436663125",
    "latitude": "29.96439996548075",
    "geocoded_column": {
      "latitude": "29.96439996548075",
      "longitude": "-90.09017436663125"
    }
  },
  {
    "service_request": "2026-1278183",
    "request_type": "Trash/Recycling",
    "request_reason": "Request a Large Item Pick Up",
    "date_created": "2026-05-01T15:31:03.000",
    "date_modified": "2026-05-01T15:31:05.000",
    "request_status": "Pending",
    "responsible_agency": "Department of Sanitation",
    "final_address": "3108 Cleveland Ave",
    "address_councildis": "B",
    "status": "Assigned to Contractor",
    "contractor": "IV Waste",
    "rowid": "1278183",
    "final_x": "3673715.37704",
    "final_y": "535769.403271",
    "longitude": "-90.09250609388405",
    "latitude": "29.967414182248476",
    "geocoded_column": {
      "latitude": "29.967414182248476",
      "longitude": "-90.09250609388405"
    }
  },
  {
    "service_request": "2026-1278182",
    "request_type": "Trash/Recycling",
    "request_reason": "Illegal Dumping",
    "date_created": "2026-05-01T15:29:21.000",
    "date_modified": "2026-05-01T15:29:23.000",
    "request_status": "Pending",
    "responsible_agency": "Department of Sanitation",
    "final_address": "3000 BLK Annunciation St",
    "address_councildis": "B",
    "status": "Pending",
    "rowid": "1278182",
    "final_x": "3676849.84475",
    "final_y": "519372.131647",
    "longitude": "-90.08317235714333",
    "latitude": "29.9222334123512",
    "geocoded_column": {
      "latitude": "29.9222334123512",
      "longitude": "-90.08317235714333"
    }
  },
  {
    "service_request": "2026-1278181",
    "request_type": "Trash/Recycling",
    "request_reason": "Request a Large Item Pick Up",
    "date_created": "2026-05-01T15:28:46.000",
    "date_modified": "2026-05-01T15:28:48.000",
    "request_status": "Pending",
    "responsible_agency": "Department of Sanitation",
    "final_address": "401 Broadway St",
    "address_councildis": "A",
    "status": "Assigned to Contractor",
    "contractor": "IV Waste",
    "rowid": "1278181",
    "final_x": "3662115.59949",
    "final_y": "523347.954875",
    "longitude": "-90.1295506850264",
    "latitude": "29.933599488639814",
    "geocoded_column": {
      "latitude": "29.933599488639814",
      "longitude": "-90.1295506850264"
    }
  },
  {
    "service_request": "2026-1278180",
    "request_type": "Taxi Issues",
    "request_reason": "Taxi Lost & Found Item",
    "date_created": "2026-05-01T15:27:40.000",
    "date_modified": "2026-05-01T15:31:47.000",
    "request_status": "Pending",
    "responsible_agency": "Department of Public Works",
    "final_address": "317 Baronne St",
    "address_councildis": "B",
    "status": "Pending",
    "rowid": "1278180",
    "final_x": "3680070.49019",
    "final_y": "530264.524289",
    "longitude": "-90.0726278150568",
    "latitude": "29.95208687391526",
    "geocoded_column": {
      "latitude": "29.95208687391526",
      "longitude": "-90.0726278150568"
    }
  },
  {
    "service_request": "2026-1278179",
    "request_type": "Trash/Recycling",
    "request_reason": "Damaged Caused By Contractor",
    "date_created": "2026-05-01T15:21:12.000",
    "date_modified": "2026-05-01T15:21:14.000",
    "request_status": "Pending",
    "responsible_agency": "Department of Sanitation",
    "final_address": "3421 Hollygrove St",
    "address_councildis": "A",
    "status": "Assigned to Contractor",
    "contractor": "IV Waste",
    "rowid": "1278179",
    "final_x": "3665029.14932",
    "final_y": "536408.163591",
    "longitude": "-90.1199161031598",
    "latitude": "29.969426344072126",
    "geocoded_column": {
      "latitude": "29.969426344072126",
      "longitude": "-90.1199161031598"
    }
  },
  {
    "service_request": "2026-1278178",
    "request_type": "Trash/Recycling",
    "request_reason": "Missed Trash Pick-Up",
    "date_created": "2026-05-01T15:18:04.000",
    "date_modified": "2026-05-01T16:53:48.000",
    "case_close_date": "2026-05-01T11:53:47.000",
    "request_status": "Closed",
    "responsible_agency": "Department of Sanitation",
    "final_address": "1569 Valmont St",
    "address_councildis": "B",
    "status": "Invalid Request",
    "contractor": "IV Waste",
    "contractor_action": "Invalid Request",
    "rowid": "1278178",
    "final_x": "3667888.50221",
    "final_y": "521037.493497",
    "longitude": "-90.11140365774384",
    "latitude": "29.927078430412067",
    "geocoded_column": {
      "latitude": "29.927078430412067",
      "longitude": "-90.11140365774384"
    }
  },
  {
    "service_request": "2026-1278177",
    "request_type": "Utility Poles",
    "request_reason": "Wires Sagging/Hanging Low",
    "date_created": "2026-05-01T15:14:54.000",
    "date_modified": "2026-05-01T15:14:56.000",
    "request_status": "Pending",
    "responsible_agency": "Utility Company Collective",
    "final_address": "2619 St Thomas St",
    "address_councildis": "B",
    "status": "Pending",
    "rowid": "1278177",
    "final_x": "3678390.75522",
    "final_y": "519558.592184",
    "longitude": "-90.07830189009151",
    "latitude": "29.922699800909108",
    "geocoded_column": {
      "latitude": "29.922699800909108",
      "longitude": "-90.07830189009151"
    }
  },
  {
    "service_request": "2026-1278176",
    "request_type": "Streetlights",
    "request_reason": "Streetlight Outage/Malfunction",
    "date_created": "2026-05-01T15:12:05.000",
    "date_modified": "2026-05-01T15:12:07.000",
    "request_status": "Pending",
    "responsible_agency": "Department of Public Works",
    "final_address": "COMET ST & BECK ST",
    "address_councildis": "C",
    "status": "Pending",
    "rowid": "1278176",
    "final_x": "3700092.4",
    "final_y": "522035.08",
    "longitude": "-90.00970856169859",
    "latitude": "29.928837865603633",
    "geocoded_column": {
      "latitude": "29.928837865603633",
      "longitude": "-90.00970856169859"
    }
  },
  {
    "service_request": "2026-1278175",
    "request_type": "Abandoned Vehicles",
    "request_reason": "Abandoned/Junk Vehicles",
    "date_created": "2026-05-01T15:10:59.000",
    "date_modified": "2026-05-01T15:12:51.000",
    "request_status": "Pending",
    "responsible_agency": "Department of Public Works",
    "final_address": "3732 S Galvez St",
    "address_councildis": "B",
    "status": "Pending",
    "rowid": "1278175",
    "final_x": "3671159.03988",
    "final_y": "527538.046015",
    "longitude": "-90.10085867183123",
    "latitude": "29.944856542720636",
    "geocoded_column": {
      "latitude": "29.944856542720636",
      "longitude": "-90.10085867183123"
    }
  },
  {
    "service_request": "2026-1278174",
    "request_type": "Drainage",
    "request_reason": "Catch Basin Not Draining",
    "date_created": "2026-05-01T15:10:32.000",
    "date_modified": "2026-05-01T15:10:33.000",
    "request_status": "Pending",
    "responsible_agency": "Sewerage & Water Board",
    "final_address": "9210 Colapissa St",
    "address_councildis": "A",
    "status": "Pending",
    "rowid": "1278174",
    "final_x": "3663548.28986",
    "final_y": "536070.842695",
    "longitude": "-90.12460403619883",
    "latitude": "29.96854185974146",
    "geocoded_column": {
      "latitude": "29.96854185974146",
      "longitude": "-90.12460403619883"
    }
  },
  {
    "service_request": "2026-1278173",
    "request_type": "Trash/Recycling",
    "request_reason": "Replace Trash Cart",
    "date_created": "2026-05-01T15:00:53.000",
    "date_modified": "2026-05-01T15:58:38.000",
    "request_status": "Pending",
    "responsible_agency": "Department of Sanitation",
    "final_address": "0 BLK Acadiana Pl",
    "address_councildis": "E",
    "status": "Assigned to Contractor",
    "contractor": "Waste Pro",
    "rowid": "1278173",
    "final_x": "3725131.4083",
    "final_y": "564393.680055",
    "longitude": "-89.92902788187175",
    "latitude": "30.04448842646984",
    "geocoded_column": {
      "latitude": "30.04448842646984",
      "longitude": "-89.92902788187175"
    }
  },
  {
    "service_request": "2026-1278172",
    "request_type": "Trash/Recycling",
    "request_reason": "Repair Recycling Cart",
    "date_created": "2026-05-01T14:55:47.000",
    "date_modified": "2026-05-01T14:55:50.000",
    "request_status": "Pending",
    "responsible_agency": "Department of Sanitation",
    "final_address": "4419 S Roman St",
    "address_councildis": "B",
    "status": "Pending",
    "rowid": "1278172",
    "final_x": "3670039.29844",
    "final_y": "526644.476606",
    "longitude": "-90.1044243029033",
    "latitude": "29.94243258697571",
    "geocoded_column": {
      "latitude": "29.94243258697571",
      "longitude": "-90.1044243029033"
    }
  },
  {
    "service_request": "2026-1278171",
    "request_type": "Trash/Recycling",
    "request_reason": "Order Trash Cart",
    "date_created": "2026-05-01T14:54:40.000",
    "date_modified": "2026-05-01T14:54:41.000",
    "request_status": "Pending",
    "responsible_agency": "Department of Sanitation",
    "final_address": "2110 Seventh St",
    "address_councildis": "B",
    "status": "Assigned to Contractor",
    "contractor": "IV Waste",
    "rowid": "1278171",
    "final_x": "3674167.20808",
    "final_y": "523661.198843",
    "longitude": "-90.09149361688345",
    "latitude": "29.93410716926225",
    "geocoded_column": {
      "latitude": "29.93410716926225",
      "longitude": "-90.09149361688345"
    }
  },