[
  {
    "service_request": "2023-1020667",
    "request_type": "Roads/Drainage",
    "request_reason": "Pothole",
    "date_created": "2023-07-26T01:01:12.000",
    "date_modified": "2023-07-26T01:01:12.000",
    "request_status": "Pending",
    "responsible_agency": "Department of Public Works",
    "final_address": "4200 Perrier St",
    "address_councildis": "B",
    "status": "Pending",
    "rowid": "1020667",
    "final_x": "3671579.76411",
    "final_y": "520095.16844",
    "longitude": "-90.09978329705561",
    "latitude": "29.924378584144126",
    "geocoded_column": {
      "latitude": "29.924378584144126",
      "longitude": "-90.09978329705561"
    }
  },
  {
    "service_request": "2023-1020666",
    "request_type": "Roads/Drainage",
    "request_reason": "Road Shoulder Repair",
    "date_created": "2023-07-26T00:50:42.000",
    "date_modified": "2023-07-26T00:50:42.000",
    "request_status": "Pending",
    "responsible_agency": "Department of Public Works",
    "final_address": "11014 Curran Rd",
    "address_councildis": "E",
    "status": "Pending",
    "rowid": "1020666",
    "final_x": "3710490.90232",
    "final_y": "566038.539427",
    "longitude": "-89.97523652021039",
    "latitude": "30.049496360609922",
    "geocoded_column": {
      "latitude": "30.049496360609922",
      "longitude": "-89.97523652021039"
    }
  },
  {
    "service_request": "2023-1020665",
    "request_type": "Property Maintenance",
    "request_reason": "Property Maintenance",
    "date_created": "2023-07-26T00:45:51.000",
    "date_modified": "2023-07-26T00:45:51.000",
    "request_status": "Pending",
    "responsible_agency": "Department of Code Enforcement",
    "final_address": "2236 Spain St",
    "address_councildis": "D",
    "status": "Pending",
    "rowid": "1020665",
    "final_x": "3685728.97462",
    "final_y": "540738.261579",
    "longitude": "-90.05439187838377",
    "latitude": "29.98071361912676",
    "geocoded_column": {
      "latitude": "29.98071361912676",
      "longitude": "-90.05439187838377"
    }
  },
  {
    "service_request": "2023-1020663",
    "request_type": "Traffic Signals/Signs/Striping/Streetlights",
    "request_reason": "Street Light Outage/Malfunction",
    "date_created": "2023-07-26T00:43:31.000",
    "date_modified": "2023-07-26T00:43:32.000",
    "request_status": "Pending",
    "responsible_agency": "Department of Public Works",
    "final_address": "11014 Curran Rd",
    "address_councildis": "E",
    "status": "Assigned to Contractor",
    "contractor": "Legacy Professional Services",
    "rowid": "1020663",
    "final_x": "3710490.90232",
    "final_y": "566038.539427",
    "longitude": "-89.97523652021039",
    "latitude": "30.049496360609922",
    "geocoded_column": {
      "latitude": "30.049496360609922",
      "longitude": "-89.97523652021039"
    }
  },
  {
    "service_request": "2023-1020662",
    "request_type": "Property Maintenance",
    "request_reason": "Property Maintenance",
    "date_created": "2023-07-26T00:43:03.000",
    "date_modified": "2023-07-26T00:43:03.000",
    "request_status": "Pending",
    "responsible_agency": "Department of Code Enforcement",
    "final_address": "2236 Spain St",
    "address_councildis": "D",
    "status": "Pending",
    "rowid": "1020662",
    "final_x": "3685728.97462",
    "final_y": "540738.261579",
    "longitude": "-90.05439187838377",
    "latitude": "29.98071361912676",
    "geocoded_column": {
      "latitude": "29.98071361912676",
      "longitude": "-90.05439187838377"
    }
  },
  {
    "service_request": "2023-1020661",
    "request_type": "Traffic Signals/Signs/Striping/Streetlights",
    "request_reason": "Street Light Outage/Malfunction",
    "date_created": "2023-07-26T00:40:51.000",
    "date_modified": "2023-07-26T00:40:52.000",
    "request_status": "Pending",
    "responsible_agency": "Department of Public Works",
    "final_address": "11014 Curran Rd",
    "address_councildis": "E",
    "status": "Assigned to Contractor",
    "contractor": "Legacy Professional Services",
    "rowid": "1020661",
    "final_x": "3710490.90232",
    "final_y": "566038.539427",
    "longitude": "-89.97523652021039",
    "latitude": "30.049496360609922",
    "geocoded_column": {
      "latitude": "30.049496360609922",
      "longitude": "-89.97523652021039"
    }
  },
  {
    "service_request": "2023-1020660",
    "request_type": "Roads/Drainage",
    "request_reason": "Catch Basin - Clogged",
    "date_created": "2023-07-26T00:14:05.000",
    "date_modified": "2023-07-26T00:14:05.000",
    "request_status": "Pending",
    "responsible_agency": "Department of Public Works",
    "final_address": "1508 Marais St",
    "address_councildis": "C",
    "status": "Pending",
    "rowid": "1020660",
    "final_x": "3682751.39285",
    "final_y": "536418.958343",
    "longitude": "-90.06394750752477",
    "latitude": "29.96892808465146",
    "geocoded_column": {
      "latitude": "29.96892808465146",
      "longitude": "-90.06394750752477"
    }
  },
  {
    "service_request": "2023-1020659",
    "request_type": "Roads/Drainage",
    "request_reason": "Catch Basin - Clogged",
    "date_created": "2023-07-26T00:07:31.000",
    "date_modified": "2023-07-26T00:07:31.000",
    "request_status": "Pending",
    "responsible_agency": "Department of Public Works",
    "final_address": "1508 Marais St",
    "address_councildis": "C",
    "status": "Pending",
    "rowid": "1020659",
    "final_x": "3682751.39285",
    "final_y": "536418.958343",
    "longitude": "-90.06394750752477",
    "latitude": "29.96892808465146",
    "geocoded_column": {
      "latitude": "29.96892808465146",
      "longitude": "-90.06394750752477"
    }
  },
  {
    "service_request": "2023-1020658",
    "request_type": "Traffic Signals/Signs/Striping/Streetlights",
    "request_reason": "Street Light Outage/Malfunction",
    "date_created": "2023-07-26T00:03:09.000",
    "date_modified": "2023-07-26T00:03:10.000",
    "request_status": "Pending",
    "responsible_agency": "Department of Public Works",
    "final_address": "6224 York St",
    "address_councildis": "A",
    "status": "Assigned to Contractor",
    "contractor": "Legacy Professional Services",
    "rowid": "1020658",
    "final_x": "3667651.61293",
    "final_y": "528971.729152",
    "longitude": "-90.11188446799234",
    "latitude": "29.948901974600375",
    "geocoded_column": {
      "latitude": "29.948901974600375",
      "longitude": "-90.11188446799234"
    }
  },
  {
    "service_request": "2023-1020657",
    "request_type": "Roads/Drainage",
    "request_reason": "Pothole",
    "date_created": "2023-07-25T23:53:16.000",
    "date_modified": "2023-07-25T23:53:16.000",
    "request_status": "Pending",
    "responsible_agency": "Department of Public Works",
    "final_address": "1502 General Pershing St",
    "address_councildis": "B",
    "status": "Pending",
    "rowid": "1020657",
    "final_x": "3671219.93703",
    "final_y": "520650.519609",
    "longitude": "-90.10090029460524",
    "latitude": "29.925916269034804",
    "geocoded_column": {
      "latitude": "29.925916269034804",
      "longitude": "-90.10090029460524"
    }
  },
  {
    "service_request": "2023-1020655",
    "request_type": "Roads/Drainage",
    "request_reason": "Pothole",
    "date_created": "2023-07-25T23:25:58.000",
    "date_modified": "2023-07-25T23:25:58.000",
    "request_status": "Pending",
    "responsible_agency": "Department of Public Works",
    "final_address": "901 General Pershing St",
    "address_councildis": "B",
    "status": "Pending",
    "rowid": "1020655",
    "final_x": "3671478.03118",
    "final_y": "518891.384311",
    "longitude": "-90.1001453296682",
    "latitude": "29.92107157249303",
    "geocoded_column": {
      "latitude": "29.92107157249303",
      "longitude": "-90.1001453296682"
    }
  },
  {
    "service_request": "2023-1020654",
    "request_type": "Traffic Signals/Signs/Striping/Streetlights",
    "request_reason": "Street Light Outage/Malfunction",
    "date_created": "2023-07-25T22:47:10.000",
    "date_modified": "2023-07-25T22:47:10.000",
    "request_status": "Pending",
    "responsible_agency": "Department of Public Works",
    "final_address": "1630 Choctaw St",
    "address_councildis": "E",
    "status": "Assigned to Contractor",
    "contractor": "Legacy Professional Services",
    "rowid": "1020654",
    "final_x": "3697967.21879",
    "final_y": "536017.165383",
    "longitude": "-90.0159098072827",
    "latitude": "29.967351032143032",
    "geocoded_column": {
      "latitude": "29.967351032143032",
      "longitude": "-90.0159098072827"
    }
  },
  {
    "service_request": "2023-1020653",
    "request_type": "Roads/Drainage",
    "request_reason": "Catch Basin - Clogged",
    "date_created": "2023-07-25T22:36:50.000",
    "date_modified": "2023-07-25T22:36:50.000",
    "request_status": "Pending",
    "responsible_agency": "Department of Public Works",
    "final_address": "3254 Castiglione St",
    "address_councildis": "A",
    "status": "Pending",
    "rowid": "1020653",
    "final_x": "3677743.09838",
    "final_y": "542754.551949",
    "longitude": "-90.07954510196679",
    "latitude": "29.986500391682416",
    "geocoded_column": {
      "latitude": "29.986500391682416",
      "longitude": "-90.07954510196679"
    }
  },
  {
    "service_request": "2023-1020651",
    "request_type": "Roads/Drainage",
    "request_reason": "Street Subsidence (Sinking)",
    "date_created": "2023-07-25T22:29:51.000",
    "date_modified": "2023-07-25T22:29:52.000",
    "request_status": "Pending",
    "responsible_agency": "Department of Public Works",
    "final_address": "2214 New York St",
    "address_councildis": "D",
    "status": "Pending",
    "rowid": "1020651",
    "final_x": "3683595.78665",
    "final_y": "556515.698458",
    "longitude": "-90.0605758951197",
    "latitude": "30.024161189403703",
    "geocoded_column": {
      "latitude": "30.024161189403703",
      "longitude": "-90.0605758951197"
    }
  },
  {
    "service_request": "2023-1020650",
    "request_type": "Traffic Signals/Signs/Striping/Streetlights",
    "request_reason": "Street Light Outage/Malfunction",
    "date_created": "2023-07-25T22:28:19.000",
    "date_modified": "2023-07-25T22:28:20.000",
    "request_status": "Pending",
    "responsible_agency": "Department of Public Works",
    "final_address": "7320 Hurst St",
    "address_councildis": "A",
    "status": "Assigned to Contractor",
    "contractor": "Legacy Professional Services",
    "rowid": "1020650",
    "final_x": "3661819.1513",
    "final_y": "523847.623483",
    "longitude": "-90.13047000182155",
    "latitude": "29.934981980100186",
    "geocoded_column": {
      "latitude": "29.934981980100186",
      "longitude": "-90.13047000182155"
    }
  },
  {
    "service_request": "2023-1020649",
    "request_type": "Traffic Signals/Signs/Striping/Streetlights",
    "request_reason": "Street Light Outage/Malfunction",
    "date_created": "2023-07-25T22:17:05.000",
    "date_modified": "2023-07-25T22:17:05.000",
    "request_status": "Pending",
    "responsible_agency": "Department of Public Works",
    "final_address": "7320 Hurst St",
    "address_councildis": "A",
    "status": "Assigned to Contractor",
    "contractor": "Legacy Professional Services",
    "rowid": "1020649",
    "final_x": "3661819.1513",
    "final_y": "523847.623483",
    "longitude": "-90.13047000182155",
    "latitude": "29.934981980100186",
    "geocoded_column": {
      "latitude": "29.934981980100186",
      "longitude": "-90.13047000182155"
    }
  },
  {
    "service_request": "2023-1020648",
    "request_type": "Abandoned Vehicles",
    "request_reason": "Abandoned/Junk Vehicles",
    "date_created": "2023-07-25T22:05:50.000",
    "date_modified": "2023-07-25T22:05:50.000",
    "request_status": "Pending",
    "responsible_agency": "Department of Public Works",
    "final_address": "11100 BLK Almonaster Ave",
    "address_councildis": "E",
    "status": "Pending",
    "rowid": "1020648",
    "final_x": "3717682.12792",
    "final_y": "552136.704241",
    "longitude": "-89.95303737266157",
    "latitude": "30.01103557954075",
    "geocoded_column": {
      "latitude": "30.01103557954075",
      "longitude": "-89.95303737266157"
    }
  },
  {
    "service_request": "2023-1020647",
    "request_type": "Abandoned Vehicles",
    "request_reason": "Abandoned/Junk Vehicles",
    "date_created": "2023-07-25T22:03:11.000",
    "date_modified": "2023-07-25T22:03:11.000",
    "request_status": "Pending",
    "responsible_agency": "Department of Public Works",
    "final_address": "11100 BLK Almonaster Ave",
    "address_councildis": "E",
    "status": "Pending",
    "rowid": "1020647",
    "final_x": "3717675.47505",
    "final_y": "552199.837973",
    "longitude": "-89.95305598873324",
    "latitude": "30.0112093928261",
    "geocoded_column": {
      "latitude": "30.0112093928261",
      "longitude": "-89.95305598873324"
    }
  },
  {
    "service_request": "2023-1020646",
    "request_type": "Traffic Signals/Signs/Striping/Streetlights",
    "request_reason": "Street Light Outage/Malfunction",
    "date_created": "2023-07-25T21:56:09.000",
    "date_modified": "2023-07-25T21:56:09.000",
    "request_status": "Pending",
    "responsible_agency": "Department of Public Works",
    "final_address": "3101 Eton St",
    "address_councildis": "C",
    "status": "Assigned to Contractor",
    "contractor": "Legacy Professional Services",
    "rowid": "1020646",
    "final_x": "3703526.5514",
    "final_y": "519260.756983",
    "longitude": "-89.9989697149405",
    "latitude": "29.921099913676027",
    "geocoded_column": {
      "latitude": "29.921099913676027",
      "longitude": "-89.9989697149405"
    }
  },
  {
    "service_request": "2023-1020645",
    "request_type": "Traffic Signals/Signs/Striping/Streetlights",
    "request_reason": "Street Light Outage/Malfunction",
    "date_created": "2023-07-25T21:54:03.000",
    "date_modified": "2023-07-25T21:54:03.000",
    "request_status": "Pending",
    "responsible_agency": "Department of Public Works",
    "final_address": "3101 Eton St",
    "address_councildis": "C",
    "status": "Assigned to Contractor",
    "contractor": "Legacy Professional Services",
    "rowid": "1020645",
    "final_x": "3703526.5514",
    "final_y": "519260.756983",
    "longitude": "-89.9989697149405",
    "latitude": "29.921099913676027",
    "geocoded_column": {
      "latitude": "29.921099913676027",
      "longitude": "-89.9989697149405"
    }
  },
  {
    "service_request": "2023-1020644",
    "request_type": "Trash/Recycling",
    "request_reason": "Request a Large Item Pick Up",
    "date_created": "2023-07-25T21:52:46.000",
    "date_modified": "2023-07-25T21:52:46.000",
    "request_status": "Pending",
    "responsible_agency": "Department of Sanitation",
    "final_address": "5415 Burgundy St",
    "address_councildis": "E",
    "status": "Assigned to Contractor",
    "contractor": "Waste Pro",
    "rowid": "1020644",
    "final_x": "3697082.16797",
    "final_y": "533198.77082",
    "longitude": "-90.01880690380933",
    "latitude": "29.959629399258237",
    "geocoded_column": {
      "latitude": "29.959629399258237",
      "longitude": "-90.01880690380933"
    }
  },
  {
    "service_request": "2023-1020643",
    "request_type": "Abandoned Vehicles",
    "request_reason": "Abandoned/Junk Vehicles",
    "date_created": "2023-07-25T21:51:56.000",
    "date_modified": "2023-07-25T21:51:56.000",
    "request_status": "Pending",
    "responsible_agency": "Department of Public Works",
    "final_address": "1 Almonaster Ave",
    "address_councildis": "D",
    "status": "Pending",
    "rowid": "1020643",
    "final_x": "3688053.015",
    "final_y": "540761.172875",
    "longitude": "-90.04705074841057",
    "latitude": "29.98070508640901",
    "geocoded_column": {
      "latitude": "29.98070508640901",
      "longitude": "-90.04705074841057"
    }
  },
  {
    "service_request": "2023-1020642",
    "request_type": "Traffic Signals/Signs/Striping/Streetlights",
    "request_reason": "Street Name Sign Damaged or Missing",
    "date_created": "2023-07-25T21:33:57.000",
    "date_modified": "2023-07-25T21:33:58.000",
    "request_status": "Pending",
    "responsible_agency": "Department of Public Works",
    "final_address": "MANSFIELD AVE & GENERAL MEYER AVE",
    "address_councildis": "C",
    "status": "Pending",
    "rowid": "1020642",
    "final_x": "3709218.4",
    "final_y": "519681.48",
    "longitude": "-89.98098759454118",
    "latitude": "29.922073270775417",
    "geocoded_column": {
      "latitude": "29.922073270775417",
      "longitude": "-89.98098759454118"
    }
  },
  {
    "service_request": "2023-1020641",
    "request_type": "Abandoned Vehicles",
    "request_reason": "Abandoned/Junk Vehicles",
    "date_created": "2023-07-25T21:32:28.000",
    "date_modified": "2023-07-25T21:32:28.000",
    "request_status": "Pending",
    "responsible_agency": "Department of Public Works",
    "final_address": "3700 Mansfield Ave",
    "address_councildis": "C",
    "status": "Pending",
    "rowid": "1020641",
    "final_x": "3709046.09624",
    "final_y": "517369.680501",
    "longitude": "-89.98161756547219",
    "latitude": "29.915722220507895",
    "geocoded_column": {
      "latitude": "29.915722220507895",
      "longitude": "-89.98161756547219"
    }
  },
  {
    "service_request": "2023-1020640",
    "request_type": "Traffic Signals/Signs/Striping/Streetlights",
    "request_reason": "Street Light Outage/Malfunction",
    "date_created": "2023-07-25T21:29:56.000",
    "date_modified": "2023-07-25T21:29:57.000",
    "request_status": "Pending",
    "responsible_agency": "Department of Public Works",
    "final_address": "3600 Mansfield Ave",
    "address_councildis": "C",
    "status": "Assigned to Contractor",
    "contractor": "Legacy Professional Services",
    "rowid": "1020640",
    "final_x": "3709066.37464",
    "final_y": "517612.280118",
    "longitude": "-89.9815445260523",
    "latitude": "29.9163886271304",
    "geocoded_column": {
      "latitude": "29.9163886271304",
      "longitude": "-89.9815445260523"
    }
  },
  {
    "service_request": "2023-1020639",
    "request_type": "Property Maintenance",
    "request_reason": "Property Maintenance",
    "date_created": "2023-07-25T21:25:49.000",
    "date_modified": "2023-07-25T21:25:49.000",
    "request_status": "Pending",
    "responsible_agency": "Department of Code Enforcement",
    "final_address": "2111 Iberville St",
    "address_councildis": "B",
    "status": "Pending",
    "rowid": "1020639",
    "final_x": "3677445.03995",
    "final_y": "534110.634053",
    "longitude": "-90.0807850110068",
    "latitude": "29.962741548431623",
    "geocoded_column": {
      "latitude": "29.962741548431623",
      "longitude": "-90.0807850110068"
    }
  },
  {
    "service_request": "2023-1020638",
    "request_type": "Trash/Recycling",
    "request_reason": "Request a Large Item Pick Up",
    "date_created": "2023-07-25T21:22:48.000",
    "date_modified": "2023-07-25T21:22:48.000",
    "request_status": "Pending",
    "responsible_agency": "Department of Sanitation",
    "status": "Assigned to Contractor",
    "rowid": "1020638",
    "longitude": "0.0",
    "latitude": "0.0",
    "geocoded_column": {
      "latitude": "0.0",
      "longitude": "0.0"
    }
  },
  {
    "service_request": "2023-1020637",
    "request_type": "Trash/Recycling",
    "request_reason": "Missed Trash Pick-Up",
    "date_created": "2023-07-25T21:12:48.000",
    "date_modified": "2023-07-25T21:12:48.000",
    "request_status": "Pending",
    "responsible_agency": "Department of Sanitation",
    "final_address": "1931 Orleans Ave",
    "address_councildis": "D",
    "status": "Assigned to Contractor",
    "contractor": "Richards Disposal",
    "rowid": "1020637",
    "final_x": "3679105.96098",
    "final_y": "535350.26855",
    "longitude": "-90.07549706731277",
    "latitude": "29.966100093909354",
    "geocoded_column": {
      "latitude": "29.966100093909354",
      "longitude": "-90.07549706731277"
    }
  },
  {
    "service_request": "2023-1020636",
    "request_type": "Trash/Recycling",
    "request_reason": "Missed Trash Pick-Up",
    "date_created": "2023-07-25T21:12:21.000",
    "date_modified": "2023-07-25T21:12:21.000",
    "request_status": "Pending",
    "responsible_agency": "Department of Sanitation",
    "final_address": "931 N Claiborne Ave",
    "address_councildis": "D",
    "status": "Assigned to Contractor",
    "contractor": "Richards Disposal",
    "rowid": "1020636",
    "final_x": "3680285.87867",
    "final_y": "535440.644998",
    "longitude": "-90.07176777509419",
    "latitude": "29.966312930666994",
    "geocoded_column": {
      "latitude": "29.966312930666994",
      "longitude": "-90.07176777509419"
    }
  },
  {
    "service_request": "2023-1020635",
    "request_type": "Trash/Recycling",
    "request_reason": "Missed Trash Pick-Up",
    "date_created": "2023-07-25T21:11:35.000",
    "date_modified": "2023-07-25T21:11:36.000",
    "request_status": "Pending",
    "responsible_agency": "Department of Sanitation",
    "final_address": "1925 Orleans Ave",
    "address_councildis": "D",
    "status": "Assigned to Contractor",
    "contractor": "Richards Disposal",
    "rowid": "1020635",
    "final_x": "3679141.87631",
    "final_y": "535326.062726",
    "longitude": "-90.07538448678316",
    "latitude": "29.96603245203055",
    "geocoded_column": {
      "latitude": "29.96603245203055",
      "longitude": "-90.07538448678316"
    }
  },
  {
    "service_request": "2023-1020634",
    "request_type": "Trash/Recycling",
    "request_reason": "MIssed Recycling Pick-Up",
    "date_created": "2023-07-25T21:10:13.000",
    "date_modified": "2023-07-25T21:10:13.000",
    "request_status": "Pending",
    "responsible_agency": "Department of Sanitation",
    "final_address": "3434 Palmyra St",
    "address_councildis": "B",
    "status": "Assigned to Contractor",
    "contractor": "Richards Disposal",
    "rowid": "1020634",
    "final_x": "3672420.74843",
    "final_y": "536290.288455",
    "longitude": "-90.09657680659699",
    "latitude": "29.968884926564794",
    "geocoded_column": {
      "latitude": "29.968884926564794",
      "longitude": "-90.09657680659699"
    }
  },
  {
    "service_request": "2023-1020633",
    "request_type": "Abandoned Vehicles",
    "request_reason": "Abandoned/Junk Vehicles",
    "date_created": "2023-07-25T20:42:20.000",
    "date_modified": "2023-07-25T20:42:20.000",
    "request_status": "Pending",
    "responsible_agency": "Department of Public Works",
    "final_address": "1032 Marais St",
    "address_councildis": "C",
    "status": "Pending",
    "rowid": "1020633",
    "final_x": "3681423.88642",
    "final_y": "535056.338758",
    "longitude": "-90.06818736924095",
    "latitude": "29.965221719633817",
    "geocoded_column": {
      "latitude": "29.965221719633817",
      "longitude": "-90.06818736924095"
    }
  },
  {
    "service_request": "2023-1020632",
    "request_type": "Trash/Recycling",
    "request_reason": "Request a Large Item Pick Up",
    "date_created": "2023-07-25T20:39:54.000",
    "date_modified": "2023-07-25T20:39:55.000",
    "request_status": "Pending",
    "responsible_agency": "Department of Sanitation",
    "final_address": "5729 Franklin Ave",
    "address_councildis": "D",
    "status": "Assigned to Contractor",
    "contractor": "IV Waste",
    "rowid": "1020632",
    "final_x": "3686582.95586",
    "final_y": "554306.216728",
    "longitude": "-90.05121513585532",
    "latitude": "30.01799436064056",
    "geocoded_column": {
      "latitude": "30.01799436064056",
      "longitude": "-90.05121513585532"
    }
  },
  {
    "service_request": "2023-1020631",
    "request_type": "Abandoned Vehicles",
    "request_reason": "Abandoned/Junk Vehicles",
    "date_created": "2023-07-25T20:22:59.000",
    "date_modified": "2023-07-25T20:22:59.000",
    "request_status": "Pending",
    "responsible_agency": "Department of Public Works",
    "final_address": "2320 Onzaga St",
    "address_councildis": "D",
    "status": "Pending",
    "rowid": "1020631",
    "final_x": "3680235.79336",
    "final_y": "539635.351626",
    "longitude": "-90.07178009818864",
    "latitude": "29.977848444979863",
    "geocoded_column": {
      "latitude": "29.977848444979863",
      "longitude": "-90.07178009818864"
    }
  },
  {
    "service_request": "2023-1020630",
    "request_type": "Trash/Recycling",
    "request_reason": "Request a Large Item Pick Up",
    "date_created": "2023-07-25T20:19:13.000",
    "date_modified": "2023-07-25T20:19:14.000",
    "request_status": "Pending",
    "responsible_agency": "Department of Sanitation",
    "final_address": "5413 Burgundy St",
    "address_councildis": "E",
    "status": "Assigned to Contractor",
    "contractor": "Waste Pro",
    "rowid": "1020630",
    "final_x": "3697069.76682",
    "final_y": "533200.837316",
    "longitude": "-90.0188459887216",
    "latitude": "29.95963547257295",
    "geocoded_column": {
      "latitude": "29.95963547257295",
      "longitude": "-90.0188459887216"
    }
  },
  {
    "service_request": "2023-1020629",
    "request_type": "Trash/Recycling",
    "request_reason": "Repair Recycling Cart",
    "date_created": "2023-07-25T20:16:34.000",
    "date_modified": "2023-07-25T20:16:34.000",
    "request_status": "Pending",
    "responsible_agency": "Department of Sanitation",
    "final_address": "518 Webster St",
    "address_councildis": "A",
    "status": "Pending",
    "rowid": "1020629",
    "final_x": "3663781.04883",
    "final_y": "518605.676983",
    "longitude": "-90.12445087348706",
    "latitude": "29.920511498425874",
    "geocoded_column": {
      "latitude": "29.920511498425874",
      "longitude": "-90.12445087348706"
    }
  },
  {
    "service_request": "2023-1020628",
    "request_type": "Property Maintenance",
    "request_reason": "Property Maintenance",
    "date_created": "2023-07-25T20:16:04.000",
    "date_modified": "2023-07-25T20:16:04.000",
    "request_status": "Pending",
    "responsible_agency": "Department of Code Enforcement",
    "final_address": "6659 Harbourview Dr",
    "address_councildis": "E",
    "status": "Pending",
    "rowid": "1020628",
    "final_x": "3699329.67824",
    "final_y": "556112.272026",
    "longitude": "-90.01087474475604",
    "latitude": "30.022561992681663",
    "geocoded_column": {
      "latitude": "30.022561992681663",
      "longitude": "-90.01087474475604"
    }
  },
  {
    "service_request": "2023-1020627",
    "request_type": "Trash/Recycling",
    "request_reason": "Request a Large Item Pick Up",
    "date_created": "2023-07-25T20:08:48.000",
    "date_modified": "2023-07-25T20:08:48.000",
    "request_status": "Pending",
    "responsible_agency": "Department of Sanitation",
    "final_address": "2812 St Claude Ave",
    "address_councildis": "C",
    "status": "Assigned to Contractor",
    "contractor": "IV Waste",
    "rowid": "1020627",
    "final_x": "3687827.7135",
    "final_y": "536253.968647",
    "longitude": "-90.04792204444968",
    "latitude": "29.96831881310011",
    "geocoded_column": {
      "latitude": "29.96831881310011",
      "longitude": "-90.04792204444968"
    }
  },
  {
    "service_request": "2023-1020626",
    "request_type": "Trash/Recycling",
    "request_reason": "Missed Trash Pick-Up",
    "date_created": "2023-07-25T20:08:02.000",
    "date_modified": "2023-07-25T20:08:03.000",
    "request_status": "Pending",
    "responsible_agency": "Department of Sanitation",
    "final_address": "318 N Dorgenois St",
    "address_councildis": "B",
    "status": "Assigned to Contractor",
    "contractor": "Richards Disposal",
    "rowid": "1020626",
    "final_x": "3676414.77742",
    "final_y": "535529.835334",
    "longitude": "-90.08398958323508",
    "latitude": "29.966674798315353",
    "geocoded_column": {
      "latitude": "29.966674798315353",
      "longitude": "-90.08398958323508"
    }
  },
  {
    "service_request": "2023-1020625",
    "request_type": "Abandoned Vehicles",
    "request_reason": "Abandoned/Junk Vehicles",
    "date_created": "2023-07-25T19:23:09.000",
    "date_modified": "2023-07-25T19:23:09.000",
    "request_status": "Pending",
    "responsible_agency": "Department of Public Works",
    "final_address": "2551 Wisteria St",
    "address_councildis": "D",
    "status": "Pending",
    "rowid": "1020625",
    "final_x": "3686650.99234",
    "final_y": "548399.454226",
    "longitude": "-90.05120899555294",
    "latitude": "30.001750829355423",
    "geocoded_column": {
      "latitude": "30.001750829355423",
      "longitude": "-90.05120899555294"
    }
  },
  {
    "service_request": "2023-1020624",
    "request_type": "Trash/Recycling",
    "request_reason": "Request a Large Item Pick Up",
    "date_created": "2023-07-25T19:22:18.000",
    "date_modified": "2023-07-25T19:22:18.000",
    "request_status": "Pending",
    "responsible_agency": "Department of Sanitation",
    "final_address": "7421 Prytania St",
    "address_councildis": "A",
    "status": "Assigned to Contractor",
    "contractor": "Richards Disposal",
    "rowid": "1020624",
    "final_x": "3661108.57197",
    "final_y": "523195.824123",
    "longitude": "-90.13273486698677",
    "latitude": "29.933210228661174",
    "geocoded_column": {
      "latitude": "29.933210228661174",
      "longitude": "-90.13273486698677"
    }
  },
  {
    "service_request": "2023-1020623",
    "request_type": "Trash/Recycling",
    "request_reason": "Replace Trash Cart",
    "date_created": "2023-07-25T19:20:40.000",
    "date_modified": "2023-07-25T19:20:41.000",
    "request_status": "Pending",
    "responsible_agency": "Department of Sanitation",
    "final_address": "5210 Hawthorne Pl",
    "address_councildis": "A",
    "status": "Assigned to Contractor",
    "contractor": "IV Waste",
    "rowid": "1020623",
    "final_x": "3667853.81697",
    "final_y": "543074.739405",
    "longitude": "-90.11077091167465",
    "latitude": "29.98767462986245",
    "geocoded_column": {
      "latitude": "29.98767462986245",
      "longitude": "-90.11077091167465"
    }
  },
  {
    "service_request": "2023-1020622",
    "request_type": "Traffic Signals/Signs/Striping/Streetlights",
    "request_reason": "Traffic Sign Missing/Damaged",
    "date_created": "2023-07-25T19:07:07.000",
    "date_modified": "2023-07-25T19:07:07.000",
    "request_status": "Pending",
    "responsible_agency": "Department of Public Works",
    "final_address": "3541 Indiana St",
    "address_councildis": "C",
    "status": "Pending",
    "rowid": "1020622",
    "final_x": "3693457.32329",
    "final_y": "520207.088696",
    "longitude": "-90.03071965911933",
    "latitude": "29.924020590439394",
    "geocoded_column": {
      "latitude": "29.924020590439394",
      "longitude": "-90.03071965911933"
    }
  },
  {
    "service_request": "2023-1020621",
    "request_type": "Roads/Drainage",
    "request_reason": "Pothole",
    "date_created": "2023-07-25T18:42:28.000",
    "date_modified": "2023-07-25T18:42:28.000",
    "request_status": "Pending",
    "responsible_agency": "Department of Public Works",
    "final_address": "1110 Marengo St",
    "address_councildis": "B",
    "status": "Pending",
    "rowid": "1020621",
    "final_x": "3672024.80711",
    "final_y": "519735.74412",
    "longitude": "-90.09839067460052",
    "latitude": "29.92337710066283",
    "geocoded_column": {
      "latitude": "29.92337710066283",
      "longitude": "-90.09839067460052"
    }
  },
  {
    "service_request": "2023-1020620",
    "request_type": "Trash/Recycling",
    "request_reason": "Request a Large Item Pick Up",
    "date_created": "2023-07-25T18:40:32.000",
    "date_modified": "2023-07-25T18:40:32.000",
    "request_status": "Pending",
    "responsible_agency": "Department of Sanitation",
    "final_address": "7250 Northgate Dr",
    "address_councildis": "E",
    "status": "Assigned to Contractor",
    "contractor": "Waste Pro",
    "rowid": "1020620",
    "final_x": "3713328.44088",
    "final_y": "565433.64157",
    "longitude": "-89.96629105348525",
    "latitude": "30.04774035776044",
    "geocoded_column": {
      "latitude": "30.04774035776044",
      "longitude": "-89.96629105348525"
    }
  },
  {
    "service_request": "2023-1020619",
    "request_type": "Abandoned Vehicles",
    "request_reason": "Abandoned/Junk Vehicles",
    "date_created": "2023-07-25T18:38:39.000",
    "date_modified": "2023-07-25T18:40:13.000",
    "request_status": "Pending",
    "responsible_agency": "Department of Public Works",
    "final_address": "1920 Allen Toussaint Blvd",
    "address_councildis": "D",
    "status": "Pending",
    "rowid": "1020619",
    "final_x": "3681606.86997",
    "final_y": "555493.074585",
    "longitude": "-90.06689621131395",
    "latitude": "30.021409944291612",
    "geocoded_column": {
      "latitude": "30.021409944291612",
      "longitude": "-90.06689621131395"
    }
  },
  {
    "service_request": "2023-1020618",
    "request_type": "Trash/Recycling",
    "request_reason": "Request a Large Item Pick Up",
    "date_created": "2023-07-25T18:36:46.000",
    "date_modified": "2023-07-25T18:36:47.000",
    "request_status": "Pending",
    "responsible_agency": "Department of Sanitation",
    "final_address": "4978 De Montluzin St",
    "address_councildis": "D",
    "status": "Assigned to Contractor",
    "contractor": "IV Waste",
    "rowid": "1020618",
    "final_x": "3687023.66191",
    "final_y": "551565.239509",
    "longitude": "-90.0499196784599",
    "latitude": "30.010444114761707",
    "geocoded_column": {
      "latitude": "30.010444114761707",
      "longitude": "-90.0499196784599"
    }
  },
  {
    "service_request": "2023-1020617",
    "request_type": "Traffic Signals/Signs/Striping/Streetlights",
    "request_reason": "Traffic Signal Malfunctioning/Damaged",
    "date_created": "2023-07-25T18:33:52.000",
    "date_modified": "2023-07-25T18:33:52.000",
    "request_status": "Pending",
    "responsible_agency": "Department of Public Works",
    "final_address": "ST CHARLES AVE & GRAVIER ST",
    "address_councildis": "B",
    "status": "Pending",
    "rowid": "1020617",
    "final_x": "3680892.5",
    "final_y": "530056.48",
    "longitude": "-90.07003953648476",
    "latitude": "29.95148992836467",
    "geocoded_column": {
      "latitude": "29.95148992836467",
      "longitude": "-90.07003953648476"
    }
  },
  {
    "service_request": "2023-1020616",
    "request_type": "Trash/Recycling",
    "request_reason": "Request a Large Item Pick Up",
    "date_created": "2023-07-25T18:27:35.000",
    "date_modified": "2023-07-25T18:27:35.000",
    "request_status": "Pending",
    "responsible_agency": "Department of Sanitation",
    "final_address": "5542 Chatham Dr",
    "address_councildis": "D",
    "status": "Assigned to Contractor",
    "contractor": "IV Waste",
    "rowid": "1020616",
    "final_x": "3679641.27439",
    "final_y": "552916.108375",
    "longitude": "-90.07319650292024",
    "latitude": "30.014383811412316",
    "geocoded_column": {
      "latitude": "30.014383811412316",
      "longitude": "-90.07319650292024"
    }
  },
  {
    "service_request": "2023-1020615",
    "request_type": "Traffic Signals/Signs/Striping/Streetlights",
    "request_reason": "Traffic Signal Malfunctioning/Damaged",
    "date_created": "2023-07-25T18:26:04.000",
    "date_modified": "2023-07-25T18:26:05.000",
    "request_status": "Pending",
    "responsible_agency": "Department of Public Works",
    "final_address": "POYDRAS ST & S ROBERTSON ST",
    "address_councildis": "B",
    "status": "Pending",
    "rowid": "1020615",
    "final_x": "3677834.2",
    "final_y": "530351.88",
    "longitude": "-90.07968595812345",
    "latitude": "29.952394538005795",
    "geocoded_column": {
      "latitude": "29.952394538005795",
      "longitude": "-90.07968595812345"
    }
  },
  {
    "service_request": "2023-1020613",
    "request_type": "Trash/Recycling",
    "request_reason": "Request a Large Item Pick Up",
    "date_created": "2023-07-25T18:03:32.000",
    "date_modified": "2023-07-25T18:03:33.000",
    "request_status": "Pending",
    "responsible_agency": "Department of Sanitation",
    "final_address": "6242 Wainwright Dr",
    "address_councildis": "D",
    "status": "Assigned to Contractor",
    "contractor": "IV Waste",
    "rowid": "1020613",
    "final_x": "3681278.50172",
    "final_y": "556146.621786",
    "longitude": "-90.06791095924277",
    "latitude": "30.023216934756977",
    "geocoded_column": {
      "latitude": "30.023216934756977",
      "longitude": "-90.06791095924277"
    }
  },
  {
    "service_request": "2023-1020614",
    "request_type": "Trash/Recycling",
    "request_reason": "Illegal Dumping",
    "date_created": "2023-07-25T18:03:32.000",
    "date_modified": "2023-07-25T18:03:33.000",
    "request_status": "Pending",
    "responsible_agency": "Department of Sanitation",
    "final_address": "4337 St Bernard Ave",
    "address_councildis": "D",
    "status": "Pending",
    "rowid": "1020614",
    "final_x": "3676923.74453",
    "final_y": "548592.974355",
    "longitude": "-90.08193172926634",
    "latitude": "30.002578631041153",
    "geocoded_column": {
      "latitude": "30.002578631041153",
      "longitude": "-90.08193172926634"
    }
  },
  {
    "service_request": "2023-1020612",
    "request_type": "Property Maintenance",
    "request_reason": "Property Maintenance",
    "date_created": "2023-07-25T18:01:15.000",
    "date_modified": "2023-07-25T18:01:15.000",
    "request_status": "Pending",
    "responsible_agency": "Department of Code Enforcement",
    "final_address": "6300 St Claude Ave",
    "address_councildis": "E",
    "status": "Pending",
    "rowid": "1020612",
    "final_x": "3700146.28816",
    "final_y": "532977.506564",
    "longitude": "-90.00913925230147",
    "latitude": "29.95892398960287",
    "geocoded_column": {
      "latitude": "29.95892398960287",
      "longitude": "-90.00913925230147"
    }
  },
  {
    "service_request": "2023-1020611",
    "request_type": "Trash/Recycling",
    "request_reason": "MIssed Recycling Pick-Up",
    "date_created": "2023-07-25T17:59:10.000",
    "date_modified": "2023-07-25T17:59:10.000",
    "request_status": "Pending",
    "responsible_agency": "Department of Sanitation",
    "final_address": "430 Harrison Ave",
    "address_councildis": "A",
    "status": "Assigned to Contractor",
    "contractor": "IV Waste",
    "rowid": "1020611",
    "final_x": "3667826.21191",
    "final_y": "549225.369747",
    "longitude": "-90.11065080070107",
    "latitude": "30.00458755668541",
    "geocoded_column": {
      "latitude": "30.00458755668541",
      "longitude": "-90.11065080070107"
    }
  },
  {
    "service_request": "2023-1020610",
    "request_type": "Roads/Drainage",
    "request_reason": "Pothole",
    "date_created": "2023-07-25T17:56:24.000",
    "date_modified": "2023-07-25T17:56:25.000",
    "request_status": "Pending",
    "responsible_agency": "Department of Public Works",
    "final_address": "2500 BLK Myrtle St",
    "address_councildis": "D",
    "status": "Pending",
    "rowid": "1020610",
    "final_x": "3686768.1822",
    "final_y": "546030.642634",
    "longitude": "-90.05092253381262",
    "latitude": "29.995233846019083",
    "geocoded_column": {
      "latitude": "29.995233846019083",
      "longitude": "-90.05092253381262"
    }
  },
  {
    "service_request": "2023-1020609",
    "request_type": "Trash/Recycling",
    "request_reason": "Missed Trash Pick-Up",
    "date_created": "2023-07-25T17:52:52.000",
    "date_modified": "2023-07-25T17:52:52.000",
    "request_status": "Pending",
    "responsible_agency": "Department of Sanitation",
    "final_address": "2736 Jefferson Ave",
    "address_councildis": "A",
    "status": "Assigned to Contractor",
    "contractor": "Richards Disposal",
    "rowid": "1020609",
    "final_x": "3668160.47591",
    "final_y": "525608.107709",
    "longitude": "-90.1103911132468",
    "latitude": "29.939638179848625",
    "geocoded_column": {
      "latitude": "29.939638179848625",
      "longitude": "-90.1103911132468"
    }
  },
  {
    "service_request": "2023-1020608",
    "request_type": "Trash/Recycling",
    "request_reason": "Order Recycling Cart",
    "date_created": "2023-07-25T17:41:56.000",
    "date_modified": "2023-07-25T17:41:57.000",
    "request_status": "Pending",
    "responsible_agency": "Department of Sanitation",
    "final_address": "7951 Sandpiper Dr",
    "address_councildis": "E",
    "status": "Pending",
    "rowid": "1020608",
    "final_x": "3715265.56171",
    "final_y": "570675.481447",
    "longitude": "-89.95997016711073",
    "latitude": "30.06208957586831",
    "geocoded_column": {
      "latitude": "30.06208957586831",
      "longitude": "-89.95997016711073"
    }
  },
  {
    "service_request": "2023-1020607",
    "request_type": "Trash/Recycling",
    "request_reason": "Missed Trash Pick-Up",
    "date_created": "2023-07-25T17:37:59.000",
    "date_modified": "2023-07-25T17:38:00.000",
    "request_status": "Pending",
    "responsible_agency": "Department of Sanitation",
    "final_address": "3830 Annunciation St",
    "address_councildis": "B",
    "status": "Assigned to Contractor",
    "contractor": "Richards Disposal",
    "rowid": "1020607",
    "final_x": "3673435.50638",
    "final_y": "517951.87999",
    "longitude": "-90.09399852423694",
    "latitude": "29.918430163130722",
    "geocoded_column": {
      "latitude": "29.918430163130722",
      "longitude": "-90.09399852423694"
    }
  },
  {
    "service_request": "2023-1020605",
    "request_type": "Trash/Recycling",
    "request_reason": "Order Recycling Cart",
    "date_created": "2023-07-25T17:27:33.000",
    "date_modified": "2023-07-25T17:27:33.000",
    "request_status": "Pending",
    "responsible_agency": "Department of Sanitation",
    "final_address": "3809 Ulloa St",
    "address_councildis": "B",
    "status": "Pending",
    "rowid": "1020605",
    "final_x": "3670611.59713",
    "final_y": "535853.656007",
    "longitude": "-90.10230505049068",
    "latitude": "29.96773790215337",
    "geocoded_column": {
      "latitude": "29.96773790215337",
      "longitude": "-90.10230505049068"
    }
  },
  {
    "service_request": "2023-1020604",
    "request_type": "Trash/Recycling",
    "request_reason": "Order Trash Cart",
    "date_created": "2023-07-25T17:15:38.000",
    "date_modified": "2023-07-25T17:15:38.000",
    "request_status": "Pending",
    "responsible_agency": "Department of Sanitation",
    "final_address": "3809 Ulloa St",
    "address_councildis": "B",
    "status": "Assigned to Contractor",
    "contractor": "Richards Disposal",
    "rowid": "1020604",
    "final_x": "3670611.59713",
    "final_y": "535853.656007",
    "longitude": "-90.10230505049068",
    "latitude": "29.96773790215337",
    "geocoded_column": {
      "latitude": "29.96773790215337",
      "longitude": "-90.10230505049068"
    }
  },
  {
    "service_request": "2023-1020603",
    "request_type": "Trash/Recycling",
    "request_reason": "Order Trash Cart",
    "date_created": "2023-07-25T17:14:50.000",
    "date_modified": "2023-07-25T17:14:50.000",
    "request_status": "Pending",
    "responsible_agency": "Department of Sanitation",
    "final_address": "3809 Ulloa St",
    "address_councildis": "B",
    "status": "Assigned to Contractor",
    "contractor": "Richards Disposal",
    "rowid": "1020603",
    "final_x": "3670611.59713",
    "final_y": "535853.656007",
    "longitude": "-90.10230505049068",
    "latitude": "29.96773790215337",
    "geocoded_column": {
      "latitude": "29.96773790215337",
      "longitude": "-90.10230505049068"
    }
  },
  {
    "service_request": "2023-1020602",
    "request_type": "Trash/Recycling",
    "request_reason": "Request a Large Item Pick Up",
    "date_created": "2023-07-25T17:12:36.000",
    "date_modified": "2023-07-25T17:12:37.000",
    "request_status": "Pending",
    "responsible_agency": "Department of Sanitation",
    "final_address": "4843 Perelli Dr",
    "address_councildis": "E",
    "status": "Assigned to Contractor",
    "contractor": "Waste Pro",
    "rowid": "1020602",
    "final_x": "3711737.12882",
    "final_y": "556666.698394",
    "longitude": "-89.97164971965289",
    "latitude": "30.023686866546228",
    "geocoded_column": {
      "latitude": "30.023686866546228",
      "longitude": "-89.97164971965289"
    }
  },
  {
    "service_request": "2023-1020601",
    "request_type": "Abandoned Vehicles",
    "request_reason": "Abandoned/Junk Vehicles",
    "date_created": "2023-07-25T17:03:07.000",
    "date_modified": "2023-07-25T17:03:07.000",
    "request_status": "Pending",
    "responsible_agency": "Department of Public Works",
    "final_address": "1920 Allen Toussaint Blvd",
    "address_councildis": "D",
    "status": "Pending",
    "rowid": "1020601",
    "final_x": "3681606.86997",
    "final_y": "555493.074585",
    "longitude": "-90.06689621131395",
    "latitude": "30.021409944291612",
    "geocoded_column": {
      "latitude": "30.021409944291612",
      "longitude": "-90.06689621131395"
    }
  },
  {
    "service_request": "2023-1020600",
    "request_type": "Abandoned Vehicles",
    "request_reason": "Abandoned/Junk Vehicles",
    "date_created": "2023-07-25T17:02:56.000",
    "date_modified": "2023-07-25T17:02:56.000",
    "request_status": "Pending",
    "responsible_agency": "Department of Public Works",
    "final_address": "3821 Prytania St",
    "address_councildis": "B",
    "status": "Pending",
    "rowid": "1020600",
    "final_x": "3672808.64123",
    "final_y": "520613.04716",
    "longitude": "-90.0958864931361",
    "latitude": "29.925766150743545",
    "geocoded_column": {
      "latitude": "29.925766150743545",
      "longitude": "-90.0958864931361"
    }
  },
  {
    "service_request": "2023-1020599",
    "request_type": "Safety & Permits",
    "request_reason": "Construction permit",
    "date_created": "2023-07-25T17:02:55.000",
    "date_modified": "2023-07-25T17:02:55.000",
    "request_status": "Pending",
    "responsible_agency": "Department of Code Enforcement",
    "final_address": "1726 Pine St",
    "address_councildis": "A",
    "status": "Pending",
    "rowid": "1020599",
    "final_x": "3664936.78362",
    "final_y": "528322.369024",
    "longitude": "-90.12047809360699",
    "latitude": "29.947195739097815",
    "geocoded_column": {
      "latitude": "29.947195739097815",
      "longitude": "-90.12047809360699"
    }
  },
  {
    "service_request": "2023-1020598",
    "request_type": "Trash/Recycling",
    "request_reason": "Request a Large Item Pick Up",
    "date_created": "2023-07-25T17:00:32.000",
    "date_modified": "2023-07-25T17:00:33.000",
    "request_status": "Pending",
    "responsible_agency": "Department of Sanitation",
    "final_address": "6341 Carlson Dr",
    "address_councildis": "D",
    "status": "Assigned to Contractor",
    "contractor": "IV Waste",
    "rowid": "1020598",
    "final_x": "3679335.41295",
    "final_y": "557155.896859",
    "longitude": "-90.07401565086477",
    "latitude": "30.026050932547534",
    "geocoded_column": {
      "latitude": "30.026050932547534",
      "longitude": "-90.07401565086477"
    }
  },
  {
    "service_request": "2023-1020597",
    "request_type": "Traffic Signals/Signs/Striping/Streetlights",
    "request_reason": "Street Light Outage/Malfunction",
    "date_created": "2023-07-25T17:00:23.000",
    "date_modified": "2023-07-25T17:00:24.000",
    "request_status": "Pending",
    "responsible_agency": "Department of Public Works",
    "final_address": "6627 W Laverne St",
    "address_councildis": "D",
    "status": "Assigned to Contractor",
    "contractor": "Legacy Professional Services",
    "rowid": "1020597",
    "final_x": "3696352.24899",
    "final_y": "555536.391449",
    "longitude": "-90.02030351827126",
    "latitude": "30.021072690634693",
    "geocoded_column": {
      "latitude": "30.021072690634693",
      "longitude": "-90.02030351827126"
    }
  },
  {
    "service_request": "2023-1020596",
    "request_type": "Abandoned Vehicles",
    "request_reason": "Abandoned/Junk Vehicles",
    "date_created": "2023-07-25T16:59:32.000",
    "date_modified": "2023-07-25T16:59:32.000",
    "request_status": "Pending",
    "responsible_agency": "Department of Public Works",
    "final_address": "3821 Prytania St",
    "address_councildis": "B",
    "status": "Pending",
    "rowid": "1020596",
    "final_x": "3672808.64123",
    "final_y": "520613.04716",
    "longitude": "-90.0958864931361",
    "latitude": "29.925766150743545",
    "geocoded_column": {
      "latitude": "29.925766150743545",
      "longitude": "-90.0958864931361"
    }
  },
  {
    "service_request": "2023-1020595",
    "request_type": "Trash/Recycling",
    "request_reason": "MIssed Recycling Pick-Up",
    "date_created": "2023-07-25T16:56:32.000",
    "date_modified": "2023-07-25T16:56:33.000",
    "request_status": "Pending",
    "responsible_agency": "Department of Sanitation",
    "final_address": "8014 Hampson St",
    "address_councildis": "A",
    "status": "Assigned to Contractor",
    "contractor": "Richards Disposal",
    "rowid": "1020595",
    "final_x": "3661010.84698",
    "final_y": "526853.500158",
    "longitude": "-90.13292241014959",
    "latitude": "29.943270497480825",
    "geocoded_column": {
      "latitude": "29.943270497480825",
      "longitude": "-90.13292241014959"
    }
  },
  {
    "service_request": "2023-1020594",
    "request_type": "Trash/Recycling",
    "request_reason": "Request a Large Item Pick Up",
    "date_created": "2023-07-25T16:55:53.000",
    "date_modified": "2023-07-25T16:55:53.000",
    "request_status": "Pending",
    "responsible_agency": "Department of Sanitation",
    "final_address": "6119 West End Blvd",
    "address_councildis": "A",
    "status": "Assigned to Contractor",
    "contractor": "IV Waste",
    "rowid": "1020594",
    "final_x": "3666599.12525",
    "final_y": "548308.863634",
    "longitude": "-90.11455821731381",
    "latitude": "30.00210342828423",
    "geocoded_column": {
      "latitude": "30.00210342828423",
      "longitude": "-90.11455821731381"
    }
  },
  {
    "service_request": "2023-1020593",
    "request_type": "Traffic Signals/Signs/Striping/Streetlights",
    "request_reason": "Street Light Outage/Malfunction",
    "date_created": "2023-07-25T16:55:14.000",
    "date_modified": "2023-07-25T16:55:15.000",
    "request_status": "Pending",
    "responsible_agency": "Department of Public Works",
    "final_address": "7024 General Haig St",
    "address_councildis": "A",
    "status": "Assigned to Contractor",
    "contractor": "Legacy Professional Services",
    "rowid": "1020593",
    "final_x": "3671060.56404",
    "final_y": "554016.109464",
    "longitude": "-90.10026996030518",
    "latitude": "30.017665105723832",
    "geocoded_column": {
      "latitude": "30.017665105723832",
      "longitude": "-90.10026996030518"
    }
  },
  {
    "service_request": "2023-1020592",
    "request_type": "Abandoned Vehicles",
    "request_reason": "Abandoned/Junk Vehicles",
    "date_created": "2023-07-25T16:55:01.000",
    "date_modified": "2023-07-25T16:55:01.000",
    "request_status": "Pending",
    "responsible_agency": "Department of Public Works",
    "final_address": "100 BLK N Alexander St",
    "address_councildis": "A",
    "status": "Pending",
    "rowid": "1020592",
    "final_x": "3670145.15836",
    "final_y": "539367.876432",
    "longitude": "-90.10365898098513",
    "latitude": "29.977414596940125",
    "geocoded_column": {
      "latitude": "29.977414596940125",
      "longitude": "-90.10365898098513"
    }
  },
  {
    "service_request": "2023-1020591",
    "request_type": "Property Maintenance",
    "request_reason": "Property Maintenance",
    "date_created": "2023-07-25T16:54:37.000",
    "date_modified": "2023-07-25T16:54:38.000",
    "request_status": "Pending",
    "responsible_agency": "Department of Code Enforcement",
    "final_address": "6624 W Laverne St",
    "address_councildis": "D",
    "status": "Pending",
    "rowid": "1020591",
    "final_x": "3696202.56342",
    "final_y": "555411.746009",
    "longitude": "-90.02078099115569",
    "latitude": "30.02073467833971",
    "geocoded_column": {
      "latitude": "30.02073467833971",
      "longitude": "-90.02078099115569"
    }
  },
  {
    "service_request": "2023-1020590",
    "request_type": "Trash/Recycling",
    "request_reason": "Request a Large Item Pick Up",
    "date_created": "2023-07-25T16:53:23.000",
    "date_modified": "2023-07-25T16:53:23.000",
    "request_status": "Pending",
    "responsible_agency": "Department of Sanitation",
    "final_address": "1700 Alvar St",
    "address_councildis": "D",
    "status": "Assigned to Contractor",
    "contractor": "IV Waste",
    "rowid": "1020590",
    "final_x": "3692014.50998",
    "final_y": "537670.35636",
    "longitude": "-90.03464930532225",
    "latitude": "29.972083569009335",
    "geocoded_column": {
      "latitude": "29.972083569009335",
      "longitude": "-90.03464930532225"
    }
  },
  {
    "service_request": "2023-1020589",
    "request_type": "Roads/Drainage",
    "request_reason": "Catch Basin - Broken/Damage",
    "date_created": "2023-07-25T16:51:03.000",
    "date_modified": "2023-07-25T16:51:03.000",
    "request_status": "Pending",
    "responsible_agency": "Department of Public Works",
    "final_address": "3726 Prytania St",
    "address_councildis": "B",
    "status": "Pending",
    "rowid": "1020589",
    "final_x": "3673086.5803",
    "final_y": "520497.958392",
    "longitude": "-90.0950130476252",
    "latitude": "29.9254414372431",
    "geocoded_column": {
      "latitude": "29.9254414372431",
      "longitude": "-90.0950130476252"
    }
  },
  {
    "service_request": "2023-1020588",
    "request_type": "Trash/Recycling",
    "request_reason": "Order Recycling Cart",
    "date_created": "2023-07-25T16:48:41.000",
    "date_modified": "2023-07-25T16:48:41.000",
    "request_status": "Pending",
    "responsible_agency": "Department of Sanitation",
    "final_address": "2424 Cambronne St",
    "address_councildis": "A",
    "status": "Pending",
    "rowid": "1020588",
    "final_x": "3664207.01792",
    "final_y": "532502.052932",
    "longitude": "-90.1226428120068",
    "latitude": "29.958709735337543",
    "geocoded_column": {
      "latitude": "29.958709735337543",
      "longitude": "-90.1226428120068"
    }
  },
  {
    "service_request": "2023-1020587",
    "request_type": "Trash/Recycling",
    "request_reason": "Replace Trash Cart",
    "date_created": "2023-07-25T16:48:24.000",
    "date_modified": "2023-07-25T16:48:25.000",
    "request_status": "Pending",
    "responsible_agency": "Department of Sanitation",
    "final_address": "2424 Cambronne St",
    "address_councildis": "A",
    "status": "Assigned to Contractor",
    "contractor": "Richards Disposal",
    "rowid": "1020587",
    "final_x": "3664207.01792",
    "final_y": "532502.052932",
    "longitude": "-90.1226428120068",
    "latitude": "29.958709735337543",
    "geocoded_column": {
      "latitude": "29.958709735337543",
      "longitude": "-90.1226428120068"
    }
  },
  {
    "service_request": "2023-1020586",
    "request_type": "Trash/Recycling",
    "request_reason": "Repair Recycling Cart",
    "date_created": "2023-07-25T16:47:45.000",
    "date_modified": "2023-07-25T16:47:46.000",
    "request_status": "Pending",
    "responsible_agency": "Department of Sanitation",
    "final_address": "2801 Broadway St",
    "address_councildis": "B",
    "status": "Pending",
    "rowid": "1020586",
    "final_x": "3667329.43834",
    "final_y": "531292.38285",
    "longitude": "-90.11282366770699",
    "latitude": "29.955292454757583",
    "geocoded_column": {
      "latitude": "29.955292454757583",
      "longitude": "-90.11282366770699"
    }
  },
  {
    "service_request": "2023-1020585",
    "request_type": "Trash/Recycling",
    "request_reason": "Replace Trash Cart",
    "date_created": "2023-07-25T16:43:40.000",
    "date_modified": "2023-07-25T16:43:40.000",
    "request_status": "Pending",
    "responsible_agency": "Department of Sanitation",
    "final_address": "1112 Jena St",
    "address_councildis": "B",
    "status": "Assigned to Contractor",
    "contractor": "Richards Disposal",
    "rowid": "1020585",
    "final_x": "3670530.669",
    "final_y": "519608.829496",
    "longitude": "-90.10311142024668",
    "latitude": "29.923072319983156",
    "geocoded_column": {
      "latitude": "29.923072319983156",
      "longitude": "-90.10311142024668"
    }
  },
  {
    "service_request": "2023-1020584",
    "request_type": "Trash/Recycling",
    "request_reason": "Replace Trash Cart",
    "date_created": "2023-07-25T16:40:07.000",
    "date_modified": "2023-07-25T16:40:07.000",
    "request_status": "Pending",
    "responsible_agency": "Department of Sanitation",
    "final_address": "44 Wren St",
    "address_councildis": "D",
    "status": "Assigned to Contractor",
    "contractor": "IV Waste",
    "rowid": "1020584",
    "final_x": "3672532.45659",
    "final_y": "556045.895385",
    "longitude": "-90.0955500677541",
    "latitude": "30.023202655090074",
    "geocoded_column": {
      "latitude": "30.023202655090074",
      "longitude": "-90.0955500677541"
    }
  },
  {
    "service_request": "2023-1020583",
    "request_type": "Trash/Recycling",
    "request_reason": "Request a Large Item Pick Up",
    "date_created": "2023-07-25T16:38:00.000",
    "date_modified": "2023-07-25T16:38:00.000",
    "request_status": "Pending",
    "responsible_agency": "Department of Sanitation",
    "final_address": "743 Washington Ave",
    "address_councildis": "B",
    "status": "Assigned to Contractor",
    "contractor": "Richards Disposal",
    "rowid": "1020583",
    "final_x": "3677719.29454",
    "final_y": "519894.303096",
    "longitude": "-90.08040983813697",
    "latitude": "29.92364310246167",
    "geocoded_column": {
      "latitude": "29.92364310246167",
      "longitude": "-90.08040983813697"
    }
  },
  {
    "service_request": "2023-1020582",
    "request_type": "Trash/Recycling",
    "request_reason": "Order Recycling Cart",
    "date_created": "2023-07-25T16:37:56.000",
    "date_modified": "2023-07-25T16:37:57.000",
    "request_status": "Pending",
    "responsible_agency": "Department of Sanitation",
    "final_address": "4162 Orleans Ave",
    "address_councildis": "A",
    "status": "Pending",
    "rowid": "1020582",
    "final_x": "3672205.25703",
    "final_y": "540364.078411",
    "longitude": "-90.09711854352578",
    "latitude": "29.980092862290128",
    "geocoded_column": {
      "latitude": "29.980092862290128",
      "longitude": "-90.09711854352578"
    }
  },
  {
    "service_request": "2023-1020581",
    "request_type": "Trash/Recycling",
    "request_reason": "Request a Large Item Pick Up",
    "date_created": "2023-07-25T16:37:17.000",
    "date_modified": "2023-07-25T16:37:17.000",
    "request_status": "Pending",
    "responsible_agency": "Department of Sanitation",
    "final_address": "1314 Frenchmen St",
    "address_councildis": "C",
    "status": "Assigned to Contractor",
    "contractor": "IV Waste",
    "rowid": "1020581",
    "final_x": "3684493.07292",
    "final_y": "537146.233416",
    "longitude": "-90.05842162259366",
    "latitude": "29.97087466987811",
    "geocoded_column": {
      "latitude": "29.97087466987811",
      "longitude": "-90.05842162259366"
    }
  },
  {
    "service_request": "2023-1020580",
    "request_type": "Property Maintenance",
    "request_reason": "Property Maintenance",
    "date_created": "2023-07-25T16:35:53.000",
    "date_modified": "2023-07-25T16:35:53.000",
    "request_status": "Pending",
    "responsible_agency": "Department of Code Enforcement",
    "final_address": "4901 Cardenas Dr",
    "address_councildis": "E",
    "status": "Pending",
    "rowid": "1020580",
    "final_x": "3713656.21951",
    "final_y": "557293.050459",
    "longitude": "-89.96556222012688",
    "latitude": "30.025346239619385",
    "geocoded_column": {
      "latitude": "30.025346239619385",
      "longitude": "-89.96556222012688"
    }
  },
  {
    "service_request": "2023-1020579",
    "request_type": "Property Maintenance",
    "request_reason": "Property Maintenance",
    "date_created": "2023-07-25T16:31:07.000",
    "date_modified": "2023-07-25T16:31:07.000",
    "request_status": "Pending",
    "responsible_agency": "Department of Code Enforcement",
    "final_address": "4901 Cardenas Dr",
    "address_councildis": "E",
    "status": "Pending",
    "rowid": "1020579",
    "final_x": "3713656.21951",
    "final_y": "557293.050459",
    "longitude": "-89.96556222012688",
    "latitude": "30.025346239619385",
    "geocoded_column": {
      "latitude": "30.025346239619385",
      "longitude": "-89.96556222012688"
    }
  },
  {
    "service_request": "2023-1020577",
    "request_type": "Property Maintenance",
    "request_reason": "Property Maintenance",
    "date_created": "2023-07-25T16:25:22.000",
    "date_modified": "2023-07-25T16:25:22.000",
    "request_status": "Pending",
    "responsible_agency": "Department of Code Enforcement",
    "final_address": "2912 Bruxelles St",
    "address_councildis": "D",
    "status": "Pending",
    "rowid": "1020577",
    "final_x": "3680244.61141",
    "final_y": "543127.219085",
    "longitude": "-90.07163081090543",
    "latitude": "29.987449595743456",
    "geocoded_column": {
      "latitude": "29.987449595743456",
      "longitude": "-90.07163081090543"
    }
  },
  {
    "service_request": "2023-1020576",
    "request_type": "Trash/Recycling",
    "request_reason": "Request a Large Item Pick Up",
    "date_created": "2023-07-25T16:21:34.000",
    "date_modified": "2023-07-25T16:22:41.000",
    "request_status": "Pending",
    "responsible_agency": "Department of Sanitation",
    "final_address": "2101 Pine St",
    "address_councildis": "A",
    "status": "Assigned to Contractor",
    "contractor": "Richards Disposal",
    "rowid": "1020576",
    "final_x": "3665790.59712",
    "final_y": "529303.836865",
    "longitude": "-90.1177493966311",
    "latitude": "29.949869580383506",
    "geocoded_column": {
      "latitude": "29.949869580383506",
      "longitude": "-90.1177493966311"
    }
  },
  {
    "service_request": "2023-1020575",
    "request_type": "Trash/Recycling",
    "request_reason": "Request a Large Item Pick Up",
    "date_created": "2023-07-25T16:21:18.000",
    "date_modified": "2023-07-25T16:21:19.000",
    "request_status": "Pending",
    "responsible_agency": "Department of Sanitation",
    "final_address": "2811 Conti St",
    "address_councildis": "B",
    "status": "Assigned to Contractor",
    "contractor": "Richards Disposal",
    "rowid": "1020575",
    "final_x": "3675523.58293",
    "final_y": "536493.699015",
    "longitude": "-90.08677085849514",
    "latitude": "29.96935178493097",
    "geocoded_column": {
      "latitude": "29.96935178493097",
      "longitude": "-90.08677085849514"
    }
  },
  {
    "service_request": "2023-1020574",
    "request_type": "Roads/Drainage",
    "request_reason": "Damaged Sidewalk",
    "date_created": "2023-07-25T16:14:27.000",
    "date_modified": "2023-07-25T16:14:28.000",
    "request_status": "Pending",
    "responsible_agency": "Department of Public Works",
    "final_address": "4224 Hollygrove St",
    "address_councildis": "A",
    "status": "Pending",
    "rowid": "1020574",
    "final_x": "3666895.46311",
    "final_y": "538576.010761",
    "longitude": "-90.11394925535127",
    "latitude": "29.975332724703527",
    "geocoded_column": {
      "latitude": "29.975332724703527",
      "longitude": "-90.11394925535127"
    }
  },
  {
    "service_request": "2023-1020573",
    "request_type": "Trash/Recycling",
    "request_reason": "Order Trash Cart",
    "date_created": "2023-07-25T16:11:39.000",
    "date_modified": "2023-07-25T16:11:39.000",
    "request_status": "Pending",
    "responsible_agency": "Department of Sanitation",
    "final_address": "819 Gordon St A",
    "address_councildis": "E",
    "status": "Assigned to Contractor",
    "contractor": "Waste Pro",
    "rowid": "1020573",
    "final_x": "3698820.45085",
    "final_y": "532503.278724",
    "longitude": "-90.01334313830559",
    "latitude": "29.957662095224723",
    "geocoded_column": {
      "latitude": "29.957662095224723",
      "longitude": "-90.01334313830559"
    }
  },
  {
    "service_request": "2023-1020572",
    "request_type": "Traffic Signals/Signs/Striping/Streetlights",
    "request_reason": "Traffic Sign Missing/Damaged",
    "date_created": "2023-07-25T16:11:01.000",
    "date_modified": "2023-07-25T16:11:01.000",
    "request_status": "Pending",
    "responsible_agency": "Department of Public Works",
    "final_address": "1800 BLK S Robertson St",
    "address_councildis": "B",
    "status": "Pending",
    "rowid": "1020572",
    "final_x": "3675882.65148",
    "final_y": "527044.701604",
    "longitude": "-90.085961738911",
    "latitude": "29.94335945932887",
    "geocoded_column": {
      "latitude": "29.94335945932887",
      "longitude": "-90.085961738911"
    }
  },
  {
    "service_request": "2023-1020571",
    "request_type": "Trash/Recycling",
    "request_reason": "Request a Large Item Pick Up",
    "date_created": "2023-07-25T16:09:05.000",
    "date_modified": "2023-07-25T16:09:05.000",
    "request_status": "Pending",
    "responsible_agency": "Department of Sanitation",
    "final_address": "1509 Upperline St",
    "address_councildis": "B",
    "status": "Assigned to Contractor",
    "contractor": "Richards Disposal",
    "rowid": "1020571",
    "final_x": "3669127.65575",
    "final_y": "520479.239608",
    "longitude": "-90.10751081191844",
    "latitude": "29.925507016314405",
    "geocoded_column": {
      "latitude": "29.925507016314405",
      "longitude": "-90.10751081191844"
    }
  },
  {
    "service_request": "2023-1020569",
    "request_type": "Traffic Signals/Signs/Striping/Streetlights",
    "request_reason": "Traffic Sign Missing/Damaged",
    "date_created": "2023-07-25T16:06:07.000",
    "date_modified": "2023-07-25T16:06:07.000",
    "request_status": "Pending",
    "responsible_agency": "Department of Public Works",
    "final_address": "3541 Indiana St",
    "address_councildis": "C",
    "status": "Pending",
    "rowid": "1020569",
    "final_x": "3693457.32329",
    "final_y": "520207.088696",
    "longitude": "-90.03071965911933",
    "latitude": "29.924020590439394",
    "geocoded_column": {
      "latitude": "29.924020590439394",
      "longitude": "-90.03071965911933"
    }
  },
  {
    "service_request": "2023-1020568",
    "request_type": "Trash/Recycling",
    "request_reason": "Repair Trash Cart",
    "date_created": "2023-07-25T16:05:45.000",
    "date_modified": "2023-07-25T16:05:46.000",
    "request_status": "Pending",
    "responsible_agency": "Department of Sanitation",
    "final_address": "2070 St Denis St",
    "address_councildis": "D",
    "status": "Assigned to Contractor",
    "contractor": "IV Waste",
    "rowid": "1020568",
    "final_x": "3683325.38025",
    "final_y": "546115.312976",
    "longitude": "-90.061795011517",
    "latitude": "29.995572157772294",
    "geocoded_column": {
      "latitude": "29.995572157772294",
      "longitude": "-90.061795011517"
    }
  },
  {
    "service_request": "2023-1020566",
    "request_type": "Property Maintenance",
    "request_reason": "Property Maintenance",
    "date_created": "2023-07-25T16:00:58.000",
    "date_modified": "2023-07-25T16:00:58.000",
    "request_status": "Pending",
    "responsible_agency": "Department of Code Enforcement",
    "final_address": "1212 Milan St",
    "address_councildis": "B",
    "status": "Pending",
    "rowid": "1020566",
    "final_x": "3671651.46798",
    "final_y": "520022.22988",
    "longitude": "-90.0995594312304",
    "latitude": "29.92417590366098",
    "geocoded_column": {
      "latitude": "29.92417590366098",
      "longitude": "-90.0995594312304"
    }
  },
  {
    "service_request": "2023-1020565",
    "request_type": "Trash/Recycling",
    "request_reason": "Request a Large Item Pick Up",
    "date_created": "2023-07-25T15:58:42.000",
    "date_modified": "2023-07-25T15:58:42.000",
    "request_status": "Pending",
    "responsible_agency": "Department of Sanitation",
    "final_address": "2440 Frenchmen St",
    "address_councildis": "D",
    "status": "Assigned to Contractor",
    "contractor": "IV Waste",
    "rowid": "1020565",
    "final_x": "3684149.37276",
    "final_y": "541396.92494",
    "longitude": "-90.05935781560645",
    "latitude": "29.982573096000692",
    "geocoded_column": {
      "latitude": "29.982573096000692",
      "longitude": "-90.05935781560645"
    }
  },
  {
    "service_request": "2023-1020564",
    "request_type": "Roads/Drainage",
    "request_reason": "Leaking Hydrant",
    "date_created": "2023-07-25T15:54:13.000",
    "date_modified": "2023-07-25T15:54:13.000",
    "request_status": "Pending",
    "responsible_agency": "Department of Public Works",
    "final_address": "7126 Foch Rd",
    "address_councildis": "D",
    "status": "Pending",
    "rowid": "1020564",
    "final_x": "3696358.73725",
    "final_y": "556966.677658",
    "longitude": "-90.02023122747356",
    "latitude": "30.025005230382686",
    "geocoded_column": {
      "latitude": "30.025005230382686",
      "longitude": "-90.02023122747356"
    }
  },
  {
    "service_request": "2023-1020563",
    "request_type": "Abandoned Vehicles",
    "request_reason": "Abandoned/Junk Vehicles",
    "date_created": "2023-07-25T15:53:29.000",
    "date_modified": "2023-07-25T15:53:29.000",
    "request_status": "Pending",
    "responsible_agency": "Department of Public Works",
    "final_address": "3231 Banks St",
    "address_councildis": "B",
    "status": "Pending",
    "rowid": "1020563",
    "final_x": "3672973.88526",
    "final_y": "535484.006598",
    "longitude": "-90.09485748348692",
    "latitude": "29.96665149524942",
    "geocoded_column": {
      "latitude": "29.96665149524942",
      "longitude": "-90.09485748348692"
    }
  },
  {
    "service_request": "2023-1020562",
    "request_type": "Trash/Recycling",
    "request_reason": "Request a Large Item Pick Up",
    "date_created": "2023-07-25T15:48:57.000",
    "date_modified": "2023-07-25T15:48:57.000",
    "request_status": "Pending",
    "responsible_agency": "Department of Sanitation",
    "final_address": "3510 Livingston St",
    "address_councildis": "A",
    "status": "Assigned to Contractor",
    "contractor": "Richards Disposal",
    "rowid": "1020562",
    "final_x": "3663875.2512",
    "final_y": "537874.958153",
    "longitude": "-90.12351131396612",
    "latitude": "29.97349309281398",
    "geocoded_column": {
      "latitude": "29.97349309281398",
      "longitude": "-90.12351131396612"
    }
  },
  {
    "service_request": "2023-1020561",
    "request_type": "Trash/Recycling",
    "request_reason": "Request a Large Item Pick Up",
    "date_created": "2023-07-25T15:48:43.000",
    "date_modified": "2023-07-25T15:48:44.000",
    "request_status": "Pending",
    "responsible_agency": "Department of Sanitation",
    "final_address": "1001 Sixth St",
    "address_councildis": "B",
    "status": "Assigned to Contractor",
    "contractor": "Richards Disposal",
    "rowid": "1020561",
    "final_x": "3676837.48981",
    "final_y": "520276.648952",
    "longitude": "-90.08318020548717",
    "latitude": "29.924720913094117",
    "geocoded_column": {
      "latitude": "29.924720913094117",
      "longitude": "-90.08318020548717"
    }
  },
  {
    "service_request": "2023-1020560",
    "request_type": "Trash/Recycling",
    "request_reason": "Repair Trash Cart",
    "date_created": "2023-07-25T15:45:52.000",
    "date_modified": "2023-07-25T15:45:52.000",
    "request_status": "Pending",
    "responsible_agency": "Department of Sanitation",
    "final_address": "5222 Prytania St",
    "address_councildis": "B",
    "status": "Assigned to Contractor",
    "contractor": "Richards Disposal",
    "rowid": "1020560",
    "final_x": "3667897.62951",
    "final_y": "520117.896824",
    "longitude": "-90.11140580207078",
    "latitude": "29.924549563336505",
    "geocoded_column": {
      "latitude": "29.924549563336505",
      "longitude": "-90.11140580207078"
    }
  },
  {
    "service_request": "2023-1020559",
    "request_type": "Trash/Recycling",
    "request_reason": "Repair Recycling Cart",
    "date_created": "2023-07-25T15:45:46.000",
    "date_modified": "2023-07-25T16:22:55.000",
    "request_status": "Pending",
    "responsible_agency": "Department of Sanitation",
    "final_address": "525 Nashville Ave",
    "address_councildis": "A",
    "contractor": "Richards Disposal",
    "rowid": "1020559",
    "final_x": "3665419.81255",
    "final_y": "518200.76351",
    "longitude": "-90.1192915819454",
    "latitude": "29.91935047140951",
    "geocoded_column": {
      "latitude": "29.91935047140951",
      "longitude": "-90.1192915819454"
    }
  },
  {
    "service_request": "2023-1020558",
    "request_type": "Roads/Drainage",
    "request_reason": "Man hole cover issue",
    "date_created": "2023-07-25T15:45:00.000",
    "date_modified": "2023-07-25T15:45:00.000",
    "request_status": "Pending",
    "responsible_agency": "Department of Public Works",
    "final_address": "WALL BLVD & HORACE ST",
    "address_councildis": "C",
    "status": "Pending",
    "rowid": "1020558",
    "final_x": "3696256.0",
    "final_y": "523885.18",
    "longitude": "-90.02175238087533",
    "latitude": "29.934046304506193",
    "geocoded_column": {
      "latitude": "29.934046304506193",
      "longitude": "-90.02175238087533"
    }
  },
  {
    "service_request": "2023-1020557",
    "request_type": "Property Maintenance",
    "request_reason": "Property Maintenance",
    "date_created": "2023-07-25T15:44:48.000",
    "date_modified": "2023-07-25T15:44:49.000",
    "request_status": "Pending",
    "responsible_agency": "Department of Code Enforcement",
    "final_address": "1243 Pace Blvd",
    "address_councildis": "C",
    "status": "Pending",
    "rowid": "1020557",
    "final_x": "3694342.48925",
    "final_y": "526561.706942",
    "longitude": "-90.02769695165942",
    "latitude": "29.941465921633974",
    "geocoded_column": {
      "latitude": "29.941465921633974",
      "longitude": "-90.02769695165942"
    }
  },
  {
    "service_request": "2023-1020556",
    "request_type": "Traffic Signals/Signs/Striping/Streetlights",
    "request_reason": "Traffic Signal Malfunctioning/Damaged",
    "date_created": "2023-07-25T15:44:22.000",
    "date_modified": "2023-07-25T15:44:22.000",
    "request_status": "Pending",
    "responsible_agency": "Department of Public Works",
    "final_address": "WALL BLVD & HORACE ST",
    "address_councildis": "C",
    "status": "Pending",
    "rowid": "1020556",
    "final_x": "3696256.0",
    "final_y": "523885.18",
    "longitude": "-90.02175238087533",
    "latitude": "29.934046304506193",
    "geocoded_column": {
      "latitude": "29.934046304506193",
      "longitude": "-90.02175238087533"
    }
  },
  {
    "service_request": "2023-1020555",
    "request_type": "Trash/Recycling",
    "request_reason": "Request a Large Item Pick Up",
    "date_created": "2023-07-25T15:42:33.000",
    "date_modified": "2023-07-25T15:42:33.000",
    "request_status": "Pending",
    "responsible_agency": "Department of Sanitation",
    "final_address": "5440 Grand Bayou Dr",
    "address_councildis": "E",
    "status": "Assigned to Contractor",
    "contractor": "Waste Pro",
    "rowid": "1020555",
    "final_x": "3725934.35929",
    "final_y": "563605.984865",
    "longitude": "-89.92652079138843",
    "latitude": "30.042295509262967",
    "geocoded_column": {
      "latitude": "30.042295509262967",
      "longitude": "-89.92652079138843"
    }
  },
  {
    "service_request": "2023-1020554",
    "request_type": "Traffic Signals/Signs/Striping/Streetlights",
    "request_reason": "Street Light Outage/Malfunction",
    "date_created": "2023-07-25T15:41:10.000",
    "date_modified": "2023-07-25T15:41:11.000",
    "request_status": "Pending",
    "responsible_agency": "Department of Public Works",
    "final_address": "Delgado Drive & Harding Drive",
    "address_councildis": "A",
    "status": "Assigned to Contractor",
    "contractor": "Legacy Professional Services",
    "rowid": "1020554",
    "final_x": "3674403.1332",
    "final_y": "540376.979467",
    "longitude": "-90.09017627892955",
    "latitude": "29.980062952169764",
    "geocoded_column": {
      "latitude": "29.980062952169764",
      "longitude": "-90.09017627892955"
    }
  },
  {
    "service_request": "2023-1020553",
    "request_type": "Trash/Recycling",
    "request_reason": "Replace Trash Cart",
    "date_created": "2023-07-25T15:39:21.000",
    "date_modified": "2023-07-25T15:39:21.000",
    "request_status": "Pending",
    "responsible_agency": "Department of Sanitation",
    "final_address": "2902 St Andrew St",
    "address_councildis": "B",
    "status": "Assigned to Contractor",
    "contractor": "Richards Disposal",
    "rowid": "1020553",
    "final_x": "3675194.60923",
    "final_y": "527665.537535",
    "longitude": "-90.08811276557445",
    "latitude": "29.945087130839834",
    "geocoded_column": {
      "latitude": "29.945087130839834",
      "longitude": "-90.08811276557445"
    }
  },
  {
    "service_request": "2023-1020552",
    "request_type": "Trash/Recycling",
    "request_reason": "MIssed Recycling Pick-Up",
    "date_created": "2023-07-25T15:39:09.000",
    "date_modified": "2023-07-25T15:39:09.000",
    "request_status": "Pending",
    "responsible_agency": "Department of Sanitation",
    "final_address": "11021 Guildford Rd",
    "address_councildis": "E",
    "status": "Assigned to Contractor",
    "contractor": "Waste Pro",
    "rowid": "1020552",
    "final_x": "3711674.96811",
    "final_y": "564249.382497",
    "longitude": "-89.97156138465503",
    "latitude": "30.044538260398532",
    "geocoded_column": {
      "latitude": "30.044538260398532",
      "longitude": "-89.97156138465503"
    }
  },
  {
    "service_request": "2023-1020551",
    "request_type": "Utility Poles",
    "request_reason": "Utility Pole Leaning",
    "date_created": "2023-07-25T15:35:51.000",
    "date_modified": "2023-07-25T15:36:02.000",
    "request_status": "Pending",
    "responsible_agency": "Utility Company Collective",
    "final_address": "3663 Lancaster St",
    "address_councildis": "C",
    "status": "Pending",
    "rowid": "1020551",
    "final_x": "3709799.18731",
    "final_y": "517108.821429",
    "longitude": "-89.97925027530998",
    "latitude": "29.91498049952065",
    "geocoded_column": {
      "latitude": "29.91498049952065",
      "longitude": "-89.97925027530998"
    }
  },
  {
    "service_request": "2023-1020550",
    "request_type": "Trash/Recycling",
    "request_reason": "Missed Trash Pick-Up",
    "date_created": "2023-07-25T15:35:20.000",
    "date_modified": "2023-07-25T15:35:20.000",
    "request_status": "Pending",
    "responsible_agency": "Department of Sanitation",
    "final_address": "4724 Magazine St",
    "address_councildis": "B",
    "status": "Assigned to Contractor",
    "contractor": "Richards Disposal",
    "rowid": "1020550",
    "final_x": "3669743.34407",
    "final_y": "518589.236407",
    "longitude": "-90.1056311924356",
    "latitude": "29.920291981793138",
    "geocoded_column": {
      "latitude": "29.920291981793138",
      "longitude": "-90.1056311924356"
    }
  },
  {
    "service_request": "2023-1020549",
    "request_type": "Trash/Recycling",
    "request_reason": "MIssed Recycling Pick-Up",
    "date_created": "2023-07-25T15:34:42.000",
    "date_modified": "2023-07-25T16:09:58.000",
    "case_close_date": "2023-07-25T11:09:58.000",
    "request_status": "Closed",
    "responsible_agency": "Department of Sanitation",
    "final_address": "3631 Hamburg St",
    "address_councildis": "D",
    "status": "Invalid Request",
    "contractor": "IV Waste",
    "contractor_action": "Invalid Pick-Up",
    "rowid": "1020549",
    "final_x": "3679280.44514",
    "final_y": "545724.038608",
    "longitude": "-90.07458616898823",
    "latitude": "29.99461909359908",
    "geocoded_column": {
      "latitude": "29.99461909359908",
      "longitude": "-90.07458616898823"
    }
  },
  {
    "service_request": "2023-1020548",
    "request_type": "Trash/Recycling",
    "request_reason": "Order Trash Cart",
    "date_created": "2023-07-25T15:32:28.000",
    "date_modified": "2023-07-25T15:32:29.000",
    "request_status": "Pending",
    "responsible_agency": "Department of Sanitation",
    "final_address": "930 Webster St",
    "address_councildis": "A",
    "status": "Assigned to Contractor",
    "contractor": "Richards Disposal",
    "rowid": "1020548",
    "final_x": "3664287.20621",
    "final_y": "520002.275064",
    "longitude": "-90.12280659093442",
    "latitude": "29.9243370131837",
    "geocoded_column": {
      "latitude": "29.9243370131837",
      "longitude": "-90.12280659093442"
    }
  },
  {
    "service_request": "2023-1020547",
    "request_type": "Trash/Recycling",
    "request_reason": "Request a Large Item Pick Up",
    "date_created": "2023-07-25T15:31:45.000",
    "date_modified": "2023-07-25T15:31:45.000",
    "request_status": "Pending",
    "responsible_agency": "Department of Sanitation",
    "final_address": "2217 Jefferson Ave",
    "address_councildis": "B",
    "status": "Assigned to Contractor",
    "contractor": "Richards Disposal",
    "rowid": "1020547",
    "final_x": "3667925.57274",
    "final_y": "523775.560507",
    "longitude": "-90.11119444611904",
    "latitude": "29.934606154926794",
    "geocoded_column": {
      "latitude": "29.934606154926794",
      "longitude": "-90.11119444611904"
    }
  },
  {
    "service_request": "2023-1020546",
    "request_type": "Trash/Recycling",
    "request_reason": "Order Trash Cart",
    "date_created": "2023-07-25T15:29:37.000",
    "date_modified": "2023-07-25T15:29:38.000",
    "request_status": "Pending",
    "responsible_agency": "Department of Sanitation",
    "final_address": "4742 Citrus Dr",
    "address_councildis": "E",
    "status": "Assigned to Contractor",
    "contractor": "Waste Pro",
    "rowid": "1020546",
    "final_x": "3710712.43845",
    "final_y": "555791.170713",
    "longitude": "-89.97492030028468",
    "latitude": "30.02131295137726",
    "geocoded_column": {
      "latitude": "30.02131295137726",
      "longitude": "-89.97492030028468"
    }
  },
  {
    "service_request": "2023-1020545",
    "request_type": "Parks & Parkways",
    "request_reason": "Request Tree Service (Right of Way/Public Property)",
    "date_created": "2023-07-25T15:28:12.000",
    "date_modified": "2023-07-25T15:28:13.000",
    "request_status": "Pending",
    "responsible_agency": "Department of Parks & Parkway",
    "final_address": "PANOLA ST & S CARROLLTON AVE",
    "address_councildis": "A",
    "status": "Pending",
    "rowid": "1020545",
    "final_x": "3664179.1",
    "final_y": "530625.18",
    "longitude": "-90.12279358333726",
    "latitude": "29.953549756096223",
    "geocoded_column": {
      "latitude": "29.953549756096223",
      "longitude": "-90.12279358333726"
    }
  },
  {
    "service_request": "2023-1020544",
    "request_type": "Trash/Recycling",
    "request_reason": "Repair Trash Cart",
    "date_created": "2023-07-25T15:28:04.000",
    "date_modified": "2023-07-25T15:28:05.000",
    "request_status": "Pending",
    "responsible_agency": "Department of Sanitation",
    "final_address": "1626 Southlawn Blvd",
    "address_councildis": "C",
    "status": "Assigned to Contractor",
    "contractor": "Richards Disposal",
    "rowid": "1020544",
    "final_x": "3695208.42442",
    "final_y": "525235.640445",
    "longitude": "-90.02501084123048",
    "latitude": "29.93779253671629",
    "geocoded_column": {
      "latitude": "29.93779253671629",
      "longitude": "-90.02501084123048"
    }
  },
  {
    "service_request": "2023-1020543",
    "request_type": "Property Maintenance",
    "request_reason": "Property Maintenance",
    "date_created": "2023-07-25T15:25:08.000",
    "date_modified": "2023-07-25T15:25:08.000",
    "request_status": "Pending",
    "responsible_agency": "Department of Code Enforcement",
    "final_address": "3600 BLK Havana St",
    "address_councildis": "D",
    "status": "Pending",
    "rowid": "1020543",
    "final_x": "3680811.84274",
    "final_y": "545787.7048",
    "longitude": "-90.06974645489915",
    "latitude": "29.99474780700183",
    "geocoded_column": {
      "latitude": "29.99474780700183",
      "longitude": "-90.06974645489915"
    }
  },
  {
    "service_request": "2023-1020542",
    "request_type": "Trash/Recycling",
    "request_reason": "Repair Trash Cart",
    "date_created": "2023-07-25T15:24:44.000",
    "date_modified": "2023-07-25T15:24:44.000",
    "request_status": "Pending",
    "responsible_agency": "Department of Sanitation",
    "final_address": "5217 Coliseum St",
    "address_councildis": "B",
    "status": "Assigned to Contractor",
    "contractor": "Richards Disposal",
    "rowid": "1020542",
    "final_x": "3667921.2809",
    "final_y": "519707.062328",
    "longitude": "-90.11134497290969",
    "latitude": "29.923419204860625",
    "geocoded_column": {
      "latitude": "29.923419204860625",
      "longitude": "-90.11134497290969"
    }
  },
  {
    "service_request": "2023-1020541",
    "request_type": "Trash/Recycling",
    "request_reason": "Repair Trash Cart",
    "date_created": "2023-07-25T15:23:19.000",
    "date_modified": "2023-07-25T15:23:19.000",
    "request_status": "Pending",
    "responsible_agency": "Department of Sanitation",
    "final_address": "2525 Dublin St",
    "address_councildis": "A",
    "status": "Assigned to Contractor",
    "contractor": "Richards Disposal",
    "rowid": "1020541",
    "final_x": "3665041.28884",
    "final_y": "532199.663555",
    "longitude": "-90.12001849989939",
    "latitude": "29.957853999003476",
    "geocoded_column": {
      "latitude": "29.957853999003476",
      "longitude": "-90.12001849989939"
    }
  },
  {
    "service_request": "2023-1020540",
    "request_type": "Trash/Recycling",
    "request_reason": "Illegal Dumping",
    "date_created": "2023-07-25T15:23:14.000",
    "date_modified": "2023-07-25T15:23:14.000",
    "request_status": "Pending",
    "responsible_agency": "Department of Sanitation",
    "final_address": "1241 Independence St",
    "address_councildis": "D",
    "status": "Pending",
    "rowid": "1020540",
    "final_x": "3691154.74864",
    "final_y": "536199.273863",
    "longitude": "-90.03741710752395",
    "latitude": "29.96806537719049",
    "geocoded_column": {
      "latitude": "29.96806537719049",
      "longitude": "-90.03741710752395"
    }
  },
  {
    "service_request": "2023-1020539",
    "request_type": "Trash/Recycling",
    "request_reason": "Order Trash Cart",
    "date_created": "2023-07-25T15:19:40.000",
    "date_modified": "2023-07-25T15:19:41.000",
    "request_status": "Pending",
    "responsible_agency": "Department of Sanitation",
    "final_address": "1716 Cambronne St",
    "address_councildis": "A",
    "status": "Assigned to Contractor",
    "contractor": "Richards Disposal",
    "rowid": "1020539",
    "final_x": "3662424.83821",
    "final_y": "530543.421378",
    "longitude": "-90.12833554476613",
    "latitude": "29.95337578969376",
    "geocoded_column": {
      "latitude": "29.95337578969376",
      "longitude": "-90.12833554476613"
    }
  },
  {
    "service_request": "2023-1020538",
    "request_type": "Trash/Recycling",
    "request_reason": "Missed Trash Pick-Up",
    "date_created": "2023-07-25T15:18:05.000",
    "date_modified": "2023-07-25T15:18:05.000",
    "request_status": "Closed",
    "responsible_agency": "Department of Sanitation",
    "final_address": "1401 S Rendon St",
    "address_councildis": "B",
    "status": "Resolved",
    "rowid": "1020538",
    "final_x": "3670077.35284",
    "final_y": "531554.604995",
    "longitude": "-90.10413785485666",
    "latitude": "29.955932710853986",
    "geocoded_column": {
      "latitude": "29.955932710853986",
      "longitude": "-90.10413785485666"
    }
  },
  {
    "service_request": "2023-1020537",
    "request_type": "Trash/Recycling",
    "request_reason": "Illegal Dumping",
    "date_created": "2023-07-25T15:17:55.000",
    "date_modified": "2023-07-25T15:17:55.000",
    "request_status": "Pending",
    "responsible_agency": "Department of Sanitation",
    "final_address": "438 S Lopez St",
    "address_councildis": "B",
    "status": "Pending",
    "rowid": "1020537",
    "final_x": "3672961.55617",
    "final_y": "534966.554886",
    "longitude": "-90.09491408012542",
    "latitude": "29.965229043345662",
    "geocoded_column": {
      "latitude": "29.965229043345662",
      "longitude": "-90.09491408012542"
    }
  },
  {
    "service_request": "2023-1020536",
    "request_type": "Abandoned Vehicles",
    "request_reason": "Abandoned/Junk Vehicles",
    "date_created": "2023-07-25T15:17:07.000",
    "date_modified": "2023-07-25T15:17:07.000",
    "request_status": "Pending",
    "responsible_agency": "Department of Public Works",
    "final_address": "100 BLK N Bernadotte St",
    "address_councildis": "A",
    "status": "Pending",
    "rowid": "1020536",
    "final_x": "3668967.66793",
    "final_y": "540263.984548",
    "longitude": "-90.10734761824288",
    "latitude": "29.979913284716734",
    "geocoded_column": {
      "latitude": "29.979913284716734",
      "longitude": "-90.10734761824288"
    }
  },
  {
    "service_request": "2023-1020535",
    "request_type": "Trash/Recycling",
    "request_reason": "Missed Trash Pick-Up",
    "date_created": "2023-07-25T15:06:10.000",
    "date_modified": "2023-07-25T15:06:11.000",
    "request_status": "Pending",
    "responsible_agency": "Department of Sanitation",
    "final_address": "7531 Wave Dr",
    "address_councildis": "E",
    "status": "Assigned to Contractor",
    "contractor": "Waste Pro",
    "rowid": "1020535",
    "final_x": "3715340.99339",
    "final_y": "568386.047461",
    "longitude": "-89.95981847766456",
    "latitude": "30.055792091368904",
    "geocoded_column": {
      "latitude": "30.055792091368904",
      "longitude": "-89.95981847766456"
    }
  },
  {
    "service_request": "2023-1020534",
    "request_type": "Trash/Recycling",
    "request_reason": "Request a Large Item Pick Up",
    "date_created": "2023-07-25T15:05:04.000",
    "date_modified": "2023-07-25T15:05:04.000",
    "request_status": "Pending",
    "responsible_agency": "Department of Sanitation",
    "final_address": "6803 Louis Xiv St",
    "address_councildis": "A",
    "status": "Assigned to Contractor",
    "contractor": "IV Waste",
    "rowid": "1020534",
    "final_x": "3668672.77313",
    "final_y": "552759.890262",
    "longitude": "-90.10785691816447",
    "latitude": "30.014281383969088",
    "geocoded_column": {
      "latitude": "30.014281383969088",
      "longitude": "-90.10785691816447"
    }
  },
  {
    "service_request": "2023-1020533",
    "request_type": "Trash/Recycling",
    "request_reason": "Replace Trash Cart",
    "date_created": "2023-07-25T15:00:02.000",
    "date_modified": "2023-07-25T15:00:02.000",
    "request_status": "Pending",
    "responsible_agency": "Department of Sanitation",
    "final_address": "2631 Ap Tureaud Ave",
    "address_councildis": "D",
    "status": "Assigned to Contractor",
    "contractor": "IV Waste",
    "rowid": "1020533",
    "final_x": "3681613.89749",
    "final_y": "541888.407308",
    "longitude": "-90.06734894938909",
    "latitude": "29.98400176967146",
    "geocoded_column": {
      "latitude": "29.98400176967146",
      "longitude": "-90.06734894938909"
    }
  },
  {
    "service_request": "2023-1020532",
    "request_type": "Trash/Recycling",
    "request_reason": "Missed Trash Pick-Up",
    "date_created": "2023-07-25T14:59:36.000",
    "date_modified": "2023-07-25T14:59:37.000",
    "request_status": "Pending",
    "responsible_agency": "Department of Sanitation",
    "final_address": "7520 Hickman St",
    "address_councildis": "E",
    "status": "Assigned to Contractor",
    "contractor": "Waste Pro",
    "rowid": "1020532",
    "final_x": "3706229.5763",
    "final_y": "563009.068384",
    "longitude": "-89.98881717745193",
    "latitude": "30.041304708118304",
    "geocoded_column": {
      "latitude": "30.041304708118304",
      "longitude": "-89.98881717745193"
    }
  },
  {
    "service_request": "2023-1020531",
    "request_type": "Trash/Recycling",
    "request_reason": "Request a Large Item Pick Up",
    "date_created": "2023-07-25T14:59:23.000",
    "date_modified": "2023-07-25T14:59:23.000",
    "request_status": "Pending",
    "responsible_agency": "Department of Sanitation",
    "final_address": "617 David St",
    "address_councildis": "A",
    "status": "Assigned to Contractor",
    "contractor": "Richards Disposal",
    "rowid": "1020531",
    "final_x": "3672047.77876",
    "final_y": "540096.798859",
    "longitude": "-90.09762503075697",
    "latitude": "29.97936260530238",
    "geocoded_column": {
      "latitude": "29.97936260530238",
      "longitude": "-90.09762503075697"
    }
  },
  {
    "service_request": "2023-1020530",
    "request_type": "Trash/Recycling",
    "request_reason": "Missed Trash Pick-Up",
    "date_created": "2023-07-25T14:56:58.000",
    "date_modified": "2023-07-25T14:56:59.000",
    "request_status": "Pending",
    "responsible_agency": "Department of Sanitation",
    "final_address": "614 Wagner St",
    "address_councildis": "C",
    "status": "Assigned to Contractor",
    "contractor": "Richards Disposal",
    "rowid": "1020530",
    "final_x": "3690609.33686",
    "final_y": "529234.560832",
    "longitude": "-90.03938790974573",
    "latitude": "29.948931789692498",
    "geocoded_column": {
      "latitude": "29.948931789692498",
      "longitude": "-90.03938790974573"
    }
  },
  {
    "service_request": "2023-1020529",
    "request_type": "Abandoned Vehicles",
    "request_reason": "Abandoned/Junk Vehicles",
    "date_created": "2023-07-25T14:56:12.000",
    "date_modified": "2023-07-25T14:56:12.000",
    "request_status": "Pending",
    "responsible_agency": "Department of Public Works",
    "final_address": "100 BLK Lowerline St",
    "address_councildis": "A",
    "status": "Pending",
    "rowid": "1020529",
    "final_x": "3661111.96941",
    "final_y": "522992.983329",
    "longitude": "-90.1327308510347",
    "latitude": "29.932652382292265",
    "geocoded_column": {
      "latitude": "29.932652382292265",
      "longitude": "-90.1327308510347"
    }
  },
  {
    "service_request": "2023-1020528",
    "request_type": "Trash/Recycling",
    "request_reason": "Request a Large Item Pick Up",
    "date_created": "2023-07-25T14:55:40.000",
    "date_modified": "2023-07-25T14:55:40.000",
    "request_status": "Pending",
    "responsible_agency": "Department of Sanitation",
    "final_address": "419 S Murat St",
    "address_councildis": "A",
    "status": "Assigned to Contractor",
    "contractor": "Richards Disposal",
    "rowid": "1020528",
    "final_x": "3668826.03476",
    "final_y": "538297.115721",
    "longitude": "-90.10786139476592",
    "latitude": "29.97450922465419",
    "geocoded_column": {
      "latitude": "29.97450922465419",
      "longitude": "-90.10786139476592"
    }
  },
  {
    "service_request": "2023-1020527",
    "request_type": "Trash/Recycling",
    "request_reason": "Replace Trash Cart",
    "date_created": "2023-07-25T14:53:57.000",
    "date_modified": "2023-07-25T14:53:57.000",
    "request_status": "Pending",
    "responsible_agency": "Department of Sanitation",
    "final_address": "4513 Shalimar Dr",
    "address_councildis": "D",
    "status": "Assigned to Contractor",
    "contractor": "Waste Pro",
    "rowid": "1020527",
    "final_x": "3697359.70557",
    "final_y": "552994.983703",
    "longitude": "-90.0172124937352",
    "latitude": "30.01405299835901",
    "geocoded_column": {
      "latitude": "30.01405299835901",
      "longitude": "-90.0172124937352"
    }
  },
  {
    "service_request": "2023-1020526",
    "request_type": "Traffic Signals/Signs/Striping/Streetlights",
    "request_reason": "Traffic Signal Malfunctioning/Damaged",
    "date_created": "2023-07-25T14:53:24.000",
    "date_modified": "2023-07-25T14:53:24.000",
    "request_status": "Pending",
    "responsible_agency": "Department of Public Works",
    "final_address": "4000 BLK Dumaine St",
    "address_councildis": "A",
    "status": "Pending",
    "rowid": "1020526",
    "final_x": "3673272.79712",
    "final_y": "540470.131118",
    "longitude": "-90.09374317563295",
    "latitude": "29.980352758935776",
    "geocoded_column": {
      "latitude": "29.980352758935776",
      "longitude": "-90.09374317563295"
    }
  },
  {
    "service_request": "2023-1020525",
    "request_type": "Trash/Recycling",
    "request_reason": "Repair Trash Cart",
    "date_created": "2023-07-25T14:51:17.000",
    "date_modified": "2023-07-25T14:51:17.000",
    "request_status": "Pending",
    "responsible_agency": "Department of Sanitation",
    "final_address": "419 S Murat St",
    "address_councildis": "A",
    "status": "Assigned to Contractor",
    "contractor": "Richards Disposal",
    "rowid": "1020525",
    "final_x": "3668826.03476",
    "final_y": "538297.115721",
    "longitude": "-90.10786139476592",
    "latitude": "29.97450922465419",
    "geocoded_column": {
      "latitude": "29.97450922465419",
      "longitude": "-90.10786139476592"
    }
  },
  {
    "service_request": "2023-1020524",
    "request_type": "Traffic Signals/Signs/Striping/Streetlights",
    "request_reason": "Striping/Road Surface Markings",
    "date_created": "2023-07-25T14:49:33.000",
    "date_modified": "2023-07-25T14:49:33.000",
    "request_status": "Pending",
    "responsible_agency": "Department of Public Works",
    "final_address": "4000 BLK Dumaine St",
    "address_councildis": "A",
    "status": "Pending",
    "rowid": "1020524",
    "final_x": "3673272.79712",
    "final_y": "540470.131118",
    "longitude": "-90.09374317563295",
    "latitude": "29.980352758935776",
    "geocoded_column": {
      "latitude": "29.980352758935776",
      "longitude": "-90.09374317563295"
    }
  },
  {
    "service_request": "2023-1020523",
    "request_type": "Trash/Recycling",
    "request_reason": "Order Recycling Cart",
    "date_created": "2023-07-25T14:49:11.000",
    "date_modified": "2023-07-25T14:49:11.000",
    "request_status": "Pending",
    "responsible_agency": "Department of Sanitation",
    "final_address": "5730 W Louis Prima Dr",
    "address_councildis": "E",
    "status": "Pending",
    "rowid": "1020523",
    "final_x": "3715706.44133",
    "final_y": "561834.129375",
    "longitude": "-89.95891178299294",
    "latitude": "30.037764936369296",
    "geocoded_column": {
      "latitude": "30.037764936369296",
      "longitude": "-89.95891178299294"
    }
  },