[
  {
    "service_request": "2023-1057544",
    "request_type": "Roads/Drainage",
    "request_reason": "Pothole",
    "date_created": "2023-12-27T00:29:37.000",
    "date_modified": "2023-12-27T00:29:37.000",
    "request_status": "Pending",
    "responsible_agency": "Department of Public Works",
    "final_address": "1312 Milan St",
    "address_councildis": "B",
    "status": "Pending",
    "rowid": "1057544",
    "final_x": "3671625.82823",
    "final_y": "520286.919608",
    "longitude": "-90.09963137110304",
    "latitude": "29.92490447494246",
    "geocoded_column": {
      "latitude": "29.92490447494246",
      "longitude": "-90.09963137110304"
    }
  },
  {
    "service_request": "2023-1057543",
    "request_type": "Mosquito, Termite & Rodent Control",
    "request_reason": "Mosquito Complaint",
    "date_created": "2023-12-27T00:17:31.000",
    "date_modified": "2023-12-27T00:17:31.000",
    "request_status": "Pending",
    "responsible_agency": "Mosquito, Termite & Rodent Control Board",
    "final_address": "6119 Marigny St",
    "address_councildis": "D",
    "status": "Pending",
    "rowid": "1057543",
    "final_x": "3683976.6102",
    "final_y": "555526.977497",
    "longitude": "-90.05940729928459",
    "latitude": "30.021430934880307",
    "geocoded_column": {
      "latitude": "30.021430934880307",
      "longitude": "-90.05940729928459"
    }
  },
  {
    "service_request": "2023-1057542",
    "request_type": "Roads/Drainage",
    "request_reason": "Pothole",
    "date_created": "2023-12-26T23:20:27.000",
    "date_modified": "2023-12-26T23:20:27.000",
    "request_status": "Pending",
    "responsible_agency": "Department of Public Works",
    "final_address": "4216 Chestnut St",
    "address_councildis": "B",
    "status": "Pending",
    "rowid": "1057542",
    "final_x": "3671574.31393",
    "final_y": "519539.203703",
    "longitude": "-90.09981939416457",
    "latitude": "29.922850019854593",
    "geocoded_column": {
      "latitude": "29.922850019854593",
      "longitude": "-90.09981939416457"
    }
  },
  {
    "service_request": "2023-1057541",
    "request_type": "Traffic Signals/Signs/Striping/Streetlights",
    "request_reason": "Street Light Knocked Down/Leaning",
    "date_created": "2023-12-26T22:03:05.000",
    "date_modified": "2023-12-26T22:03:05.000",
    "request_status": "Pending",
    "responsible_agency": "Department of Public Works",
    "final_address": "4719 Clio St",
    "address_councildis": "B",
    "status": "Pending",
    "contractor": "Legacy Professional Services",
    "rowid": "1057541",
    "final_x": "3669613.70126",
    "final_y": "532757.130372",
    "longitude": "-90.10556122346082",
    "latitude": "29.959252926845352",
    "geocoded_column": {
      "latitude": "29.959252926845352",
      "longitude": "-90.10556122346082"
    }
  },
  {
    "service_request": "2023-1057540",
    "request_type": "Trash/Recycling",
    "request_reason": "Illegal Dumping",
    "date_created": "2023-12-26T21:54:17.000",
    "date_modified": "2023-12-26T21:54:17.000",
    "request_status": "Pending",
    "responsible_agency": "Department of Sanitation",
    "final_address": "2425 Law St",
    "address_councildis": "D",
    "status": "Pending",
    "rowid": "1057540",
    "final_x": "3685634.551",
    "final_y": "541966.329996",
    "longitude": "-90.05464682423352",
    "latitude": "29.984093271117256",
    "geocoded_column": {
      "latitude": "29.984093271117256",
      "longitude": "-90.05464682423352"
    }
  },
  {
    "service_request": "2023-1057539",
    "request_type": "Trash/Recycling",
    "request_reason": "Illegal Dumping",
    "date_created": "2023-12-26T21:53:02.000",
    "date_modified": "2023-12-26T21:53:02.000",
    "request_status": "Pending",
    "responsible_agency": "Department of Sanitation",
    "final_address": "2425 Law St",
    "address_councildis": "D",
    "status": "Pending",
    "rowid": "1057539",
    "final_x": "3685634.551",
    "final_y": "541966.329996",
    "longitude": "-90.05464682423352",
    "latitude": "29.984093271117256",
    "geocoded_column": {
      "latitude": "29.984093271117256",
      "longitude": "-90.05464682423352"
    }
  },
  {
    "service_request": "2023-1057538",
    "request_type": "Trash/Recycling",
    "request_reason": "Illegal Dumping",
    "date_created": "2023-12-26T21:51:45.000",
    "date_modified": "2023-12-26T21:51:45.000",
    "request_status": "Pending",
    "responsible_agency": "Department of Sanitation",
    "final_address": "2425 Law St",
    "address_councildis": "D",
    "status": "Pending",
    "rowid": "1057538",
    "final_x": "3685634.551",
    "final_y": "541966.329996",
    "longitude": "-90.05464682423352",
    "latitude": "29.984093271117256",
    "geocoded_column": {
      "latitude": "29.984093271117256",
      "longitude": "-90.05464682423352"
    }
  },
  {
    "service_request": "2023-1057537",
    "request_type": "Trash/Recycling",
    "request_reason": "Illegal Dumping",
    "date_created": "2023-12-26T21:49:50.000",
    "date_modified": "2023-12-26T21:49:50.000",
    "request_status": "Pending",
    "responsible_agency": "Department of Sanitation",
    "final_address": "2425 Law St",
    "address_councildis": "D",
    "status": "Pending",
    "rowid": "1057537",
    "final_x": "3685634.551",
    "final_y": "541966.329996",
    "longitude": "-90.05464682423352",
    "latitude": "29.984093271117256",
    "geocoded_column": {
      "latitude": "29.984093271117256",
      "longitude": "-90.05464682423352"
    }
  },
  {
    "service_request": "2023-1057536",
    "request_type": "Trash/Recycling",
    "request_reason": "Missed Trash Pick-Up",
    "date_created": "2023-12-26T21:29:23.000",
    "date_modified": "2023-12-26T21:29:24.000",
    "request_status": "Pending",
    "responsible_agency": "Department of Sanitation",
    "final_address": "961 Germain St",
    "address_councildis": "A",
    "status": "Assigned to Contractor",
    "contractor": "IV Waste",
    "rowid": "1057536",
    "final_x": "3670490.04187",
    "final_y": "547851.230418",
    "longitude": "-90.10228186318197",
    "latitude": "30.0007307262159",
    "geocoded_column": {
      "latitude": "30.0007307262159",
      "longitude": "-90.10228186318197"
    }
  },
  {
    "service_request": "2023-1057535",
    "request_type": "Trash/Recycling",
    "request_reason": "Missed Trash Pick-Up",
    "date_created": "2023-12-26T20:59:12.000",
    "date_modified": "2023-12-26T20:59:13.000",
    "request_status": "Pending",
    "responsible_agency": "Department of Sanitation",
    "final_address": "1301 General Taylor St",
    "address_councildis": "B",
    "status": "Assigned to Contractor",
    "contractor": "Richards Disposal",
    "rowid": "1057535",
    "final_x": "3672844.37032",
    "final_y": "520291.135864",
    "longitude": "-90.09578468200387",
    "latitude": "29.924879936904606",
    "geocoded_column": {
      "latitude": "29.924879936904606",
      "longitude": "-90.09578468200387"
    }
  },
  {
    "service_request": "2023-1057534",
    "request_type": "Trash/Recycling",
    "request_reason": "Order Trash Cart",
    "date_created": "2023-12-26T20:55:00.000",
    "date_modified": "2023-12-26T20:55:01.000",
    "request_status": "Pending",
    "responsible_agency": "Department of Sanitation",
    "final_address": "729 Ninth St",
    "address_councildis": "B",
    "status": "Assigned to Contractor",
    "contractor": "Richards Disposal",
    "rowid": "1057534",
    "final_x": "3676595.10632",
    "final_y": "519021.726071",
    "longitude": "-90.08398852199231",
    "latitude": "29.921277549772597",
    "geocoded_column": {
      "latitude": "29.921277549772597",
      "longitude": "-90.08398852199231"
    }
  },
  {
    "service_request": "2023-1057533",
    "request_type": "Trash/Recycling",
    "request_reason": "Request a Large Item Pick Up",
    "date_created": "2023-12-26T20:48:32.000",
    "date_modified": "2023-12-26T20:48:33.000",
    "request_status": "Pending",
    "responsible_agency": "Department of Sanitation",
    "final_address": "7606 Briarwood Dr",
    "address_councildis": "E",
    "status": "Assigned to Contractor",
    "contractor": "Waste Pro",
    "rowid": "1057533",
    "final_x": "3717601.57119",
    "final_y": "570693.763239",
    "longitude": "-89.95258539685423",
    "latitude": "30.06206265117319",
    "geocoded_column": {
      "latitude": "30.06206265117319",
      "longitude": "-89.95258539685423"
    }
  },
  {
    "service_request": "2023-1057532",
    "request_type": "Trash/Recycling",
    "request_reason": "Replace Trash Cart",
    "date_created": "2023-12-26T19:51:15.000",
    "date_modified": "2023-12-26T19:51:16.000",
    "request_status": "Pending",
    "responsible_agency": "Department of Sanitation",
    "final_address": "2856 Baronne St",
    "address_councildis": "B",
    "status": "Assigned to Contractor",
    "contractor": "Richards Disposal",
    "rowid": "1057532",
    "final_x": "3675145.24456",
    "final_y": "522863.425275",
    "longitude": "-90.08843335058253",
    "latitude": "29.931884369415908",
    "geocoded_column": {
      "latitude": "29.931884369415908",
      "longitude": "-90.08843335058253"
    }
  },
  {
    "service_request": "2023-1057531",
    "request_type": "Trash/Recycling",
    "request_reason": "Missed Trash Pick-Up",
    "date_created": "2023-12-26T19:45:04.000",
    "date_modified": "2023-12-26T19:45:05.000",
    "request_status": "Pending",
    "responsible_agency": "Department of Sanitation",
    "final_address": "78 Tern St",
    "address_councildis": "D",
    "status": "Assigned to Contractor",
    "contractor": "IV Waste",
    "rowid": "1057531",
    "final_x": "3674884.00289",
    "final_y": "557150.355931",
    "longitude": "-90.08808175413242",
    "latitude": "30.026169464774615",
    "geocoded_column": {
      "latitude": "30.026169464774615",
      "longitude": "-90.08808175413242"
    }
  },
  {
    "service_request": "2023-1057530",
    "request_type": "Trash/Recycling",
    "request_reason": "Missed Trash Pick-Up",
    "date_created": "2023-12-26T19:38:25.000",
    "date_modified": "2023-12-26T19:38:27.000",
    "request_status": "Pending",
    "responsible_agency": "Department of Sanitation",
    "final_address": "316 12Th St",
    "address_councildis": "A",
    "status": "Assigned to Contractor",
    "contractor": "IV Waste",
    "rowid": "1057530",
    "final_x": "3664976.45632",
    "final_y": "547779.54581",
    "longitude": "-90.11970214837585",
    "latitude": "30.000695344227925",
    "geocoded_column": {
      "latitude": "30.000695344227925",
      "longitude": "-90.11970214837585"
    }
  },
  {
    "service_request": "2023-1057529",
    "request_type": "Trash/Recycling",
    "request_reason": "Request a Large Item Pick Up",
    "date_created": "2023-12-26T19:33:34.000",
    "date_modified": "2023-12-26T19:33:35.000",
    "request_status": "Pending",
    "responsible_agency": "Department of Sanitation",
    "final_address": "7919 Sandy Cove Dr",
    "address_councildis": "E",
    "status": "Assigned to Contractor",
    "contractor": "Waste Pro",
    "rowid": "1057529",
    "final_x": "3714962.90975",
    "final_y": "570314.194023",
    "longitude": "-89.9609405223515",
    "latitude": "30.061106155586664",
    "geocoded_column": {
      "latitude": "30.061106155586664",
      "longitude": "-89.9609405223515"
    }
  },
  {
    "service_request": "2023-1057528",
    "request_type": "Trash/Recycling",
    "request_reason": "Request a Large Item Pick Up",
    "date_created": "2023-12-26T19:25:02.000",
    "date_modified": "2023-12-26T19:25:03.000",
    "request_status": "Pending",
    "responsible_agency": "Department of Sanitation",
    "final_address": "7919 Sandy Cove Dr",
    "address_councildis": "E",
    "status": "Assigned to Contractor",
    "contractor": "Waste Pro",
    "rowid": "1057528",
    "final_x": "3714962.90975",
    "final_y": "570314.194023",
    "longitude": "-89.9609405223515",
    "latitude": "30.061106155586664",
    "geocoded_column": {
      "latitude": "30.061106155586664",
      "longitude": "-89.9609405223515"
    }
  },
  {
    "service_request": "2023-1057527",
    "request_type": "Roads/Drainage",
    "request_reason": "Road Shoulder Repair",
    "date_created": "2023-12-26T19:14:04.000",
    "date_modified": "2023-12-26T19:14:04.000",
    "request_status": "Pending",
    "responsible_agency": "Department of Public Works",
    "final_address": "1725 Dufossat St",
    "address_councildis": "B",
    "status": "Pending",
    "rowid": "1057527",
    "final_x": "3668192.68743",
    "final_y": "522036.060218",
    "longitude": "-90.11040977787289",
    "latitude": "29.92981524824353",
    "geocoded_column": {
      "latitude": "29.92981524824353",
      "longitude": "-90.11040977787289"
    }
  },
  {
    "service_request": "2023-1057526",
    "request_type": "Roads/Drainage",
    "request_reason": "Road Shoulder Repair",
    "date_created": "2023-12-26T19:11:14.000",
    "date_modified": "2023-12-26T19:11:14.000",
    "request_status": "Pending",
    "responsible_agency": "Department of Public Works",
    "final_address": "5030 Danneel St",
    "address_councildis": "B",
    "status": "Pending",
    "rowid": "1057526",
    "final_x": "3668583.04846",
    "final_y": "522061.497338",
    "longitude": "-90.10917661362056",
    "latitude": "29.929873730703292",
    "geocoded_column": {
      "latitude": "29.929873730703292",
      "longitude": "-90.10917661362056"
    }
  },
  {
    "service_request": "2023-1057525",
    "request_type": "Traffic Signals/Signs/Striping/Streetlights",
    "request_reason": "Street Light Outage/Malfunction",
    "date_created": "2023-12-26T19:03:52.000",
    "date_modified": "2023-12-26T19:03:53.000",
    "request_status": "Pending",
    "responsible_agency": "Department of Public Works",
    "final_address": "2910 Behrman Hwy",
    "address_councildis": "C",
    "status": "Assigned to Contractor",
    "contractor": "Legacy Professional Services",
    "rowid": "1057525",
    "final_x": "3693606.26902",
    "final_y": "520067.011512",
    "longitude": "-90.03025452101782",
    "latitude": "29.923630768776373",
    "geocoded_column": {
      "latitude": "29.923630768776373",
      "longitude": "-90.03025452101782"
    }
  },
  {
    "service_request": "2023-1057524",
    "request_type": "Trash/Recycling",
    "request_reason": "MIssed Recycling Pick-Up",
    "date_created": "2023-12-26T18:52:18.000",
    "date_modified": "2023-12-26T18:52:19.000",
    "request_status": "Pending",
    "responsible_agency": "Department of Sanitation",
    "final_address": "7001 Queensway Dr",
    "address_councildis": "E",
    "status": "Assigned to Contractor",
    "contractor": "Waste Pro",
    "rowid": "1057524",
    "final_x": "3719390.3685",
    "final_y": "569303.967206",
    "longitude": "-89.94698420587326",
    "latitude": "30.058181902122055",
    "geocoded_column": {
      "latitude": "30.058181902122055",
      "longitude": "-89.94698420587326"
    }
  },
  {
    "service_request": "2023-1057523",
    "request_type": "Trash/Recycling",
    "request_reason": "Missed Trash Pick-Up",
    "date_created": "2023-12-26T18:35:20.000",
    "date_modified": "2023-12-26T18:35:23.000",
    "request_status": "Pending",
    "responsible_agency": "Department of Sanitation",
    "final_address": "0 BLK N Wren St",
    "address_councildis": "D",
    "status": "Assigned to Contractor",
    "contractor": "IV Waste",
    "rowid": "1057523",
    "final_x": "3672705.59156",
    "final_y": "556067.320724",
    "longitude": "-90.09500226599023",
    "latitude": "30.023256423355036",
    "geocoded_column": {
      "latitude": "30.023256423355036",
      "longitude": "-90.09500226599023"
    }
  },
  {
    "service_request": "2023-1057522",
    "request_type": "Trash/Recycling",
    "request_reason": "Missed Trash Pick-Up",
    "date_created": "2023-12-26T18:12:59.000",
    "date_modified": "2023-12-26T18:13:00.000",
    "request_status": "Pending",
    "responsible_agency": "Department of Sanitation",
    "final_address": "1020 Wilson Dr",
    "address_councildis": "A",
    "status": "Assigned to Contractor",
    "contractor": "Richards Disposal",
    "rowid": "1057522",
    "final_x": "3674496.94984",
    "final_y": "540585.951371",
    "longitude": "-90.08987280388484",
    "latitude": "29.980634754161045",
    "geocoded_column": {
      "latitude": "29.980634754161045",
      "longitude": "-90.08987280388484"
    }
  },
  {
    "service_request": "2023-1057521",
    "request_type": "Trash/Recycling",
    "request_reason": "Repair Trash Cart",
    "date_created": "2023-12-26T18:03:54.000",
    "date_modified": "2023-12-26T18:03:55.000",
    "request_status": "Pending",
    "responsible_agency": "Department of Sanitation",
    "final_address": "1208 Louisa St",
    "address_councildis": "C",
    "status": "Assigned to Contractor",
    "contractor": "IV Waste",
    "rowid": "1057521",
    "final_x": "3689634.39708",
    "final_y": "536307.329927",
    "longitude": "-90.04221457456592",
    "latitude": "29.968409685591183",
    "geocoded_column": {
      "latitude": "29.968409685591183",
      "longitude": "-90.04221457456592"
    }
  },
  {
    "service_request": "2023-1057520",
    "request_type": "Trash/Recycling",
    "request_reason": "Missed Trash Pick-Up",
    "date_created": "2023-12-26T17:47:40.000",
    "date_modified": "2023-12-26T17:47:41.000",
    "request_status": "Pending",
    "responsible_agency": "Department of Sanitation",
    "final_address": "7061 W Renaissance Ct",
    "address_councildis": "E",
    "status": "Assigned to Contractor",
    "contractor": "Waste Pro",
    "rowid": "1057520",
    "final_x": "3716899.56229",
    "final_y": "567320.623908",
    "longitude": "-89.95493269697825",
    "latitude": "30.052811153860855",
    "geocoded_column": {
      "latitude": "30.052811153860855",
      "longitude": "-89.95493269697825"
    }
  },
  {
    "service_request": "2023-1057519",
    "request_type": "Trash/Recycling",
    "request_reason": "Missed Trash Pick-Up",
    "date_created": "2023-12-26T17:45:32.000",
    "date_modified": "2023-12-26T17:45:33.000",
    "request_status": "Pending",
    "responsible_agency": "Department of Sanitation",
    "final_address": "8036 Read Blvd",
    "address_councildis": "E",
    "status": "Assigned to Contractor",
    "contractor": "Waste Pro",
    "rowid": "1057519",
    "final_x": "3707699.87761",
    "final_y": "565823.164643",
    "longitude": "-89.98406581714222",
    "latitude": "30.0489948292551",
    "geocoded_column": {
      "latitude": "30.0489948292551",
      "longitude": "-89.98406581714222"
    }
  },
  {
    "service_request": "2023-1057518",
    "request_type": "Trash/Recycling",
    "request_reason": "Request a Large Item Pick Up",
    "date_created": "2023-12-26T17:06:28.000",
    "date_modified": "2023-12-26T17:06:28.000",
    "request_status": "Pending",
    "responsible_agency": "Department of Sanitation",
    "final_address": "4842 Gabriel Dr",
    "address_councildis": "E",
    "status": "Assigned to Contractor",
    "contractor": "Waste Pro",
    "rowid": "1057518",
    "final_x": "3708759.61144",
    "final_y": "556382.21609",
    "longitude": "-89.98106859726059",
    "latitude": "30.023001607871134",
    "geocoded_column": {
      "latitude": "30.023001607871134",
      "longitude": "-89.98106859726059"
    }
  },
  {
    "service_request": "2023-1057517",
    "request_type": "Trash/Recycling",
    "request_reason": "Missed Trash Pick-Up",
    "date_created": "2023-12-26T17:03:34.000",
    "date_modified": "2023-12-26T17:03:35.000",
    "request_status": "Pending",
    "responsible_agency": "Department of Sanitation",
    "final_address": "715 Antonine St",
    "address_councildis": "B",
    "status": "Assigned to Contractor",
    "contractor": "Richards Disposal",
    "rowid": "1057517",
    "final_x": "3674355.43291",
    "final_y": "517941.82655",
    "longitude": "-90.09109514579909",
    "latitude": "29.918375128380973",
    "geocoded_column": {
      "latitude": "29.918375128380973",
      "longitude": "-90.09109514579909"
    }
  },
  {
    "service_request": "2023-1057516",
    "request_type": "Trash/Recycling",
    "request_reason": "Replace Trash Cart",
    "date_created": "2023-12-26T16:59:27.000",
    "date_modified": "2023-12-26T16:59:28.000",
    "request_status": "Pending",
    "responsible_agency": "Department of Sanitation",
    "final_address": "2725 Third St",
    "address_councildis": "B",
    "status": "Assigned to Contractor",
    "contractor": "Richards Disposal",
    "rowid": "1057516",
    "final_x": "3674177.01652",
    "final_y": "526374.483262",
    "longitude": "-90.09136980882762",
    "latitude": "29.94156752356045",
    "geocoded_column": {
      "latitude": "29.94156752356045",
      "longitude": "-90.09136980882762"
    }
  },
  {
    "service_request": "2023-1057515",
    "request_type": "Parks & Parkways",
    "request_reason": "Request Tree Service (Right of Way/Public Property)",
    "date_created": "2023-12-26T16:58:47.000",
    "date_modified": "2023-12-26T16:58:47.000",
    "request_status": "Pending",
    "responsible_agency": "Department of Parks & Parkway",
    "final_address": "3877 Pauger St",
    "address_councildis": "D",
    "status": "Pending",
    "rowid": "1057515",
    "final_x": "3683220.25551",
    "final_y": "544956.584399",
    "longitude": "-90.06216769714112",
    "latitude": "29.992389273806253",
    "geocoded_column": {
      "latitude": "29.992389273806253",
      "longitude": "-90.06216769714112"
    }
  },
  {
    "service_request": "2023-1057514",
    "request_type": "Trash/Recycling",
    "request_reason": "Request a Large Item Pick Up",
    "date_created": "2023-12-26T16:49:40.000",
    "date_modified": "2023-12-26T16:49:41.000",
    "request_status": "Pending",
    "responsible_agency": "Department of Sanitation",
    "final_address": "2101 Sere St",
    "address_councildis": "D",
    "status": "Assigned to Contractor",
    "contractor": "IV Waste",
    "rowid": "1057514",
    "final_x": "3683489.82479",
    "final_y": "545903.18728",
    "longitude": "-90.06128298586947",
    "latitude": "29.994983869077675",
    "geocoded_column": {
      "latitude": "29.994983869077675",
      "longitude": "-90.06128298586947"
    }
  },
  {
    "service_request": "2023-1057513",
    "request_type": "Trash/Recycling",
    "request_reason": "Missed Trash Pick-Up",
    "date_created": "2023-12-26T16:45:12.000",
    "date_modified": "2023-12-26T16:52:29.000",
    "case_close_date": "2023-12-26T10:52:29.000",
    "request_status": "Closed",
    "responsible_agency": "Department of Sanitation",
    "final_address": "5729 St Bernard Ave",
    "address_councildis": "D",
    "status": "Invalid Request",
    "contractor": "IV Waste",
    "contractor_action": "Invalid Request",
    "rowid": "1057513",
    "final_x": "3677002.49192",
    "final_y": "553562.642903",
    "longitude": "-90.08151143634666",
    "latitude": "30.016241079265885",
    "geocoded_column": {
      "latitude": "30.016241079265885",
      "longitude": "-90.08151143634666"
    }
  },
  {
    "service_request": "2023-1057512",
    "request_type": "Abandoned Vehicles",
    "request_reason": "Vehicle Blocking Your Driveway",
    "date_created": "2023-12-26T16:42:43.000",
    "date_modified": "2023-12-26T16:42:43.000",
    "request_status": "Pending",
    "responsible_agency": "Department of Public Works",
    "final_address": "1131 Rev. John Raphael, Jr. Way",
    "address_councildis": "B",
    "status": "Pending",
    "rowid": "1057512",
    "final_x": "3677189.66222",
    "final_y": "528053.884031",
    "longitude": "-90.08180036750734",
    "latitude": "29.9460951889288",
    "geocoded_column": {
      "latitude": "29.9460951889288",
      "longitude": "-90.08180036750734"
    }
  },
  {
    "service_request": "2023-1057511",
    "request_type": "Traffic Signals/Signs/Striping/Streetlights",
    "request_reason": "Street Name Sign Damaged or Missing",
    "date_created": "2023-12-26T16:41:51.000",
    "date_modified": "2023-12-26T16:41:51.000",
    "request_status": "Pending",
    "responsible_agency": "Department of Public Works",
    "final_address": "TCHOUPITOULAS ST & LAFAYETTE ST",
    "address_councildis": "B",
    "status": "Pending",
    "rowid": "1057511",
    "final_x": "3681793.0",
    "final_y": "528646.78",
    "longitude": "-90.06724538070267",
    "latitude": "29.94758639899074",
    "geocoded_column": {
      "latitude": "29.94758639899074",
      "longitude": "-90.06724538070267"
    }
  },
  {
    "service_request": "2023-1057510",
    "request_type": "Roads/Drainage",
    "request_reason": "Debris in Roadway",
    "date_created": "2023-12-26T16:41:27.000",
    "date_modified": "2023-12-26T16:41:28.000",
    "request_status": "Pending",
    "responsible_agency": "Department of Public Works",
    "final_address": "10501 Prentiss Ave",
    "address_councildis": "E",
    "status": "Pending",
    "rowid": "1057510",
    "final_x": "3714427.16242",
    "final_y": "556449.37801",
    "longitude": "-89.96315806006128",
    "latitude": "30.023001148289023",
    "geocoded_column": {
      "latitude": "30.023001148289023",
      "longitude": "-89.96315806006128"
    }
  },
  {
    "service_request": "2023-1057509",
    "request_type": "Trash/Recycling",
    "request_reason": "Request a Large Item Pick Up",
    "date_created": "2023-12-26T16:34:25.000",
    "date_modified": "2023-12-26T16:34:26.000",
    "request_status": "Pending",
    "responsible_agency": "Department of Sanitation",
    "final_address": "1517 S White St",
    "address_councildis": "B",
    "status": "Assigned to Contractor",
    "contractor": "Richards Disposal",
    "rowid": "1057509",
    "final_x": "3671246.59585",
    "final_y": "530317.868354",
    "longitude": "-90.10048779863762",
    "latitude": "29.95249755249957",
    "geocoded_column": {
      "latitude": "29.95249755249957",
      "longitude": "-90.10048779863762"
    }
  },
  {
    "service_request": "2023-1057508",
    "request_type": "Trash/Recycling",
    "request_reason": "Missed Trash Pick-Up",
    "date_created": "2023-12-26T16:33:21.000",
    "date_modified": "2023-12-26T16:36:26.000",
    "case_close_date": "2023-12-26T10:36:26.000",
    "request_status": "Closed",
    "responsible_agency": "Department of Sanitation",
    "final_address": "47 Gull St",
    "address_councildis": "D",
    "status": "Invalid Request",
    "contractor": "IV Waste",
    "contractor_action": "Invalid Request",
    "rowid": "1057508",
    "final_x": "3674768.24565",
    "final_y": "555534.798553",
    "longitude": "-90.08850299321911",
    "latitude": "30.021730724862557",
    "geocoded_column": {
      "latitude": "30.021730724862557",
      "longitude": "-90.08850299321911"
    }
  },
  {
    "service_request": "2023-1057507",
    "request_type": "Trash/Recycling",
    "request_reason": "Missed Trash Pick-Up",
    "date_created": "2023-12-26T16:32:46.000",
    "date_modified": "2023-12-26T16:32:47.000",
    "request_status": "Pending",
    "responsible_agency": "Department of Sanitation",
    "final_address": "924 Cadiz St",
    "address_councildis": "B",
    "status": "Assigned to Contractor",
    "contractor": "Richards Disposal",
    "rowid": "1057507",
    "final_x": "3670254.53588",
    "final_y": "518943.137911",
    "longitude": "-90.10400561273318",
    "latitude": "29.921250028508346",
    "geocoded_column": {
      "latitude": "29.921250028508346",
      "longitude": "-90.10400561273318"
    }
  },
  {
    "service_request": "2023-1057506",
    "request_type": "Trash/Recycling",
    "request_reason": "Missed Trash Pick-Up",
    "date_created": "2023-12-26T16:25:18.000",
    "date_modified": "2023-12-26T16:25:18.000",
    "request_status": "Pending",
    "responsible_agency": "Department of Sanitation",
    "final_address": "15030 Curran Rd",
    "address_councildis": "E",
    "status": "Assigned to Contractor",
    "contractor": "Waste Pro",
    "rowid": "1057506",
    "final_x": "3721017.11846",
    "final_y": "574262.008106",
    "longitude": "-89.94165195149267",
    "latitude": "30.07176020987764",
    "geocoded_column": {
      "latitude": "30.07176020987764",
      "longitude": "-89.94165195149267"
    }
  },
  {
    "service_request": "2023-1057505",
    "request_type": "Trash/Recycling",
    "request_reason": "Missed Trash Pick-Up",
    "date_created": "2023-12-26T16:23:08.000",
    "date_modified": "2023-12-26T16:23:09.000",
    "request_status": "Pending",
    "responsible_agency": "Department of Sanitation",
    "final_address": "4918 S Prieur St",
    "address_councildis": "B",
    "status": "Assigned to Contractor",
    "contractor": "Richards Disposal",
    "rowid": "1057505",
    "final_x": "3669090.91943",
    "final_y": "526637.515006",
    "longitude": "-90.10741879456256",
    "latitude": "29.942441378548565",
    "geocoded_column": {
      "latitude": "29.942441378548565",
      "longitude": "-90.10741879456256"
    }
  },
  {
    "service_request": "2023-1057504",
    "request_type": "Mosquito, Termite & Rodent Control",
    "request_reason": "Mosquito Complaint",
    "date_created": "2023-12-26T16:22:32.000",
    "date_modified": "2023-12-26T16:22:33.000",
    "request_status": "Pending",
    "responsible_agency": "Mosquito, Termite & Rodent Control Board",
    "final_address": "7064 E Tamaron Blvd",
    "address_councildis": "E",
    "status": "Pending",
    "rowid": "1057504",
    "final_x": "3718766.26873",
    "final_y": "568555.849061",
    "longitude": "-89.94898546252163",
    "latitude": "30.0561456351878",
    "geocoded_column": {
      "latitude": "30.0561456351878",
      "longitude": "-89.94898546252163"
    }
  },
  {
    "service_request": "2023-1057503",
    "request_type": "Trash/Recycling",
    "request_reason": "Missed Trash Pick-Up",
    "date_created": "2023-12-26T16:21:20.000",
    "date_modified": "2023-12-26T16:21:21.000",
    "request_status": "Pending",
    "responsible_agency": "Department of Sanitation",
    "final_address": "15036 Curran Rd",
    "address_councildis": "E",
    "status": "Assigned to Contractor",
    "contractor": "Waste Pro",
    "rowid": "1057503",
    "final_x": "3721059.45145",
    "final_y": "574271.884202",
    "longitude": "-89.94151774579107",
    "latitude": "30.071785951162024",
    "geocoded_column": {
      "latitude": "30.071785951162024",
      "longitude": "-89.94151774579107"
    }
  },
  {
    "service_request": "2023-1057502",
    "request_type": "Trash/Recycling",
    "request_reason": "Request a Large Item Pick Up",
    "date_created": "2023-12-26T16:19:05.000",
    "date_modified": "2023-12-26T16:19:05.000",
    "request_status": "Pending",
    "responsible_agency": "Department of Sanitation",
    "final_address": "13 Pointe Coupee Pl",
    "address_councildis": "E",
    "status": "Assigned to Contractor",
    "contractor": "Waste Pro",
    "rowid": "1057502",
    "final_x": "3725495.20908",
    "final_y": "564595.172897",
    "longitude": "-89.92787031083031",
    "latitude": "30.04503018354516",
    "geocoded_column": {
      "latitude": "30.04503018354516",
      "longitude": "-89.92787031083031"
    }
  },
  {
    "service_request": "2023-1057501",
    "request_type": "Abandoned Vehicles",
    "request_reason": "Abandoned/Junk Vehicles",
    "date_created": "2023-12-26T16:18:07.000",
    "date_modified": "2023-12-26T16:18:07.000",
    "request_status": "Pending",
    "responsible_agency": "Department of Public Works",
    "final_address": "1918 Poland Ave",
    "address_councildis": "D",
    "status": "Pending",
    "rowid": "1057501",
    "final_x": "3693445.54109",
    "final_y": "538272.818505",
    "longitude": "-90.030108252913",
    "latitude": "29.973695450762875",
    "geocoded_column": {
      "latitude": "29.973695450762875",
      "longitude": "-90.030108252913"
    }
  },
  {
    "service_request": "2023-1057500",
    "request_type": "Abandoned Vehicles",
    "request_reason": "Abandoned/Junk Vehicles",
    "date_created": "2023-12-26T16:17:13.000",
    "date_modified": "2023-12-26T16:17:13.000",
    "request_status": "Pending",
    "responsible_agency": "Department of Public Works",
    "final_address": "2408 Oak Pl",
    "address_councildis": "B",
    "status": "Pending",
    "rowid": "1057500",
    "final_x": "3677126.3684",
    "final_y": "535388.02823",
    "longitude": "-90.08174727356294",
    "latitude": "29.966263524018864",
    "geocoded_column": {
      "latitude": "29.966263524018864",
      "longitude": "-90.08174727356294"
    }
  },
  {
    "service_request": "2023-1057499",
    "request_type": "Traffic Signals/Signs/Striping/Streetlights",
    "request_reason": "Traffic Signal Malfunctioning/Damaged",
    "date_created": "2023-12-26T16:13:17.000",
    "date_modified": "2023-12-26T16:13:18.000",
    "request_status": "Pending",
    "responsible_agency": "Department of Public Works",
    "final_address": "GENERAL DE GAULLE DR & GARDEN OAKS DR & WESTBEND PKWY",
    "address_councildis": "C",
    "status": "Pending",
    "rowid": "1057499",
    "final_x": "3696351.7",
    "final_y": "520532.68",
    "longitude": "-90.02157142374539",
    "latitude": "29.924825063772325",
    "geocoded_column": {
      "latitude": "29.924825063772325",
      "longitude": "-90.02157142374539"
    }
  },
  {
    "service_request": "2023-1057498",
    "request_type": "Trash/Recycling",
    "request_reason": "Missed Trash Pick-Up",
    "date_created": "2023-12-26T16:03:47.000",
    "date_modified": "2023-12-26T16:03:48.000",
    "request_status": "Pending",
    "responsible_agency": "Department of Sanitation",
    "final_address": "3930 Chestnut St",
    "address_councildis": "B",
    "status": "Assigned to Contractor",
    "contractor": "Richards Disposal",
    "rowid": "1057498",
    "final_x": "3672644.42529",
    "final_y": "519602.440184",
    "longitude": "-90.09643931144208",
    "latitude": "29.922992180574077",
    "geocoded_column": {
      "latitude": "29.922992180574077",
      "longitude": "-90.09643931144208"
    }
  },
  {
    "service_request": "2023-1057497",
    "request_type": "Property Maintenance",
    "request_reason": "Property Maintenance",
    "date_created": "2023-12-26T16:01:56.000",
    "date_modified": "2023-12-26T16:01:56.000",
    "request_status": "Pending",
    "responsible_agency": "Department of Code Enforcement",
    "final_address": "6220 Pasteur Blvd",
    "address_councildis": "D",
    "status": "Pending",
    "rowid": "1057497",
    "final_x": "3682691.79695",
    "final_y": "555973.508313",
    "longitude": "-90.06345131827969",
    "latitude": "30.02269794466365",
    "geocoded_column": {
      "latitude": "30.02269794466365",
      "longitude": "-90.06345131827969"
    }
  },
  {
    "service_request": "2023-1057496",
    "request_type": "Traffic Signals/Signs/Striping/Streetlights",
    "request_reason": "Street Light Knocked Down/Leaning",
    "date_created": "2023-12-26T15:57:43.000",
    "date_modified": "2023-12-26T15:57:44.000",
    "request_status": "Pending",
    "responsible_agency": "Department of Public Works",
    "final_address": "900 Bourbon St",
    "address_councildis": "C",
    "status": "Pending",
    "contractor": "Legacy Professional Services",
    "rowid": "1057496",
    "final_x": "3682749.594",
    "final_y": "533277.8713",
    "longitude": "-90.06406307148545",
    "latitude": "29.960291229541777",
    "geocoded_column": {
      "latitude": "29.960291229541777",
      "longitude": "-90.06406307148545"
    }
  },
  {
    "service_request": "2023-1057495",
    "request_type": "Property Maintenance",
    "request_reason": "Property Maintenance",
    "date_created": "2023-12-26T15:54:40.000",
    "date_modified": "2023-12-26T15:54:40.000",
    "request_status": "Pending",
    "responsible_agency": "Department of Code Enforcement",
    "final_address": "1712 Eagle St",
    "address_councildis": "A",
    "status": "Pending",
    "rowid": "1057495",
    "final_x": "3661358.99302",
    "final_y": "531469.633859",
    "longitude": "-90.13167037566048",
    "latitude": "29.95595335269851",
    "geocoded_column": {
      "latitude": "29.95595335269851",
      "longitude": "-90.13167037566048"
    }
  },
  {
    "service_request": "2023-1057494",
    "request_type": "Trash/Recycling",
    "request_reason": "Repair Trash Cart",
    "date_created": "2023-12-26T15:52:51.000",
    "date_modified": "2023-12-26T15:52:52.000",
    "request_status": "Pending",
    "responsible_agency": "Department of Sanitation",
    "final_address": "3926 Lennox Blvd",
    "address_councildis": "C",
    "status": "Assigned to Contractor",
    "contractor": "Richards Disposal",
    "rowid": "1057494",
    "final_x": "3700687.18743",
    "final_y": "516612.913269",
    "longitude": "-90.00802892605806",
    "latitude": "29.913909860902322",
    "geocoded_column": {
      "latitude": "29.913909860902322",
      "longitude": "-90.00802892605806"
    }
  },
  {
    "service_request": "2023-1057493",
    "request_type": "Trash/Recycling",
    "request_reason": "Request a Large Item Pick Up",
    "date_created": "2023-12-26T15:51:13.000",
    "date_modified": "2023-12-26T15:51:14.000",
    "request_status": "Pending",
    "responsible_agency": "Department of Sanitation",
    "final_address": "3305 St Charles Ave Unit B",
    "address_councildis": "B",
    "status": "Assigned to Contractor",
    "contractor": "Richards Disposal",
    "rowid": "1057493",
    "final_x": "3674494.60763",
    "final_y": "521732.120442",
    "longitude": "-90.0905260810688",
    "latitude": "29.928793068558377",
    "geocoded_column": {
      "latitude": "29.928793068558377",
      "longitude": "-90.0905260810688"
    }
  },
  {
    "service_request": "2023-1057492",
    "request_type": "Trash/Recycling",
    "request_reason": "Illegal Dumping",
    "date_created": "2023-12-26T15:51:12.000",
    "date_modified": "2023-12-26T15:51:13.000",
    "request_status": "Pending",
    "responsible_agency": "Department of Sanitation",
    "final_address": "3138 Audubon St",
    "address_councildis": "B",
    "status": "Pending",
    "rowid": "1057492",
    "final_x": "3668263.85332",
    "final_y": "532251.011075",
    "longitude": "-90.1098407967093",
    "latitude": "29.95790096667943",
    "geocoded_column": {
      "latitude": "29.95790096667943",
      "longitude": "-90.1098407967093"
    }
  },
  {
    "service_request": "2023-1057491",
    "request_type": "Roads/Drainage",
    "request_reason": "Pothole",
    "date_created": "2023-12-26T15:47:57.000",
    "date_modified": "2023-12-26T15:47:57.000",
    "request_status": "Pending",
    "responsible_agency": "Department of Public Works",
    "final_address": "4216 Chestnut St",
    "address_councildis": "B",
    "status": "Pending",
    "rowid": "1057491",
    "final_x": "3671574.31393",
    "final_y": "519539.203703",
    "longitude": "-90.09981939416457",
    "latitude": "29.922850019854593",
    "geocoded_column": {
      "latitude": "29.922850019854593",
      "longitude": "-90.09981939416457"
    }
  },
  {
    "service_request": "2023-1057490",
    "request_type": "Roads/Drainage",
    "request_reason": "Pothole",
    "date_created": "2023-12-26T15:38:36.000",
    "date_modified": "2023-12-26T15:47:29.000",
    "case_close_date": "2023-12-26T09:47:29.000",
    "request_status": "Closed",
    "responsible_agency": "Department of Public Works",
    "final_address": "BRINGIER ST & FLANDERS ST",
    "address_councildis": "C",
    "status": "Referred to External Agency",
    "rowid": "1057490",
    "final_x": "3696662.7",
    "final_y": "525083.78",
    "longitude": "-90.02042509524568",
    "latitude": "29.93732923478765",
    "geocoded_column": {
      "latitude": "29.93732923478765",
      "longitude": "-90.02042509524568"
    }
  },
  {
    "service_request": "2023-1057489",
    "request_type": "Roads/Drainage",
    "request_reason": "Pothole",
    "date_created": "2023-12-26T15:37:12.000",
    "date_modified": "2023-12-26T15:37:12.000",
    "request_status": "Pending",
    "responsible_agency": "Department of Public Works",
    "final_address": "1301 Constantinople St",
    "address_councildis": "B",
    "status": "Pending",
    "rowid": "1057489",
    "final_x": "3672430.66305",
    "final_y": "520250.7726",
    "longitude": "-90.09709199725775",
    "latitude": "29.924781230435865",
    "geocoded_column": {
      "latitude": "29.924781230435865",
      "longitude": "-90.09709199725775"
    }
  },
  {
    "service_request": "2023-1057488",
    "request_type": "Trash/Recycling",
    "request_reason": "Missed Trash Pick-Up",
    "date_created": "2023-12-26T15:36:28.000",
    "date_modified": "2023-12-26T15:36:30.000",
    "request_status": "Pending",
    "responsible_agency": "Department of Sanitation",
    "final_address": "2000 E Homestead Dr",
    "address_councildis": "C",
    "status": "Assigned to Contractor",
    "contractor": "Richards Disposal",
    "rowid": "1057488",
    "final_x": "3697169.20765",
    "final_y": "524559.762492",
    "longitude": "-90.01884500491818",
    "latitude": "29.935872399984607",
    "geocoded_column": {
      "latitude": "29.935872399984607",
      "longitude": "-90.01884500491818"
    }
  },
  {
    "service_request": "2023-1057487",
    "request_type": "Abandoned Vehicles",
    "request_reason": "Abandoned/Junk Vehicles",
    "date_created": "2023-12-26T15:35:40.000",
    "date_modified": "2023-12-26T15:35:40.000",
    "request_status": "Pending",
    "responsible_agency": "Department of Public Works",
    "final_address": "3900 BLK Palmyra St",
    "address_councildis": "A",
    "status": "Pending",
    "rowid": "1057487",
    "final_x": "3671144.15833",
    "final_y": "537302.976035",
    "longitude": "-90.1005739617381",
    "latitude": "29.97170730211608",
    "geocoded_column": {
      "latitude": "29.97170730211608",
      "longitude": "-90.1005739617381"
    }
  },
  {
    "service_request": "2023-1057486",
    "request_type": "Trash/Recycling",
    "request_reason": "Replace Trash Cart",
    "date_created": "2023-12-26T15:32:22.000",
    "date_modified": "2023-12-26T15:32:23.000",
    "request_status": "Pending",
    "responsible_agency": "Department of Sanitation",
    "final_address": "4130 Vincennes Pl",
    "address_councildis": "B",
    "status": "Assigned to Contractor",
    "contractor": "Richards Disposal",
    "rowid": "1057486",
    "final_x": "3668538.62561",
    "final_y": "530775.589954",
    "longitude": "-90.109022921315",
    "latitude": "29.95383597315917",
    "geocoded_column": {
      "latitude": "29.95383597315917",
      "longitude": "-90.109022921315"
    }
  },
  {
    "service_request": "2023-1057485",
    "request_type": "Trash/Recycling",
    "request_reason": "Request a Large Item Pick Up",
    "date_created": "2023-12-26T15:29:29.000",
    "date_modified": "2023-12-26T15:29:30.000",
    "request_status": "Pending",
    "responsible_agency": "Department of Sanitation",
    "final_address": "4848 Eastview Dr",
    "address_councildis": "E",
    "status": "Assigned to Contractor",
    "contractor": "Waste Pro",
    "rowid": "1057485",
    "final_x": "3704976.11012",
    "final_y": "556033.546457",
    "longitude": "-89.99303640942786",
    "latitude": "30.022165132281128",
    "geocoded_column": {
      "latitude": "30.022165132281128",
      "longitude": "-89.99303640942786"
    }
  },
  {
    "service_request": "2023-1057484",
    "request_type": "Trash/Recycling",
    "request_reason": "Replace Trash Cart",
    "date_created": "2023-12-26T15:29:15.000",
    "date_modified": "2023-12-26T15:29:16.000",
    "request_status": "Pending",
    "responsible_agency": "Department of Sanitation",
    "final_address": "737 Washington Ave",
    "address_councildis": "B",
    "status": "Assigned to Contractor",
    "contractor": "Richards Disposal",
    "rowid": "1057484",
    "final_x": "3677752.0516",
    "final_y": "519848.765112",
    "longitude": "-90.08030800802679",
    "latitude": "29.923516902838987",
    "geocoded_column": {
      "latitude": "29.923516902838987",
      "longitude": "-90.08030800802679"
    }
  },
  {
    "service_request": "2023-1057483",
    "request_type": "Roads/Drainage",
    "request_reason": "Pothole",
    "date_created": "2023-12-26T15:26:32.000",
    "date_modified": "2023-12-26T15:26:32.000",
    "request_status": "Pending",
    "responsible_agency": "Department of Public Works",
    "final_address": "1312 Milan St",
    "address_councildis": "B",
    "status": "Pending",
    "rowid": "1057483",
    "final_x": "3671625.82823",
    "final_y": "520286.919608",
    "longitude": "-90.09963137110304",
    "latitude": "29.92490447494246",
    "geocoded_column": {
      "latitude": "29.92490447494246",
      "longitude": "-90.09963137110304"
    }
  },
  {
    "service_request": "2023-1057482",
    "request_type": "Trash/Recycling",
    "request_reason": "Missed Trash Pick-Up",
    "date_created": "2023-12-26T15:26:26.000",
    "date_modified": "2023-12-26T15:26:27.000",
    "request_status": "Pending",
    "responsible_agency": "Department of Sanitation",
    "final_address": "3436 Magazine St",
    "address_councildis": "B",
    "status": "Assigned to Contractor",
    "contractor": "Richards Disposal",
    "rowid": "1057482",
    "final_x": "3674763.85345",
    "final_y": "519416.188087",
    "longitude": "-90.08975547132286",
    "latitude": "29.922416968636142",
    "geocoded_column": {
      "latitude": "29.922416968636142",
      "longitude": "-90.08975547132286"
    }
  },
  {
    "service_request": "2023-1057481",
    "request_type": "Trash/Recycling",
    "request_reason": "Request a Large Item Pick Up",
    "date_created": "2023-12-26T15:21:26.000",
    "date_modified": "2023-12-26T15:21:28.000",
    "request_status": "Pending",
    "responsible_agency": "Department of Sanitation",
    "final_address": "1917 Burdette St",
    "address_councildis": "A",
    "status": "Assigned to Contractor",
    "contractor": "Richards Disposal",
    "rowid": "1057481",
    "final_x": "3664583.54368",
    "final_y": "529521.966721",
    "longitude": "-90.12155335469774",
    "latitude": "29.950504521921964",
    "geocoded_column": {
      "latitude": "29.950504521921964",
      "longitude": "-90.12155335469774"
    }
  },
  {
    "service_request": "2023-1057480",
    "request_type": "Roads/Drainage",
    "request_reason": "Street Subsidence (Sinking)",
    "date_created": "2023-12-26T15:05:17.000",
    "date_modified": "2023-12-26T15:05:18.000",
    "request_status": "Pending",
    "responsible_agency": "Department of Public Works",
    "final_address": "MANDEVILLE ST & PRENTISS AVE",
    "address_councildis": "D",
    "status": "Pending",
    "rowid": "1057480",
    "final_x": "3684353.3",
    "final_y": "553899.58",
    "longitude": "-90.0582742841853",
    "latitude": "30.016944669211586",
    "geocoded_column": {
      "latitude": "30.016944669211586",
      "longitude": "-90.0582742841853"
    }
  },
  {
    "service_request": "2023-1057479",
    "request_type": "Trash/Recycling",
    "request_reason": "Missed Trash Pick-Up",
    "date_created": "2023-12-26T15:04:04.000",
    "date_modified": "2023-12-26T15:10:02.000",
    "case_close_date": "2023-12-26T09:10:02.000",
    "request_status": "Closed",
    "responsible_agency": "Department of Sanitation",
    "final_address": "4346 Wellington Ave",
    "address_councildis": "D",
    "status": "Invalid Request",
    "contractor": "IV Waste",
    "contractor_action": "Invalid Pick-Up",
    "rowid": "1057479",
    "final_x": "3677154.53723",
    "final_y": "548412.33909",
    "longitude": "-90.08120886040687",
    "latitude": "30.00207501544259",
    "geocoded_column": {
      "latitude": "30.00207501544259",
      "longitude": "-90.08120886040687"
    }
  },
  {
    "service_request": "2023-1057478",
    "request_type": "Trash/Recycling",
    "request_reason": "Request a Large Item Pick Up",
    "date_created": "2023-12-26T14:56:48.000",
    "date_modified": "2023-12-26T14:56:49.000",
    "request_status": "Pending",
    "responsible_agency": "Department of Sanitation",
    "final_address": "918 Adams St",
    "address_councildis": "A",
    "status": "Assigned to Contractor",
    "contractor": "Richards Disposal",
    "rowid": "1057478",
    "final_x": "3662423.56602",
    "final_y": "526745.989694",
    "longitude": "-90.12846564561201",
    "latitude": "29.942934107239786",
    "geocoded_column": {
      "latitude": "29.942934107239786",
      "longitude": "-90.12846564561201"
    }
  },
  {
    "service_request": "2023-1057477",
    "request_type": "Trash/Recycling",
    "request_reason": "Request a Large Item Pick Up",
    "date_created": "2023-12-26T14:56:28.000",
    "date_modified": "2023-12-26T14:56:29.000",
    "request_status": "Pending",
    "responsible_agency": "Department of Sanitation",
    "final_address": "6920 Coventry St",
    "address_councildis": "E",
    "status": "Assigned to Contractor",
    "contractor": "Waste Pro",
    "rowid": "1057477",
    "final_x": "3698915.83108",
    "final_y": "559734.374749",
    "longitude": "-90.01205042252808",
    "latitude": "30.032534511770212",
    "geocoded_column": {
      "latitude": "30.032534511770212",
      "longitude": "-90.01205042252808"
    }
  },
  {
    "service_request": "2023-1057476",
    "request_type": "Abandoned Vehicles",
    "request_reason": "Abandoned/Junk Vehicles",
    "date_created": "2023-12-26T14:53:17.000",
    "date_modified": "2023-12-26T14:53:18.000",
    "request_status": "Pending",
    "responsible_agency": "Department of Public Works",
    "final_address": "4736 Crowder Blvd",
    "address_councildis": "E",
    "status": "Pending",
    "rowid": "1057476",
    "final_x": "3706321.14507",
    "final_y": "555722.590233",
    "longitude": "-89.98879799943745",
    "latitude": "30.021266794861717",
    "geocoded_column": {
      "latitude": "30.021266794861717",
      "longitude": "-89.98879799943745"
    }
  },
  {
    "service_request": "2023-1057475",
    "request_type": "Abandoned Vehicles",
    "request_reason": "Abandoned/Junk Vehicles",
    "date_created": "2023-12-26T14:52:01.000",
    "date_modified": "2023-12-26T14:52:01.000",
    "request_status": "Pending",
    "responsible_agency": "Department of Public Works",
    "final_address": "1810 Bienville Ave",
    "address_councildis": "B",
    "status": "Pending",
    "rowid": "1057475",
    "final_x": "3678438.60904",
    "final_y": "533657.370629",
    "longitude": "-90.07766313448609",
    "latitude": "29.961465326336956",
    "geocoded_column": {
      "latitude": "29.961465326336956",
      "longitude": "-90.07766313448609"
    }
  },
  {
    "service_request": "2023-1057474",
    "request_type": "Roads/Drainage",
    "request_reason": "Pothole",
    "date_created": "2023-12-26T14:45:00.000",
    "date_modified": "2023-12-26T14:45:00.000",
    "request_status": "Pending",
    "responsible_agency": "Department of Public Works",
    "final_address": "5025 Danneel St",
    "address_councildis": "B",
    "status": "Pending",
    "rowid": "1057474",
    "final_x": "3668587.33818",
    "final_y": "522225.136698",
    "longitude": "-90.10915755268167",
    "latitude": "29.930323560727352",
    "geocoded_column": {
      "latitude": "29.930323560727352",
      "longitude": "-90.10915755268167"
    }
  },
  {
    "service_request": "2023-1057473",
    "request_type": "Abandoned Vehicles",
    "request_reason": "Abandoned/Junk Vehicles",
    "date_created": "2023-12-26T14:41:05.000",
    "date_modified": "2023-12-26T14:43:38.000",
    "request_status": "Pending",
    "responsible_agency": "Department of Public Works",
    "final_address": "ERATO ST & S DORGENOIS ST",
    "address_councildis": "B",
    "status": "Pending",
    "rowid": "1057473",
    "final_x": "3672698.7",
    "final_y": "530355.28",
    "longitude": "-90.09590142971246",
    "latitude": "29.952557382473103",
    "geocoded_column": {
      "latitude": "29.952557382473103",
      "longitude": "-90.09590142971246"
    }
  },
  {
    "service_request": "2023-1057472",
    "request_type": "Trash/Recycling",
    "request_reason": "Request a Large Item Pick Up",
    "date_created": "2023-12-26T14:32:13.000",
    "date_modified": "2023-12-26T14:32:14.000",
    "request_status": "Pending",
    "responsible_agency": "Department of Sanitation",
    "final_address": "2418 Joliet St",
    "address_councildis": "A",
    "status": "Assigned to Contractor",
    "contractor": "Richards Disposal",
    "rowid": "1057472",
    "final_x": "3663916.63226",
    "final_y": "532704.019524",
    "longitude": "-90.12355304557269",
    "latitude": "29.95927351095599",
    "geocoded_column": {
      "latitude": "29.95927351095599",
      "longitude": "-90.12355304557269"
    }
  },
  {
    "service_request": "2023-1057470",
    "request_type": "Roads/Drainage",
    "request_reason": "Pothole",
    "date_created": "2023-12-26T14:18:09.000",
    "date_modified": "2023-12-26T14:18:09.000",
    "request_status": "Pending",
    "responsible_agency": "Department of Public Works",
    "final_address": "1829 Bordeaux St",
    "address_councildis": "B",
    "status": "Pending",
    "rowid": "1057470",
    "final_x": "3669329.725",
    "final_y": "521672.549241",
    "longitude": "-90.1068326189762",
    "latitude": "29.92878229206484",
    "geocoded_column": {
      "latitude": "29.92878229206484",
      "longitude": "-90.1068326189762"
    }
  },
  {
    "service_request": "2023-1057471",
    "request_type": "Trash/Recycling",
    "request_reason": "Missed Trash Pick-Up",
    "date_created": "2023-12-26T14:18:09.000",
    "date_modified": "2023-12-26T14:30:07.000",
    "case_close_date": "2023-12-26T08:30:07.000",
    "request_status": "Closed",
    "responsible_agency": "Department of Sanitation",
    "final_address": "4346 Wellington Ave",
    "address_councildis": "D",
    "status": "Invalid Request",
    "contractor": "IV Waste",
    "contractor_action": "Invalid Pick-Up",
    "rowid": "1057471",
    "final_x": "3677154.53723",
    "final_y": "548412.33909",
    "longitude": "-90.08120886040687",
    "latitude": "30.00207501544259",
    "geocoded_column": {
      "latitude": "30.00207501544259",
      "longitude": "-90.08120886040687"
    }
  },
  {
    "service_request": "2023-1057469",
    "request_type": "Trash/Recycling",
    "request_reason": "Repair Trash Cart",
    "date_created": "2023-12-26T14:16:39.000",
    "date_modified": "2023-12-26T14:16:40.000",
    "request_status": "Pending",
    "responsible_agency": "Department of Sanitation",
    "final_address": "193 Cypress Grove Ct",
    "address_councildis": "C",
    "status": "Assigned to Contractor",
    "contractor": "Richards Disposal",
    "rowid": "1057469",
    "final_x": "3704803.63838",
    "final_y": "511820.62296",
    "longitude": "-89.99521281634222",
    "latitude": "29.900601141144257",
    "geocoded_column": {
      "latitude": "29.900601141144257",
      "longitude": "-89.99521281634222"
    }
  },
  {
    "service_request": "2023-1057468",
    "request_type": "Trash/Recycling",
    "request_reason": "Replace Trash Cart",
    "date_created": "2023-12-26T14:16:33.000",
    "date_modified": "2023-12-26T14:16:34.000",
    "request_status": "Pending",
    "responsible_agency": "Department of Sanitation",
    "final_address": "5721 Wingate Dr",
    "address_councildis": "D",
    "status": "Assigned to Contractor",
    "contractor": "IV Waste",
    "rowid": "1057468",
    "final_x": "3681373.74344",
    "final_y": "553953.60668",
    "longitude": "-90.06768655596312",
    "latitude": "30.01718405239526",
    "geocoded_column": {
      "latitude": "30.01718405239526",
      "longitude": "-90.06768655596312"
    }
  },
  {
    "service_request": "2023-1057467",
    "request_type": "Trash/Recycling",
    "request_reason": "Request a Large Item Pick Up",
    "date_created": "2023-12-26T14:12:36.000",
    "date_modified": "2023-12-26T14:12:37.000",
    "request_status": "Pending",
    "responsible_agency": "Department of Sanitation",
    "final_address": "8240 Curran Rd",
    "address_councildis": "E",
    "status": "Assigned to Contractor",
    "contractor": "Waste Pro",
    "rowid": "1057467",
    "final_x": "3702958.69207",
    "final_y": "561906.285599",
    "longitude": "-89.99919484292683",
    "latitude": "30.038377613964986",
    "geocoded_column": {
      "latitude": "30.038377613964986",
      "longitude": "-89.99919484292683"
    }
  },
  {
    "service_request": "2023-1057466",
    "request_type": "Trash/Recycling",
    "request_reason": "Missed Trash Pick-Up",
    "date_created": "2023-12-26T14:10:50.000",
    "date_modified": "2023-12-26T14:10:51.000",
    "request_status": "Pending",
    "responsible_agency": "Department of Sanitation",
    "final_address": "324 Opelousas Ave",
    "address_councildis": "C",
    "status": "Assigned to Contractor",
    "contractor": "Richards Disposal",
    "rowid": "1057466",
    "final_x": "3686374.54095",
    "final_y": "529118.557504",
    "longitude": "-90.05276305498681",
    "latitude": "29.948743633988588",
    "geocoded_column": {
      "latitude": "29.948743633988588",
      "longitude": "-90.05276305498681"
    }
  },
  {
    "service_request": "2023-1057465",
    "request_type": "Trash/Recycling",
    "request_reason": "Missed Trash Pick-Up",
    "date_created": "2023-12-26T14:10:15.000",
    "date_modified": "2023-12-26T14:10:16.000",
    "request_status": "Pending",
    "responsible_agency": "Department of Sanitation",
    "final_address": "326 Opelousas Ave",
    "address_councildis": "C",
    "status": "Assigned to Contractor",
    "contractor": "Richards Disposal",
    "rowid": "1057465",
    "final_x": "3686374.54095",
    "final_y": "529118.557504",
    "longitude": "-90.05276305498681",
    "latitude": "29.948743633988588",
    "geocoded_column": {
      "latitude": "29.948743633988588",
      "longitude": "-90.05276305498681"
    }
  },
  {
    "service_request": "2023-1057464",
    "request_type": "Trash/Recycling",
    "request_reason": "Request a Large Item Pick Up",
    "date_created": "2023-12-26T14:10:09.000",
    "date_modified": "2023-12-26T14:10:10.000",
    "request_status": "Pending",
    "responsible_agency": "Department of Sanitation",
    "final_address": "515 Second St",
    "address_councildis": "B",
    "status": "Assigned to Contractor",
    "contractor": "Richards Disposal",
    "rowid": "1057464",
    "final_x": "3679020.11298",
    "final_y": "519591.559672",
    "longitude": "-90.07631411604763",
    "latitude": "29.922771481415612",
    "geocoded_column": {
      "latitude": "29.922771481415612",
      "longitude": "-90.07631411604763"
    }
  },
  {
    "service_request": "2023-1057463",
    "request_type": "Roads/Drainage",
    "request_reason": "Pothole",
    "date_created": "2023-12-26T14:09:41.000",
    "date_modified": "2023-12-26T14:09:41.000",
    "request_status": "Pending",
    "responsible_agency": "Department of Public Works",
    "final_address": "400 BLK Lamarque St",
    "address_councildis": "C",
    "status": "Pending",
    "rowid": "1057463",
    "final_x": "3686836.03082",
    "final_y": "526782.654228",
    "longitude": "-90.05138845313567",
    "latitude": "29.94230650417853",
    "geocoded_column": {
      "latitude": "29.94230650417853",
      "longitude": "-90.05138845313567"
    }
  },
  {
    "service_request": "2023-1057462",
    "request_type": "Property Maintenance",
    "request_reason": "Property Maintenance",
    "date_created": "2023-12-26T14:05:46.000",
    "date_modified": "2023-12-26T14:05:46.000",
    "request_status": "Pending",
    "responsible_agency": "Department of Code Enforcement",
    "final_address": "5716 Cucullu St",
    "address_councildis": "A",
    "status": "Pending",
    "rowid": "1057462",
    "final_x": "3667528.27943",
    "final_y": "525726.114749",
    "longitude": "-90.11238308200416",
    "latitude": "29.93998119913138",
    "geocoded_column": {
      "latitude": "29.93998119913138",
      "longitude": "-90.11238308200416"
    }
  },
  {
    "service_request": "2023-1057460",
    "request_type": "Trash/Recycling",
    "request_reason": "Order Recycling Cart",
    "date_created": "2023-12-26T13:56:56.000",
    "date_modified": "2023-12-26T13:56:56.000",
    "request_status": "Pending",
    "responsible_agency": "Department of Sanitation",
    "final_address": "3123 N Derbigny St",
    "address_councildis": "D",
    "status": "Pending",
    "rowid": "1057460",
    "final_x": "3689807.03779",
    "final_y": "538227.757577",
    "longitude": "-90.04160099873985",
    "latitude": "29.97368483529827",
    "geocoded_column": {
      "latitude": "29.97368483529827",
      "longitude": "-90.04160099873985"
    }
  },
  {
    "service_request": "2023-1057459",
    "request_type": "Trash/Recycling",
    "request_reason": "Illegal Dumping",
    "date_created": "2023-12-26T13:56:39.000",
    "date_modified": "2023-12-26T13:56:40.000",
    "request_status": "Pending",
    "responsible_agency": "Department of Sanitation",
    "final_address": "1000 BLK Congress St",
    "address_councildis": "C",
    "status": "Pending",
    "rowid": "1057459",
    "final_x": "3690666.72788",
    "final_y": "535355.410376",
    "longitude": "-90.03898839340266",
    "latitude": "29.965760216420914",
    "geocoded_column": {
      "latitude": "29.965760216420914",
      "longitude": "-90.03898839340266"
    }
  },
  {
    "service_request": "2023-1057458",
    "request_type": "Trash/Recycling",
    "request_reason": "Order Recycling Cart",
    "date_created": "2023-12-26T13:52:19.000",
    "date_modified": "2023-12-26T13:52:20.000",
    "request_status": "Pending",
    "responsible_agency": "Department of Sanitation",
    "final_address": "5303 Wickfield Dr",
    "address_councildis": "D",
    "status": "Pending",
    "rowid": "1057458",
    "final_x": "3681260.52885",
    "final_y": "552201.765526",
    "longitude": "-90.06810538594954",
    "latitude": "30.01237056327225",
    "geocoded_column": {
      "latitude": "30.01237056327225",
      "longitude": "-90.06810538594954"
    }
  },
  {
    "service_request": "2023-1057457",
    "request_type": "Trash/Recycling",
    "request_reason": "Replace Trash Cart",
    "date_created": "2023-12-26T13:52:05.000",
    "date_modified": "2023-12-26T13:52:06.000",
    "request_status": "Pending",
    "responsible_agency": "Department of Sanitation",
    "final_address": "1238 Granada Dr",
    "address_councildis": "D",
    "status": "Assigned to Contractor",
    "contractor": "IV Waste",
    "rowid": "1057457",
    "final_x": "3677038.39202",
    "final_y": "550416.702676",
    "longitude": "-90.08150659960248",
    "latitude": "30.007589792449828",
    "geocoded_column": {
      "latitude": "30.007589792449828",
      "longitude": "-90.08150659960248"
    }
  },
  {
    "service_request": "2023-1057456",
    "request_type": "Trash/Recycling",
    "request_reason": "Repair Trash Cart",
    "date_created": "2023-12-26T13:48:34.000",
    "date_modified": "2023-12-26T13:49:51.000",
    "request_status": "Pending",
    "responsible_agency": "Department of Sanitation",
    "final_address": "1824 Robert St",
    "address_councildis": "B",
    "status": "Assigned to Contractor",
    "contractor": "Richards Disposal",
    "rowid": "1057456",
    "final_x": "3668703.02375",
    "final_y": "522342.411898",
    "longitude": "-90.1087883937907",
    "latitude": "29.93064263113856",
    "geocoded_column": {
      "latitude": "29.93064263113856",
      "longitude": "-90.1087883937907"
    }
  },
  {
    "service_request": "2023-1057455",
    "request_type": "Trash/Recycling",
    "request_reason": "Order Recycling Cart",
    "date_created": "2023-12-26T13:47:56.000",
    "date_modified": "2023-12-26T13:49:42.000",
    "request_status": "Pending",
    "responsible_agency": "Department of Sanitation",
    "final_address": "10140 Flossmoor Dr",
    "address_councildis": "E",
    "status": "Pending",
    "rowid": "1057455",
    "final_x": "3709714.9052",
    "final_y": "563537.45072",
    "longitude": "-89.97778264352057",
    "latitude": "30.042644638011417",
    "geocoded_column": {
      "latitude": "30.042644638011417",
      "longitude": "-89.97778264352057"
    }
  },
  {
    "service_request": "2023-1057454",
    "request_type": "Trash/Recycling",
    "request_reason": "Repair Trash Cart",
    "date_created": "2023-12-26T13:43:28.000",
    "date_modified": "2023-12-26T13:43:29.000",
    "request_status": "Pending",
    "responsible_agency": "Department of Sanitation",
    "final_address": "436 S Telemachus St",
    "address_councildis": "B",
    "status": "Assigned to Contractor",
    "contractor": "Richards Disposal",
    "rowid": "1057454",
    "final_x": "3671453.13089",
    "final_y": "536162.855687",
    "longitude": "-90.09963694441683",
    "latitude": "29.968563211025145",
    "geocoded_column": {
      "latitude": "29.968563211025145",
      "longitude": "-90.09963694441683"
    }
  },
  {
    "service_request": "2023-1057453",
    "request_type": "Roads/Drainage",
    "request_reason": "Debris in Roadway",
    "date_created": "2023-12-26T13:42:35.000",
    "date_modified": "2023-12-26T13:42:35.000",
    "request_status": "Pending",
    "responsible_agency": "Department of Public Works",
    "final_address": "8501 Pritchard Pl",
    "address_councildis": "A",
    "status": "Pending",
    "rowid": "1057453",
    "final_x": "3665003.17293",
    "final_y": "533900.651397",
    "longitude": "-90.12008198720159",
    "latitude": "29.96253226843705",
    "geocoded_column": {
      "latitude": "29.96253226843705",
      "longitude": "-90.12008198720159"
    }
  },
  {
    "service_request": "2023-1057452",
    "request_type": "Trash/Recycling",
    "request_reason": "Replace Trash Cart",
    "date_created": "2023-12-26T13:41:49.000",
    "date_modified": "2023-12-26T13:41:50.000",
    "request_status": "Pending",
    "responsible_agency": "Department of Sanitation",
    "final_address": "715 S Solomon St",
    "address_councildis": "A",
    "status": "Assigned to Contractor",
    "contractor": "Richards Disposal",
    "rowid": "1057452",
    "final_x": "3669056.0089",
    "final_y": "536764.1746",
    "longitude": "-90.10718688577886",
    "latitude": "29.97028738579072",
    "geocoded_column": {
      "latitude": "29.97028738579072",
      "longitude": "-90.10718688577886"
    }
  },
  {
    "service_request": "2023-1057451",
    "request_type": "Trash/Recycling",
    "request_reason": "Request a Large Item Pick Up",
    "date_created": "2023-12-26T13:38:24.000",
    "date_modified": "2023-12-26T13:38:25.000",
    "request_status": "Pending",
    "responsible_agency": "Department of Sanitation",
    "final_address": "5860 Winchester Park Dr",
    "address_councildis": "E",
    "status": "Assigned to Contractor",
    "contractor": "Waste Pro",
    "rowid": "1057451",
    "final_x": "3714798.06104",
    "final_y": "562447.476703",
    "longitude": "-89.96175925329527",
    "latitude": "30.039481322693568",
    "geocoded_column": {
      "latitude": "30.039481322693568",
      "longitude": "-89.96175925329527"
    }
  },
  {
    "service_request": "2023-1057450",
    "request_type": "Trash/Recycling",
    "request_reason": "Request a Large Item Pick Up",
    "date_created": "2023-12-26T13:37:23.000",
    "date_modified": "2023-12-26T13:37:24.000",
    "request_status": "Pending",
    "responsible_agency": "Department of Sanitation",
    "final_address": "3620 Burgundy St",
    "address_councildis": "C",
    "status": "Assigned to Contractor",
    "contractor": "IV Waste",
    "rowid": "1057450",
    "final_x": "3690715.89302",
    "final_y": "534708.399494",
    "longitude": "-90.03885621497801",
    "latitude": "29.96397963611039",
    "geocoded_column": {
      "latitude": "29.96397963611039",
      "longitude": "-90.03885621497801"
    }
  },
  {
    "service_request": "2023-1057449",
    "request_type": "Traffic Signals/Signs/Striping/Streetlights",
    "request_reason": "Traffic Signal Malfunctioning/Damaged",
    "date_created": "2023-12-26T13:35:27.000",
    "date_modified": "2023-12-26T13:35:49.000",
    "request_status": "Pending",
    "responsible_agency": "Department of Public Works",
    "final_address": "ELYSIAN FIELDS AVE & GENTILLY BLVD",
    "address_councildis": "D",
    "status": "Pending",
    "rowid": "1057449",
    "final_x": "3684059.79",
    "final_y": "547584.11",
    "longitude": "-90.05942349799389",
    "latitude": "29.99958839427118",
    "geocoded_column": {
      "latitude": "29.99958839427118",
      "longitude": "-90.05942349799389"
    }
  },
  {
    "service_request": "2023-1057448",
    "request_type": "Roads/Drainage",
    "request_reason": "Pothole",
    "date_created": "2023-12-26T13:33:28.000",
    "date_modified": "2023-12-26T13:33:28.000",
    "request_status": "Pending",
    "responsible_agency": "Department of Public Works",
    "final_address": "1625 Touro St",
    "address_councildis": "D",
    "status": "Pending",
    "rowid": "1057448",
    "final_x": "3684102.6877",
    "final_y": "538301.752585",
    "longitude": "-90.0596139412621",
    "latitude": "29.974063883207165",
    "geocoded_column": {
      "latitude": "29.974063883207165",
      "longitude": "-90.0596139412621"
    }
  },
  {
    "service_request": "2023-1057446",
    "request_type": "Trash/Recycling",
    "request_reason": "Request a Large Item Pick Up",
    "date_created": "2023-12-26T13:30:09.000",
    "date_modified": "2023-12-26T13:30:10.000",
    "request_status": "Pending",
    "responsible_agency": "Department of Sanitation",
    "final_address": "4403 St Roch Ave",
    "address_councildis": "D",
    "status": "Assigned to Contractor",
    "contractor": "IV Waste",
    "rowid": "1057446",
    "final_x": "3685539.47087",
    "final_y": "548994.308883",
    "longitude": "-90.05469943093246",
    "latitude": "30.003420615759563",
    "geocoded_column": {
      "latitude": "30.003420615759563",
      "longitude": "-90.05469943093246"
    }
  },
  {
    "service_request": "2023-1057445",
    "request_type": "Trash/Recycling",
    "request_reason": "Missed Trash Pick-Up",
    "date_created": "2023-12-26T13:19:12.000",
    "date_modified": "2023-12-26T13:19:13.000",
    "request_status": "Pending",
    "responsible_agency": "Department of Sanitation",
    "final_address": "229 Belleville St",
    "address_councildis": "C",
    "status": "Assigned to Contractor",
    "contractor": "Richards Disposal",
    "rowid": "1057445",
    "final_x": "3687873.73078",
    "final_y": "531173.30605",
    "longitude": "-90.04795670860574",
    "latitude": "29.954347332983613",
    "geocoded_column": {
      "latitude": "29.954347332983613",
      "longitude": "-90.04795670860574"
    }
  },
  {
    "service_request": "2023-1057444",
    "request_type": "Trash/Recycling",
    "request_reason": "Request a Large Item Pick Up",
    "date_created": "2023-12-26T13:16:21.000",
    "date_modified": "2023-12-26T13:16:34.000",
    "request_status": "Pending",
    "responsible_agency": "Department of Sanitation",
    "final_address": "7257 E Tamaron Blvd",
    "address_councildis": "E",
    "status": "Assigned to Contractor",
    "contractor": "Waste Pro",
    "rowid": "1057444",
    "final_x": "3717875.60255",
    "final_y": "569820.206118",
    "longitude": "-89.95175248432443",
    "latitude": "30.059651650176782",
    "geocoded_column": {
      "latitude": "30.059651650176782",
      "longitude": "-89.95175248432443"
    }
  },
  {
    "service_request": "2023-1057443",
    "request_type": "Traffic Signals/Signs/Striping/Streetlights",
    "request_reason": "Street Light Outage/Malfunction",
    "date_created": "2023-12-26T13:01:12.000",
    "date_modified": "2023-12-26T13:01:14.000",
    "request_status": "Pending",
    "responsible_agency": "Department of Public Works",
    "final_address": "5081 Kim Dr",
    "address_councildis": "E",
    "status": "Assigned to Contractor",
    "contractor": "Legacy Professional Services",
    "rowid": "1057443",
    "final_x": "3728309.11993",
    "final_y": "563528.403808",
    "longitude": "-89.91901876947765",
    "latitude": "30.042001811427845",
    "geocoded_column": {
      "latitude": "30.042001811427845",
      "longitude": "-89.91901876947765"
    }
  },
  {
    "service_request": "2023-1057442",
    "request_type": "Trash/Recycling",
    "request_reason": "Request a Large Item Pick Up",
    "date_created": "2023-12-26T12:59:03.000",
    "date_modified": "2023-12-26T12:59:04.000",
    "request_status": "Pending",
    "responsible_agency": "Department of Sanitation",
    "final_address": "4911 Eunice Dr",
    "address_councildis": "E",
    "status": "Assigned to Contractor",
    "contractor": "Waste Pro",
    "rowid": "1057442",
    "final_x": "3710508.64376",
    "final_y": "556815.26313",
    "longitude": "-89.97552588456327",
    "latitude": "30.024135445724465",
    "geocoded_column": {
      "latitude": "30.024135445724465",
      "longitude": "-89.97552588456327"
    }
  },
  {
    "service_request": "2023-1057441",
    "request_type": "Trash/Recycling",
    "request_reason": "Request a Large Item Pick Up",
    "date_created": "2023-12-26T12:59:01.000",
    "date_modified": "2023-12-26T12:59:02.000",
    "request_status": "Pending",
    "responsible_agency": "Department of Sanitation",
    "final_address": "14561 Beekman Rd",
    "address_councildis": "E",
    "status": "Assigned to Contractor",
    "contractor": "Waste Pro",
    "rowid": "1057441",
    "final_x": "3721048.17414",
    "final_y": "573069.970601",
    "longitude": "-89.94159954661173",
    "latitude": "30.068481574233804",
    "geocoded_column": {
      "latitude": "30.068481574233804",
      "longitude": "-89.94159954661173"
    }
  },
  {
    "service_request": "2023-1057440",
    "request_type": "Trash/Recycling",
    "request_reason": "Replace Trash Cart",
    "date_created": "2023-12-26T12:58:51.000",
    "date_modified": "2023-12-26T12:58:52.000",
    "request_status": "Pending",
    "responsible_agency": "Department of Sanitation",
    "final_address": "4524 St Ann St Unit A",
    "address_councildis": "A",
    "status": "Assigned to Contractor",
    "contractor": "Richards Disposal",
    "rowid": "1057440",
    "final_x": "3671100.26587",
    "final_y": "541563.038732",
    "longitude": "-90.10056783542555",
    "latitude": "29.983422328076774",
    "geocoded_column": {
      "latitude": "29.983422328076774",
      "longitude": "-90.10056783542555"
    }
  },
  {
    "service_request": "2023-1057439",
    "request_type": "Trash/Recycling",
    "request_reason": "Missed Trash Pick-Up",
    "date_created": "2023-12-26T12:54:16.000",
    "date_modified": "2023-12-26T12:54:17.000",
    "request_status": "Pending",
    "responsible_agency": "Department of Sanitation",
    "final_address": "7 Everett Pl",
    "address_councildis": "A",
    "status": "Assigned to Contractor",
    "contractor": "Richards Disposal",
    "rowid": "1057439",
    "final_x": "3666449.69236",
    "final_y": "523220.685435",
    "longitude": "-90.1158723995157",
    "latitude": "29.933123626913464",
    "geocoded_column": {
      "latitude": "29.933123626913464",
      "longitude": "-90.1158723995157"
    }
  },
  {
    "service_request": "2023-1057438",
    "request_type": "Traffic Signals/Signs/Striping/Streetlights",
    "request_reason": "Street Light Outage/Malfunction",
    "date_created": "2023-12-26T12:51:40.000",
    "date_modified": "2023-12-26T12:51:51.000",
    "request_status": "Pending",
    "responsible_agency": "Department of Public Works",
    "final_address": "3330 Nolan St",
    "address_councildis": "C",
    "status": "Assigned to Contractor",
    "contractor": "Legacy Professional Services",
    "rowid": "1057438",
    "final_x": "3711611.34949",
    "final_y": "518652.668855",
    "longitude": "-89.97347266936254",
    "latitude": "29.919166529375904",
    "geocoded_column": {
      "latitude": "29.919166529375904",
      "longitude": "-89.97347266936254"
    }
  },
  {
    "service_request": "2023-1057437",
    "request_type": "Trash/Recycling",
    "request_reason": "Request a Large Item Pick Up",
    "date_created": "2023-12-26T12:50:11.000",
    "date_modified": "2023-12-26T12:50:12.000",
    "request_status": "Pending",
    "responsible_agency": "Department of Sanitation",
    "final_address": "406 Andry St",
    "address_councildis": "E",
    "status": "Assigned to Contractor",
    "contractor": "Waste Pro",
    "rowid": "1057437",
    "final_x": "3696501.36733",
    "final_y": "531688.113859",
    "longitude": "-90.02069557626744",
    "latitude": "29.95549393365662",
    "geocoded_column": {
      "latitude": "29.95549393365662",
      "longitude": "-90.02069557626744"
    }
  },
  {
    "service_request": "2023-1057436",
    "request_type": "Trash/Recycling",
    "request_reason": "Request a Large Item Pick Up",
    "date_created": "2023-12-26T12:48:43.000",
    "date_modified": "2023-12-26T12:48:44.000",
    "request_status": "Pending",
    "responsible_agency": "Department of Sanitation",
    "final_address": "7820 Exeter St",
    "address_councildis": "E",
    "status": "Assigned to Contractor",
    "contractor": "Waste Pro",
    "rowid": "1057436",
    "final_x": "3697456.05418",
    "final_y": "560060.248861",
    "longitude": "-90.01665157408354",
    "latitude": "30.033476743420426",
    "geocoded_column": {
      "latitude": "30.033476743420426",
      "longitude": "-90.01665157408354"
    }
  },
  {
    "service_request": "2023-1057435",
    "request_type": "Property Maintenance",
    "request_reason": "Property Maintenance",
    "date_created": "2023-12-26T12:48:34.000",
    "date_modified": "2023-12-26T12:48:34.000",
    "request_status": "Pending",
    "responsible_agency": "Department of Code Enforcement",
    "final_address": "2300 Bartholomew St",
    "address_councildis": "D",
    "status": "Pending",
    "rowid": "1057435",
    "final_x": "3692888.81424",
    "final_y": "539879.793098",
    "longitude": "-90.03180886184332",
    "latitude": "29.978131456508645",
    "geocoded_column": {
      "latitude": "29.978131456508645",
      "longitude": "-90.03180886184332"
    }
  },
  {
    "service_request": "2023-1057434",
    "request_type": "Trash/Recycling",
    "request_reason": "Replace Trash Cart",
    "date_created": "2023-12-26T12:47:51.000",
    "date_modified": "2023-12-26T12:47:52.000",
    "request_status": "Pending",
    "responsible_agency": "Department of Sanitation",
    "final_address": "7820 Exeter St",
    "address_councildis": "E",
    "status": "Assigned to Contractor",
    "contractor": "Waste Pro",
    "rowid": "1057434",
    "final_x": "3697456.05418",
    "final_y": "560060.248861",
    "longitude": "-90.01665157408354",
    "latitude": "30.033476743420426",
    "geocoded_column": {
      "latitude": "30.033476743420426",
      "longitude": "-90.01665157408354"
    }
  },
  {
    "service_request": "2023-1057432",
    "request_type": "Property Maintenance",
    "request_reason": "Property Maintenance",
    "date_created": "2023-12-26T12:40:52.000",
    "date_modified": "2023-12-26T13:54:34.000",
    "request_status": "Pending",
    "responsible_agency": "Department of Code Enforcement",
    "final_address": "2335 Bartholomew St",
    "address_councildis": "D",
    "status": "Pending",
    "rowid": "1057432",
    "final_x": "3693045.49872",
    "final_y": "540104.959371",
    "longitude": "-90.03130591763905",
    "latitude": "29.978745688607003",
    "geocoded_column": {
      "latitude": "29.978745688607003",
      "longitude": "-90.03130591763905"
    }
  },
  {
    "service_request": "2023-1057431",
    "request_type": "Trash/Recycling",
    "request_reason": "Order Recycling Cart",
    "date_created": "2023-12-26T12:40:03.000",
    "date_modified": "2023-12-26T12:40:03.000",
    "request_status": "Pending",
    "responsible_agency": "Department of Sanitation",
    "final_address": "531 Bellecastle St",
    "address_councildis": "B",
    "status": "Pending",
    "rowid": "1057431",
    "final_x": "3667693.14951",
    "final_y": "517447.747126",
    "longitude": "-90.11214110886084",
    "latitude": "29.917213487010432",
    "geocoded_column": {
      "latitude": "29.917213487010432",
      "longitude": "-90.11214110886084"
    }
  },
  {
    "service_request": "2023-1057430",
    "request_type": "Mosquito, Termite & Rodent Control",
    "request_reason": "Rodent Complaint (Rats)",
    "date_created": "2023-12-26T12:36:50.000",
    "date_modified": "2023-12-26T12:36:50.000",
    "request_status": "Pending",
    "responsible_agency": "Mosquito, Termite & Rodent Control Board",
    "final_address": "1001 Tennessee St",
    "address_councildis": "E",
    "status": "Pending",
    "rowid": "1057430",
    "final_x": "3695617.7151",
    "final_y": "533966.868037",
    "longitude": "-90.02340355863814",
    "latitude": "29.961787509544425",
    "geocoded_column": {
      "latitude": "29.961787509544425",
      "longitude": "-90.02340355863814"
    }
  },
  {
    "service_request": "2023-1057429",
    "request_type": "Trash/Recycling",
    "request_reason": "Replace Trash Cart",
    "date_created": "2023-12-26T12:36:27.000",
    "date_modified": "2023-12-26T12:36:28.000",
    "request_status": "Pending",
    "responsible_agency": "Department of Sanitation",
    "final_address": "531 Bellecastle St",
    "address_councildis": "B",
    "status": "Assigned to Contractor",
    "contractor": "Richards Disposal",
    "rowid": "1057429",
    "final_x": "3667693.14951",
    "final_y": "517447.747126",
    "longitude": "-90.11214110886084",
    "latitude": "29.917213487010432",
    "geocoded_column": {
      "latitude": "29.917213487010432",
      "longitude": "-90.11214110886084"
    }
  },
  {
    "service_request": "2023-1057428",
    "request_type": "Trash/Recycling",
    "request_reason": "Order Trash Cart",
    "date_created": "2023-12-26T12:35:10.000",
    "date_modified": "2023-12-26T12:35:11.000",
    "request_status": "Pending",
    "responsible_agency": "Department of Sanitation",
    "final_address": "914 N Prieur St",
    "address_councildis": "D",
    "status": "Assigned to Contractor",
    "contractor": "Richards Disposal",
    "rowid": "1057428",
    "final_x": "3679468.81775",
    "final_y": "535936.402759",
    "longitude": "-90.07433083662646",
    "latitude": "29.96770080513114",
    "geocoded_column": {
      "latitude": "29.96770080513114",
      "longitude": "-90.07433083662646"
    }
  },
  {
    "service_request": "2023-1057427",
    "request_type": "Trash/Recycling",
    "request_reason": "Repair Recycling Cart",
    "date_created": "2023-12-26T12:34:08.000",
    "date_modified": "2023-12-26T12:34:09.000",
    "request_status": "Pending",
    "responsible_agency": "Department of Sanitation",
    "final_address": "4511 Bienville Ave",
    "address_councildis": "A",
    "status": "Pending",
    "rowid": "1057427",
    "final_x": "3670126.32705",
    "final_y": "540156.582475",
    "longitude": "-90.10369172492041",
    "latitude": "29.979583827063866",
    "geocoded_column": {
      "latitude": "29.979583827063866",
      "longitude": "-90.10369172492041"
    }
  },
  {
    "service_request": "2023-1057426",
    "request_type": "Trash/Recycling",
    "request_reason": "Repair Recycling Cart",
    "date_created": "2023-12-26T12:33:17.000",
    "date_modified": "2023-12-26T12:33:18.000",
    "request_status": "Pending",
    "responsible_agency": "Department of Sanitation",
    "final_address": "4509 Bienville Ave",
    "address_councildis": "A",
    "status": "Pending",
    "rowid": "1057426",
    "final_x": "3670140.21588",
    "final_y": "540145.749195",
    "longitude": "-90.10364822548499",
    "latitude": "29.97955362938598",
    "geocoded_column": {
      "latitude": "29.97955362938598",
      "longitude": "-90.10364822548499"
    }
  },
  {
    "service_request": "2023-1057425",
    "request_type": "Trash/Recycling",
    "request_reason": "Request a Large Item Pick Up",
    "date_created": "2023-12-26T12:32:50.000",
    "date_modified": "2023-12-26T12:32:51.000",
    "request_status": "Pending",
    "responsible_agency": "Department of Sanitation",
    "final_address": "1811 Baronne St",
    "address_councildis": "B",
    "status": "Assigned to Contractor",
    "contractor": "Richards Disposal",
    "rowid": "1057425",
    "final_x": "3677772.31406",
    "final_y": "525124.958653",
    "longitude": "-90.08006188182834",
    "latitude": "29.938024101706638",
    "geocoded_column": {
      "latitude": "29.938024101706638",
      "longitude": "-90.08006188182834"
    }
  },
  {
    "service_request": "2023-1057424",
    "request_type": "Trash/Recycling",
    "request_reason": "Illegal Dumping",
    "date_created": "2023-12-26T12:28:50.000",
    "date_modified": "2023-12-26T12:28:50.000",
    "request_status": "Pending",
    "responsible_agency": "Department of Sanitation",
    "final_address": "10301 N Interstate 10 Service Rd",
    "address_councildis": "E",
    "status": "Pending",
    "rowid": "1057424",
    "final_x": "3711275.36338",
    "final_y": "562409.159263",
    "longitude": "-89.97289335832765",
    "latitude": "30.039491437081555",
    "geocoded_column": {
      "latitude": "30.039491437081555",
      "longitude": "-89.97289335832765"
    }
  },
  {
    "service_request": "2023-1057423",
    "request_type": "Traffic Signals/Signs/Striping/Streetlights",
    "request_reason": "Street Light Outage/Malfunction",
    "date_created": "2023-12-26T12:23:44.000",
    "date_modified": "2023-12-26T12:23:45.000",
    "request_status": "Pending",
    "responsible_agency": "Department of Public Works",
    "final_address": "7640 Avalon Way",
    "address_councildis": "E",
    "status": "Assigned to Contractor",
    "contractor": "Legacy Professional Services",
    "rowid": "1057423",
    "final_x": "3708927.54897",
    "final_y": "564714.722594",
    "longitude": "-89.98022704426546",
    "latitude": "30.04590725251547",
    "geocoded_column": {
      "latitude": "30.04590725251547",
      "longitude": "-89.98022704426546"
    }
  },
  {
    "service_request": "2023-1057422",
    "request_type": "Mosquito, Termite & Rodent Control",
    "request_reason": "Mosquito Complaint",
    "date_created": "2023-12-26T12:23:05.000",
    "date_modified": "2023-12-26T12:23:06.000",
    "request_status": "Pending",
    "responsible_agency": "Mosquito, Termite & Rodent Control Board",
    "final_address": "6701 Deanne St",
    "address_councildis": "D",
    "status": "Pending",
    "rowid": "1057422",
    "final_x": "3696048.45162",
    "final_y": "555363.023961",
    "longitude": "-90.02126969931615",
    "latitude": "30.020605564271165",
    "geocoded_column": {
      "latitude": "30.020605564271165",
      "longitude": "-90.02126969931615"
    }
  },
  {
    "service_request": "2023-1057421",
    "request_type": "Trash/Recycling",
    "request_reason": "Replace Recycling Cart",
    "date_created": "2023-12-26T12:20:25.000",
    "date_modified": "2023-12-26T12:20:25.000",
    "request_status": "Pending",
    "responsible_agency": "Department of Sanitation",
    "final_address": "727 Nashville Ave",
    "address_councildis": "A",
    "status": "Pending",
    "rowid": "1057421",
    "final_x": "3665559.20391",
    "final_y": "518865.254391",
    "longitude": "-90.11882936025357",
    "latitude": "29.92117355163888",
    "geocoded_column": {
      "latitude": "29.92117355163888",
      "longitude": "-90.11882936025357"
    }
  },
  {
    "service_request": "2023-1057420",
    "request_type": "Trash/Recycling",
    "request_reason": "Repair Recycling Cart",
    "date_created": "2023-12-26T12:20:21.000",
    "date_modified": "2023-12-26T12:20:22.000",
    "request_status": "Pending",
    "responsible_agency": "Department of Sanitation",
    "final_address": "727 Nashville Ave",
    "address_councildis": "A",
    "status": "Pending",
    "rowid": "1057420",
    "final_x": "3665559.20391",
    "final_y": "518865.254391",
    "longitude": "-90.11882936025357",
    "latitude": "29.92117355163888",
    "geocoded_column": {
      "latitude": "29.92117355163888",
      "longitude": "-90.11882936025357"
    }
  },
  {
    "service_request": "2023-1057419",
    "request_type": "Health Related Request",
    "request_reason": "Noise Ordinance Complaint",
    "date_created": "2023-12-26T12:15:45.000",
    "date_modified": "2023-12-26T12:15:45.000",
    "request_status": "Pending",
    "responsible_agency": "Health Department",
    "final_address": "2800 BLK Mercedes Blvd",
    "address_councildis": "C",
    "status": "Pending",
    "rowid": "1057419",
    "final_x": "3698002.66597",
    "final_y": "520776.964467",
    "longitude": "-90.01635103675316",
    "latitude": "29.925444689694412",
    "geocoded_column": {
      "latitude": "29.925444689694412",
      "longitude": "-90.01635103675316"
    }
  },
  {
    "service_request": "2023-1057418",
    "request_type": "Trash/Recycling",
    "request_reason": "Replace Trash Cart",
    "date_created": "2023-12-26T12:13:42.000",
    "date_modified": "2023-12-26T12:13:43.000",
    "request_status": "Pending",
    "responsible_agency": "Department of Sanitation",
    "final_address": "2611 Marengo St",
    "address_councildis": "B",
    "status": "Assigned to Contractor",
    "contractor": "Richards Disposal",
    "rowid": "1057418",
    "final_x": "3671652.08219",
    "final_y": "524609.925564",
    "longitude": "-90.09940154135421",
    "latitude": "29.936790573070496",
    "geocoded_column": {
      "latitude": "29.936790573070496",
      "longitude": "-90.09940154135421"
    }
  },
  {
    "service_request": "2023-1057417",
    "request_type": "Trash/Recycling",
    "request_reason": "MIssed Recycling Pick-Up",
    "date_created": "2023-12-26T12:09:30.000",
    "date_modified": "2023-12-26T12:10:06.000",
    "request_status": "Pending",
    "responsible_agency": "Department of Sanitation",
    "final_address": "3715 Willow St",
    "address_councildis": "B",
    "status": "Assigned to Contractor",
    "contractor": "Richards Disposal",
    "rowid": "1057417",
    "final_x": "3671851.68078",
    "final_y": "525662.863165",
    "longitude": "-90.09873558091341",
    "latitude": "29.939679897919273",
    "geocoded_column": {
      "latitude": "29.939679897919273",
      "longitude": "-90.09873558091341"
    }
  },
  {
    "service_request": "2023-1057416",
    "request_type": "Trash/Recycling",
    "request_reason": "Illegal Dumping",
    "date_created": "2023-12-26T12:06:42.000",
    "date_modified": "2023-12-26T12:06:43.000",
    "request_status": "Pending",
    "responsible_agency": "Department of Sanitation",
    "final_address": "906 Hendee St",
    "address_councildis": "C",
    "status": "Pending",
    "rowid": "1057416",
    "final_x": "3690874.57667",
    "final_y": "528128.593535",
    "longitude": "-90.03858989404547",
    "latitude": "29.945882521473234",
    "geocoded_column": {
      "latitude": "29.945882521473234",
      "longitude": "-90.03858989404547"
    }
  },
  {
    "service_request": "2023-1057415",
    "request_type": "Parks & Parkways",
    "request_reason": "Request Tree Service (Right of Way/Public Property)",
    "date_created": "2023-12-26T12:04:57.000",
    "date_modified": "2023-12-26T12:04:58.000",
    "request_status": "Pending",
    "responsible_agency": "Department of Parks & Parkway",
    "final_address": "2218 State St",
    "address_councildis": "A",
    "status": "Pending",
    "rowid": "1057415",
    "final_x": "3666458.73869",
    "final_y": "524883.88038",
    "longitude": "-90.11578804901603",
    "latitude": "29.9376966178097",
    "geocoded_column": {
      "latitude": "29.9376966178097",
      "longitude": "-90.11578804901603"
    }
  },
  {
    "service_request": "2023-1057414",
    "request_type": "Trash/Recycling",
    "request_reason": "Illegal Dumping",
    "date_created": "2023-12-26T11:53:32.000",
    "date_modified": "2023-12-26T11:53:34.000",
    "request_status": "Pending",
    "responsible_agency": "Department of Code Enforcement",
    "final_address": "TALL SPRUCE DR & TULLIS DR",
    "address_councildis": "C",
    "status": "Pending",
    "rowid": "1057414",
    "final_x": "3702869.7",
    "final_y": "511885.58",
    "longitude": "-90.0013137120795",
    "latitude": "29.900841709951383",
    "geocoded_column": {
      "latitude": "29.900841709951383",
      "longitude": "-90.0013137120795"
    }
  },
  {
    "service_request": "2023-1057413",
    "request_type": "Traffic Signals/Signs/Striping/Streetlights",
    "request_reason": "Traffic Signal Malfunctioning/Damaged",
    "date_created": "2023-12-26T11:53:19.000",
    "date_modified": "2023-12-26T11:53:20.000",
    "request_status": "Pending",
    "responsible_agency": "Department of Public Works",
    "final_address": "GENERAL DE GAULLE DR & WESTBEND PKWY",
    "address_councildis": "C",
    "status": "Pending",
    "rowid": "1057413",
    "final_x": "3696463.6",
    "final_y": "520687.78",
    "longitude": "-90.02121258781013",
    "latitude": "29.92524801305741",
    "geocoded_column": {
      "latitude": "29.92524801305741",
      "longitude": "-90.02121258781013"
    }
  },
  {
    "service_request": "2023-1057412",
    "request_type": "Trash/Recycling",
    "request_reason": "Illegal Dumping",
    "date_created": "2023-12-26T11:50:14.000",
    "date_modified": "2023-12-26T11:50:14.000",
    "request_status": "Pending",
    "responsible_agency": "Department of Sanitation",
    "final_address": "3600 BLK Tall Spruce Dr",
    "address_councildis": "C",
    "status": "Pending",
    "rowid": "1057412",
    "final_x": "3703149.46145",
    "final_y": "510705.346159",
    "longitude": "-90.00047414259811",
    "latitude": "29.89758751973379",
    "geocoded_column": {
      "latitude": "29.89758751973379",
      "longitude": "-90.00047414259811"
    }
  },
  {
    "service_request": "2023-1057411",
    "request_type": "Trash/Recycling",
    "request_reason": "Request a Large Item Pick Up",
    "date_created": "2023-12-26T11:45:37.000",
    "date_modified": "2023-12-26T11:45:38.000",
    "request_status": "Pending",
    "responsible_agency": "Department of Sanitation",
    "final_address": "3934 S Pin Oak Ave",
    "address_councildis": "C",
    "status": "Assigned to Contractor",
    "contractor": "Richards Disposal",
    "rowid": "1057411",
    "final_x": "3704992.60286",
    "final_y": "513534.983026",
    "longitude": "-89.99455325391556",
    "latitude": "29.905308978723436",
    "geocoded_column": {
      "latitude": "29.905308978723436",
      "longitude": "-89.99455325391556"
    }
  },
  {
    "service_request": "2023-1057410",
    "request_type": "Traffic Signals/Signs/Striping/Streetlights",
    "request_reason": "Traffic Signal Malfunctioning/Damaged",
    "date_created": "2023-12-26T11:43:11.000",
    "date_modified": "2023-12-26T11:43:12.000",
    "request_status": "Pending",
    "responsible_agency": "Department of Public Works",
    "final_address": "WASHINGTON AVE & MAGAZINE ST",
    "address_councildis": "B",
    "status": "Pending",
    "rowid": "1057410",
    "final_x": "3677050.9",
    "final_y": "520822.68",
    "longitude": "-90.08248772433362",
    "latitude": "29.92621591740664",
    "geocoded_column": {
      "latitude": "29.92621591740664",
      "longitude": "-90.08248772433362"
    }
  },
  {
    "service_request": "2023-1057409",
    "request_type": "Trash/Recycling",
    "request_reason": "Order Trash Cart",
    "date_created": "2023-12-26T11:41:38.000",
    "date_modified": "2023-12-26T11:41:38.000",
    "request_status": "Pending",
    "responsible_agency": "Department of Sanitation",
    "final_address": "2326 Martin Luther King, Jr. Blvd",
    "address_councildis": "B",
    "status": "Assigned to Contractor",
    "contractor": "Richards Disposal",
    "rowid": "1057409",
    "final_x": "3676732.06689",
    "final_y": "527007.746366",
    "longitude": "-90.08328118794456",
    "latitude": "29.9432323916525",
    "geocoded_column": {
      "latitude": "29.9432323916525",
      "longitude": "-90.08328118794456"
    }
  },
  {
    "service_request": "2023-1057408",
    "request_type": "Roads/Drainage",
    "request_reason": "Pothole",
    "date_created": "2023-12-26T11:39:32.000",
    "date_modified": "2023-12-26T11:39:33.000",
    "request_status": "Pending",
    "responsible_agency": "Department of Public Works",
    "final_address": "BARRETT ST & PALMER AVE",
    "address_councildis": "A",
    "status": "Pending",
    "rowid": "1057408",
    "final_x": "3666846.3",
    "final_y": "526813.98",
    "longitude": "-90.11449966717602",
    "latitude": "29.94299244231882",
    "geocoded_column": {
      "latitude": "29.94299244231882",
      "longitude": "-90.11449966717602"
    }
  },
  {
    "service_request": "2023-1057407",
    "request_type": "Trash/Recycling",
    "request_reason": "Request a Large Item Pick Up",
    "date_created": "2023-12-26T11:34:29.000",
    "date_modified": "2023-12-26T11:34:30.000",
    "request_status": "Pending",
    "responsible_agency": "Department of Sanitation",
    "final_address": "2263 Agriculture St",
    "address_councildis": "D",
    "status": "Assigned to Contractor",
    "contractor": "IV Waste",
    "rowid": "1057407",
    "final_x": "3685076.34473",
    "final_y": "543387.283918",
    "longitude": "-90.05635992291162",
    "latitude": "29.988017507507408",
    "geocoded_column": {
      "latitude": "29.988017507507408",
      "longitude": "-90.05635992291162"
    }
  },
  {
    "service_request": "2023-1057405",
    "request_type": "Abandoned Vehicles",
    "request_reason": "Abandoned/Junk Vehicles",
    "date_created": "2023-12-26T11:31:09.000",
    "date_modified": "2023-12-26T11:31:17.000",
    "request_status": "Pending",
    "responsible_agency": "Department of Public Works",
    "final_address": "3939 Sullen Pl",
    "address_councildis": "C",
    "status": "Pending",
    "rowid": "1057405",
    "final_x": "3707463.35659",
    "final_y": "516355.632757",
    "longitude": "-89.9866508694353",
    "latitude": "29.91298518509362",
    "geocoded_column": {
      "latitude": "29.91298518509362",
      "longitude": "-89.9866508694353"
    }
  },
  {
    "service_request": "2023-1057404",
    "request_type": "Trash/Recycling",
    "request_reason": "Repair Trash Cart",
    "date_created": "2023-12-26T11:30:36.000",
    "date_modified": "2023-12-26T11:31:22.000",
    "request_status": "Pending",
    "responsible_agency": "Department of Sanitation",
    "final_address": "1421 Terpsichore St",
    "address_councildis": "B",
    "status": "Assigned to Contractor",
    "contractor": "Richards Disposal",
    "rowid": "1057404",
    "final_x": "3679698.45237",
    "final_y": "524935.552445",
    "longitude": "-90.07398746822822",
    "latitude": "29.93744522871559",
    "geocoded_column": {
      "latitude": "29.93744522871559",
      "longitude": "-90.07398746822822"
    }
  },