[
  {
    "service_request": "2025-1179268",
    "request_type": "Streetlights",
    "request_reason": "Streetlight Outage/Malfunction",
    "date_created": "2025-03-27T22:34:46.000",
    "date_modified": "2025-03-27T22:34:49.000",
    "request_status": "Pending",
    "responsible_agency": "Department of Public Works",
    "final_address": "1129 Constantinople St",
    "address_councildis": "B",
    "status": "Pending",
    "contractor": "Legacy Professional Services",
    "rowid": "1179268",
    "final_x": "3672480.21876",
    "final_y": "519836.457464",
    "longitude": "-90.09694967801863",
    "latitude": "29.923640526193257",
    "geocoded_column": {
      "latitude": "29.923640526193257",
      "longitude": "-90.09694967801863"
    }
  },
  {
    "service_request": "2025-1179267",
    "request_type": "Trash/Recycling",
    "request_reason": "Request a Large Item Pick Up",
    "date_created": "2025-03-27T22:16:56.000",
    "date_modified": "2025-03-27T22:16:58.000",
    "request_status": "Pending",
    "responsible_agency": "Department of Sanitation",
    "final_address": "3723 General Taylor St",
    "address_councildis": "B",
    "status": "Assigned to Contractor",
    "contractor": "IV Waste",
    "rowid": "1179267",
    "final_x": "3670942.98343",
    "final_y": "528438.939904",
    "longitude": "-90.10151025087941",
    "latitude": "29.947340094742106",
    "geocoded_column": {
      "latitude": "29.947340094742106",
      "longitude": "-90.10151025087941"
    }
  },
  {
    "service_request": "2025-1179266",
    "request_type": "Trash/Recycling",
    "request_reason": "Request a Large Item Pick Up",
    "date_created": "2025-03-27T21:30:44.000",
    "date_modified": "2025-03-27T21:30:46.000",
    "request_status": "Pending",
    "responsible_agency": "Department of Sanitation",
    "final_address": "2000 S Carrollton Ave",
    "address_councildis": "A",
    "status": "Assigned to Contractor",
    "contractor": "IV Waste",
    "rowid": "1179266",
    "final_x": "3663869.15655",
    "final_y": "530500.026242",
    "longitude": "-90.12377643009548",
    "latitude": "29.953214623781495",
    "geocoded_column": {
      "latitude": "29.953214623781495",
      "longitude": "-90.12377643009548"
    }
  },
  {
    "service_request": "2025-1179265",
    "request_type": "Roads and Streets",
    "request_reason": "Street Subsidence (Sinking)",
    "date_created": "2025-03-27T21:23:33.000",
    "date_modified": "2025-03-27T21:23:36.000",
    "request_status": "Pending",
    "responsible_agency": "Department of Public Works",
    "final_address": "1509 Valmont St",
    "address_councildis": "B",
    "status": "Pending",
    "rowid": "1179265",
    "final_x": "3667781.74388",
    "final_y": "520516.710776",
    "longitude": "-90.11175819366206",
    "latitude": "29.9256495730252",
    "geocoded_column": {
      "latitude": "29.9256495730252",
      "longitude": "-90.11175819366206"
    }
  },
  {
    "service_request": "2025-1179264",
    "request_type": "Streetlights",
    "request_reason": "Streetlight Outage/Malfunction",
    "date_created": "2025-03-27T21:18:38.000",
    "date_modified": "2025-03-27T21:18:39.000",
    "request_status": "Pending",
    "responsible_agency": "Department of Public Works",
    "final_address": "441 Jewel St",
    "address_councildis": "D",
    "status": "Pending",
    "contractor": "Legacy Professional Services",
    "rowid": "1179264",
    "final_x": "3668079.75917",
    "final_y": "555997.786073",
    "longitude": "-90.10962129870178",
    "latitude": "30.0232018770627",
    "geocoded_column": {
      "latitude": "30.0232018770627",
      "longitude": "-90.10962129870178"
    }
  },
  {
    "service_request": "2025-1179263",
    "request_type": "Streetlights",
    "request_reason": "Streetlight Outage/Malfunction",
    "date_created": "2025-03-27T21:15:12.000",
    "date_modified": "2025-03-27T21:15:14.000",
    "request_status": "Pending",
    "responsible_agency": "Department of Public Works",
    "final_address": "7321 Agate St",
    "address_councildis": "D",
    "status": "Pending",
    "contractor": "Legacy Professional Services",
    "rowid": "1179263",
    "final_x": "3670808.76167",
    "final_y": "555360.111449",
    "longitude": "-90.10101988919605",
    "latitude": "30.021368080330767",
    "geocoded_column": {
      "latitude": "30.021368080330767",
      "longitude": "-90.10101988919605"
    }
  },
  {
    "service_request": "2025-1179262",
    "request_type": "Streetlights",
    "request_reason": "Streetlight Knocked Down/Leaning",
    "date_created": "2025-03-27T21:11:36.000",
    "date_modified": "2025-03-27T21:11:38.000",
    "request_status": "Pending",
    "responsible_agency": "Department of Public Works",
    "final_address": "732 Turquoise St",
    "address_councildis": "D",
    "status": "Pending",
    "contractor": "Legacy Professional Services",
    "rowid": "1179262",
    "final_x": "3670144.09767",
    "final_y": "555110.907097",
    "longitude": "-90.10312850466057",
    "latitude": "30.020702495565487",
    "geocoded_column": {
      "latitude": "30.020702495565487",
      "longitude": "-90.10312850466057"
    }
  },
  {
    "service_request": "2025-1179261",
    "request_type": "Streetlights",
    "request_reason": "Streetlight Outage/Malfunction",
    "date_created": "2025-03-27T21:07:36.000",
    "date_modified": "2025-03-27T21:07:37.000",
    "request_status": "Pending",
    "responsible_agency": "Department of Public Works",
    "final_address": "7263 Canal Blvd",
    "address_councildis": "D",
    "status": "Pending",
    "contractor": "Legacy Professional Services",
    "rowid": "1179261",
    "final_x": "3669371.82766",
    "final_y": "555282.053849",
    "longitude": "-90.10556286244523",
    "latitude": "30.021195863670865",
    "geocoded_column": {
      "latitude": "30.021195863670865",
      "longitude": "-90.10556286244523"
    }
  },
  {
    "service_request": "2025-1179260",
    "request_type": "Drainage",
    "request_reason": "Ditch and Culvert Maintenance",
    "date_created": "2025-03-27T20:44:51.000",
    "date_modified": "2025-03-27T20:44:54.000",
    "request_status": "Pending",
    "responsible_agency": "Department of Public Works",
    "final_address": "3504 S Tonti St",
    "address_councildis": "B",
    "status": "Pending",
    "rowid": "1179260",
    "final_x": "3671157.55412",
    "final_y": "528254.039424",
    "longitude": "-90.10083904715685",
    "latitude": "29.946825334493983",
    "geocoded_column": {
      "latitude": "29.946825334493983",
      "longitude": "-90.10083904715685"
    }
  },
  {
    "service_request": "2025-1179259",
    "request_type": "Trash/Recycling",
    "request_reason": "Repair Trash Cart",
    "date_created": "2025-03-27T20:26:40.000",
    "date_modified": "2025-03-27T20:26:43.000",
    "request_status": "Pending",
    "responsible_agency": "Department of Sanitation",
    "final_address": "4835 Laurel St",
    "address_councildis": "B",
    "status": "Assigned to Contractor",
    "contractor": "IV Waste",
    "rowid": "1179259",
    "final_x": "3669382.73671",
    "final_y": "517916.366774",
    "longitude": "-90.10679219763068",
    "latitude": "29.91845242180929",
    "geocoded_column": {
      "latitude": "29.91845242180929",
      "longitude": "-90.10679219763068"
    }
  },
  {
    "service_request": "2025-1179258",
    "request_type": "Traffic Safety",
    "request_reason": "Request for Traffic Calming due to Speeding",
    "date_created": "2025-03-27T20:21:25.000",
    "date_modified": "2025-03-27T20:21:28.000",
    "request_status": "Pending",
    "responsible_agency": "Department of Public Works",
    "final_address": "6201 Dwyer Rd",
    "address_councildis": "D",
    "status": "Pending",
    "rowid": "1179258",
    "final_x": "3697183.92874",
    "final_y": "555050.894105",
    "longitude": "-90.01769327447761",
    "latitude": "30.01971152596827",
    "geocoded_column": {
      "latitude": "30.01971152596827",
      "longitude": "-90.01769327447761"
    }
  },
  {
    "service_request": "2025-1179257",
    "request_type": "Abandoned Vehicles",
    "request_reason": "Abandoned/Junk Vehicles",
    "date_created": "2025-03-27T19:50:56.000",
    "date_modified": "2025-03-27T19:50:57.000",
    "request_status": "Pending",
    "responsible_agency": "Department of Public Works",
    "final_address": "8830 Lincoln Beach Blvd",
    "address_councildis": "E",
    "status": "Pending",
    "rowid": "1179257",
    "final_x": "3704289.89924",
    "final_y": "563995.365665",
    "longitude": "-89.9949107927332",
    "latitude": "30.044079074239054",
    "geocoded_column": {
      "latitude": "30.044079074239054",
      "longitude": "-89.9949107927332"
    }
  },
  {
    "service_request": "2025-1179256",
    "request_type": "Abandoned Vehicles",
    "request_reason": "Abandoned/Junk Vehicles",
    "date_created": "2025-03-27T19:50:55.000",
    "date_modified": "2025-03-27T19:50:57.000",
    "request_status": "Pending",
    "responsible_agency": "Department of Public Works",
    "final_address": "8830 Lincoln Beach Blvd",
    "address_councildis": "E",
    "status": "Pending",
    "rowid": "1179256",
    "final_x": "3704289.89924",
    "final_y": "563995.365665",
    "longitude": "-89.9949107927332",
    "latitude": "30.044079074239054",
    "geocoded_column": {
      "latitude": "30.044079074239054",
      "longitude": "-89.9949107927332"
    }
  },
  {
    "service_request": "2025-1179255",
    "request_type": "Property Maintenance",
    "request_reason": "Property Maintenance",
    "date_created": "2025-03-27T19:47:07.000",
    "date_modified": "2025-03-27T19:47:09.000",
    "request_status": "Pending",
    "responsible_agency": "Department of Code Enforcement",
    "final_address": "2709 Cherry St",
    "address_councildis": "A",
    "status": "Pending",
    "rowid": "1179255",
    "final_x": "3662545.52039",
    "final_y": "535250.071238",
    "longitude": "-90.12779812153735",
    "latitude": "29.96631405562454",
    "geocoded_column": {
      "latitude": "29.96631405562454",
      "longitude": "-90.12779812153735"
    }
  },
  {
    "service_request": "2025-1179254",
    "request_type": "Trash/Recycling",
    "request_reason": "Request a Large Item Pick Up",
    "date_created": "2025-03-27T19:25:47.000",
    "date_modified": "2025-03-27T19:25:49.000",
    "request_status": "Pending",
    "responsible_agency": "Department of Sanitation",
    "final_address": "5741 Norland Ave",
    "address_councildis": "C",
    "status": "Assigned to Contractor",
    "contractor": "Richards Disposal",
    "rowid": "1179254",
    "final_x": "3704825.1475",
    "final_y": "520471.338488",
    "longitude": "-89.9948260239106",
    "latitude": "29.92438694690811",
    "geocoded_column": {
      "latitude": "29.92438694690811",
      "longitude": "-89.9948260239106"
    }
  },
  {
    "service_request": "2025-1179253",
    "request_type": "Property Maintenance",
    "request_reason": "Property Maintenance",
    "date_created": "2025-03-27T19:08:53.000",
    "date_modified": "2025-03-27T19:08:55.000",
    "request_status": "Pending",
    "responsible_agency": "Department of Code Enforcement",
    "final_address": "2001 St Nick Dr",
    "address_councildis": "C",
    "status": "Pending",
    "rowid": "1179253",
    "final_x": "3699939.26404",
    "final_y": "523873.761596",
    "longitude": "-90.01012494966703",
    "latitude": "29.93389846723033",
    "geocoded_column": {
      "latitude": "29.93389846723033",
      "longitude": "-90.01012494966703"
    }
  },
  {
    "service_request": "2025-1179252",
    "request_type": "Streetlights",
    "request_reason": "Streetlight Knocked Down/Leaning",
    "date_created": "2025-03-27T19:08:08.000",
    "date_modified": "2025-03-27T19:08:11.000",
    "request_status": "Pending",
    "responsible_agency": "Department of Public Works",
    "final_address": "103 Maumus Ave",
    "address_councildis": "C",
    "status": "Pending",
    "contractor": "Legacy Professional Services",
    "rowid": "1179252",
    "final_x": "3705627.97233",
    "final_y": "516710.162101",
    "longitude": "-89.99243074162817",
    "latitude": "29.914019203911696",
    "geocoded_column": {
      "latitude": "29.914019203911696",
      "longitude": "-89.99243074162817"
    }
  },
  {
    "service_request": "2025-1179251",
    "request_type": "General Services",
    "request_reason": "General Service Request",
    "date_created": "2025-03-27T19:06:20.000",
    "date_modified": "2025-03-27T19:06:22.000",
    "request_status": "Pending",
    "responsible_agency": "Orleans Parish Communication District",
    "final_address": "466 Aurora Oaks Dr",
    "address_councildis": "C",
    "status": "Pending",
    "rowid": "1179251",
    "final_x": "3701367.12618",
    "final_y": "521698.945593",
    "longitude": "-90.00569683266127",
    "latitude": "29.927873061686192",
    "geocoded_column": {
      "latitude": "29.927873061686192",
      "longitude": "-90.00569683266127"
    }
  },
  {
    "service_request": "2025-1179250",
    "request_type": "Trash/Recycling",
    "request_reason": "Repair Recycling Cart",
    "date_created": "2025-03-27T18:52:01.000",
    "date_modified": "2025-03-27T18:52:03.000",
    "request_status": "Pending",
    "responsible_agency": "Department of Sanitation",
    "final_address": "2312 Milan St",
    "address_councildis": "B",
    "status": "Pending",
    "rowid": "1179250",
    "final_x": "3671293.85671",
    "final_y": "523536.633019",
    "longitude": "-90.10056893400329",
    "latitude": "29.933849967773657",
    "geocoded_column": {
      "latitude": "29.933849967773657",
      "longitude": "-90.10056893400329"
    }
  },
  {
    "service_request": "2025-1179249",
    "request_type": "Abandoned Vehicles",
    "request_reason": "Abandoned/Junk Vehicles",
    "date_created": "2025-03-27T18:41:57.000",
    "date_modified": "2025-03-27T18:41:59.000",
    "request_status": "Pending",
    "responsible_agency": "Department of Public Works",
    "final_address": "5489 Canal Blvd",
    "address_councildis": "A",
    "status": "Pending",
    "rowid": "1179249",
    "final_x": "3668279.53652",
    "final_y": "543716.798926",
    "longitude": "-90.10940454206076",
    "latitude": "29.98942757793269",
    "geocoded_column": {
      "latitude": "29.98942757793269",
      "longitude": "-90.10940454206076"
    }
  },
  {
    "service_request": "2025-1179248",
    "request_type": "Abandoned Vehicles",
    "request_reason": "Abandoned/Junk Vehicles",
    "date_created": "2025-03-27T18:31:07.000",
    "date_modified": "2025-03-27T18:31:09.000",
    "request_status": "Pending",
    "responsible_agency": "Department of Public Works",
    "final_address": "4423 Lancelot Dr",
    "address_councildis": "E",
    "status": "Pending",
    "rowid": "1179248",
    "final_x": "3707699.91006",
    "final_y": "553715.845143",
    "longitude": "-89.98451616330931",
    "latitude": "30.015704466651023",
    "geocoded_column": {
      "latitude": "30.015704466651023",
      "longitude": "-89.98451616330931"
    }
  },
  {
    "service_request": "2025-1179247",
    "request_type": "Abandoned Vehicles",
    "request_reason": "Abandoned/Junk Vehicles",
    "date_created": "2025-03-27T18:31:06.000",
    "date_modified": "2025-03-27T18:31:09.000",
    "request_status": "Pending",
    "responsible_agency": "Department of Public Works",
    "final_address": "4423 Lancelot Dr",
    "address_councildis": "E",
    "status": "Pending",
    "rowid": "1179247",
    "final_x": "3707699.91006",
    "final_y": "553715.845143",
    "longitude": "-89.98451616330931",
    "latitude": "30.015704466651023",
    "geocoded_column": {
      "latitude": "30.015704466651023",
      "longitude": "-89.98451616330931"
    }
  },
  {
    "service_request": "2025-1179246",
    "request_type": "Roads and Streets",
    "request_reason": "Debris in Driving Lanes",
    "date_created": "2025-03-27T18:17:11.000",
    "date_modified": "2025-03-27T18:17:13.000",
    "request_status": "Pending",
    "responsible_agency": "Department of Public Works",
    "final_address": "1016 Thalia St",
    "address_councildis": "B",
    "status": "Pending",
    "rowid": "1179246",
    "final_x": "3680762.69026",
    "final_y": "525152.751421",
    "longitude": "-90.07062004097554",
    "latitude": "29.93801024915617",
    "geocoded_column": {
      "latitude": "29.93801024915617",
      "longitude": "-90.07062004097554"
    }
  },
  {
    "service_request": "2025-1179245",
    "request_type": "Trash/Recycling",
    "request_reason": "Replace Trash Cart",
    "date_created": "2025-03-27T18:11:18.000",
    "date_modified": "2025-03-27T18:11:19.000",
    "request_status": "Pending",
    "responsible_agency": "Department of Sanitation",
    "final_address": "4819 Drexel Dr",
    "address_councildis": "B",
    "status": "Assigned to Contractor",
    "contractor": "IV Waste",
    "rowid": "1179245",
    "final_x": "3669931.05018",
    "final_y": "533851.759621",
    "longitude": "-90.10452204063616",
    "latitude": "29.962253440553333",
    "geocoded_column": {
      "latitude": "29.962253440553333",
      "longitude": "-90.10452204063616"
    }
  },
  {
    "service_request": "2025-1179244",
    "request_type": "Trash/Recycling",
    "request_reason": "Repair Trash Cart",
    "date_created": "2025-03-27T18:10:21.000",
    "date_modified": "2025-03-27T18:10:22.000",
    "request_status": "Pending",
    "responsible_agency": "Department of Sanitation",
    "final_address": "2840 Chippewa St",
    "address_councildis": "B",
    "status": "Assigned to Contractor",
    "contractor": "IV Waste",
    "rowid": "1179244",
    "final_x": "3677612.87867",
    "final_y": "519347.521847",
    "longitude": "-90.08076462161064",
    "latitude": "29.922142830190133",
    "geocoded_column": {
      "latitude": "29.922142830190133",
      "longitude": "-90.08076462161064"
    }
  },
  {
    "service_request": "2025-1179243",
    "request_type": "Parks & Parkways",
    "request_reason": "Request Tree Service (Right of Way/Public Property)",
    "date_created": "2025-03-27T17:48:11.000",
    "date_modified": "2025-03-27T17:48:14.000",
    "request_status": "Pending",
    "responsible_agency": "Department of Parks & Parkway",
    "final_address": "3020 St Claude Ave",
    "address_councildis": "C",
    "status": "Pending",
    "rowid": "1179243",
    "final_x": "3688600.3046",
    "final_y": "536060.298887",
    "longitude": "-90.04548904762238",
    "latitude": "29.967762435216567",
    "geocoded_column": {
      "latitude": "29.967762435216567",
      "longitude": "-90.04548904762238"
    }
  },
  {
    "service_request": "2025-1179242",
    "request_type": "Parks & Parkways",
    "request_reason": "Request Tree Service (Right of Way/Public Property)",
    "date_created": "2025-03-27T17:43:39.000",
    "date_modified": "2025-03-27T17:43:43.000",
    "request_status": "Pending",
    "responsible_agency": "Department of Parks & Parkway",
    "final_address": "2231 Royal St",
    "address_councildis": "C",
    "status": "Pending",
    "rowid": "1179242",
    "final_x": "3685428.71644",
    "final_y": "534927.542278",
    "longitude": "-90.05554488525782",
    "latitude": "29.96474538138529",
    "geocoded_column": {
      "latitude": "29.96474538138529",
      "longitude": "-90.05554488525782"
    }
  },
  {
    "service_request": "2025-1179241",
    "request_type": "Trash/Recycling",
    "request_reason": "Order Trash Cart",
    "date_created": "2025-03-27T17:42:16.000",
    "date_modified": "2025-03-27T17:42:18.000",
    "request_status": "Pending",
    "responsible_agency": "Department of Sanitation",
    "final_address": "2840 Chippewa St",
    "address_councildis": "B",
    "status": "Assigned to Contractor",
    "contractor": "IV Waste",
    "rowid": "1179241",
    "final_x": "3677612.87867",
    "final_y": "519347.521847",
    "longitude": "-90.08076462161064",
    "latitude": "29.922142830190133",
    "geocoded_column": {
      "latitude": "29.922142830190133",
      "longitude": "-90.08076462161064"
    }
  },
  {
    "service_request": "2025-1179240",
    "request_type": "Trash/Recycling",
    "request_reason": "Request a Large Item Pick Up",
    "date_created": "2025-03-27T17:41:01.000",
    "date_modified": "2025-03-27T17:41:03.000",
    "request_status": "Pending",
    "responsible_agency": "Department of Sanitation",
    "final_address": "921 France St",
    "address_councildis": "C",
    "status": "Assigned to Contractor",
    "contractor": "IV Waste",
    "rowid": "1179240",
    "final_x": "3692256.16688",
    "final_y": "534518.277189",
    "longitude": "-90.0339989989348",
    "latitude": "29.963408930582027",
    "geocoded_column": {
      "latitude": "29.963408930582027",
      "longitude": "-90.0339989989348"
    }
  },
  {
    "service_request": "2025-1179239",
    "request_type": "Safety & Permits",
    "request_reason": "Construction permit",
    "date_created": "2025-03-27T17:26:51.000",
    "date_modified": "2025-03-27T17:26:53.000",
    "request_status": "Pending",
    "responsible_agency": "Safety and Permits",
    "final_address": "5172 Wickfield Dr",
    "address_councildis": "D",
    "status": "Pending",
    "rowid": "1179239",
    "final_x": "3681296.87471",
    "final_y": "551641.374229",
    "longitude": "-90.06801010488252",
    "latitude": "30.010828586362184",
    "geocoded_column": {
      "latitude": "30.010828586362184",
      "longitude": "-90.06801010488252"
    }
  },
  {
    "service_request": "2025-1179238",
    "request_type": "Trash/Recycling",
    "request_reason": "Replace Trash Cart",
    "date_created": "2025-03-27T17:12:37.000",
    "date_modified": "2025-03-27T17:12:39.000",
    "request_status": "Pending",
    "responsible_agency": "Department of Sanitation",
    "final_address": "1001 Bienville St",
    "address_councildis": "C",
    "status": "Assigned to Contractor",
    "contractor": "IV Waste",
    "rowid": "1179238",
    "final_x": "3680778.36283",
    "final_y": "532010.867203",
    "longitude": "-90.07033190612033",
    "latitude": "29.95686729223023",
    "geocoded_column": {
      "latitude": "29.95686729223023",
      "longitude": "-90.07033190612033"
    }
  },
  {
    "service_request": "2025-1179237",
    "request_type": "Trash/Recycling",
    "request_reason": "Request a Large Item Pick Up",
    "date_created": "2025-03-27T16:59:12.000",
    "date_modified": "2025-03-27T16:59:14.000",
    "request_status": "Pending",
    "responsible_agency": "Department of Sanitation",
    "final_address": "160 30Th St",
    "address_councildis": "A",
    "status": "Assigned to Contractor",
    "contractor": "IV Waste",
    "rowid": "1179237",
    "final_x": "3665680.81895",
    "final_y": "550452.186516",
    "longitude": "-90.1173874116591",
    "latitude": "30.008023649781595",
    "geocoded_column": {
      "latitude": "30.008023649781595",
      "longitude": "-90.1173874116591"
    }
  },
  {
    "service_request": "2025-1179236",
    "request_type": "Property Maintenance",
    "request_reason": "Property Maintenance",
    "date_created": "2025-03-27T16:50:59.000",
    "date_modified": "2025-03-27T16:51:01.000",
    "request_status": "Pending",
    "responsible_agency": "Department of Code Enforcement",
    "final_address": "4522 Desire Dr",
    "address_councildis": "D",
    "status": "Pending",
    "rowid": "1179236",
    "final_x": "3691907.28003",
    "final_y": "551003.148373",
    "longitude": "-90.03451066527076",
    "latitude": "30.008747263846498",
    "geocoded_column": {
      "latitude": "30.008747263846498",
      "longitude": "-90.03451066527076"
    }
  },
  {
    "service_request": "2025-1179235",
    "request_type": "Trash/Recycling",
    "request_reason": "Order Recycling Cart",
    "date_created": "2025-03-27T16:48:41.000",
    "date_modified": "2025-03-27T16:49:43.000",
    "request_status": "Pending",
    "responsible_agency": "Department of Sanitation",
    "final_address": "4655 Franklin Ave",
    "address_councildis": "D",
    "status": "Pending",
    "rowid": "1179235",
    "final_x": "3686935.29871",
    "final_y": "550159.400724",
    "longitude": "-90.05024858637704",
    "latitude": "30.006581292555584",
    "geocoded_column": {
      "latitude": "30.006581292555584",
      "longitude": "-90.05024858637704"
    }
  },
  {
    "service_request": "2025-1179234",
    "request_type": "Traffic Signals",
    "request_reason": "Traffic Signal Malfunctioning or Damaged",
    "date_created": "2025-03-27T16:39:49.000",
    "date_modified": "2025-03-27T16:39:51.000",
    "request_status": "Pending",
    "responsible_agency": "Department of Public Works",
    "final_address": "631 N Carrollton Ave",
    "address_councildis": "A",
    "status": "Pending",
    "rowid": "1179234",
    "final_x": "3672432.76219",
    "final_y": "539912.570442",
    "longitude": "-90.09641537960842",
    "latitude": "29.978844618382844",
    "geocoded_column": {
      "latitude": "29.978844618382844",
      "longitude": "-90.09641537960842"
    }
  },
  {
    "service_request": "2025-1179233",
    "request_type": "Trash/Recycling",
    "request_reason": "Order Recycling Cart",
    "date_created": "2025-03-27T16:39:14.000",
    "date_modified": "2025-03-27T16:39:15.000",
    "request_status": "Pending",
    "responsible_agency": "Department of Sanitation",
    "final_address": "1557 Gentilly Blvd",
    "address_councildis": "A",
    "status": "Pending",
    "rowid": "1179233",
    "final_x": "3678316.58747",
    "final_y": "540414.149707",
    "longitude": "-90.07781466704236",
    "latitude": "29.980047831581732",
    "geocoded_column": {
      "latitude": "29.980047831581732",
      "longitude": "-90.07781466704236"
    }
  },
  {
    "service_request": "2025-1179232",
    "request_type": "Trash/Recycling",
    "request_reason": "Order Second Trash Cart",
    "date_created": "2025-03-27T16:35:03.000",
    "date_modified": "2025-03-27T16:35:06.000",
    "request_status": "Pending",
    "responsible_agency": "Department of Sanitation",
    "final_address": "6911 Dorchester St",
    "address_councildis": "E",
    "status": "Assigned to Contractor",
    "contractor": "Waste Pro",
    "rowid": "1179232",
    "final_x": "3698914.27594",
    "final_y": "559609.119069",
    "longitude": "-90.0120599010475",
    "latitude": "30.032190156298725",
    "geocoded_column": {
      "latitude": "30.032190156298725",
      "longitude": "-90.0120599010475"
    }
  },
  {
    "service_request": "2025-1179231",
    "request_type": "Trash/Recycling",
    "request_reason": "Request a Large Item Pick Up",
    "date_created": "2025-03-27T16:34:13.000",
    "date_modified": "2025-03-27T16:34:15.000",
    "request_status": "Pending",
    "responsible_agency": "Department of Sanitation",
    "final_address": "4131 Davey St",
    "address_councildis": "D",
    "status": "Assigned to Contractor",
    "contractor": "IV Waste",
    "rowid": "1179231",
    "final_x": "3676214.9972",
    "final_y": "547344.190353",
    "longitude": "-90.0842137630851",
    "latitude": "29.999166180126632",
    "geocoded_column": {
      "latitude": "29.999166180126632",
      "longitude": "-90.0842137630851"
    }
  },
  {
    "service_request": "2025-1179230",
    "request_type": "Trash/Recycling",
    "request_reason": "Order Recycling Cart",
    "date_created": "2025-03-27T16:34:07.000",
    "date_modified": "2025-03-27T16:34:08.000",
    "request_status": "Pending",
    "responsible_agency": "Department of Sanitation",
    "final_address": "6276 Bellaire Dr",
    "address_councildis": "A",
    "status": "Pending",
    "rowid": "1179230",
    "final_x": "3664322.01344",
    "final_y": "549596.405523",
    "longitude": "-90.12170889771441",
    "latitude": "30.005710126255515",
    "geocoded_column": {
      "latitude": "30.005710126255515",
      "longitude": "-90.12170889771441"
    }
  },
  {
    "service_request": "2025-1179229",
    "request_type": "Trash/Recycling",
    "request_reason": "Request a Large Item Pick Up",
    "date_created": "2025-03-27T16:33:24.000",
    "date_modified": "2025-03-27T16:33:26.000",
    "request_status": "Pending",
    "responsible_agency": "Department of Sanitation",
    "final_address": "6911 Dorchester St",
    "address_councildis": "E",
    "status": "Assigned to Contractor",
    "contractor": "Waste Pro",
    "rowid": "1179229",
    "final_x": "3698914.27594",
    "final_y": "559609.119069",
    "longitude": "-90.0120599010475",
    "latitude": "30.032190156298725",
    "geocoded_column": {
      "latitude": "30.032190156298725",
      "longitude": "-90.0120599010475"
    }
  },
  {
    "service_request": "2025-1179228",
    "request_type": "Trash/Recycling",
    "request_reason": "Replace Trash Cart",
    "date_created": "2025-03-27T16:33:10.000",
    "date_modified": "2025-03-27T16:33:12.000",
    "request_status": "Pending",
    "responsible_agency": "Department of Sanitation",
    "final_address": "1028 Tricou St",
    "address_councildis": "E",
    "status": "Assigned to Contractor",
    "contractor": "Waste Pro",
    "rowid": "1179228",
    "final_x": "3700009.99684",
    "final_y": "532851.333828",
    "longitude": "-90.00957422606744",
    "latitude": "29.95858138967396",
    "geocoded_column": {
      "latitude": "29.95858138967396",
      "longitude": "-90.00957422606744"
    }
  },
  {
    "service_request": "2025-1179227",
    "request_type": "Trash/Recycling",
    "request_reason": "Request a Large Item Pick Up",
    "date_created": "2025-03-27T16:25:59.000",
    "date_modified": "2025-03-27T16:26:01.000",
    "request_status": "Pending",
    "responsible_agency": "Department of Sanitation",
    "final_address": "1807 Fern St",
    "address_councildis": "A",
    "status": "Assigned to Contractor",
    "contractor": "IV Waste",
    "rowid": "1179227",
    "final_x": "3664029.0738",
    "final_y": "529435.163713",
    "longitude": "-90.12330698556283",
    "latitude": "29.95028195347555",
    "geocoded_column": {
      "latitude": "29.95028195347555",
      "longitude": "-90.12330698556283"
    }
  },
  {
    "service_request": "2025-1179226",
    "request_type": "Property Maintenance",
    "request_reason": "Property Maintenance",
    "date_created": "2025-03-27T16:13:28.000",
    "date_modified": "2025-03-27T16:13:29.000",
    "request_status": "Pending",
    "responsible_agency": "Department of Code Enforcement",
    "final_address": "2236 Jefferson Ave",
    "address_councildis": "A",
    "status": "Pending",
    "rowid": "1179226",
    "final_x": "3667813.19559",
    "final_y": "523963.293884",
    "longitude": "-90.11154290008324",
    "latitude": "29.935125656901313",
    "geocoded_column": {
      "latitude": "29.935125656901313",
      "longitude": "-90.11154290008324"
    }
  },
  {
    "service_request": "2025-1179225",
    "request_type": "Roads and Streets",
    "request_reason": "Curb Damage",
    "date_created": "2025-03-27T16:12:37.000",
    "date_modified": "2025-03-27T16:12:39.000",
    "request_status": "Pending",
    "responsible_agency": "Department of Public Works",
    "final_address": "48 Grand Canyon Dr",
    "address_councildis": "C",
    "status": "Pending",
    "rowid": "1179225",
    "final_x": "3699375.85188",
    "final_y": "516515.813301",
    "longitude": "-90.01217143459398",
    "latitude": "29.913684508612366",
    "geocoded_column": {
      "latitude": "29.913684508612366",
      "longitude": "-90.01217143459398"
    }
  },
  {
    "service_request": "2025-1179224",
    "request_type": "Trash/Recycling",
    "request_reason": "Request a Large Item Pick Up",
    "date_created": "2025-03-27T16:12:00.000",
    "date_modified": "2025-03-27T16:12:03.000",
    "request_status": "Pending",
    "responsible_agency": "Department of Sanitation",
    "final_address": "6635 Coventry St",
    "address_councildis": "E",
    "status": "Assigned to Contractor",
    "contractor": "Waste Pro",
    "rowid": "1179224",
    "final_x": "3697730.2929",
    "final_y": "559373.122973",
    "longitude": "-90.01580992205524",
    "latitude": "30.03157874409579",
    "geocoded_column": {
      "latitude": "30.03157874409579",
      "longitude": "-90.01580992205524"
    }
  },
  {
    "service_request": "2025-1179223",
    "request_type": "Trash/Recycling",
    "request_reason": "Request a Large Item Pick Up",
    "date_created": "2025-03-27T16:04:53.000",
    "date_modified": "2025-03-27T16:04:55.000",
    "request_status": "Pending",
    "responsible_agency": "Department of Sanitation",
    "final_address": "4675 Gawain Dr",
    "address_councildis": "E",
    "status": "Assigned to Contractor",
    "contractor": "Waste Pro",
    "rowid": "1179223",
    "final_x": "3707092.90129",
    "final_y": "554966.698904",
    "longitude": "-89.98638756122985",
    "latitude": "30.01916346407808",
    "geocoded_column": {
      "latitude": "30.01916346407808",
      "longitude": "-89.98638756122985"
    }
  },
  {
    "service_request": "2025-1179222",
    "request_type": "Trash/Recycling",
    "request_reason": "Request a Large Item Pick Up",
    "date_created": "2025-03-27T16:04:16.000",
    "date_modified": "2025-03-27T16:04:19.000",
    "request_status": "Pending",
    "responsible_agency": "Department of Sanitation",
    "final_address": "3811 Red Cypress Dr",
    "address_councildis": "C",
    "status": "Assigned to Contractor",
    "contractor": "Richards Disposal",
    "rowid": "1179222",
    "final_x": "3703630.7347",
    "final_y": "512166.636465",
    "longitude": "-89.99890164242139",
    "latitude": "29.901590172061162",
    "geocoded_column": {
      "latitude": "29.901590172061162",
      "longitude": "-89.99890164242139"
    }
  },
  {
    "service_request": "2025-1179221",
    "request_type": "Roads and Streets",
    "request_reason": "Street Subsidence (Sinking)",
    "date_created": "2025-03-27T16:00:53.000",
    "date_modified": "2025-03-27T16:00:54.000",
    "request_status": "Pending",
    "responsible_agency": "Department of Public Works",
    "final_address": "8601 Leake Ave",
    "address_councildis": "A",
    "status": "Pending",
    "rowid": "1179221",
    "final_x": "3660208.80339",
    "final_y": "529136.21248",
    "longitude": "-90.13537932999203",
    "latitude": "29.949570309269692",
    "geocoded_column": {
      "latitude": "29.949570309269692",
      "longitude": "-90.13537932999203"
    }
  },
  {
    "service_request": "2025-1179220",
    "request_type": "Trash/Recycling",
    "request_reason": "Request a Large Item Pick Up",
    "date_created": "2025-03-27T15:55:41.000",
    "date_modified": "2025-03-27T15:55:43.000",
    "request_status": "Pending",
    "responsible_agency": "Department of Sanitation",
    "final_address": "7251 Yorktown Dr",
    "address_councildis": "E",
    "status": "Assigned to Contractor",
    "contractor": "Waste Pro",
    "rowid": "1179220",
    "final_x": "3705774.59985",
    "final_y": "561463.242079",
    "longitude": "-89.99031231405993",
    "latitude": "30.03706896787237",
    "geocoded_column": {
      "latitude": "30.03706896787237",
      "longitude": "-89.99031231405993"
    }
  },
  {
    "service_request": "2025-1179219",
    "request_type": "Trash/Recycling",
    "request_reason": "Illegal Dumping",
    "date_created": "2025-03-27T15:50:38.000",
    "date_modified": "2025-03-27T15:50:40.000",
    "request_status": "Pending",
    "responsible_agency": "Department of Sanitation",
    "final_address": "MORRISON RD & GANNON RD",
    "address_councildis": "E",
    "status": "Pending",
    "rowid": "1179219",
    "final_x": "3716844.9",
    "final_y": "569274.68",
    "longitude": "-89.9550311752423",
    "latitude": "30.058185809886584",
    "geocoded_column": {
      "latitude": "30.058185809886584",
      "longitude": "-89.9550311752423"
    }
  },
  {
    "service_request": "2025-1179218",
    "request_type": "Streetlights",
    "request_reason": "Streetlight Knocked Down/Leaning",
    "date_created": "2025-03-27T15:49:29.000",
    "date_modified": "2025-03-27T15:49:31.000",
    "request_status": "Pending",
    "responsible_agency": "Department of Public Works",
    "final_address": "7248 W Tamaron Blvd",
    "address_councildis": "E",
    "status": "Pending",
    "contractor": "Legacy Professional Services",
    "rowid": "1179218",
    "final_x": "3717636.68076",
    "final_y": "569607.932326",
    "longitude": "-89.9525157780978",
    "latitude": "30.059075904172342",
    "geocoded_column": {
      "latitude": "30.059075904172342",
      "longitude": "-89.9525157780978"
    }
  },
  {
    "service_request": "2025-1179217",
    "request_type": "General Services",
    "request_reason": "General Service Request",
    "date_created": "2025-03-27T15:45:49.000",
    "date_modified": "2025-03-27T15:48:15.000",
    "case_close_date": "2025-03-27T10:48:14.000",
    "request_status": "Closed",
    "responsible_agency": "Orleans Parish Communication District",
    "final_address": "801 Girod St",
    "address_councildis": "B",
    "status": "Referred to External Agency",
    "rowid": "1179217",
    "final_x": "3680051.05787",
    "final_y": "528702.695936",
    "longitude": "-90.07274342708176",
    "latitude": "29.947792958209924",
    "geocoded_column": {
      "latitude": "29.947792958209924",
      "longitude": "-90.07274342708176"
    }
  },
  {
    "service_request": "2025-1179216",
    "request_type": "Trash/Recycling",
    "request_reason": "Request a Large Item Pick Up",
    "date_created": "2025-03-27T15:45:33.000",
    "date_modified": "2025-03-27T15:46:27.000",
    "request_status": "Pending",
    "responsible_agency": "Department of Sanitation",
    "final_address": "819 Gordon St A",
    "address_councildis": "E",
    "status": "Assigned to Contractor",
    "contractor": "Waste Pro",
    "rowid": "1179216",
    "final_x": "3698820.45085",
    "final_y": "532503.278724",
    "longitude": "-90.01334313830559",
    "latitude": "29.957662095224723",
    "geocoded_column": {
      "latitude": "29.957662095224723",
      "longitude": "-90.01334313830559"
    }
  },
  {
    "service_request": "2025-1179215",
    "request_type": "Trash/Recycling",
    "request_reason": "Request a Large Item Pick Up",
    "date_created": "2025-03-27T15:42:28.000",
    "date_modified": "2025-03-27T15:42:29.000",
    "request_status": "Pending",
    "responsible_agency": "Department of Sanitation",
    "final_address": "4364 Ray Ave",
    "address_councildis": "E",
    "status": "Assigned to Contractor",
    "contractor": "Waste Pro",
    "rowid": "1179215",
    "final_x": "3698884.41424",
    "final_y": "552434.083414",
    "longitude": "-90.0124156448574",
    "latitude": "30.012462492066497",
    "geocoded_column": {
      "latitude": "30.012462492066497",
      "longitude": "-90.0124156448574"
    }
  },
  {
    "service_request": "2025-1179214",
    "request_type": "Trash/Recycling",
    "request_reason": "Request a Large Item Pick Up",
    "date_created": "2025-03-27T15:40:06.000",
    "date_modified": "2025-03-27T15:40:07.000",
    "request_status": "Pending",
    "responsible_agency": "Department of Sanitation",
    "final_address": "6601 Dorchester St",
    "address_councildis": "E",
    "status": "Assigned to Contractor",
    "contractor": "Waste Pro",
    "rowid": "1179214",
    "final_x": "3697666.19856",
    "final_y": "558935.165404",
    "longitude": "-90.01602837278277",
    "latitude": "30.030376555312035",
    "geocoded_column": {
      "latitude": "30.030376555312035",
      "longitude": "-90.01602837278277"
    }
  },
  {
    "service_request": "2025-1179213",
    "request_type": "Trash/Recycling",
    "request_reason": "Order Recycling Cart",
    "date_created": "2025-03-27T15:39:11.000",
    "date_modified": "2025-03-27T15:39:13.000",
    "request_status": "Pending",
    "responsible_agency": "Department of Sanitation",
    "final_address": "3802 State Street Dr",
    "address_councildis": "A",
    "status": "Pending",
    "rowid": "1179213",
    "final_x": "3667983.10484",
    "final_y": "529462.759873",
    "longitude": "-90.11082126017182",
    "latitude": "29.950242428610746",
    "geocoded_column": {
      "latitude": "29.950242428610746",
      "longitude": "-90.11082126017182"
    }
  },
  {
    "service_request": "2025-1179212",
    "request_type": "Trash/Recycling",
    "request_reason": "Replace Trash Cart",
    "date_created": "2025-03-27T15:38:38.000",
    "date_modified": "2025-03-27T15:38:39.000",
    "request_status": "Pending",
    "responsible_agency": "Department of Sanitation",
    "final_address": "1001 Bienville St",
    "address_councildis": "C",
    "status": "Assigned to Contractor",
    "contractor": "IV Waste",
    "rowid": "1179212",
    "final_x": "3680778.36283",
    "final_y": "532010.867203",
    "longitude": "-90.07033190612033",
    "latitude": "29.95686729223023",
    "geocoded_column": {
      "latitude": "29.95686729223023",
      "longitude": "-90.07033190612033"
    }
  },
  {
    "service_request": "2025-1179211",
    "request_type": "Trash/Recycling",
    "request_reason": "Repair Trash Cart",
    "date_created": "2025-03-27T15:38:13.000",
    "date_modified": "2025-03-27T15:38:16.000",
    "request_status": "Pending",
    "responsible_agency": "Department of Sanitation",
    "final_address": "4018 Cleveland Ave",
    "address_councildis": "A",
    "status": "Assigned to Contractor",
    "contractor": "IV Waste",
    "rowid": "1179211",
    "final_x": "3671068.31335",
    "final_y": "537777.80692",
    "longitude": "-90.10079736186472",
    "latitude": "29.973015170465818",
    "geocoded_column": {
      "latitude": "29.973015170465818",
      "longitude": "-90.10079736186472"
    }
  },
  {
    "service_request": "2025-1179210",
    "request_type": "Parks & Parkways",
    "request_reason": "Request Tree Service (Right of Way/Public Property)",
    "date_created": "2025-03-27T15:37:41.000",
    "date_modified": "2025-03-27T15:37:43.000",
    "request_status": "Pending",
    "responsible_agency": "Department of Parks & Parkway",
    "final_address": "1489 Madrid St",
    "address_councildis": "D",
    "status": "Pending",
    "rowid": "1179210",
    "final_x": "3678147.34158",
    "final_y": "554685.107416",
    "longitude": "-90.07785535204576",
    "latitude": "30.019293010096487",
    "geocoded_column": {
      "latitude": "30.019293010096487",
      "longitude": "-90.07785535204576"
    }
  },
  {
    "service_request": "2025-1179209",
    "request_type": "Trash/Recycling",
    "request_reason": "Order Trash Cart",
    "date_created": "2025-03-27T15:37:09.000",
    "date_modified": "2025-03-27T15:39:10.000",
    "request_status": "Pending",
    "responsible_agency": "Department of Sanitation",
    "final_address": "4016 Cleveland Ave",
    "address_councildis": "A",
    "status": "Assigned to Contractor",
    "contractor": "IV Waste",
    "rowid": "1179209",
    "final_x": "3671079.54529",
    "final_y": "537770.659656",
    "longitude": "-90.10076213193928",
    "latitude": "29.97299518568875",
    "geocoded_column": {
      "latitude": "29.97299518568875",
      "longitude": "-90.10076213193928"
    }
  },
  {
    "service_request": "2025-1179208",
    "request_type": "Parks & Parkways",
    "request_reason": "Request Tree Service (Right of Way/Public Property)",
    "date_created": "2025-03-27T15:28:39.000",
    "date_modified": "2025-03-27T15:28:41.000",
    "request_status": "Pending",
    "responsible_agency": "Department of Parks & Parkway",
    "final_address": "6145 St Charles Ave",
    "address_councildis": "A",
    "status": "Pending",
    "rowid": "1179208",
    "final_x": "3665548.99079",
    "final_y": "522865.201019",
    "longitude": "-90.1187277607421",
    "latitude": "29.93217244127565",
    "geocoded_column": {
      "latitude": "29.93217244127565",
      "longitude": "-90.1187277607421"
    }
  },
  {
    "service_request": "2025-1179207",
    "request_type": "Trash/Recycling",
    "request_reason": "Illegal Dumping",
    "date_created": "2025-03-27T15:24:25.000",
    "date_modified": "2025-03-27T15:25:29.000",
    "request_status": "Pending",
    "responsible_agency": "Department of Sanitation",
    "final_address": "WAGNER ST & WALL BLVD",
    "address_councildis": "C",
    "status": "Pending",
    "rowid": "1179207",
    "final_x": "3690315.9",
    "final_y": "523992.48",
    "longitude": "-90.04050116129856",
    "latitude": "29.934526964942727",
    "geocoded_column": {
      "latitude": "29.934526964942727",
      "longitude": "-90.04050116129856"
    }
  },
  {
    "service_request": "2025-1179206",
    "request_type": "Trash/Recycling",
    "request_reason": "Missed Trash Pick-Up",
    "date_created": "2025-03-27T15:21:17.000",
    "date_modified": "2025-03-27T16:43:11.000",
    "case_close_date": "2025-03-27T11:43:10.000",
    "request_status": "Closed",
    "responsible_agency": "Department of Sanitation",
    "final_address": "4500 Shalimar Dr",
    "address_councildis": "D",
    "status": "Invalid Request",
    "contractor": "Waste Pro",
    "contractor_action": "Invalid Request",
    "rowid": "1179206",
    "final_x": "3697204.51069",
    "final_y": "552944.045463",
    "longitude": "-90.01770467612812",
    "latitude": "30.01391783789882",
    "geocoded_column": {
      "latitude": "30.01391783789882",
      "longitude": "-90.01770467612812"
    }
  },
  {
    "service_request": "2025-1179205",
    "request_type": "Roads and Streets",
    "request_reason": "Pothole",
    "date_created": "2025-03-27T15:19:56.000",
    "date_modified": "2025-03-27T15:19:58.000",
    "request_status": "Pending",
    "responsible_agency": "Department of Public Works",
    "final_address": "PHILIP ST & TCHOUPITOULAS ST",
    "address_councildis": "B",
    "status": "Pending",
    "rowid": "1179205",
    "final_x": "3680272.5",
    "final_y": "519585.08",
    "longitude": "-90.07236105151854",
    "latitude": "29.92271582713938",
    "geocoded_column": {
      "latitude": "29.92271582713938",
      "longitude": "-90.07236105151854"
    }
  },
  {
    "service_request": "2025-1179204",
    "request_type": "Drainage",
    "request_reason": "Catch Basin Clogged",
    "date_created": "2025-03-27T15:19:07.000",
    "date_modified": "2025-03-27T15:19:09.000",
    "request_status": "Pending",
    "responsible_agency": "Sewerage & Water Board ",
    "final_address": "5570 Bellaire Dr",
    "address_councildis": "A",
    "status": "Pending",
    "rowid": "1179204",
    "final_x": "3664014.96032",
    "final_y": "544785.007119",
    "longitude": "-90.12283953344571",
    "latitude": "29.99248935148824",
    "geocoded_column": {
      "latitude": "29.99248935148824",
      "longitude": "-90.12283953344571"
    }
  },
  {
    "service_request": "2025-1179203",
    "request_type": "Trash/Recycling",
    "request_reason": "Repair Recycling Cart",
    "date_created": "2025-03-27T15:17:27.000",
    "date_modified": "2025-03-27T15:17:30.000",
    "request_status": "Pending",
    "responsible_agency": "Department of Sanitation",
    "final_address": "1237 Gallier St",
    "address_councildis": "C",
    "status": "Pending",
    "rowid": "1179203",
    "final_x": "3690675.49404",
    "final_y": "536276.601351",
    "longitude": "-90.03892784762269",
    "latitude": "29.968292895684066",
    "geocoded_column": {
      "latitude": "29.968292895684066",
      "longitude": "-90.03892784762269"
    }
  },
  {
    "service_request": "2025-1179202",
    "request_type": "Trash/Recycling",
    "request_reason": "Order Trash Cart",
    "date_created": "2025-03-27T15:15:14.000",
    "date_modified": "2025-03-27T15:15:16.000",
    "request_status": "Pending",
    "responsible_agency": "Department of Sanitation",
    "final_address": "227 W Kenilworth St",
    "address_councildis": "A",
    "status": "Assigned to Contractor",
    "contractor": "IV Waste",
    "rowid": "1179202",
    "final_x": "3665318.24013",
    "final_y": "546368.70024",
    "longitude": "-90.11866967136498",
    "latitude": "29.99680604478283",
    "geocoded_column": {
      "latitude": "29.99680604478283",
      "longitude": "-90.11866967136498"
    }
  },
  {
    "service_request": "2025-1179201",
    "request_type": "Trash/Recycling",
    "request_reason": "Order Trash Cart",
    "date_created": "2025-03-27T15:14:42.000",
    "date_modified": "2025-03-27T15:14:44.000",
    "request_status": "Pending",
    "responsible_agency": "Department of Sanitation",
    "final_address": "225 W Kenilworth St",
    "address_councildis": "A",
    "status": "Assigned to Contractor",
    "contractor": "IV Waste",
    "rowid": "1179201",
    "final_x": "3665341.89645",
    "final_y": "546367.468432",
    "longitude": "-90.11859498323452",
    "latitude": "29.99680196817605",
    "geocoded_column": {
      "latitude": "29.99680196817605",
      "longitude": "-90.11859498323452"
    }
  },
  {
    "service_request": "2025-1179200",
    "request_type": "Trash/Recycling",
    "request_reason": "Repair Trash Cart",
    "date_created": "2025-03-27T15:08:07.000",
    "date_modified": "2025-03-27T15:08:09.000",
    "request_status": "Pending",
    "responsible_agency": "Department of Sanitation",
    "final_address": "1515 L. B. Landry Ave",
    "address_councildis": "C",
    "status": "Assigned to Contractor",
    "contractor": "Richards Disposal",
    "rowid": "1179200",
    "final_x": "3689939.96854",
    "final_y": "525836.678845",
    "longitude": "-90.04162233156413",
    "latitude": "29.939609543586183",
    "geocoded_column": {
      "latitude": "29.939609543586183",
      "longitude": "-90.04162233156413"
    }
  },
  {
    "service_request": "2025-1179199",
    "request_type": "Trash/Recycling",
    "request_reason": "Request a Large Item Pick Up",
    "date_created": "2025-03-27T15:04:46.000",
    "date_modified": "2025-03-27T15:04:47.000",
    "request_status": "Pending",
    "responsible_agency": "Department of Sanitation",
    "final_address": "6620 Curran Rd",
    "address_councildis": "E",
    "status": "Assigned to Contractor",
    "contractor": "Waste Pro",
    "rowid": "1179199",
    "final_x": "3697521.64215",
    "final_y": "559757.620701",
    "longitude": "-90.01645530097849",
    "latitude": "30.032642560031206",
    "geocoded_column": {
      "latitude": "30.032642560031206",
      "longitude": "-90.01645530097849"
    }
  },
  {
    "service_request": "2025-1179198",
    "request_type": "Trash/Recycling",
    "request_reason": "Repair Trash Cart",
    "date_created": "2025-03-27T15:04:39.000",
    "date_modified": "2025-03-27T15:04:40.000",
    "request_status": "Pending",
    "responsible_agency": "Department of Sanitation",
    "final_address": "4314 Palmyra St",
    "address_councildis": "A",
    "status": "Assigned to Contractor",
    "contractor": "IV Waste",
    "rowid": "1179198",
    "final_x": "3669658.37812",
    "final_y": "538359.947785",
    "longitude": "-90.10523051895977",
    "latitude": "29.974657488289886",
    "geocoded_column": {
      "latitude": "29.974657488289886",
      "longitude": "-90.10523051895977"
    }
  },
  {
    "service_request": "2025-1179197",
    "request_type": "Trash/Recycling",
    "request_reason": "Illegal Dumping",
    "date_created": "2025-03-27T15:03:37.000",
    "date_modified": "2025-03-27T15:03:39.000",
    "request_status": "Pending",
    "responsible_agency": "Department of Sanitation",
    "final_address": "6301 Curran Rd",
    "address_councildis": "E",
    "status": "Pending",
    "rowid": "1179197",
    "final_x": "3696295.47786",
    "final_y": "559258.092444",
    "longitude": "-90.02034814931196",
    "latitude": "30.031307739382076",
    "geocoded_column": {
      "latitude": "30.031307739382076",
      "longitude": "-90.02034814931196"
    }
  },
  {
    "service_request": "2025-1179196",
    "request_type": "Trash/Recycling",
    "request_reason": "Repair Trash Cart",
    "date_created": "2025-03-27T15:00:17.000",
    "date_modified": "2025-03-27T15:00:22.000",
    "request_status": "Pending",
    "responsible_agency": "Department of Sanitation",
    "final_address": "2922 Dumaine St",
    "address_councildis": "A",
    "status": "Assigned to Contractor",
    "contractor": "IV Waste",
    "rowid": "1179196",
    "final_x": "3676247.20558",
    "final_y": "538165.380041",
    "longitude": "-90.0844280578376",
    "latitude": "29.973926671701225",
    "geocoded_column": {
      "latitude": "29.973926671701225",
      "longitude": "-90.0844280578376"
    }
  },
  {
    "service_request": "2025-1179195",
    "request_type": "Trash/Recycling",
    "request_reason": "Request a Large Item Pick Up",
    "date_created": "2025-03-27T14:59:58.000",
    "date_modified": "2025-03-27T15:00:02.000",
    "request_status": "Pending",
    "responsible_agency": "Department of Sanitation",
    "final_address": "919 St Roch Ave",
    "address_councildis": "C",
    "status": "Assigned to Contractor",
    "contractor": "IV Waste",
    "rowid": "1179195",
    "final_x": "3686567.3599",
    "final_y": "535881.161863",
    "longitude": "-90.05191545620613",
    "latitude": "29.967332540679948",
    "geocoded_column": {
      "latitude": "29.967332540679948",
      "longitude": "-90.05191545620613"
    }
  },
  {
    "service_request": "2025-1179194",
    "request_type": "Trash/Recycling",
    "request_reason": "Repair Recycling Cart",
    "date_created": "2025-03-27T14:59:27.000",
    "date_modified": "2025-03-27T14:59:28.000",
    "request_status": "Pending",
    "responsible_agency": "Department of Sanitation",
    "final_address": "2920 Dumaine St",
    "address_councildis": "A",
    "status": "Pending",
    "rowid": "1179194",
    "final_x": "3676257.62222",
    "final_y": "538156.630025",
    "longitude": "-90.08439546094375",
    "latitude": "29.97390229996038",
    "geocoded_column": {
      "latitude": "29.97390229996038",
      "longitude": "-90.08439546094375"
    }
  },
  {
    "service_request": "2025-1179193",
    "request_type": "Trash/Recycling",
    "request_reason": "Request a Large Item Pick Up",
    "date_created": "2025-03-27T14:57:21.000",
    "date_modified": "2025-03-27T14:57:23.000",
    "request_status": "Pending",
    "responsible_agency": "Department of Sanitation",
    "final_address": "4851 Ken Ct",
    "address_councildis": "C",
    "status": "Assigned to Contractor",
    "contractor": "Richards Disposal",
    "rowid": "1179193",
    "final_x": "3702144.70257",
    "final_y": "518440.761846",
    "longitude": "-90.00336160432953",
    "latitude": "29.918889384303846",
    "geocoded_column": {
      "latitude": "29.918889384303846",
      "longitude": "-90.00336160432953"
    }
  },
  {
    "service_request": "2025-1179192",
    "request_type": "Drainage",
    "request_reason": "Catch Basin Clogged",
    "date_created": "2025-03-27T14:52:01.000",
    "date_modified": "2025-03-27T14:52:04.000",
    "request_status": "Pending",
    "responsible_agency": "Sewerage & Water Board ",
    "final_address": "82 N Wren St",
    "address_councildis": "D",
    "status": "Pending",
    "rowid": "1179192",
    "final_x": "3672982.60852",
    "final_y": "556402.392602",
    "longitude": "-90.09411549984392",
    "latitude": "30.02416951565338",
    "geocoded_column": {
      "latitude": "30.02416951565338",
      "longitude": "-90.09411549984392"
    }
  },
  {
    "service_request": "2025-1179191",
    "request_type": "Trash/Recycling",
    "request_reason": "Replace Trash Cart",
    "date_created": "2025-03-27T14:49:56.000",
    "date_modified": "2025-03-27T14:49:57.000",
    "request_status": "Pending",
    "responsible_agency": "Department of Sanitation",
    "final_address": "1222 Henriette Delille St",
    "address_councildis": "C",
    "status": "Assigned to Contractor",
    "contractor": "IV Waste",
    "rowid": "1179191",
    "final_x": "3682324.31567",
    "final_y": "535217.705414",
    "longitude": "-90.06533822435213",
    "latitude": "29.96563805514981",
    "geocoded_column": {
      "latitude": "29.96563805514981",
      "longitude": "-90.06533822435213"
    }
  },
  {
    "service_request": "2025-1179190",
    "request_type": "Trash/Recycling",
    "request_reason": "Request a Large Item Pick Up",
    "date_created": "2025-03-27T14:49:18.000",
    "date_modified": "2025-03-27T14:49:20.000",
    "request_status": "Pending",
    "responsible_agency": "Department of Sanitation",
    "final_address": "2667 Abundance St",
    "address_councildis": "D",
    "status": "Assigned to Contractor",
    "contractor": "IV Waste",
    "rowid": "1179190",
    "final_x": "3687963.28271",
    "final_y": "543995.934862",
    "longitude": "-90.04721948629437",
    "latitude": "29.9896022988363",
    "geocoded_column": {
      "latitude": "29.9896022988363",
      "longitude": "-90.04721948629437"
    }
  },
  {
    "service_request": "2025-1179189",
    "request_type": "Parks & Parkways",
    "request_reason": "Request Tree Service (Right of Way/Public Property)",
    "date_created": "2025-03-27T14:47:10.000",
    "date_modified": "2025-03-27T14:47:12.000",
    "request_status": "Pending",
    "responsible_agency": "Department of Parks & Parkway",
    "final_address": "1910 S Carrollton Ave",
    "address_councildis": "A",
    "status": "Pending",
    "rowid": "1179189",
    "final_x": "3663677.97914",
    "final_y": "530285.838273",
    "longitude": "-90.12438722410815",
    "latitude": "29.952631223829986",
    "geocoded_column": {
      "latitude": "29.952631223829986",
      "longitude": "-90.12438722410815"
    }
  },
  {
    "service_request": "2025-1179188",
    "request_type": "Trash/Recycling",
    "request_reason": "Request a Large Item Pick Up",
    "date_created": "2025-03-27T14:44:29.000",
    "date_modified": "2025-03-27T14:44:34.000",
    "request_status": "Pending",
    "responsible_agency": "Department of Sanitation",
    "final_address": "1310 Mandeville St",
    "address_councildis": "C",
    "status": "Assigned to Contractor",
    "contractor": "IV Waste",
    "rowid": "1179188",
    "final_x": "3685676.25423",
    "final_y": "537203.193544",
    "longitude": "-90.05468298624942",
    "latitude": "29.97099503925033",
    "geocoded_column": {
      "latitude": "29.97099503925033",
      "longitude": "-90.05468298624942"
    }
  },
  {
    "service_request": "2025-1179187",
    "request_type": "Trash/Recycling",
    "request_reason": "Repair Trash Cart",
    "date_created": "2025-03-27T14:43:03.000",
    "date_modified": "2025-03-27T14:43:08.000",
    "request_status": "Pending",
    "responsible_agency": "Department of Sanitation",
    "final_address": "1907 N Tonti St",
    "address_councildis": "D",
    "status": "Assigned to Contractor",
    "contractor": "IV Waste",
    "rowid": "1179187",
    "final_x": "3682095.22095",
    "final_y": "540562.098699",
    "longitude": "-90.06587500865477",
    "latitude": "29.98034025415357",
    "geocoded_column": {
      "latitude": "29.98034025415357",
      "longitude": "-90.06587500865477"
    }
  },
  {
    "service_request": "2025-1179186",
    "request_type": "Trash/Recycling",
    "request_reason": "Repair Recycling Cart",
    "date_created": "2025-03-27T14:40:07.000",
    "date_modified": "2025-03-27T14:40:09.000",
    "request_status": "Pending",
    "responsible_agency": "Department of Sanitation",
    "final_address": "4531 Danneel St",
    "address_councildis": "B",
    "status": "Pending",
    "rowid": "1179186",
    "final_x": "3670118.24417",
    "final_y": "522272.211322",
    "longitude": "-90.10432311479035",
    "latitude": "29.93040793933688",
    "geocoded_column": {
      "latitude": "29.93040793933688",
      "longitude": "-90.10432311479035"
    }
  },
  {
    "service_request": "2025-1179185",
    "request_type": "Roads and Streets",
    "request_reason": "Abandoned Service Cut",
    "date_created": "2025-03-27T14:38:05.000",
    "date_modified": "2025-03-27T14:38:07.000",
    "request_status": "Pending",
    "responsible_agency": "Department of Public Works",
    "final_address": "NEW YORK ST & PAINTERS ST",
    "address_councildis": "D",
    "status": "Pending",
    "rowid": "1179185",
    "final_x": "3685943.2",
    "final_y": "556720.48",
    "longitude": "-90.05315129132282",
    "latitude": "30.02465235921994",
    "geocoded_column": {
      "latitude": "30.02465235921994",
      "longitude": "-90.05315129132282"
    }
  },
  {
    "service_request": "2025-1179184",
    "request_type": "Trash/Recycling",
    "request_reason": "Request a Large Item Pick Up",
    "date_created": "2025-03-27T14:37:21.000",
    "date_modified": "2025-03-27T14:37:23.000",
    "request_status": "Pending",
    "responsible_agency": "Department of Sanitation",
    "final_address": "7722 Shubert St",
    "address_councildis": "E",
    "status": "Assigned to Contractor",
    "contractor": "Waste Pro",
    "rowid": "1179184",
    "final_x": "3695556.29302",
    "final_y": "559145.380252",
    "longitude": "-90.02268806557122",
    "latitude": "30.03102109287153",
    "geocoded_column": {
      "latitude": "30.03102109287153",
      "longitude": "-90.02268806557122"
    }
  },
  {
    "service_request": "2025-1179183",
    "request_type": "Streetlights",
    "request_reason": "Streetlight Outage/Malfunction",
    "date_created": "2025-03-27T14:37:17.000",
    "date_modified": "2025-03-27T14:37:19.000",
    "request_status": "Pending",
    "responsible_agency": "Department of Public Works",
    "final_address": "800 Cherokee St",
    "address_councildis": "A",
    "status": "Pending",
    "contractor": "Legacy Professional Services",
    "rowid": "1179183",
    "final_x": "3662601.1305",
    "final_y": "525972.418813",
    "longitude": "-90.12793072184591",
    "latitude": "29.940801898547544",
    "geocoded_column": {
      "latitude": "29.940801898547544",
      "longitude": "-90.12793072184591"
    }
  },
  {
    "service_request": "2025-1179182",
    "request_type": "Abandoned Vehicles",
    "request_reason": "Abandoned/Junk Vehicles",
    "date_created": "2025-03-27T14:35:57.000",
    "date_modified": "2025-03-27T14:35:58.000",
    "request_status": "Pending",
    "responsible_agency": "Department of Public Works",
    "final_address": "6201 Fontainebleau Dr",
    "address_councildis": "B",
    "status": "Pending",
    "rowid": "1179182",
    "final_x": "3668092.35271",
    "final_y": "530066.060161",
    "longitude": "-90.11045598198213",
    "latitude": "29.951898102098877",
    "geocoded_column": {
      "latitude": "29.951898102098877",
      "longitude": "-90.11045598198213"
    }
  },
  {
    "service_request": "2025-1179181",
    "request_type": "Drainage",
    "request_reason": "Ditch and Culvert Maintenance",
    "date_created": "2025-03-27T14:32:25.000",
    "date_modified": "2025-03-27T14:32:27.000",
    "request_status": "Pending",
    "responsible_agency": "Department of Public Works",
    "final_address": "615 Canal St",
    "address_councildis": "C",
    "status": "Pending",
    "rowid": "1179181",
    "final_x": "3681424.87708",
    "final_y": "530604.228546",
    "longitude": "-90.06833945626279",
    "latitude": "29.952979902021216",
    "geocoded_column": {
      "latitude": "29.952979902021216",
      "longitude": "-90.06833945626279"
    }
  },
  {
    "service_request": "2025-1179180",
    "request_type": "Abandoned Vehicles",
    "request_reason": "Abandoned/Junk Vehicles",
    "date_created": "2025-03-27T14:31:29.000",
    "date_modified": "2025-03-27T14:31:31.000",
    "request_status": "Pending",
    "responsible_agency": "Department of Public Works",
    "final_address": "536 Washington Ave",
    "address_councildis": "B",
    "status": "Pending",
    "rowid": "1179180",
    "final_x": "3678006.62338",
    "final_y": "519298.211383",
    "longitude": "-90.079523435735",
    "latitude": "29.92199540136581",
    "geocoded_column": {
      "latitude": "29.92199540136581",
      "longitude": "-90.079523435735"
    }
  },
  {
    "service_request": "2025-1179179",
    "request_type": "Trash/Recycling",
    "request_reason": "Order Trash Cart",
    "date_created": "2025-03-27T14:30:19.000",
    "date_modified": "2025-03-27T14:30:21.000",
    "request_status": "Pending",
    "responsible_agency": "Department of Sanitation",
    "final_address": "504 Madison St",
    "address_councildis": "C",
    "status": "Assigned to Contractor",
    "contractor": "IV Waste",
    "rowid": "1179179",
    "final_x": "3683439.11951",
    "final_y": "532471.652868",
    "longitude": "-90.06191394523337",
    "latitude": "29.95805338472934",
    "geocoded_column": {
      "latitude": "29.95805338472934",
      "longitude": "-90.06191394523337"
    }
  },
  {
    "service_request": "2025-1179178",
    "request_type": "Trash/Recycling",
    "request_reason": "Request a Large Item Pick Up",
    "date_created": "2025-03-27T14:28:04.000",
    "date_modified": "2025-03-27T14:28:06.000",
    "request_status": "Pending",
    "responsible_agency": "Department of Sanitation",
    "final_address": "1015 Franklin Ave",
    "address_councildis": "C",
    "status": "Assigned to Contractor",
    "contractor": "IV Waste",
    "rowid": "1179178",
    "final_x": "3687077.48156",
    "final_y": "536154.040135",
    "longitude": "-90.05029483914174",
    "latitude": "29.96806716472763",
    "geocoded_column": {
      "latitude": "29.96806716472763",
      "longitude": "-90.05029483914174"
    }
  },
  {
    "service_request": "2025-1179177",
    "request_type": "Trash/Recycling",
    "request_reason": "Order Trash Cart",
    "date_created": "2025-03-27T14:27:53.000",
    "date_modified": "2025-03-27T14:27:54.000",
    "request_status": "Pending",
    "responsible_agency": "Department of Sanitation",
    "final_address": "504 Madison St",
    "address_councildis": "C",
    "status": "Assigned to Contractor",
    "contractor": "IV Waste",
    "rowid": "1179177",
    "final_x": "3683439.11951",
    "final_y": "532471.652868",
    "longitude": "-90.06191394523337",
    "latitude": "29.95805338472934",
    "geocoded_column": {
      "latitude": "29.95805338472934",
      "longitude": "-90.06191394523337"
    }
  },
  {
    "service_request": "2025-1179176",
    "request_type": "Streetlights",
    "request_reason": "Streetlight Outage/Malfunction",
    "date_created": "2025-03-27T14:27:24.000",
    "date_modified": "2025-03-27T14:27:26.000",
    "request_status": "Pending",
    "responsible_agency": "Department of Public Works",
    "final_address": "2017 Laurel St",
    "address_councildis": "B",
    "status": "Pending",
    "contractor": "Legacy Professional Services",
    "rowid": "1179176",
    "final_x": "3679777.22229",
    "final_y": "521907.75705",
    "longitude": "-90.07384385673966",
    "latitude": "29.92911740785258",
    "geocoded_column": {
      "latitude": "29.92911740785258",
      "longitude": "-90.07384385673966"
    }
  },
  {
    "service_request": "2025-1179175",
    "request_type": "Roads and Streets",
    "request_reason": "Pothole",
    "date_created": "2025-03-27T14:24:24.000",
    "date_modified": "2025-03-27T14:24:25.000",
    "request_status": "Pending",
    "responsible_agency": "Department of Public Works",
    "final_address": "1400 BLK General Taylor St",
    "address_councildis": "B",
    "status": "Pending",
    "rowid": "1179175",
    "final_x": "3672728.58626",
    "final_y": "520628.52546",
    "longitude": "-90.09613867555285",
    "latitude": "29.92581108809533",
    "geocoded_column": {
      "latitude": "29.92581108809533",
      "longitude": "-90.09613867555285"
    }
  },
  {
    "service_request": "2025-1179174",
    "request_type": "Streetlights",
    "request_reason": "Streetlight Outage/Malfunction",
    "date_created": "2025-03-27T14:23:31.000",
    "date_modified": "2025-03-27T14:23:32.000",
    "request_status": "Pending",
    "responsible_agency": "Department of Public Works",
    "final_address": "908 Josephine St",
    "address_councildis": "B",
    "status": "Pending",
    "contractor": "Legacy Professional Services",
    "rowid": "1179174",
    "final_x": "3679529.87439",
    "final_y": "521781.274874",
    "longitude": "-90.07462907195203",
    "latitude": "29.928777096814667",
    "geocoded_column": {
      "latitude": "29.928777096814667",
      "longitude": "-90.07462907195203"
    }
  },
  {
    "service_request": "2025-1179173",
    "request_type": "Roads and Streets",
    "request_reason": "Pothole",
    "date_created": "2025-03-27T14:23:29.000",
    "date_modified": "2025-03-27T14:23:31.000",
    "request_status": "Pending",
    "responsible_agency": "Department of Public Works",
    "final_address": "7252 Lakeshore Dr",
    "address_councildis": "D",
    "status": "Pending",
    "rowid": "1179173",
    "final_x": "3666800.08052",
    "final_y": "555252.519961",
    "longitude": "-90.11368988696351",
    "latitude": "30.021190175136482",
    "geocoded_column": {
      "latitude": "30.021190175136482",
      "longitude": "-90.11368988696351"
    }
  },
  {
    "service_request": "2025-1179172",
    "request_type": "Trash/Recycling",
    "request_reason": "Repair Trash Cart",
    "date_created": "2025-03-27T14:23:25.000",
    "date_modified": "2025-03-27T14:23:28.000",
    "request_status": "Pending",
    "responsible_agency": "Department of Sanitation",
    "final_address": "3121 Behrman Hwy",
    "address_councildis": "C",
    "status": "Assigned to Contractor",
    "contractor": "Richards Disposal",
    "rowid": "1179172",
    "final_x": "3694596.9601",
    "final_y": "518964.510391",
    "longitude": "-90.02716696001049",
    "latitude": "29.92056824717289",
    "geocoded_column": {
      "latitude": "29.92056824717289",
      "longitude": "-90.02716696001049"
    }
  },
  {
    "service_request": "2025-1179171",
    "request_type": "Trash/Recycling",
    "request_reason": "Request a Large Item Pick Up",
    "date_created": "2025-03-27T14:22:37.000",
    "date_modified": "2025-03-27T14:22:39.000",
    "request_status": "Pending",
    "responsible_agency": "Department of Sanitation",
    "final_address": "7501 Briarwood Dr",
    "address_councildis": "E",
    "status": "Assigned to Contractor",
    "contractor": "Waste Pro",
    "rowid": "1179171",
    "final_x": "3718028.91161",
    "final_y": "570334.094311",
    "longitude": "-89.9512482970548",
    "latitude": "30.061059545423795",
    "geocoded_column": {
      "latitude": "30.061059545423795",
      "longitude": "-89.9512482970548"
    }
  },
  {
    "service_request": "2025-1179170",
    "request_type": "Trash/Recycling",
    "request_reason": "Request a Large Item Pick Up",
    "date_created": "2025-03-27T14:22:08.000",
    "date_modified": "2025-03-27T14:22:17.000",
    "request_status": "Pending",
    "responsible_agency": "Department of Sanitation",
    "final_address": "7145 Downman Rd",
    "address_councildis": "D",
    "status": "Assigned to Contractor",
    "contractor": "Waste Pro",
    "rowid": "1179170",
    "final_x": "3695294.48867",
    "final_y": "556839.897242",
    "longitude": "-90.02359864589498",
    "latitude": "30.024690123887616",
    "geocoded_column": {
      "latitude": "30.024690123887616",
      "longitude": "-90.02359864589498"
    }
  },
  {
    "service_request": "2025-1179169",
    "request_type": "Trash/Recycling",
    "request_reason": "Request a Large Item Pick Up",
    "date_created": "2025-03-27T14:18:36.000",
    "date_modified": "2025-03-27T14:18:38.000",
    "request_status": "Pending",
    "responsible_agency": "Department of Sanitation",
    "final_address": "7009 Queensway Dr",
    "address_councildis": "E",
    "status": "Assigned to Contractor",
    "contractor": "Waste Pro",
    "rowid": "1179169",
    "final_x": "3719335.78361",
    "final_y": "569324.081126",
    "longitude": "-89.94715597150181",
    "latitude": "30.058239022818135",
    "geocoded_column": {
      "latitude": "30.058239022818135",
      "longitude": "-89.94715597150181"
    }
  },
  {
    "service_request": "2025-1179168",
    "request_type": "Healthy Homes",
    "request_reason": "Healthy Homes",
    "date_created": "2025-03-27T14:16:30.000",
    "date_modified": "2025-03-27T16:10:59.000",
    "case_close_date": "2025-03-27T10:04:41.000",
    "request_status": "Closed",
    "responsible_agency": "Department of Code Enforcement",
    "final_address": "2460 N Johnson St",
    "address_councildis": "D",
    "status": "Referred to Code Enforcement",
    "rowid": "1179168",
    "final_x": "3686775.63145",
    "final_y": "539730.62497",
    "longitude": "-90.0511216985291",
    "latitude": "29.97791081008892",
    "geocoded_column": {
      "latitude": "29.97791081008892",
      "longitude": "-90.0511216985291"
    }
  },
  {
    "service_request": "2025-1179167",
    "request_type": "Streetlights",
    "request_reason": "Streetlight Outage/Malfunction",
    "date_created": "2025-03-27T14:15:22.000",
    "date_modified": "2025-03-27T14:15:23.000",
    "request_status": "Pending",
    "responsible_agency": "Department of Public Works",
    "final_address": "912 Dublin St",
    "address_councildis": "A",
    "status": "Pending",
    "contractor": "Legacy Professional Services",
    "rowid": "1179167",
    "final_x": "3661030.24454",
    "final_y": "527932.678975",
    "longitude": "-90.13282546876816",
    "latitude": "29.946237336911732",
    "geocoded_column": {
      "latitude": "29.946237336911732",
      "longitude": "-90.13282546876816"
    }
  },
  {
    "service_request": "2025-1179166",
    "request_type": "Street and Traffic Signs",
    "request_reason": "Traffic or Parking Sign Damaged or Missing",
    "date_created": "2025-03-27T14:13:45.000",
    "date_modified": "2025-03-27T14:13:46.000",
    "request_status": "Pending",
    "responsible_agency": "Department of Public Works",
    "final_address": "631 Elysian Fields Ave",
    "address_councildis": "C",
    "status": "Pending",
    "rowid": "1179166",
    "final_x": "3685242.33109",
    "final_y": "534748.681222",
    "longitude": "-90.05613977234782",
    "latitude": "29.964259289117717",
    "geocoded_column": {
      "latitude": "29.964259289117717",
      "longitude": "-90.05613977234782"
    }
  },
  {
    "service_request": "2025-1179165",
    "request_type": "Trash/Recycling",
    "request_reason": "Repair Trash Cart",
    "date_created": "2025-03-27T14:09:51.000",
    "date_modified": "2025-03-27T14:09:53.000",
    "request_status": "Pending",
    "responsible_agency": "Department of Sanitation",
    "final_address": "1870 Farragut St",
    "address_councildis": "C",
    "status": "Assigned to Contractor",
    "contractor": "Richards Disposal",
    "rowid": "1179165",
    "final_x": "3692292.6824",
    "final_y": "524037.375932",
    "longitude": "-90.03425892379191",
    "latitude": "29.934588937711013",
    "geocoded_column": {
      "latitude": "29.934588937711013",
      "longitude": "-90.03425892379191"
    }
  },
  {
    "service_request": "2025-1179164",
    "request_type": "Trash/Recycling",
    "request_reason": "Order Trash Cart",
    "date_created": "2025-03-27T14:09:00.000",
    "date_modified": "2025-03-27T14:09:02.000",
    "request_status": "Pending",
    "responsible_agency": "Department of Sanitation",
    "final_address": "3305 Marais St",
    "address_councildis": "C",
    "status": "Assigned to Contractor",
    "contractor": "IV Waste",
    "rowid": "1179164",
    "final_x": "3689997.82928",
    "final_y": "536165.836295",
    "longitude": "-90.04107188125678",
    "latitude": "29.96800936265638",
    "geocoded_column": {
      "latitude": "29.96800936265638",
      "longitude": "-90.04107188125678"
    }
  },
  {
    "service_request": "2025-1179163",
    "request_type": "Trash/Recycling",
    "request_reason": "Request a Large Item Pick Up",
    "date_created": "2025-03-27T14:06:52.000",
    "date_modified": "2025-03-27T14:06:54.000",
    "request_status": "Pending",
    "responsible_agency": "Department of Sanitation",
    "final_address": "8429 Oleander St",
    "address_councildis": "A",
    "status": "Assigned to Contractor",
    "contractor": "IV Waste",
    "rowid": "1179163",
    "final_x": "3665823.80858",
    "final_y": "534580.159941",
    "longitude": "-90.11746775296865",
    "latitude": "29.964376775434634",
    "geocoded_column": {
      "latitude": "29.964376775434634",
      "longitude": "-90.11746775296865"
    }
  },
  {
    "service_request": "2025-1179162",
    "request_type": "Trash/Recycling",
    "request_reason": "Repair Trash Cart",
    "date_created": "2025-03-27T14:02:33.000",
    "date_modified": "2025-03-27T14:02:35.000",
    "request_status": "Pending",
    "responsible_agency": "Department of Sanitation",
    "final_address": "1811 Frenchmen St",
    "address_councildis": "D",
    "status": "Assigned to Contractor",
    "contractor": "IV Waste",
    "rowid": "1179162",
    "final_x": "3684407.02018",
    "final_y": "538956.37729",
    "longitude": "-90.05862979195312",
    "latitude": "29.97585456708767",
    "geocoded_column": {
      "latitude": "29.97585456708767",
      "longitude": "-90.05862979195312"
    }
  },
  {
    "service_request": "2025-1179161",
    "request_type": "Roads and Streets",
    "request_reason": "Pothole",
    "date_created": "2025-03-27T14:01:07.000",
    "date_modified": "2025-03-27T14:01:09.000",
    "request_status": "Pending",
    "responsible_agency": "Department of Public Works",
    "final_address": "101 W Robert E Lee Blvd, New Orleans, Louisiana, 70124",
    "status": "Pending",
    "rowid": "1179161",
    "longitude": "0.0",
    "latitude": "0.0",
    "geocoded_column": {
      "latitude": "0.0",
      "longitude": "0.0"
    }
  },
  {
    "service_request": "2025-1179159",
    "request_type": "Street and Traffic Signs",
    "request_reason": "Traffic or Parking Sign Damaged or Missing",
    "date_created": "2025-03-27T13:58:28.000",
    "date_modified": "2025-03-27T13:58:29.000",
    "request_status": "Pending",
    "responsible_agency": "Department of Public Works",
    "final_address": "900 BLK Race St",
    "address_councildis": "B",
    "status": "Pending",
    "rowid": "1179159",
    "final_x": "3680714.7491",
    "final_y": "523718.892311",
    "longitude": "-90.07082127276432",
    "latitude": "29.934069063987344",
    "geocoded_column": {
      "latitude": "29.934069063987344",
      "longitude": "-90.07082127276432"
    }
  },
  {
    "service_request": "2025-1179158",
    "request_type": "Trash/Recycling",
    "request_reason": "Request a Large Item Pick Up",
    "date_created": "2025-03-27T13:58:13.000",
    "date_modified": "2025-03-27T13:58:15.000",
    "request_status": "Pending",
    "responsible_agency": "Department of Sanitation",
    "final_address": "7061 Bunker Hill Rd",
    "address_councildis": "E",
    "status": "Assigned to Contractor",
    "contractor": "Waste Pro",
    "rowid": "1179158",
    "final_x": "3705870.67601",
    "final_y": "560636.829022",
    "longitude": "-89.99003931135553",
    "latitude": "30.03479356062571",
    "geocoded_column": {
      "latitude": "30.03479356062571",
      "longitude": "-89.99003931135553"
    }
  },
  {
    "service_request": "2025-1179156",
    "request_type": "Abandoned Vehicles",
    "request_reason": "Abandoned/Junk Vehicles",
    "date_created": "2025-03-27T13:55:45.000",
    "date_modified": "2025-03-27T13:55:47.000",
    "request_status": "Pending",
    "responsible_agency": "Department of Public Works",
    "final_address": "2715 Third St",
    "address_councildis": "B",
    "status": "Pending",
    "rowid": "1179156",
    "final_x": "3674213.91483",
    "final_y": "526303.806334",
    "longitude": "-90.09125573216073",
    "latitude": "29.9413720854277",
    "geocoded_column": {
      "latitude": "29.9413720854277",
      "longitude": "-90.09125573216073"
    }
  },
  {
    "service_request": "2025-1179155",
    "request_type": "Abandoned Vehicles",
    "request_reason": "Abandoned/Junk Vehicles",
    "date_created": "2025-03-27T13:55:16.000",
    "date_modified": "2025-03-27T13:55:18.000",
    "request_status": "Pending",
    "responsible_agency": "Department of Public Works",
    "final_address": "2715 Third St",
    "address_councildis": "B",
    "status": "Pending",
    "rowid": "1179155",
    "final_x": "3674213.91483",
    "final_y": "526303.806334",
    "longitude": "-90.09125573216073",
    "latitude": "29.9413720854277",
    "geocoded_column": {
      "latitude": "29.9413720854277",
      "longitude": "-90.09125573216073"
    }
  },
  {
    "service_request": "2025-1179154",
    "request_type": "Trash/Recycling",
    "request_reason": "Request a Large Item Pick Up",
    "date_created": "2025-03-27T13:54:42.000",
    "date_modified": "2025-03-27T13:54:44.000",
    "request_status": "Pending",
    "responsible_agency": "Department of Sanitation",
    "final_address": "11021 Roger Dr",
    "address_councildis": "E",
    "status": "Assigned to Contractor",
    "contractor": "Waste Pro",
    "rowid": "1179154",
    "final_x": "3712245.13477",
    "final_y": "563559.266208",
    "longitude": "-89.96978536939223",
    "latitude": "30.042622074527866",
    "geocoded_column": {
      "latitude": "30.042622074527866",
      "longitude": "-89.96978536939223"
    }
  },
  {
    "service_request": "2025-1179153",
    "request_type": "Streetlights",
    "request_reason": "Streetlight Outage/Malfunction",
    "date_created": "2025-03-27T13:52:45.000",
    "date_modified": "2025-03-27T13:52:46.000",
    "request_status": "Pending",
    "responsible_agency": "Department of Public Works",
    "final_address": "1000 Race St",
    "address_councildis": "B",
    "status": "Pending",
    "contractor": "Legacy Professional Services",
    "rowid": "1179153",
    "final_x": "3680508.50728",
    "final_y": "523719.305275",
    "longitude": "-90.0714723557563",
    "latitude": "29.934076446289726",
    "geocoded_column": {
      "latitude": "29.934076446289726",
      "longitude": "-90.0714723557563"
    }
  },
  {
    "service_request": "2025-1179152",
    "request_type": "Trash/Recycling",
    "request_reason": "Order Second Trash Cart",
    "date_created": "2025-03-27T13:52:18.000",
    "date_modified": "2025-03-27T18:07:53.000",
    "case_close_date": "2025-03-27T13:07:52.000",
    "request_status": "Closed",
    "responsible_agency": "Department of Sanitation",
    "final_address": "5500 Bentley Dr",
    "address_councildis": "E",
    "status": "Invalid Case",
    "contractor": "Waste Pro",
    "contractor_action": "Invalid",
    "rowid": "1179152",
    "final_x": "3703989.7217",
    "final_y": "556404.869786",
    "longitude": "-89.99613943467719",
    "latitude": "30.023217815971165",
    "geocoded_column": {
      "latitude": "30.023217815971165",
      "longitude": "-89.99613943467719"
    }
  },
  {
    "service_request": "2025-1179151",
    "request_type": "Streetlights",
    "request_reason": "Streetlight Outage/Malfunction",
    "date_created": "2025-03-27T13:51:14.000",
    "date_modified": "2025-03-27T13:51:15.000",
    "request_status": "Pending",
    "responsible_agency": "Department of Public Works",
    "final_address": "942 Race St",
    "address_councildis": "B",
    "status": "Pending",
    "contractor": "Legacy Professional Services",
    "rowid": "1179151",
    "final_x": "3680564.20981",
    "final_y": "523608.742203",
    "longitude": "-90.0713003494174",
    "latitude": "29.933770747515478",
    "geocoded_column": {
      "latitude": "29.933770747515478",
      "longitude": "-90.0713003494174"
    }
  },
  {
    "service_request": "2025-1179150",
    "request_type": "Trash/Recycling",
    "request_reason": "Request a Large Item Pick Up",
    "date_created": "2025-03-27T13:48:07.000",
    "date_modified": "2025-03-27T13:48:09.000",
    "request_status": "Pending",
    "responsible_agency": "Department of Sanitation",
    "final_address": "7017 Walmsley Ave",
    "address_councildis": "B",
    "status": "Assigned to Contractor",
    "contractor": "IV Waste",
    "rowid": "1179150",
    "final_x": "3667804.18554",
    "final_y": "530903.50157",
    "longitude": "-90.11133768053918",
    "latitude": "29.954209245438438",
    "geocoded_column": {
      "latitude": "29.954209245438438",
      "longitude": "-90.11133768053918"
    }
  },
  {
    "service_request": "2025-1179149",
    "request_type": "General Services",
    "request_reason": "General Service Request",
    "date_created": "2025-03-27T13:40:03.000",
    "date_modified": "2025-03-27T13:41:49.000",
    "case_close_date": "2025-03-27T08:41:47.000",
    "request_status": "Closed",
    "responsible_agency": "Orleans Parish Communication District",
    "final_address": "1500 BLK Saint Ann St",
    "address_councildis": "C",
    "status": "Referred to External Agency",
    "rowid": "1179149",
    "final_x": "3680415.83959",
    "final_y": "534560.589131",
    "longitude": "-90.0713879690631",
    "latitude": "29.963889142891194",
    "geocoded_column": {
      "latitude": "29.963889142891194",
      "longitude": "-90.0713879690631"
    }
  },
  {
    "service_request": "2025-1179147",
    "request_type": "Trash/Recycling",
    "request_reason": "Repair Trash Cart",
    "date_created": "2025-03-27T13:34:14.000",
    "date_modified": "2025-03-27T13:34:16.000",
    "request_status": "Pending",
    "responsible_agency": "Department of Sanitation",
    "final_address": "1029 Nunez St",
    "address_councildis": "C",
    "status": "Assigned to Contractor",
    "contractor": "Richards Disposal",
    "rowid": "1179147",
    "final_x": "3686922.09641",
    "final_y": "527696.945407",
    "longitude": "-90.05108442294109",
    "latitude": "29.944817846958973",
    "geocoded_column": {
      "latitude": "29.944817846958973",
      "longitude": "-90.05108442294109"
    }
  },
  {
    "service_request": "2025-1179146",
    "request_type": "Trash/Recycling",
    "request_reason": "Request a Large Item Pick Up",
    "date_created": "2025-03-27T13:31:04.000",
    "date_modified": "2025-03-27T13:31:06.000",
    "request_status": "Pending",
    "responsible_agency": "Department of Sanitation",
    "final_address": "7008 Milne Blvd",
    "address_councildis": "A",
    "status": "Assigned to Contractor",
    "contractor": "IV Waste",
    "rowid": "1179146",
    "final_x": "3667578.93959",
    "final_y": "554156.235864",
    "longitude": "-90.11126584583282",
    "latitude": "30.018152963698473",
    "geocoded_column": {
      "latitude": "30.018152963698473",
      "longitude": "-90.11126584583282"
    }
  },
  {
    "service_request": "2025-1179145",
    "request_type": "Trash/Recycling",
    "request_reason": "Request a Large Item Pick Up",
    "date_created": "2025-03-27T13:25:44.000",
    "date_modified": "2025-03-27T13:25:46.000",
    "request_status": "Pending",
    "responsible_agency": "Department of Sanitation",
    "final_address": "7031 Manchester St",
    "address_councildis": "E",
    "status": "Assigned to Contractor",
    "contractor": "Waste Pro",
    "rowid": "1179145",
    "final_x": "3699138.41636",
    "final_y": "560130.825693",
    "longitude": "-90.01133258552572",
    "latitude": "30.033617539428832",
    "geocoded_column": {
      "latitude": "30.033617539428832",
      "longitude": "-90.01133258552572"
    }
  },
  {
    "service_request": "2025-1179144",
    "request_type": "Streetlights",
    "request_reason": "Streetlight Outage/Malfunction",
    "date_created": "2025-03-27T13:22:11.000",
    "date_modified": "2025-03-27T13:22:13.000",
    "request_status": "Pending",
    "responsible_agency": "Department of Public Works",
    "final_address": "636 Tupelo St",
    "address_councildis": "E",
    "status": "Pending",
    "contractor": "Legacy Professional Services",
    "rowid": "1179144",
    "final_x": "3698864.4401",
    "final_y": "531849.603587",
    "longitude": "-90.01322801423694",
    "latitude": "29.955863326809215",
    "geocoded_column": {
      "latitude": "29.955863326809215",
      "longitude": "-90.01322801423694"
    }
  },
  {
    "service_request": "2025-1179143",
    "request_type": "Abandoned Vehicles",
    "request_reason": "Abandoned/Junk Vehicles",
    "date_created": "2025-03-27T13:21:12.000",
    "date_modified": "2025-03-27T13:22:45.000",
    "request_status": "Pending",
    "responsible_agency": "Department of Public Works",
    "final_address": "2401 Burgundy St",
    "address_councildis": "C",
    "status": "Pending",
    "rowid": "1179143",
    "final_x": "3685861.35913",
    "final_y": "535676.727175",
    "longitude": "-90.05415221969295",
    "latitude": "29.96679210690982",
    "geocoded_column": {
      "latitude": "29.96679210690982",
      "longitude": "-90.05415221969295"
    }
  },
  {
    "service_request": "2025-1179142",
    "request_type": "Traffic Signals",
    "request_reason": "Traffic Signal Malfunctioning or Damaged",
    "date_created": "2025-03-27T13:20:03.000",
    "date_modified": "2025-03-27T13:20:04.000",
    "request_status": "Pending",
    "responsible_agency": "Department of Public Works",
    "final_address": "1901 Tchoupitoulas St",
    "address_councildis": "B",
    "status": "Pending",
    "rowid": "1179142",
    "final_x": "3681069.68866",
    "final_y": "520552.67212",
    "longitude": "-90.06981096487615",
    "latitude": "29.925352242341845",
    "geocoded_column": {
      "latitude": "29.925352242341845",
      "longitude": "-90.06981096487615"
    }
  },
  {
    "service_request": "2025-1179141",
    "request_type": "Trash/Recycling",
    "request_reason": "Repair Trash Cart",
    "date_created": "2025-03-27T13:19:44.000",
    "date_modified": "2025-03-27T13:19:45.000",
    "request_status": "Pending",
    "responsible_agency": "Department of Sanitation",
    "final_address": "4246 Dale St",
    "address_councildis": "E",
    "status": "Assigned to Contractor",
    "contractor": "Waste Pro",
    "rowid": "1179141",
    "final_x": "3699636.04042",
    "final_y": "552368.361366",
    "longitude": "-90.01004333754673",
    "latitude": "30.012257935093963",
    "geocoded_column": {
      "latitude": "30.012257935093963",
      "longitude": "-90.01004333754673"
    }
  },
  {
    "service_request": "2025-1179140",
    "request_type": "Trash/Recycling",
    "request_reason": "Request a Large Item Pick Up",
    "date_created": "2025-03-27T13:18:15.000",
    "date_modified": "2025-03-27T13:18:17.000",
    "request_status": "Pending",
    "responsible_agency": "Department of Sanitation",
    "final_address": "902 Pauline St",
    "address_councildis": "C",
    "status": "Assigned to Contractor",
    "contractor": "IV Waste",
    "rowid": "1179140",
    "final_x": "3690997.05724",
    "final_y": "534711.035206",
    "longitude": "-90.03796823325614",
    "latitude": "29.96397814649009",
    "geocoded_column": {
      "latitude": "29.96397814649009",
      "longitude": "-90.03796823325614"
    }
  },
  {
    "service_request": "2025-1179139",
    "request_type": "Trash/Recycling",
    "request_reason": "Request a Large Item Pick Up",
    "date_created": "2025-03-27T13:17:42.000",
    "date_modified": "2025-03-27T13:17:44.000",
    "request_status": "Pending",
    "responsible_agency": "Department of Sanitation",
    "final_address": "4517 St Ferdinand Dr",
    "address_councildis": "D",
    "status": "Assigned to Contractor",
    "contractor": "IV Waste",
    "rowid": "1179139",
    "final_x": "3689527.93974",
    "final_y": "549848.26754",
    "longitude": "-90.04206886960796",
    "latitude": "30.005645708563474",
    "geocoded_column": {
      "latitude": "30.005645708563474",
      "longitude": "-90.04206886960796"
    }
  },
  {
    "service_request": "2025-1179138",
    "request_type": "Trash/Recycling",
    "request_reason": "Order Trash Cart",
    "date_created": "2025-03-27T13:14:02.000",
    "date_modified": "2025-03-27T13:14:04.000",
    "request_status": "Pending",
    "responsible_agency": "Department of Sanitation",
    "final_address": "227 Filmore Ave",
    "address_councildis": "A",
    "status": "Assigned to Contractor",
    "contractor": "IV Waste",
    "rowid": "1179138",
    "final_x": "3667283.74004",
    "final_y": "552275.002646",
    "longitude": "-90.11226191118797",
    "latitude": "30.01298888800794",
    "geocoded_column": {
      "latitude": "30.01298888800794",
      "longitude": "-90.11226191118797"
    }
  },
  {
    "service_request": "2025-1179137",
    "request_type": "Trash/Recycling",
    "request_reason": "Order Recycling Cart",
    "date_created": "2025-03-27T13:11:54.000",
    "date_modified": "2025-03-27T13:11:56.000",
    "request_status": "Pending",
    "responsible_agency": "Department of Sanitation",
    "final_address": "1305 Pine St",
    "address_councildis": "A",
    "status": "Pending",
    "rowid": "1179137",
    "final_x": "3664194.0089",
    "final_y": "526991.741886",
    "longitude": "-90.12286770661363",
    "latitude": "29.943558539159696",
    "geocoded_column": {
      "latitude": "29.943558539159696",
      "longitude": "-90.12286770661363"
    }
  },
  {
    "service_request": "2025-1179136",
    "request_type": "Trash/Recycling",
    "request_reason": "Request a Large Item Pick Up",
    "date_created": "2025-03-27T13:11:33.000",
    "date_modified": "2025-03-27T15:51:48.000",
    "case_close_date": "2025-03-27T10:51:46.000",
    "request_status": "Closed",
    "responsible_agency": "Department of Sanitation",
    "final_address": "5000 Law St",
    "address_councildis": "E",
    "status": "Duplicate Request",
    "contractor": "Waste Pro",
    "contractor_action": "Duplicate",
    "rowid": "1179136",
    "final_x": "3697578.06935",
    "final_y": "539838.037386",
    "longitude": "-90.01700012273224",
    "latitude": "29.9778693533781",
    "geocoded_column": {
      "latitude": "29.9778693533781",
      "longitude": "-90.01700012273224"
    }
  },
  {
    "service_request": "2025-1179135",
    "request_type": "Trash/Recycling",
    "request_reason": "Order Recycling Cart",
    "date_created": "2025-03-27T13:07:09.000",
    "date_modified": "2025-03-27T13:07:10.000",
    "request_status": "Pending",
    "responsible_agency": "Department of Sanitation",
    "final_address": "2020 Marais St",
    "address_councildis": "C",
    "status": "Pending",
    "rowid": "1179135",
    "final_x": "3684382.84956",
    "final_y": "536589.267783",
    "longitude": "-90.05878928675388",
    "latitude": "29.969346579460158",
    "geocoded_column": {
      "latitude": "29.969346579460158",
      "longitude": "-90.05878928675388"
    }
  },
  {
    "service_request": "2025-1179134",
    "request_type": "Trash/Recycling",
    "request_reason": "Request a Large Item Pick Up",
    "date_created": "2025-03-27T13:03:51.000",
    "date_modified": "2025-03-27T13:03:53.000",
    "request_status": "Pending",
    "responsible_agency": "Department of Sanitation",
    "final_address": "5430 Dauphine St",
    "address_councildis": "E",
    "status": "Assigned to Contractor",
    "contractor": "Waste Pro",
    "rowid": "1179134",
    "final_x": "3697064.87389",
    "final_y": "532743.207044",
    "longitude": "-90.01887801678122",
    "latitude": "29.958377305532977",
    "geocoded_column": {
      "latitude": "29.958377305532977",
      "longitude": "-90.01887801678122"
    }
  },
  {
    "service_request": "2025-1179133",
    "request_type": "Trash/Recycling",
    "request_reason": "Request a Large Item Pick Up",
    "date_created": "2025-03-27T13:02:28.000",
    "date_modified": "2025-03-27T13:02:30.000",
    "request_status": "Pending",
    "responsible_agency": "Department of Sanitation",
    "final_address": "6027 Wales St",
    "address_councildis": "E",
    "status": "Assigned to Contractor",
    "contractor": "Waste Pro",
    "rowid": "1179133",
    "final_x": "3695119.75875",
    "final_y": "559496.333853",
    "longitude": "-90.0240548487072",
    "latitude": "30.031999803345194",
    "geocoded_column": {
      "latitude": "30.031999803345194",
      "longitude": "-90.0240548487072"
    }
  },
  {
    "service_request": "2025-1179132",
    "request_type": "Safety & Permits",
    "request_reason": "Zoning Enforcement",
    "date_created": "2025-03-27T12:59:31.000",
    "date_modified": "2025-03-27T12:59:33.000",
    "request_status": "Pending",
    "responsible_agency": "Safety and Permits",
    "final_address": "11021 Kinneil Rd",
    "address_councildis": "E",
    "status": "Pending",
    "rowid": "1179132",
    "final_x": "3711581.50494",
    "final_y": "564492.433633",
    "longitude": "-89.97184764107895",
    "latitude": "30.045209606942755",
    "geocoded_column": {
      "latitude": "30.045209606942755",
      "longitude": "-89.97184764107895"
    }
  },
  {
    "service_request": "2025-1179131",
    "request_type": "Street and Traffic Signs",
    "request_reason": "Additional Signage Request",
    "date_created": "2025-03-27T12:57:51.000",
    "date_modified": "2025-03-27T12:57:53.000",
    "request_status": "Pending",
    "responsible_agency": "Department of Public Works",
    "final_address": "GENERAL HAIG ST & LANE ST",
    "address_councildis": "A",
    "status": "Pending",
    "rowid": "1179131",
    "final_x": "3670842.0",
    "final_y": "550513.88",
    "longitude": "-90.10107954077858",
    "latitude": "30.008041678616127",
    "geocoded_column": {
      "latitude": "30.008041678616127",
      "longitude": "-90.10107954077858"
    }
  },
  {
    "service_request": "2025-1179130",
    "request_type": "Property Maintenance",
    "request_reason": "Property Maintenance",
    "date_created": "2025-03-27T12:54:36.000",
    "date_modified": "2025-03-27T15:17:49.000",
    "case_close_date": "2025-03-27T10:17:48.000",
    "request_status": "Closed",
    "responsible_agency": "Department of Code Enforcement",
    "final_address": "4401 Woodland Dr",
    "address_councildis": "C",
    "status": "Referred to Code Enforcement",
    "rowid": "1179130",
    "final_x": "3705309.05585",
    "final_y": "513941.292402",
    "longitude": "-89.99353952586037",
    "latitude": "29.906416020332024",
    "geocoded_column": {
      "latitude": "29.906416020332024",
      "longitude": "-89.99353952586037"
    }
  },
  {
    "service_request": "2025-1179129",
    "request_type": "Trash/Recycling",
    "request_reason": "Repair Trash Cart",
    "date_created": "2025-03-27T12:54:18.000",
    "date_modified": "2025-03-27T12:54:20.000",
    "request_status": "Pending",
    "responsible_agency": "Department of Sanitation",
    "final_address": "5524 Willow St",
    "address_councildis": "A",
    "status": "Assigned to Contractor",
    "contractor": "IV Waste",
    "rowid": "1179129",
    "final_x": "3667672.12314",
    "final_y": "525367.055037",
    "longitude": "-90.11194102792018",
    "latitude": "29.938989685148684",
    "geocoded_column": {
      "latitude": "29.938989685148684",
      "longitude": "-90.11194102792018"
    }
  },
  {
    "service_request": "2025-1179128",
    "request_type": "Trash/Recycling",
    "request_reason": "Repair Trash Cart",
    "date_created": "2025-03-27T12:53:04.000",
    "date_modified": "2025-03-27T12:53:06.000",
    "request_status": "Pending",
    "responsible_agency": "Department of Sanitation",
    "final_address": "5522 Willow St",
    "address_councildis": "A",
    "status": "Assigned to Contractor",
    "contractor": "IV Waste",
    "rowid": "1179128",
    "final_x": "3667687.02772",
    "final_y": "525364.294909",
    "longitude": "-90.1118940651348",
    "latitude": "29.938981658826343",
    "geocoded_column": {
      "latitude": "29.938981658826343",
      "longitude": "-90.1118940651348"
    }
  },