[
  {
    "service_request": "2023-973738",
    "request_type": "Health Related Request",
    "request_reason": "Noise Ordinance Complaint",
    "date_created": "2023-02-08T01:40:38.000",
    "date_modified": "2023-02-08T01:40:38.000",
    "request_status": "Pending",
    "responsible_agency": "Health Department",
    "final_address": "1328 St Bernard Ave",
    "address_councildis": "C",
    "status": "Pending",
    "rowid": "973738",
    "final_x": "3682712.52284",
    "final_y": "536735.540615",
    "longitude": "-90.06405918653729",
    "latitude": "29.96979976049472",
    "geocoded_column": {
      "latitude": "29.96979976049472",
      "longitude": "-90.06405918653729"
    }
  },
  {
    "service_request": "2023-973737",
    "request_type": "Roads/Drainage",
    "request_reason": "Service Cut",
    "date_created": "2023-02-08T01:23:20.000",
    "date_modified": "2023-02-08T01:23:20.000",
    "request_status": "Pending",
    "responsible_agency": "Department of Public Works",
    "final_address": "1023 Independence St",
    "address_councildis": "C",
    "status": "Pending",
    "rowid": "973737",
    "final_x": "3690932.77289",
    "final_y": "535255.564998",
    "longitude": "-90.03815179970246",
    "latitude": "29.965477410584402",
    "geocoded_column": {
      "latitude": "29.965477410584402",
      "longitude": "-90.03815179970246"
    }
  },
  {
    "service_request": "2023-973736",
    "request_type": "Health Related Request",
    "request_reason": "Noise Ordinance Complaint",
    "date_created": "2023-02-08T01:20:47.000",
    "date_modified": "2023-02-08T01:20:47.000",
    "request_status": "Pending",
    "responsible_agency": "Health Department",
    "final_address": "1328 St Bernard Ave",
    "address_councildis": "C",
    "status": "Pending",
    "rowid": "973736",
    "final_x": "3682712.52284",
    "final_y": "536735.540615",
    "longitude": "-90.06405918653729",
    "latitude": "29.96979976049472",
    "geocoded_column": {
      "latitude": "29.96979976049472",
      "longitude": "-90.06405918653729"
    }
  },
  {
    "service_request": "2023-973735",
    "request_type": "Health Related Request",
    "request_reason": "Noise Ordinance Complaint",
    "date_created": "2023-02-08T01:13:38.000",
    "date_modified": "2023-02-08T01:13:38.000",
    "request_status": "Pending",
    "responsible_agency": "Health Department",
    "final_address": "1328 St Bernard Ave",
    "address_councildis": "C",
    "status": "Pending",
    "rowid": "973735",
    "final_x": "3682712.52284",
    "final_y": "536735.540615",
    "longitude": "-90.06405918653729",
    "latitude": "29.96979976049472",
    "geocoded_column": {
      "latitude": "29.96979976049472",
      "longitude": "-90.06405918653729"
    }
  },
  {
    "service_request": "2023-973734",
    "request_type": "Mosquito, Termite & Rodent Control",
    "request_reason": "Non-Rodent Complaint (Mice, Possums, Snakes)",
    "date_created": "2023-02-07T23:01:16.000",
    "date_modified": "2023-02-07T23:01:16.000",
    "request_status": "Pending",
    "responsible_agency": "Mosquito, Termite & Rodent Control Board",
    "final_address": "1732 Paul Morphy St",
    "address_councildis": "D",
    "status": "Pending",
    "rowid": "973734",
    "final_x": "3679446.12699",
    "final_y": "541163.271948",
    "longitude": "-90.0742211111972",
    "latitude": "29.982073577837294",
    "geocoded_column": {
      "latitude": "29.982073577837294",
      "longitude": "-90.0742211111972"
    }
  },
  {
    "service_request": "2023-973733",
    "request_type": "Trash/Recycling",
    "request_reason": "Replace Recycling Cart",
    "date_created": "2023-02-07T23:00:03.000",
    "date_modified": "2023-02-07T23:00:03.000",
    "request_status": "Pending",
    "responsible_agency": "Department of Sanitation",
    "final_address": "3205 Banks St",
    "address_councildis": "B",
    "status": "Pending",
    "rowid": "973733",
    "final_x": "3673126.81038",
    "final_y": "535366.648902",
    "longitude": "-90.09437855348081",
    "latitude": "29.9663242553118",
    "geocoded_column": {
      "latitude": "29.9663242553118",
      "longitude": "-90.09437855348081"
    }
  },
  {
    "service_request": "2023-973732",
    "request_type": "Trash/Recycling",
    "request_reason": "Order Recycling Cart",
    "date_created": "2023-02-07T22:57:28.000",
    "date_modified": "2023-02-07T22:57:28.000",
    "request_status": "Pending",
    "responsible_agency": "Department of Sanitation",
    "final_address": "2411 Dreux Ave",
    "address_councildis": "D",
    "status": "Pending",
    "rowid": "973732",
    "final_x": "3685292.31913",
    "final_y": "552191.173782",
    "longitude": "-90.05536758123816",
    "latitude": "30.012218413276575",
    "geocoded_column": {
      "latitude": "30.012218413276575",
      "longitude": "-90.05536758123816"
    }
  },
  {
    "service_request": "2023-973731",
    "request_type": "Trash/Recycling",
    "request_reason": "MIssed Recycling Pick-Up",
    "date_created": "2023-02-07T22:50:05.000",
    "date_modified": "2023-02-07T22:50:06.000",
    "request_status": "Pending",
    "responsible_agency": "Department of Sanitation",
    "final_address": "10930 Hayne Blvd",
    "address_councildis": "E",
    "status": "Assigned to Contractor",
    "contractor": "Waste Pro",
    "rowid": "973731",
    "final_x": "3709478.98622",
    "final_y": "566938.95658",
    "longitude": "-89.97840111721955",
    "latitude": "30.052005083351833",
    "geocoded_column": {
      "latitude": "30.052005083351833",
      "longitude": "-89.97840111721955"
    }
  },
  {
    "service_request": "2023-973730",
    "request_type": "Property Maintenance",
    "request_reason": "Property Maintenance",
    "date_created": "2023-02-07T22:44:34.000",
    "date_modified": "2023-02-07T22:44:34.000",
    "request_status": "Pending",
    "responsible_agency": "Department of Code Enforcement",
    "final_address": "326 Newton St",
    "address_councildis": "C",
    "status": "Pending",
    "rowid": "973730",
    "final_x": "3686429.00566",
    "final_y": "527968.448703",
    "longitude": "-90.05263167487092",
    "latitude": "29.945579552100078",
    "geocoded_column": {
      "latitude": "29.945579552100078",
      "longitude": "-90.05263167487092"
    }
  },
  {
    "service_request": "2023-973729",
    "request_type": "Trash/Recycling",
    "request_reason": "Dead Animal Pick Up",
    "date_created": "2023-02-07T22:20:50.000",
    "date_modified": "2023-02-07T22:20:51.000",
    "request_status": "Pending",
    "responsible_agency": "Department of Sanitation",
    "final_address": "7301 Dartmoor Dr",
    "address_councildis": "E",
    "status": "Assigned to Contractor",
    "contractor": "Waste Pro",
    "rowid": "973729",
    "final_x": "3705209.99089",
    "final_y": "561731.059551",
    "longitude": "-89.99208668286276",
    "latitude": "30.0378235445142",
    "geocoded_column": {
      "latitude": "30.0378235445142",
      "longitude": "-89.99208668286276"
    }
  },
  {
    "service_request": "2023-973728",
    "request_type": "Abandoned Vehicles",
    "request_reason": "Abandoned/Junk Vehicles",
    "date_created": "2023-02-07T22:15:27.000",
    "date_modified": "2023-02-07T22:15:27.000",
    "request_status": "Pending",
    "responsible_agency": "Department of Public Works",
    "final_address": "1210 N Derbigny St",
    "address_councildis": "D",
    "status": "Pending",
    "rowid": "973728",
    "final_x": "3680668.61282",
    "final_y": "536354.278791",
    "longitude": "-90.07052731040385",
    "latitude": "29.9688135178575",
    "geocoded_column": {
      "latitude": "29.9688135178575",
      "longitude": "-90.07052731040385"
    }
  },
  {
    "service_request": "2023-973727",
    "request_type": "Trash/Recycling",
    "request_reason": "Replace Recycling Cart",
    "date_created": "2023-02-07T22:12:35.000",
    "date_modified": "2023-02-07T22:12:35.000",
    "request_status": "Pending",
    "responsible_agency": "Department of Sanitation",
    "final_address": "1343 Congress St",
    "address_councildis": "D",
    "status": "Pending",
    "rowid": "973727",
    "final_x": "3691023.08598",
    "final_y": "536639.849991",
    "longitude": "-90.03781717065078",
    "latitude": "29.969280900114374",
    "geocoded_column": {
      "latitude": "29.969280900114374",
      "longitude": "-90.03781717065078"
    }
  },
  {
    "service_request": "2023-973726",
    "request_type": "Trash/Recycling",
    "request_reason": "Replace Trash Cart",
    "date_created": "2023-02-07T21:47:30.000",
    "date_modified": "2023-02-07T21:47:31.000",
    "request_status": "Pending",
    "responsible_agency": "Department of Sanitation",
    "final_address": "3140 Upperline St",
    "address_councildis": "B",
    "status": "Assigned to Contractor",
    "contractor": "Richards Disposal",
    "rowid": "973726",
    "final_x": "3669216.0235",
    "final_y": "526635.485566",
    "longitude": "-90.10702388002235",
    "latitude": "29.942432117311675",
    "geocoded_column": {
      "latitude": "29.942432117311675",
      "longitude": "-90.10702388002235"
    }
  },
  {
    "service_request": "2023-973725",
    "request_type": "Trash/Recycling",
    "request_reason": "Request a Large Item Pick Up",
    "date_created": "2023-02-07T21:47:25.000",
    "date_modified": "2023-02-07T21:47:25.000",
    "request_status": "Pending",
    "responsible_agency": "Department of Sanitation",
    "final_address": "1629 N Prieur St",
    "address_councildis": "D",
    "status": "Assigned to Contractor",
    "contractor": "IV Waste",
    "rowid": "973725",
    "final_x": "3681411.58991",
    "final_y": "538658.823049",
    "longitude": "-90.06810058256688",
    "latitude": "29.975127682870777",
    "geocoded_column": {
      "latitude": "29.975127682870777",
      "longitude": "-90.06810058256688"
    }
  },
  {
    "service_request": "2023-973724",
    "request_type": "Traffic Signals/Signs/Striping/Streetlights",
    "request_reason": "Street Light Outage/Malfunction",
    "date_created": "2023-02-07T21:37:52.000",
    "date_modified": "2023-02-07T21:37:53.000",
    "request_status": "Pending",
    "responsible_agency": "Department of Public Works",
    "final_address": "6125 Pines Blvd",
    "address_councildis": "D",
    "status": "Assigned to Contractor",
    "contractor": "Legacy Professional Services",
    "rowid": "973724",
    "final_x": "3696572.62506",
    "final_y": "556310.77513",
    "longitude": "-90.01957914226281",
    "latitude": "30.02319500647701",
    "geocoded_column": {
      "latitude": "30.02319500647701",
      "longitude": "-90.01957914226281"
    }
  },
  {
    "service_request": "2023-973723",
    "request_type": "Traffic Signals/Signs/Striping/Streetlights",
    "request_reason": "Street Light Outage/Malfunction",
    "date_created": "2023-02-07T21:34:25.000",
    "date_modified": "2023-02-07T21:34:26.000",
    "request_status": "Pending",
    "responsible_agency": "Department of Public Works",
    "final_address": "6500 Foch Rd",
    "address_councildis": "D",
    "status": "Assigned to Contractor",
    "contractor": "Legacy Professional Services",
    "rowid": "973723",
    "final_x": "3697024.26896",
    "final_y": "555046.946201",
    "longitude": "-90.01819788757282",
    "latitude": "30.019705710369312",
    "geocoded_column": {
      "latitude": "30.019705710369312",
      "longitude": "-90.01819788757282"
    }
  },
  {
    "service_request": "2023-973722",
    "request_type": "Roads/Drainage",
    "request_reason": "Catch Basin - Clogged",
    "date_created": "2023-02-07T21:28:47.000",
    "date_modified": "2023-02-07T21:28:47.000",
    "request_status": "Pending",
    "responsible_agency": "Department of Public Works",
    "final_address": "6744 Foch Rd",
    "address_councildis": "D",
    "status": "Pending",
    "rowid": "973722",
    "final_x": "3696611.27901",
    "final_y": "556192.58025",
    "longitude": "-90.01946128717911",
    "latitude": "30.022868796797415",
    "geocoded_column": {
      "latitude": "30.022868796797415",
      "longitude": "-90.01946128717911"
    }
  },
  {
    "service_request": "2023-973721",
    "request_type": "Trash/Recycling",
    "request_reason": "Request a Large Item Pick Up",
    "date_created": "2023-02-07T21:23:24.000",
    "date_modified": "2023-02-07T21:23:25.000",
    "request_status": "Pending",
    "responsible_agency": "Department of Sanitation",
    "final_address": "624 Dumaine St",
    "address_councildis": "C",
    "status": "Assigned to Contractor",
    "contractor": "Empire Services",
    "rowid": "973721",
    "final_x": "3683099.89077",
    "final_y": "532936.217348",
    "longitude": "-90.06296886975792",
    "latitude": "29.959341123874445",
    "geocoded_column": {
      "latitude": "29.959341123874445",
      "longitude": "-90.06296886975792"
    }
  },
  {
    "service_request": "2023-973720",
    "request_type": "Traffic Signals/Signs/Striping/Streetlights",
    "request_reason": "Street Light Outage/Malfunction",
    "date_created": "2023-02-07T21:01:21.000",
    "date_modified": "2023-02-07T21:02:05.000",
    "request_status": "Pending",
    "responsible_agency": "Department of Public Works",
    "final_address": "1534 Henry Clay Ave",
    "address_councildis": "A",
    "status": "Assigned to Contractor",
    "contractor": "Legacy Professional Services",
    "rowid": "973720",
    "final_x": "3664811.75559",
    "final_y": "522403.930234",
    "longitude": "-90.12107055605989",
    "latitude": "29.93092556014175",
    "geocoded_column": {
      "latitude": "29.93092556014175",
      "longitude": "-90.12107055605989"
    }
  },
  {
    "service_request": "2023-973719",
    "request_type": "Roads/Drainage",
    "request_reason": "Catch Basin - Broken/Damage",
    "date_created": "2023-02-07T20:58:26.000",
    "date_modified": "2023-02-07T20:58:26.000",
    "request_status": "Pending",
    "responsible_agency": "Department of Public Works",
    "final_address": "221 Thayer St",
    "address_councildis": "C",
    "status": "Pending",
    "rowid": "973719",
    "final_x": "3689524.68579",
    "final_y": "530950.842882",
    "longitude": "-90.04275157548368",
    "latitude": "29.95368460904786",
    "geocoded_column": {
      "latitude": "29.95368460904786",
      "longitude": "-90.04275157548368"
    }
  },
  {
    "service_request": "2023-973718",
    "request_type": "Trash/Recycling",
    "request_reason": "Request a Large Item Pick Up",
    "date_created": "2023-02-07T20:56:16.000",
    "date_modified": "2023-02-07T20:56:17.000",
    "request_status": "Pending",
    "responsible_agency": "Department of Sanitation",
    "final_address": "1322 Gallier St",
    "address_councildis": "C",
    "status": "Assigned to Contractor",
    "contractor": "IV Waste",
    "rowid": "973718",
    "final_x": "3690658.17686",
    "final_y": "536566.290887",
    "longitude": "-90.03897220154182",
    "latitude": "29.969089977836123",
    "geocoded_column": {
      "latitude": "29.969089977836123",
      "longitude": "-90.03897220154182"
    }
  },
  {
    "service_request": "2023-973717",
    "request_type": "Trash/Recycling",
    "request_reason": "Request a Large Item Pick Up",
    "date_created": "2023-02-07T20:30:51.000",
    "date_modified": "2023-02-07T20:30:51.000",
    "request_status": "Pending",
    "responsible_agency": "Department of Sanitation",
    "final_address": "726 Antonine St",
    "address_councildis": "B",
    "status": "Assigned to Contractor",
    "contractor": "Richards Disposal",
    "rowid": "973717",
    "final_x": "3674235.36001",
    "final_y": "517967.93599",
    "longitude": "-90.09147325917078",
    "latitude": "29.918450499832414",
    "geocoded_column": {
      "latitude": "29.918450499832414",
      "longitude": "-90.09147325917078"
    }
  },
  {
    "service_request": "2023-973716",
    "request_type": "Trash/Recycling",
    "request_reason": "Missed Trash Pick-Up",
    "date_created": "2023-02-07T20:28:53.000",
    "date_modified": "2023-02-07T20:28:53.000",
    "request_status": "Pending",
    "responsible_agency": "Department of Sanitation",
    "final_address": "3413 Camp St",
    "address_councildis": "B",
    "status": "Assigned to Contractor",
    "contractor": "Richards Disposal",
    "rowid": "973716",
    "final_x": "3674726.85877",
    "final_y": "519948.705848",
    "longitude": "-90.08985400686382",
    "latitude": "29.923882325219097",
    "geocoded_column": {
      "latitude": "29.923882325219097",
      "longitude": "-90.08985400686382"
    }
  },
  {
    "service_request": "2023-973715",
    "request_type": "Trash/Recycling",
    "request_reason": "Replace Recycling Cart",
    "date_created": "2023-02-07T20:12:58.000",
    "date_modified": "2023-02-07T20:12:58.000",
    "request_status": "Pending",
    "responsible_agency": "Department of Sanitation",
    "final_address": "2836 Chippewa St",
    "address_councildis": "B",
    "status": "Pending",
    "rowid": "973715",
    "final_x": "3677643.69474",
    "final_y": "519367.486583",
    "longitude": "-90.08066665906492",
    "latitude": "29.922196800451434",
    "geocoded_column": {
      "latitude": "29.922196800451434",
      "longitude": "-90.08066665906492"
    }
  },
  {
    "service_request": "2023-973714",
    "request_type": "Trash/Recycling",
    "request_reason": "Replace Recycling Cart",
    "date_created": "2023-02-07T20:10:17.000",
    "date_modified": "2023-02-07T20:10:17.000",
    "request_status": "Pending",
    "responsible_agency": "Department of Sanitation",
    "final_address": "2836 Chippewa St",
    "address_councildis": "B",
    "status": "Pending",
    "rowid": "973714",
    "final_x": "3677643.69474",
    "final_y": "519367.486583",
    "longitude": "-90.08066665906492",
    "latitude": "29.922196800451434",
    "geocoded_column": {
      "latitude": "29.922196800451434",
      "longitude": "-90.08066665906492"
    }
  },
  {
    "service_request": "2023-973713",
    "request_type": "Trash/Recycling",
    "request_reason": "Order Trash Cart",
    "date_created": "2023-02-07T19:36:21.000",
    "date_modified": "2023-02-07T19:36:21.000",
    "request_status": "Pending",
    "responsible_agency": "Department of Sanitation",
    "final_address": "1002 N Broad St",
    "address_councildis": "D",
    "status": "Assigned to Contractor",
    "contractor": "Richards Disposal",
    "rowid": "973713",
    "final_x": "3677478.6733",
    "final_y": "537851.822153",
    "longitude": "-90.08054963300783",
    "latitude": "29.97302753068158",
    "geocoded_column": {
      "latitude": "29.97302753068158",
      "longitude": "-90.08054963300783"
    }
  },
  {
    "service_request": "2023-973712",
    "request_type": "Trash/Recycling",
    "request_reason": "Missed Trash Pick-Up",
    "date_created": "2023-02-07T19:23:32.000",
    "date_modified": "2023-02-07T19:23:32.000",
    "request_status": "Pending",
    "responsible_agency": "Department of Sanitation",
    "final_address": "1107 Napoleon Ave",
    "address_councildis": "B",
    "status": "Assigned to Contractor",
    "contractor": "Richards Disposal",
    "rowid": "973712",
    "final_x": "3671051.84206",
    "final_y": "519633.057976",
    "longitude": "-90.10146545166515",
    "latitude": "29.9231235443977",
    "geocoded_column": {
      "latitude": "29.9231235443977",
      "longitude": "-90.10146545166515"
    }
  },
  {
    "service_request": "2023-973711",
    "request_type": "Traffic Signals/Signs/Striping/Streetlights",
    "request_reason": "Street Light Outage/Malfunction",
    "date_created": "2023-02-07T19:18:11.000",
    "date_modified": "2023-02-07T19:18:12.000",
    "request_status": "Pending",
    "responsible_agency": "Department of Public Works",
    "final_address": "1337 Madrid St",
    "address_councildis": "D",
    "status": "Assigned to Contractor",
    "contractor": "Legacy Professional Services",
    "rowid": "973711",
    "final_x": "3677085.12258",
    "final_y": "554747.097176",
    "longitude": "-90.08120946454656",
    "latitude": "30.019495418545286",
    "geocoded_column": {
      "latitude": "30.019495418545286",
      "longitude": "-90.08120946454656"
    }
  },
  {
    "service_request": "2023-973710",
    "request_type": "Traffic Signals/Signs/Striping/Streetlights",
    "request_reason": "Street Light Outage/Malfunction",
    "date_created": "2023-02-07T19:12:39.000",
    "date_modified": "2023-02-07T19:12:39.000",
    "request_status": "Pending",
    "responsible_agency": "Department of Public Works",
    "final_address": "3419 Palmyra St",
    "address_councildis": "B",
    "status": "Assigned to Contractor",
    "contractor": "Legacy Professional Services",
    "rowid": "973710",
    "final_x": "3672529.76955",
    "final_y": "536311.319559",
    "longitude": "-90.09623179320079",
    "latitude": "29.968939519004447",
    "geocoded_column": {
      "latitude": "29.968939519004447",
      "longitude": "-90.09623179320079"
    }
  },
  {
    "service_request": "2023-973709",
    "request_type": "Traffic Signals/Signs/Striping/Streetlights",
    "request_reason": "Street Light Outage/Malfunction",
    "date_created": "2023-02-07T18:59:13.000",
    "date_modified": "2023-02-07T18:59:14.000",
    "request_status": "Pending",
    "responsible_agency": "Department of Public Works",
    "final_address": "1337 Madrid St",
    "address_councildis": "D",
    "status": "Assigned to Contractor",
    "contractor": "Legacy Professional Services",
    "rowid": "973709",
    "final_x": "3677085.12258",
    "final_y": "554747.097176",
    "longitude": "-90.08120946454656",
    "latitude": "30.019495418545286",
    "geocoded_column": {
      "latitude": "30.019495418545286",
      "longitude": "-90.08120946454656"
    }
  },
  {
    "service_request": "2023-973708",
    "request_type": "Trash/Recycling",
    "request_reason": "MIssed Recycling Pick-Up",
    "date_created": "2023-02-07T18:42:09.000",
    "date_modified": "2023-02-07T18:42:10.000",
    "request_status": "Pending",
    "responsible_agency": "Department of Sanitation",
    "final_address": "4903 Palace St",
    "address_councildis": "E",
    "status": "Assigned to Contractor",
    "contractor": "Waste Pro",
    "rowid": "973708",
    "final_x": "3729213.60314",
    "final_y": "562474.869343",
    "longitude": "-89.91620148398741",
    "latitude": "30.03907430319302",
    "geocoded_column": {
      "latitude": "30.03907430319302",
      "longitude": "-89.91620148398741"
    }
  },
  {
    "service_request": "2023-973707",
    "request_type": "Traffic Signals/Signs/Striping/Streetlights",
    "request_reason": "Street Light Outage/Malfunction",
    "date_created": "2023-02-07T18:36:27.000",
    "date_modified": "2023-02-07T18:36:28.000",
    "request_status": "Pending",
    "responsible_agency": "Department of Public Works",
    "final_address": "2418 Royal St",
    "address_councildis": "C",
    "status": "Assigned to Contractor",
    "contractor": "Legacy Professional Services",
    "rowid": "973707",
    "final_x": "3686055.48002",
    "final_y": "534914.610694",
    "longitude": "-90.05356606835583",
    "latitude": "29.964690590729028",
    "geocoded_column": {
      "latitude": "29.964690590729028",
      "longitude": "-90.05356606835583"
    }
  },
  {
    "service_request": "2023-973706",
    "request_type": "Trash/Recycling",
    "request_reason": "Request a Large Item Pick Up",
    "date_created": "2023-02-07T18:30:34.000",
    "date_modified": "2023-02-07T18:30:35.000",
    "request_status": "Pending",
    "responsible_agency": "Department of Sanitation",
    "final_address": "7636 Jeannette St",
    "address_councildis": "A",
    "status": "Assigned to Contractor",
    "contractor": "Richards Disposal",
    "rowid": "973706",
    "final_x": "3663777.2633",
    "final_y": "528029.400447",
    "longitude": "-90.12414891500917",
    "latitude": "29.946423866371518",
    "geocoded_column": {
      "latitude": "29.946423866371518",
      "longitude": "-90.12414891500917"
    }
  },
  {
    "service_request": "2023-973705",
    "request_type": "Trash/Recycling",
    "request_reason": "Order Recycling Cart",
    "date_created": "2023-02-07T18:30:16.000",
    "date_modified": "2023-02-07T18:30:16.000",
    "request_status": "Pending",
    "responsible_agency": "Department of Sanitation",
    "final_address": "7824 Dorsett Dr",
    "address_councildis": "E",
    "status": "Pending",
    "rowid": "973705",
    "final_x": "3712371.97093",
    "final_y": "568004.264357",
    "longitude": "-89.96921728108391",
    "latitude": "30.054839866901386",
    "geocoded_column": {
      "latitude": "30.054839866901386",
      "longitude": "-89.96921728108391"
    }
  },
  {
    "service_request": "2023-973704",
    "request_type": "Roads/Drainage",
    "request_reason": "Catch Basin - Clogged",
    "date_created": "2023-02-07T18:30:03.000",
    "date_modified": "2023-02-07T18:30:03.000",
    "request_status": "Pending",
    "responsible_agency": "Department of Public Works",
    "final_address": "3331 Carondelet St",
    "address_councildis": "B",
    "status": "Pending",
    "rowid": "973704",
    "final_x": "3674127.42798",
    "final_y": "522020.30521",
    "longitude": "-90.09167533565208",
    "latitude": "29.92959642906511",
    "geocoded_column": {
      "latitude": "29.92959642906511",
      "longitude": "-90.09167533565208"
    }
  },
  {
    "service_request": "2023-973703",
    "request_type": "Traffic Signals/Signs/Striping/Streetlights",
    "request_reason": "Traffic Signal Malfunctioning/Damaged",
    "date_created": "2023-02-07T18:28:39.000",
    "date_modified": "2023-02-07T18:28:39.000",
    "request_status": "Pending",
    "responsible_agency": "Department of Public Works",
    "final_address": "1100 S Claiborne Ave",
    "address_councildis": "B",
    "status": "Pending",
    "rowid": "973703",
    "final_x": "3675695.8084",
    "final_y": "528824.223488",
    "longitude": "-90.08649051442099",
    "latitude": "29.948258147692556",
    "geocoded_column": {
      "latitude": "29.948258147692556",
      "longitude": "-90.08649051442099"
    }
  },
  {
    "service_request": "2023-973702",
    "request_type": "Traffic Signals/Signs/Striping/Streetlights",
    "request_reason": "Street Light Outage/Malfunction",
    "date_created": "2023-02-07T18:21:51.000",
    "date_modified": "2023-02-07T18:21:51.000",
    "request_status": "Pending",
    "responsible_agency": "Department of Public Works",
    "final_address": "1337 Madrid St",
    "address_councildis": "D",
    "status": "Assigned to Contractor",
    "contractor": "Legacy Professional Services",
    "rowid": "973702",
    "final_x": "3677085.12258",
    "final_y": "554747.097176",
    "longitude": "-90.08120946454656",
    "latitude": "30.019495418545286",
    "geocoded_column": {
      "latitude": "30.019495418545286",
      "longitude": "-90.08120946454656"
    }
  },
  {
    "service_request": "2023-973701",
    "request_type": "Trash/Recycling",
    "request_reason": "Order Trash Cart",
    "date_created": "2023-02-07T18:09:16.000",
    "date_modified": "2023-02-07T18:09:17.000",
    "request_status": "Pending",
    "responsible_agency": "Department of Sanitation",
    "final_address": "7824 Dorsett Dr",
    "address_councildis": "E",
    "status": "Assigned to Contractor",
    "contractor": "Waste Pro",
    "rowid": "973701",
    "final_x": "3712371.97093",
    "final_y": "568004.264357",
    "longitude": "-89.96921728108391",
    "latitude": "30.054839866901386",
    "geocoded_column": {
      "latitude": "30.054839866901386",
      "longitude": "-89.96921728108391"
    }
  },
  {
    "service_request": "2023-973700",
    "request_type": "Trash/Recycling",
    "request_reason": "Request a Large Item Pick Up",
    "date_created": "2023-02-07T18:06:07.000",
    "date_modified": "2023-02-07T18:06:08.000",
    "request_status": "Pending",
    "responsible_agency": "Department of Sanitation",
    "final_address": "3520 Baronne St",
    "address_councildis": "B",
    "status": "Assigned to Contractor",
    "contractor": "Richards Disposal",
    "rowid": "973700",
    "final_x": "3673371.17166",
    "final_y": "521977.259962",
    "longitude": "-90.09406417504928",
    "latitude": "29.9295005803291",
    "geocoded_column": {
      "latitude": "29.9295005803291",
      "longitude": "-90.09406417504928"
    }
  },
  {
    "service_request": "2023-973699",
    "request_type": "Roads/Drainage",
    "request_reason": "Pothole",
    "date_created": "2023-02-07T18:00:35.000",
    "date_modified": "2023-02-07T18:00:35.000",
    "request_status": "Pending",
    "responsible_agency": "Department of Public Works",
    "final_address": "2500 BLK Myrtle St",
    "address_councildis": "D",
    "status": "Pending",
    "rowid": "973699",
    "final_x": "3686768.1822",
    "final_y": "546030.642634",
    "longitude": "-90.05092253381262",
    "latitude": "29.995233846019083",
    "geocoded_column": {
      "latitude": "29.995233846019083",
      "longitude": "-90.05092253381262"
    }
  },
  {
    "service_request": "2023-973698",
    "request_type": "Roads/Drainage",
    "request_reason": "Pothole",
    "date_created": "2023-02-07T17:57:04.000",
    "date_modified": "2023-02-07T17:57:05.000",
    "request_status": "Pending",
    "responsible_agency": "Department of Public Works",
    "final_address": "FRANKLIN AVE & I 610 W ONRAMP & FRANKLIN EXIT & I 10 E ONRAMP",
    "address_councildis": "D",
    "status": "Pending",
    "rowid": "973698",
    "final_x": "3687219.79",
    "final_y": "545203.27",
    "longitude": "-90.04952523721728",
    "latitude": "29.99294496319761",
    "geocoded_column": {
      "latitude": "29.99294496319761",
      "longitude": "-90.04952523721728"
    }
  },
  {
    "service_request": "2023-973697",
    "request_type": "Abandoned Vehicles",
    "request_reason": "Abandoned/Junk Vehicles",
    "date_created": "2023-02-07T17:37:15.000",
    "date_modified": "2023-02-07T17:37:15.000",
    "request_status": "Pending",
    "responsible_agency": "Department of Public Works",
    "final_address": "2233 Dauphine St",
    "address_councildis": "C",
    "status": "Pending",
    "rowid": "973697",
    "final_x": "3685420.12642",
    "final_y": "535291.286278",
    "longitude": "-90.05555920252324",
    "latitude": "29.965745814865755",
    "geocoded_column": {
      "latitude": "29.965745814865755",
      "longitude": "-90.05555920252324"
    }
  },
  {
    "service_request": "2023-973696",
    "request_type": "Mosquito, Termite & Rodent Control",
    "request_reason": "Rodent Complaint (Rats)",
    "date_created": "2023-02-07T17:21:50.000",
    "date_modified": "2023-02-07T17:21:50.000",
    "request_status": "Pending",
    "responsible_agency": "Mosquito, Termite & Rodent Control Board",
    "final_address": "4219 Constance St",
    "address_councildis": "B",
    "status": "Pending",
    "rowid": "973696",
    "final_x": "3671678.59963",
    "final_y": "518526.145591",
    "longitude": "-90.09952463773992",
    "latitude": "29.92006134527666",
    "geocoded_column": {
      "latitude": "29.92006134527666",
      "longitude": "-90.09952463773992"
    }
  },
  {
    "service_request": "2023-973695",
    "request_type": "Trash/Recycling",
    "request_reason": "Request a Large Item Pick Up",
    "date_created": "2023-02-07T17:21:01.000",
    "date_modified": "2023-02-07T17:21:01.000",
    "request_status": "Pending",
    "responsible_agency": "Department of Sanitation",
    "final_address": "6003 St Roch Ave",
    "address_councildis": "D",
    "status": "Assigned to Contractor",
    "contractor": "IV Waste",
    "rowid": "973695",
    "final_x": "3685075.10255",
    "final_y": "555129.678681",
    "longitude": "-90.05595036365112",
    "latitude": "30.020304883088613",
    "geocoded_column": {
      "latitude": "30.020304883088613",
      "longitude": "-90.05595036365112"
    }
  },
  {
    "service_request": "2023-973694",
    "request_type": "Trash/Recycling",
    "request_reason": "Missed Trash Pick-Up",
    "date_created": "2023-02-07T17:18:46.000",
    "date_modified": "2023-02-07T17:18:47.000",
    "request_status": "Pending",
    "responsible_agency": "Department of Sanitation",
    "final_address": "613 St Ferdinand St",
    "address_councildis": "C",
    "status": "Assigned to Contractor",
    "contractor": "IV Waste",
    "rowid": "973694",
    "final_x": "3687304.20105",
    "final_y": "534586.316421",
    "longitude": "-90.04963431804066",
    "latitude": "29.963749487711084",
    "geocoded_column": {
      "latitude": "29.963749487711084",
      "longitude": "-90.04963431804066"
    }
  },
  {
    "service_request": "2023-973693",
    "request_type": "Trash/Recycling",
    "request_reason": "Missed Trash Pick-Up",
    "date_created": "2023-02-07T17:06:43.000",
    "date_modified": "2023-02-07T17:06:44.000",
    "request_status": "Pending",
    "responsible_agency": "Department of Sanitation",
    "final_address": "2235 S Carrollton Ave",
    "address_councildis": "A",
    "status": "Assigned to Contractor",
    "contractor": "Richards Disposal",
    "rowid": "973693",
    "final_x": "3664667.34394",
    "final_y": "531074.938114",
    "longitude": "-90.12123688553835",
    "latitude": "29.954772252680524",
    "geocoded_column": {
      "latitude": "29.954772252680524",
      "longitude": "-90.12123688553835"
    }
  },
  {
    "service_request": "2023-973692",
    "request_type": "Trash/Recycling",
    "request_reason": "Missed Trash Pick-Up",
    "date_created": "2023-02-07T17:02:55.000",
    "date_modified": "2023-02-07T17:57:02.000",
    "case_close_date": "2023-02-07T11:57:02.000",
    "request_status": "Closed",
    "responsible_agency": "Department of Sanitation",
    "final_address": "32 Marywood Ct",
    "address_councildis": "E",
    "status": "Assigned to Contractor",
    "contractor": "Waste Pro",
    "contractor_action": "Completed",
    "rowid": "973692",
    "final_x": "3712386.95301",
    "final_y": "566925.27274",
    "longitude": "-89.96921052782896",
    "latitude": "30.051872589223922",
    "geocoded_column": {
      "latitude": "30.051872589223922",
      "longitude": "-89.96921052782896"
    }
  },
  {
    "service_request": "2023-973691",
    "request_type": "Trash/Recycling",
    "request_reason": "Missed Trash Pick-Up",
    "date_created": "2023-02-07T17:02:27.000",
    "date_modified": "2023-02-07T17:02:28.000",
    "request_status": "Pending",
    "responsible_agency": "Department of Sanitation",
    "final_address": "1917 General Taylor St",
    "address_councildis": "B",
    "status": "Assigned to Contractor",
    "contractor": "Richards Disposal",
    "rowid": "973691",
    "final_x": "3672391.62331",
    "final_y": "522259.410298",
    "longitude": "-90.09714682757276",
    "latitude": "29.930305497094775",
    "geocoded_column": {
      "latitude": "29.930305497094775",
      "longitude": "-90.09714682757276"
    }
  },
  {
    "service_request": "2023-973690",
    "request_type": "Trash/Recycling",
    "request_reason": "Missed Trash Pick-Up",
    "date_created": "2023-02-07T17:01:54.000",
    "date_modified": "2023-02-07T17:55:11.000",
    "case_close_date": "2023-02-07T11:55:11.000",
    "request_status": "Closed",
    "responsible_agency": "Department of Sanitation",
    "final_address": "44 Marywood Ct",
    "address_councildis": "E",
    "status": "Assigned to Contractor",
    "contractor": "Waste Pro",
    "contractor_action": "Completed",
    "rowid": "973690",
    "final_x": "3712233.94373",
    "final_y": "567025.747748",
    "longitude": "-89.96969035871096",
    "latitude": "30.052153862366005",
    "geocoded_column": {
      "latitude": "30.052153862366005",
      "longitude": "-89.96969035871096"
    }
  },
  {
    "service_request": "2023-973688",
    "request_type": "Roads/Drainage",
    "request_reason": "Street Subsidence (Sinking)",
    "date_created": "2023-02-07T17:00:03.000",
    "date_modified": "2023-02-07T17:00:03.000",
    "request_status": "Pending",
    "responsible_agency": "Department of Public Works",
    "final_address": "3500 Desire Prkwy",
    "address_councildis": "D",
    "status": "Pending",
    "rowid": "973688",
    "final_x": "3692953.94416",
    "final_y": "545110.300879",
    "longitude": "-90.03141545943139",
    "latitude": "29.99251143235435",
    "geocoded_column": {
      "latitude": "29.99251143235435",
      "longitude": "-90.03141545943139"
    }
  },
  {
    "service_request": "2023-973687",
    "request_type": "Trash/Recycling",
    "request_reason": "Missed Trash Pick-Up",
    "date_created": "2023-02-07T16:59:34.000",
    "date_modified": "2023-02-07T16:59:57.000",
    "request_status": "Pending",
    "responsible_agency": "Department of Sanitation",
    "final_address": "1129 Constantinople St",
    "address_councildis": "B",
    "status": "Assigned to Contractor",
    "contractor": "Richards Disposal",
    "rowid": "973687",
    "final_x": "3672480.21876",
    "final_y": "519836.457464",
    "longitude": "-90.09694967801863",
    "latitude": "29.923640526193257",
    "geocoded_column": {
      "latitude": "29.923640526193257",
      "longitude": "-90.09694967801863"
    }
  },
  {
    "service_request": "2023-973686",
    "request_type": "Traffic Signals/Signs/Striping/Streetlights",
    "request_reason": "Street Light Outage/Malfunction",
    "date_created": "2023-02-07T16:57:28.000",
    "date_modified": "2023-02-07T16:57:28.000",
    "request_status": "Pending",
    "responsible_agency": "Department of Public Works",
    "final_address": "26 W Park Pl",
    "address_councildis": "A",
    "status": "Assigned to Contractor",
    "contractor": "Legacy Professional Services",
    "rowid": "973686",
    "final_x": "3670023.01486",
    "final_y": "543961.07707",
    "longitude": "-90.10388909859982",
    "latitude": "29.990047937140908",
    "geocoded_column": {
      "latitude": "29.990047937140908",
      "longitude": "-90.10388909859982"
    }
  },
  {
    "service_request": "2023-973685",
    "request_type": "Trash/Recycling",
    "request_reason": "Order Recycling Cart",
    "date_created": "2023-02-07T16:56:58.000",
    "date_modified": "2023-02-07T16:56:59.000",
    "request_status": "Pending",
    "responsible_agency": "Department of Sanitation",
    "final_address": "110 Egret St",
    "address_councildis": "D",
    "status": "Pending",
    "rowid": "973685",
    "final_x": "3673730.7346",
    "final_y": "555881.870553",
    "longitude": "-90.09176937800824",
    "latitude": "30.022715999399082",
    "geocoded_column": {
      "latitude": "30.022715999399082",
      "longitude": "-90.09176937800824"
    }
  },
  {
    "service_request": "2023-973684",
    "request_type": "Abandoned Vehicles",
    "request_reason": "Abandoned/Junk Vehicles",
    "date_created": "2023-02-07T16:56:06.000",
    "date_modified": "2023-02-07T16:56:06.000",
    "request_status": "Pending",
    "responsible_agency": "Department of Public Works",
    "final_address": "2400 Frenchmen St",
    "address_councildis": "D",
    "status": "Pending",
    "rowid": "973684",
    "final_x": "3684175.33602",
    "final_y": "541089.71758",
    "longitude": "-90.05928659965244",
    "latitude": "29.981727590092156",
    "geocoded_column": {
      "latitude": "29.981727590092156",
      "longitude": "-90.05928659965244"
    }
  },
  {
    "service_request": "2023-973683",
    "request_type": "Trash/Recycling",
    "request_reason": "Request a Large Item Pick Up",
    "date_created": "2023-02-07T16:51:54.000",
    "date_modified": "2023-02-07T16:51:55.000",
    "request_status": "Pending",
    "responsible_agency": "Department of Sanitation",
    "final_address": "1655 N Roman St",
    "address_councildis": "D",
    "status": "Assigned to Contractor",
    "contractor": "IV Waste",
    "rowid": "973683",
    "final_x": "3682000.7581",
    "final_y": "538688.366985",
    "longitude": "-90.0662388052973",
    "latitude": "29.975191017205248",
    "geocoded_column": {
      "latitude": "29.975191017205248",
      "longitude": "-90.0662388052973"
    }
  },
  {
    "service_request": "2023-973682",
    "request_type": "Trash/Recycling",
    "request_reason": "Repair Trash Cart",
    "date_created": "2023-02-07T16:50:52.000",
    "date_modified": "2023-02-07T16:50:53.000",
    "request_status": "Pending",
    "responsible_agency": "Department of Sanitation",
    "final_address": "7900 Mercier St",
    "address_councildis": "E",
    "status": "Assigned to Contractor",
    "contractor": "Waste Pro",
    "rowid": "973682",
    "final_x": "3710918.27633",
    "final_y": "567220.174948",
    "longitude": "-89.97384145767259",
    "latitude": "30.052731444712354",
    "geocoded_column": {
      "latitude": "30.052731444712354",
      "longitude": "-89.97384145767259"
    }
  },
  {
    "service_request": "2023-973681",
    "request_type": "Trash/Recycling",
    "request_reason": "Request a Large Item Pick Up",
    "date_created": "2023-02-07T16:49:40.000",
    "date_modified": "2023-02-07T16:49:40.000",
    "request_status": "Pending",
    "responsible_agency": "Department of Sanitation",
    "final_address": "7900 Mercier St",
    "address_councildis": "E",
    "status": "Assigned to Contractor",
    "contractor": "Waste Pro",
    "rowid": "973681",
    "final_x": "3710918.27633",
    "final_y": "567220.174948",
    "longitude": "-89.97384145767259",
    "latitude": "30.052731444712354",
    "geocoded_column": {
      "latitude": "30.052731444712354",
      "longitude": "-89.97384145767259"
    }
  },
  {
    "service_request": "2023-973680",
    "request_type": "Traffic Signals/Signs/Striping/Streetlights",
    "request_reason": "Traffic Signal Malfunctioning/Damaged",
    "date_created": "2023-02-07T16:39:51.000",
    "date_modified": "2023-02-07T16:40:17.000",
    "request_status": "Pending",
    "responsible_agency": "Department of Public Works",
    "final_address": "EARHART BLVD & MAGNOLIA ST",
    "address_councildis": "B",
    "status": "Pending",
    "rowid": "973680",
    "final_x": "3676590.5",
    "final_y": "528721.38",
    "longitude": "-90.08366914458753",
    "latitude": "29.947948562397546",
    "geocoded_column": {
      "latitude": "29.947948562397546",
      "longitude": "-90.08366914458753"
    }
  },
  {
    "service_request": "2023-973679",
    "request_type": "Abandoned Vehicles",
    "request_reason": "Vehicle Blocking Your Driveway",
    "date_created": "2023-02-07T16:36:48.000",
    "date_modified": "2023-02-07T16:36:48.000",
    "request_status": "Pending",
    "responsible_agency": "Department of Public Works",
    "final_address": "6017 Bellaire Dr",
    "address_councildis": "A",
    "status": "Pending",
    "rowid": "973679",
    "final_x": "3664336.33364",
    "final_y": "547736.97301",
    "longitude": "-90.1217257722286",
    "latitude": "30.000596910557114",
    "geocoded_column": {
      "latitude": "30.000596910557114",
      "longitude": "-90.1217257722286"
    }
  },
  {
    "service_request": "2023-973678",
    "request_type": "Trash/Recycling",
    "request_reason": "Missed Trash Pick-Up",
    "date_created": "2023-02-07T16:35:27.000",
    "date_modified": "2023-02-07T16:56:21.000",
    "case_close_date": "2023-02-07T10:56:21.000",
    "request_status": "Closed",
    "responsible_agency": "Department of Sanitation",
    "final_address": "87 Marywood Ct",
    "address_councildis": "E",
    "status": "Assigned to Contractor",
    "contractor": "Waste Pro",
    "contractor_action": "Completed",
    "rowid": "973678",
    "final_x": "3712516.48325",
    "final_y": "566272.146979",
    "longitude": "-89.96882570958482",
    "latitude": "30.05007251819221",
    "geocoded_column": {
      "latitude": "30.05007251819221",
      "longitude": "-89.96882570958482"
    }
  },
  {
    "service_request": "2023-973676",
    "request_type": "Trash/Recycling",
    "request_reason": "Order Recycling Cart",
    "date_created": "2023-02-07T16:30:13.000",
    "date_modified": "2023-02-07T16:30:13.000",
    "request_status": "Pending",
    "responsible_agency": "Department of Sanitation",
    "final_address": "1444 N Miro St",
    "address_councildis": "D",
    "status": "Pending",
    "rowid": "973676",
    "final_x": "3679859.25103",
    "final_y": "538151.461321",
    "longitude": "-90.07302089788448",
    "latitude": "29.973779653381257",
    "geocoded_column": {
      "latitude": "29.973779653381257",
      "longitude": "-90.07302089788448"
    }
  },
  {
    "service_request": "2023-973675",
    "request_type": "Roads/Drainage",
    "request_reason": "Pothole",
    "date_created": "2023-02-07T16:26:01.000",
    "date_modified": "2023-02-07T16:26:01.000",
    "request_status": "Pending",
    "responsible_agency": "Department of Public Works",
    "final_address": "6601 Elysian Fields Ave",
    "address_councildis": "D",
    "status": "Pending",
    "rowid": "973675",
    "final_x": "3683409.43887",
    "final_y": "557839.829339",
    "longitude": "-90.06111826410576",
    "latitude": "30.027807749775178",
    "geocoded_column": {
      "latitude": "30.027807749775178",
      "longitude": "-90.06111826410576"
    }
  },
  {
    "service_request": "2023-973674",
    "request_type": "Traffic Signals/Signs/Striping/Streetlights",
    "request_reason": "Street Light Outage/Malfunction",
    "date_created": "2023-02-07T16:24:36.000",
    "date_modified": "2023-02-07T16:24:47.000",
    "request_status": "Pending",
    "responsible_agency": "Department of Public Works",
    "final_address": "4709 Mandeville St",
    "address_councildis": "D",
    "status": "Assigned to Contractor",
    "contractor": "Legacy Professional Services",
    "rowid": "973674",
    "final_x": "3684794.31605",
    "final_y": "550280.639124",
    "longitude": "-90.05700822319855",
    "latitude": "30.006980400898964",
    "geocoded_column": {
      "latitude": "30.006980400898964",
      "longitude": "-90.05700822319855"
    }
  },
  {
    "service_request": "2023-973673",
    "request_type": "Trash/Recycling",
    "request_reason": "Missed Trash Pick-Up",
    "date_created": "2023-02-07T16:23:37.000",
    "date_modified": "2023-02-07T16:24:30.000",
    "request_status": "Pending",
    "responsible_agency": "Department of Sanitation",
    "final_address": "9111 Dwyer Rd",
    "address_councildis": "E",
    "status": "Assigned to Contractor",
    "contractor": "Waste Pro",
    "rowid": "973673",
    "final_x": "3708444.46686",
    "final_y": "557127.23017",
    "longitude": "-89.98203661309846",
    "latitude": "30.025060328138487",
    "geocoded_column": {
      "latitude": "30.025060328138487",
      "longitude": "-89.98203661309846"
    }
  },
  {
    "service_request": "2023-973672",
    "request_type": "Abandoned Vehicles",
    "request_reason": "Abandoned/Junk Vehicles",
    "date_created": "2023-02-07T16:23:15.000",
    "date_modified": "2023-02-07T16:24:52.000",
    "request_status": "Pending",
    "responsible_agency": "Department of Public Works",
    "final_address": "512 S Norman C Francis Prkwy",
    "address_councildis": "B",
    "status": "Pending",
    "rowid": "973672",
    "final_x": "3672268.83463",
    "final_y": "535259.591814",
    "longitude": "-90.09709167916026",
    "latitude": "29.966055364882106",
    "geocoded_column": {
      "latitude": "29.966055364882106",
      "longitude": "-90.09709167916026"
    }
  },
  {
    "service_request": "2023-973671",
    "request_type": "Traffic Signals/Signs/Striping/Streetlights",
    "request_reason": "Traffic Signal Malfunctioning/Damaged",
    "date_created": "2023-02-07T16:22:05.000",
    "date_modified": "2023-02-07T16:22:05.000",
    "request_status": "Pending",
    "responsible_agency": "Department of Public Works",
    "final_address": "Magnolia St & Earhart Blvd, New Orleans, Louisiana, 70113",
    "status": "Pending",
    "rowid": "973671",
    "longitude": "0.0",
    "latitude": "0.0",
    "geocoded_column": {
      "latitude": "0.0",
      "longitude": "0.0"
    }
  },
  {
    "service_request": "2023-973670",
    "request_type": "Trash/Recycling",
    "request_reason": "MIssed Recycling Pick-Up",
    "date_created": "2023-02-07T16:18:45.000",
    "date_modified": "2023-02-07T16:18:46.000",
    "request_status": "Pending",
    "responsible_agency": "Department of Sanitation",
    "final_address": "315 N Roman St",
    "address_councildis": "B",
    "status": "Assigned to Contractor",
    "contractor": "Richards Disposal",
    "rowid": "973670",
    "final_x": "3678356.88283",
    "final_y": "534008.037701",
    "longitude": "-90.0779090794409",
    "latitude": "29.9624320042613",
    "geocoded_column": {
      "latitude": "29.9624320042613",
      "longitude": "-90.0779090794409"
    }
  },
  {
    "service_request": "2023-973669",
    "request_type": "Traffic Signals/Signs/Striping/Streetlights",
    "request_reason": "Street Light Outage/Malfunction",
    "date_created": "2023-02-07T16:17:04.000",
    "date_modified": "2023-02-07T16:22:55.000",
    "request_status": "Pending",
    "responsible_agency": "Department of Public Works",
    "final_address": "LARK ST & MARIGNY ST",
    "address_councildis": "D",
    "status": "Assigned to Contractor",
    "contractor": "Legacy Professional Services",
    "rowid": "973669",
    "final_x": "3683638.7",
    "final_y": "557771.28",
    "longitude": "-90.06039622242679",
    "latitude": "30.027612263428093",
    "geocoded_column": {
      "latitude": "30.027612263428093",
      "longitude": "-90.06039622242679"
    }
  },
  {
    "service_request": "2023-973668",
    "request_type": "Trash/Recycling",
    "request_reason": "Repair Trash Cart",
    "date_created": "2023-02-07T16:15:35.000",
    "date_modified": "2023-02-07T16:15:36.000",
    "request_status": "Pending",
    "responsible_agency": "Department of Sanitation",
    "final_address": "233 Vallette St",
    "address_councildis": "C",
    "status": "Assigned to Contractor",
    "contractor": "Richards Disposal",
    "rowid": "973668",
    "final_x": "3687538.99068",
    "final_y": "530935.654466",
    "longitude": "-90.04902209337824",
    "latitude": "29.95370419361508",
    "geocoded_column": {
      "latitude": "29.95370419361508",
      "longitude": "-90.04902209337824"
    }
  },
  {
    "service_request": "2023-973667",
    "request_type": "Trash/Recycling",
    "request_reason": "MIssed Recycling Pick-Up",
    "date_created": "2023-02-07T16:14:13.000",
    "date_modified": "2023-02-07T16:14:13.000",
    "request_status": "Pending",
    "responsible_agency": "Department of Sanitation",
    "final_address": "6821 Glengary Rd",
    "address_councildis": "E",
    "status": "Assigned to Contractor",
    "contractor": "Waste Pro",
    "rowid": "973667",
    "final_x": "3701787.71223",
    "final_y": "557161.002651",
    "longitude": "-90.00306952281774",
    "latitude": "30.025367364833084",
    "geocoded_column": {
      "latitude": "30.025367364833084",
      "longitude": "-90.00306952281774"
    }
  },
  {
    "service_request": "2023-973666",
    "request_type": "Trash/Recycling",
    "request_reason": "Missed Trash Pick-Up",
    "date_created": "2023-02-07T16:13:50.000",
    "date_modified": "2023-02-07T16:13:51.000",
    "request_status": "Pending",
    "responsible_agency": "Department of Sanitation",
    "final_address": "4139 Tchoupitoulas St",
    "address_councildis": "B",
    "status": "Assigned to Contractor",
    "contractor": "Richards Disposal",
    "rowid": "973666",
    "final_x": "3671974.53543",
    "final_y": "517579.045494",
    "longitude": "-90.09862272277476",
    "latitude": "29.91744835558929",
    "geocoded_column": {
      "latitude": "29.91744835558929",
      "longitude": "-90.09862272277476"
    }
  },
  {
    "service_request": "2023-973665",
    "request_type": "Abandoned Vehicles",
    "request_reason": "Abandoned/Junk Vehicles",
    "date_created": "2023-02-07T16:07:34.000",
    "date_modified": "2023-02-07T16:07:35.000",
    "request_status": "Pending",
    "responsible_agency": "Department of Public Works",
    "final_address": "3215 Lamarque St",
    "address_councildis": "C",
    "status": "Pending",
    "rowid": "973665",
    "final_x": "3696196.61034",
    "final_y": "526587.288382",
    "longitude": "-90.02184223419529",
    "latitude": "29.941478039587142",
    "geocoded_column": {
      "latitude": "29.941478039587142",
      "longitude": "-90.02184223419529"
    }
  },
  {
    "service_request": "2023-973664",
    "request_type": "Trash/Recycling",
    "request_reason": "Order Trash Cart",
    "date_created": "2023-02-07T16:07:00.000",
    "date_modified": "2023-02-07T16:07:01.000",
    "request_status": "Pending",
    "responsible_agency": "Department of Sanitation",
    "final_address": "1420 Athis St",
    "address_councildis": "D",
    "status": "Assigned to Contractor",
    "contractor": "IV Waste",
    "rowid": "973664",
    "final_x": "3677687.39816",
    "final_y": "553636.171479",
    "longitude": "-90.07934488839736",
    "latitude": "30.016422664236572",
    "geocoded_column": {
      "latitude": "30.016422664236572",
      "longitude": "-90.07934488839736"
    }
  },
  {
    "service_request": "2023-973663",
    "request_type": "Property Maintenance",
    "request_reason": "Property Maintenance",
    "date_created": "2023-02-07T16:04:43.000",
    "date_modified": "2023-02-07T16:04:44.000",
    "request_status": "Pending",
    "responsible_agency": "Department of Code Enforcement",
    "final_address": "4315 Walmsley Ave",
    "address_councildis": "B",
    "status": "Pending",
    "rowid": "973663",
    "final_x": "3669755.44615",
    "final_y": "530016.355969",
    "longitude": "-90.10520638837298",
    "latitude": "29.95171252307674",
    "geocoded_column": {
      "latitude": "29.95171252307674",
      "longitude": "-90.10520638837298"
    }
  },
  {
    "service_request": "2023-973662",
    "request_type": "Trash/Recycling",
    "request_reason": "Repair Trash Cart",
    "date_created": "2023-02-07T15:59:18.000",
    "date_modified": "2023-02-07T15:59:19.000",
    "request_status": "Pending",
    "responsible_agency": "Department of Sanitation",
    "final_address": "1277 Sere St, New Orleans, Louisiana, 70122",
    "address_councildis": "D",
    "status": "Assigned to Contractor",
    "contractor": "IV Waste",
    "rowid": "973662",
    "final_x": "3677348.38037",
    "final_y": "545358.914192",
    "longitude": "-90.08070193867322",
    "latitude": "29.993673347860522",
    "geocoded_column": {
      "latitude": "29.993673347860522",
      "longitude": "-90.08070193867322"
    }
  },
  {
    "service_request": "2023-973661",
    "request_type": "Trash/Recycling",
    "request_reason": "Missed Trash Pick-Up",
    "date_created": "2023-02-07T15:55:42.000",
    "date_modified": "2023-02-07T16:14:54.000",
    "request_status": "Pending",
    "responsible_agency": "Department of Sanitation",
    "final_address": "7268 Endston Ct",
    "address_councildis": "E",
    "status": "Assigned to Contractor",
    "contractor": "Waste Pro",
    "rowid": "973661",
    "final_x": "3711926.09304",
    "final_y": "564708.58397",
    "longitude": "-89.97075046457952",
    "latitude": "30.045792670660223",
    "geocoded_column": {
      "latitude": "30.045792670660223",
      "longitude": "-89.97075046457952"
    }
  },
  {
    "service_request": "2023-973660",
    "request_type": "Trash/Recycling",
    "request_reason": "Request a Large Item Pick Up",
    "date_created": "2023-02-07T15:53:50.000",
    "date_modified": "2023-02-07T15:53:50.000",
    "request_status": "Pending",
    "responsible_agency": "Department of Sanitation",
    "final_address": "123 N Murat St",
    "address_councildis": "A",
    "status": "Assigned to Contractor",
    "contractor": "Richards Disposal",
    "rowid": "973660",
    "final_x": "3669834.79386",
    "final_y": "539643.64353",
    "longitude": "-90.10462987885525",
    "latitude": "29.97818201787462",
    "geocoded_column": {
      "latitude": "29.97818201787462",
      "longitude": "-90.10462987885525"
    }
  },
  {
    "service_request": "2023-973659",
    "request_type": "Trash/Recycling",
    "request_reason": "Replace Trash Cart",
    "date_created": "2023-02-07T15:52:59.000",
    "date_modified": "2023-02-07T15:53:00.000",
    "request_status": "Pending",
    "responsible_agency": "Department of Sanitation",
    "final_address": "2213 Chestnut St",
    "address_councildis": "B",
    "status": "Assigned to Contractor",
    "contractor": "Richards Disposal",
    "rowid": "973659",
    "final_x": "3678267.56526",
    "final_y": "522597.022394",
    "longitude": "-90.07858572482914",
    "latitude": "29.931058203697027",
    "geocoded_column": {
      "latitude": "29.931058203697027",
      "longitude": "-90.07858572482914"
    }
  },
  {
    "service_request": "2023-973657",
    "request_type": "Trash/Recycling",
    "request_reason": "Request a Large Item Pick Up",
    "date_created": "2023-02-07T15:40:48.000",
    "date_modified": "2023-02-07T15:40:49.000",
    "request_status": "Pending",
    "responsible_agency": "Department of Sanitation",
    "final_address": "7809 Dorsett Dr",
    "address_councildis": "E",
    "status": "Assigned to Contractor",
    "contractor": "Waste Pro",
    "rowid": "973657",
    "final_x": "3712493.1308",
    "final_y": "567946.468645",
    "longitude": "-89.96883650003146",
    "latitude": "30.054676985690882",
    "geocoded_column": {
      "latitude": "30.054676985690882",
      "longitude": "-89.96883650003146"
    }
  },
  {
    "service_request": "2023-973656",
    "request_type": "Abandoned Vehicles",
    "request_reason": "Abandoned/Junk Vehicles",
    "date_created": "2023-02-07T15:39:41.000",
    "date_modified": "2023-02-07T15:39:41.000",
    "request_status": "Pending",
    "responsible_agency": "Department of Public Works",
    "final_address": "1437 N Roman St",
    "address_councildis": "D",
    "status": "Pending",
    "rowid": "973656",
    "final_x": "3680862.46453",
    "final_y": "537305.651976",
    "longitude": "-90.06988198631608",
    "latitude": "29.971423590828714",
    "geocoded_column": {
      "latitude": "29.971423590828714",
      "longitude": "-90.06988198631608"
    }
  },
  {
    "service_request": "2023-973655",
    "request_type": "Trash/Recycling",
    "request_reason": "Repair Trash Cart",
    "date_created": "2023-02-07T15:36:43.000",
    "date_modified": "2023-02-07T15:36:44.000",
    "request_status": "Pending",
    "responsible_agency": "Department of Sanitation",
    "final_address": "243 Broadway St",
    "address_councildis": "A",
    "status": "Assigned to Contractor",
    "contractor": "Richards Disposal",
    "rowid": "973655",
    "final_x": "3661356.69286",
    "final_y": "522217.478906",
    "longitude": "-90.13198394334938",
    "latitude": "29.93051293546166",
    "geocoded_column": {
      "latitude": "29.93051293546166",
      "longitude": "-90.13198394334938"
    }
  },
  {
    "service_request": "2023-973653",
    "request_type": "Taxi Issues",
    "request_reason": "School Bus Complaints",
    "date_created": "2023-02-07T15:34:43.000",
    "date_modified": "2023-02-07T15:34:43.000",
    "request_status": "Pending",
    "responsible_agency": "Department of Public Works",
    "final_address": "LOUISA EXIT & I 10 E",
    "address_councildis": "D",
    "status": "Pending",
    "rowid": "973653",
    "final_x": "3689981.4",
    "final_y": "547947.78",
    "longitude": "-90.04070402243046",
    "latitude": "30.000406003556567",
    "geocoded_column": {
      "latitude": "30.000406003556567",
      "longitude": "-90.04070402243046"
    }
  },
  {
    "service_request": "2023-973652",
    "request_type": "Parks & Parkways",
    "request_reason": "Request Tree Service (Right of Way/Public Property)",
    "date_created": "2023-02-07T15:32:03.000",
    "date_modified": "2023-02-07T15:32:03.000",
    "request_status": "Pending",
    "responsible_agency": "Department of Parks & Parkway",
    "final_address": "5649 General Haig St",
    "address_councildis": "A",
    "status": "Pending",
    "rowid": "973652",
    "final_x": "3670443.96955",
    "final_y": "544772.274959",
    "longitude": "-90.10253188788646",
    "latitude": "29.992266026128608",
    "geocoded_column": {
      "latitude": "29.992266026128608",
      "longitude": "-90.10253188788646"
    }
  },
  {
    "service_request": "2023-973651",
    "request_type": "Trash/Recycling",
    "request_reason": "Request a Large Item Pick Up",
    "date_created": "2023-02-07T15:31:22.000",
    "date_modified": "2023-02-07T15:31:22.000",
    "request_status": "Pending",
    "responsible_agency": "Department of Sanitation",
    "final_address": "107 Rhodes Ave",
    "address_councildis": "C",
    "status": "Assigned to Contractor",
    "contractor": "Richards Disposal",
    "rowid": "973651",
    "final_x": "3705880.06743",
    "final_y": "519358.171447",
    "longitude": "-89.99153718044184",
    "latitude": "29.921292198681392",
    "geocoded_column": {
      "latitude": "29.921292198681392",
      "longitude": "-89.99153718044184"
    }
  },
  {
    "service_request": "2023-973650",
    "request_type": "Trash/Recycling",
    "request_reason": "MIssed Recycling Pick-Up",
    "date_created": "2023-02-07T15:28:52.000",
    "date_modified": "2023-02-07T15:28:53.000",
    "request_status": "Pending",
    "responsible_agency": "Department of Sanitation",
    "final_address": "5901 Brighton Pl",
    "address_councildis": "C",
    "status": "Assigned to Contractor",
    "contractor": "Richards Disposal",
    "rowid": "973650",
    "final_x": "3705646.91364",
    "final_y": "520043.987064",
    "longitude": "-89.9922478010014",
    "latitude": "29.923185458500157",
    "geocoded_column": {
      "latitude": "29.923185458500157",
      "longitude": "-89.9922478010014"
    }
  },
  {
    "service_request": "2023-973649",
    "request_type": "Trash/Recycling",
    "request_reason": "Missed Trash Pick-Up",
    "date_created": "2023-02-07T15:22:00.000",
    "date_modified": "2023-02-07T16:54:07.000",
    "case_close_date": "2023-02-07T10:54:07.000",
    "request_status": "Closed",
    "responsible_agency": "Department of Sanitation",
    "final_address": "7832 Berg Rd",
    "address_councildis": "E",
    "status": "Assigned to Contractor",
    "contractor": "Waste Pro",
    "contractor_action": "Completed",
    "rowid": "973649",
    "final_x": "3711430.44722",
    "final_y": "567442.437796",
    "longitude": "-89.97221430063018",
    "latitude": "30.05332585869509",
    "geocoded_column": {
      "latitude": "30.05332585869509",
      "longitude": "-89.97221430063018"
    }
  },
  {
    "service_request": "2023-973648",
    "request_type": "Trash/Recycling",
    "request_reason": "Request a Large Item Pick Up",
    "date_created": "2023-02-07T15:19:39.000",
    "date_modified": "2023-02-07T15:31:19.000",
    "request_status": "Pending",
    "responsible_agency": "Department of Sanitation",
    "final_address": "New Orleans,LA",
    "address_councildis": "D",
    "status": "Assigned to Contractor",
    "contractor": "IV Waste",
    "rowid": "973648",
    "final_x": "3667759.92186",
    "final_y": "555292.679641",
    "longitude": "-90.11065569276207",
    "latitude": "30.02127247300107",
    "geocoded_column": {
      "latitude": "30.02127247300107",
      "longitude": "-90.11065569276207"
    }
  },
  {
    "service_request": "2023-973647",
    "request_type": "Trash/Recycling",
    "request_reason": "Order Recycling Cart",
    "date_created": "2023-02-07T15:18:35.000",
    "date_modified": "2023-02-07T15:18:38.000",
    "request_status": "Pending",
    "responsible_agency": "Department of Sanitation",
    "final_address": "2442 Madrid St",
    "address_councildis": "D",
    "status": "Pending",
    "rowid": "973647",
    "final_x": "3685394.09641",
    "final_y": "555436.541529",
    "longitude": "-90.05493162562146",
    "latitude": "30.021138860690055",
    "geocoded_column": {
      "latitude": "30.021138860690055",
      "longitude": "-90.05493162562146"
    }
  },
  {
    "service_request": "2023-973646",
    "request_type": "Trash/Recycling",
    "request_reason": "Order Trash Cart",
    "date_created": "2023-02-07T15:18:10.000",
    "date_modified": "2023-02-07T15:18:10.000",
    "request_status": "Pending",
    "responsible_agency": "Department of Sanitation",
    "final_address": "2442 Madrid St",
    "address_councildis": "D",
    "status": "Assigned to Contractor",
    "contractor": "IV Waste",
    "rowid": "973646",
    "final_x": "3685394.09641",
    "final_y": "555436.541529",
    "longitude": "-90.05493162562146",
    "latitude": "30.021138860690055",
    "geocoded_column": {
      "latitude": "30.021138860690055",
      "longitude": "-90.05493162562146"
    }
  },
  {
    "service_request": "2023-973645",
    "request_type": "Abandoned Vehicles",
    "request_reason": "Abandoned/Junk Vehicles",
    "date_created": "2023-02-07T15:16:51.000",
    "date_modified": "2023-02-07T15:16:52.000",
    "request_status": "Pending",
    "responsible_agency": "Department of Public Works",
    "final_address": "URQUHART ST & MAZANT ST",
    "address_councildis": "D",
    "status": "Pending",
    "rowid": "973645",
    "final_x": "3692289.7",
    "final_y": "535962.98",
    "longitude": "-90.03384136568587",
    "latitude": "29.967380309074944",
    "geocoded_column": {
      "latitude": "29.967380309074944",
      "longitude": "-90.03384136568587"
    }
  },
  {
    "service_request": "2023-973644",
    "request_type": "Roads/Drainage",
    "request_reason": "Man hole cover issue",
    "date_created": "2023-02-07T15:16:13.000",
    "date_modified": "2023-02-07T15:16:13.000",
    "request_status": "Pending",
    "responsible_agency": "Department of Public Works",
    "final_address": "334 Royal St",
    "address_councildis": "C",
    "status": "Pending",
    "rowid": "973644",
    "final_x": "3681860.50888",
    "final_y": "531492.449795",
    "longitude": "-90.0669329267041",
    "latitude": "29.9554089782484",
    "geocoded_column": {
      "latitude": "29.9554089782484",
      "longitude": "-90.0669329267041"
    }
  },
  {
    "service_request": "2023-973643",
    "request_type": "Trash/Recycling",
    "request_reason": "Order Recycling Cart",
    "date_created": "2023-02-07T15:09:23.000",
    "date_modified": "2023-02-07T15:09:24.000",
    "request_status": "Pending",
    "responsible_agency": "Department of Sanitation",
    "final_address": "13442 Lourdes St",
    "address_councildis": "E",
    "status": "Pending",
    "rowid": "973643",
    "final_x": "3726109.73171",
    "final_y": "560913.22083",
    "longitude": "-89.92607107184814",
    "latitude": "30.034885599617613",
    "geocoded_column": {
      "latitude": "30.034885599617613",
      "longitude": "-89.92607107184814"
    }
  },
  {
    "service_request": "2023-973642",
    "request_type": "Trash/Recycling",
    "request_reason": "Request a Large Item Pick Up",
    "date_created": "2023-02-07T15:08:34.000",
    "date_modified": "2023-02-07T15:08:35.000",
    "request_status": "Pending",
    "responsible_agency": "Department of Sanitation",
    "final_address": "2822 Audubon St",
    "address_councildis": "B",
    "status": "Assigned to Contractor",
    "contractor": "Richards Disposal",
    "rowid": "973642",
    "final_x": "3667606.70849",
    "final_y": "531291.350978",
    "longitude": "-90.11194818190394",
    "latitude": "29.95528149371002",
    "geocoded_column": {
      "latitude": "29.95528149371002",
      "longitude": "-90.11194818190394"
    }
  },
  {
    "service_request": "2023-973641",
    "request_type": "Roads/Drainage",
    "request_reason": "Man hole cover issue",
    "date_created": "2023-02-07T15:03:48.000",
    "date_modified": "2023-02-07T15:03:49.000",
    "request_status": "Pending",
    "responsible_agency": "Department of Public Works",
    "final_address": "5463 Marais St",
    "address_councildis": "E",
    "status": "Pending",
    "rowid": "973641",
    "final_x": "3697766.03338",
    "final_y": "534235.086277",
    "longitude": "-90.01660982136929",
    "latitude": "29.962457308857445",
    "geocoded_column": {
      "latitude": "29.962457308857445",
      "longitude": "-90.01660982136929"
    }
  },
  {
    "service_request": "2023-973640",
    "request_type": "Trash/Recycling",
    "request_reason": "MIssed Recycling Pick-Up",
    "date_created": "2023-02-07T15:02:36.000",
    "date_modified": "2023-02-07T15:02:37.000",
    "request_status": "Pending",
    "responsible_agency": "Department of Sanitation",
    "final_address": "5018 Revel St",
    "address_councildis": "E",
    "status": "Assigned to Contractor",
    "contractor": "Waste Pro",
    "rowid": "973640",
    "final_x": "3725087.93881",
    "final_y": "562062.662431",
    "longitude": "-89.92925553691377",
    "latitude": "30.038080556849305",
    "geocoded_column": {
      "latitude": "30.038080556849305",
      "longitude": "-89.92925553691377"
    }
  },
  {
    "service_request": "2023-973639",
    "request_type": "Trash/Recycling",
    "request_reason": "Order Trash Cart",
    "date_created": "2023-02-07T15:01:08.000",
    "date_modified": "2023-02-07T15:01:09.000",
    "request_status": "Pending",
    "responsible_agency": "Department of Sanitation",
    "final_address": "800 N Claiborne Ave",
    "address_councildis": "C",
    "status": "Assigned to Contractor",
    "contractor": "Richards Disposal",
    "rowid": "973639",
    "final_x": "3680092.37711",
    "final_y": "534847.461766",
    "longitude": "-90.07239946362338",
    "latitude": "29.964687736093506",
    "geocoded_column": {
      "latitude": "29.964687736093506",
      "longitude": "-90.07239946362338"
    }
  },
  {
    "service_request": "2023-973638",
    "request_type": "Trash/Recycling",
    "request_reason": "Dead Animal Pick Up",
    "date_created": "2023-02-07T14:59:55.000",
    "date_modified": "2023-02-07T14:59:56.000",
    "request_status": "Pending",
    "responsible_agency": "Department of Sanitation",
    "final_address": "ALCEE FORTIER BLVD & CHEF MENTEUR HWY",
    "address_councildis": "E",
    "status": "Assigned to Contractor",
    "contractor": "Waste Pro",
    "rowid": "973638",
    "final_x": "3730728.7",
    "final_y": "561540.28",
    "longitude": "-89.91145007409189",
    "latitude": "30.036452962773883",
    "geocoded_column": {
      "latitude": "30.036452962773883",
      "longitude": "-89.91145007409189"
    }
  },
  {
    "service_request": "2023-973637",
    "request_type": "Mosquito, Termite & Rodent Control",
    "request_reason": "Rodent Complaint (Rats)",
    "date_created": "2023-02-07T14:54:13.000",
    "date_modified": "2023-02-07T14:55:16.000",
    "request_status": "Pending",
    "responsible_agency": "Mosquito, Termite & Rodent Control Board",
    "final_address": "718 Ursulines Ave",
    "address_councildis": "C",
    "status": "Pending",
    "rowid": "973637",
    "final_x": "3683295.12898",
    "final_y": "533702.783877",
    "longitude": "-90.0623255042646",
    "latitude": "29.961442966061064",
    "geocoded_column": {
      "latitude": "29.961442966061064",
      "longitude": "-90.0623255042646"
    }
  },
  {
    "service_request": "2023-973636",
    "request_type": "Trash/Recycling",
    "request_reason": "Order Recycling Cart",
    "date_created": "2023-02-07T14:53:57.000",
    "date_modified": "2023-02-07T14:53:57.000",
    "request_status": "Pending",
    "responsible_agency": "Department of Sanitation",
    "final_address": "2318 Benefit St",
    "address_councildis": "D",
    "status": "Pending",
    "rowid": "973636",
    "final_x": "3685278.9005",
    "final_y": "544433.800015",
    "longitude": "-90.0556832589209",
    "latitude": "29.990888845944614",
    "geocoded_column": {
      "latitude": "29.990888845944614",
      "longitude": "-90.0556832589209"
    }
  },
  {
    "service_request": "2023-973635",
    "request_type": "Trash/Recycling",
    "request_reason": "Request a Large Item Pick Up",
    "date_created": "2023-02-07T14:51:09.000",
    "date_modified": "2023-02-07T14:51:10.000",
    "request_status": "Pending",
    "responsible_agency": "Department of Sanitation",
    "final_address": "1327 Pine St",
    "address_councildis": "A",
    "status": "Assigned to Contractor",
    "contractor": "Richards Disposal",
    "rowid": "973635",
    "final_x": "3664309.55514",
    "final_y": "527087.609342",
    "longitude": "-90.12249969674593",
    "latitude": "29.943818787096387",
    "geocoded_column": {
      "latitude": "29.943818787096387",
      "longitude": "-90.12249969674593"
    }
  },
  {
    "service_request": "2023-973634",
    "request_type": "Trash/Recycling",
    "request_reason": "Missed Trash Pick-Up",
    "date_created": "2023-02-07T14:50:54.000",
    "date_modified": "2023-02-07T14:50:55.000",
    "request_status": "Pending",
    "responsible_agency": "Department of Sanitation",
    "final_address": "1327 Pine St",
    "address_councildis": "A",
    "status": "Assigned to Contractor",
    "contractor": "Richards Disposal",
    "rowid": "973634",
    "final_x": "3664309.55514",
    "final_y": "527087.609342",
    "longitude": "-90.12249969674593",
    "latitude": "29.943818787096387",
    "geocoded_column": {
      "latitude": "29.943818787096387",
      "longitude": "-90.12249969674593"
    }
  },
  {
    "service_request": "2023-973633",
    "request_type": "Trash/Recycling",
    "request_reason": "Request a Large Item Pick Up",
    "date_created": "2023-02-07T14:49:26.000",
    "date_modified": "2023-02-07T14:49:27.000",
    "request_status": "Pending",
    "responsible_agency": "Department of Sanitation",
    "final_address": "2025 Marais St",
    "address_councildis": "C",
    "status": "Assigned to Contractor",
    "contractor": "IV Waste",
    "rowid": "973633",
    "final_x": "3684415.56303",
    "final_y": "536653.315975",
    "longitude": "-90.05868372514992",
    "latitude": "29.96952168918304",
    "geocoded_column": {
      "latitude": "29.96952168918304",
      "longitude": "-90.05868372514992"
    }
  },
  {
    "service_request": "2023-973632",
    "request_type": "Trash/Recycling",
    "request_reason": "MIssed Recycling Pick-Up",
    "date_created": "2023-02-07T14:45:24.000",
    "date_modified": "2023-02-07T14:45:24.000",
    "request_status": "Pending",
    "responsible_agency": "Department of Sanitation",
    "final_address": "737 Montegut St",
    "address_councildis": "C",
    "status": "Assigned to Contractor",
    "contractor": "IV Waste",
    "rowid": "973632",
    "final_x": "3688158.32156",
    "final_y": "534931.256006",
    "longitude": "-90.04692486821101",
    "latitude": "29.964671612902013",
    "geocoded_column": {
      "latitude": "29.964671612902013",
      "longitude": "-90.04692486821101"
    }
  },
  {
    "service_request": "2023-973631",
    "request_type": "Trash/Recycling",
    "request_reason": "Missed Trash Pick-Up",
    "date_created": "2023-02-07T14:44:47.000",
    "date_modified": "2023-02-07T14:44:47.000",
    "request_status": "Pending",
    "responsible_agency": "Department of Sanitation",
    "final_address": "737 Montegut St",
    "address_councildis": "C",
    "status": "Assigned to Contractor",
    "contractor": "IV Waste",
    "rowid": "973631",
    "final_x": "3688158.32156",
    "final_y": "534931.256006",
    "longitude": "-90.04692486821101",
    "latitude": "29.964671612902013",
    "geocoded_column": {
      "latitude": "29.964671612902013",
      "longitude": "-90.04692486821101"
    }
  },
  {
    "service_request": "2023-973630",
    "request_type": "Trash/Recycling",
    "request_reason": "MIssed Recycling Pick-Up",
    "date_created": "2023-02-07T14:41:46.000",
    "date_modified": "2023-02-07T14:41:46.000",
    "request_status": "Pending",
    "responsible_agency": "Department of Sanitation",
    "final_address": "4535 Bundy Rd",
    "address_councildis": "E",
    "status": "Assigned to Contractor",
    "contractor": "Waste Pro",
    "rowid": "973630",
    "final_x": "3709552.16472",
    "final_y": "554679.693656",
    "longitude": "-89.97862793095993",
    "latitude": "30.018294593466365",
    "geocoded_column": {
      "latitude": "30.018294593466365",
      "longitude": "-89.97862793095993"
    }
  },
  {
    "service_request": "2023-973629",
    "request_type": "Trash/Recycling",
    "request_reason": "Request a Large Item Pick Up",
    "date_created": "2023-02-07T14:41:36.000",
    "date_modified": "2023-02-07T14:41:37.000",
    "request_status": "Pending",
    "responsible_agency": "Department of Sanitation",
    "final_address": "3206 General Taylor St",
    "address_councildis": "B",
    "status": "Assigned to Contractor",
    "contractor": "Richards Disposal",
    "rowid": "973629",
    "final_x": "3671237.82574",
    "final_y": "526737.583294",
    "longitude": "-90.10063710915756",
    "latitude": "29.94265320094228",
    "geocoded_column": {
      "latitude": "29.94265320094228",
      "longitude": "-90.10063710915756"
    }
  },
  {
    "service_request": "2023-973628",
    "request_type": "Traffic Signals/Signs/Striping/Streetlights",
    "request_reason": "Street Light Outage/Malfunction",
    "date_created": "2023-02-07T14:39:44.000",
    "date_modified": "2023-02-07T14:39:45.000",
    "request_status": "Pending",
    "responsible_agency": "Department of Public Works",
    "final_address": "2401 Valmont St",
    "address_councildis": "B",
    "status": "Assigned to Contractor",
    "contractor": "Legacy Professional Services",
    "rowid": "973628",
    "final_x": "3668321.00327",
    "final_y": "524321.109948",
    "longitude": "-90.10992768739315",
    "latitude": "29.936094637959762",
    "geocoded_column": {
      "latitude": "29.936094637959762",
      "longitude": "-90.10992768739315"
    }
  },
  {
    "service_request": "2023-973627",
    "request_type": "Trash/Recycling",
    "request_reason": "Order Recycling Cart",
    "date_created": "2023-02-07T14:32:31.000",
    "date_modified": "2023-02-07T14:32:31.000",
    "request_status": "Pending",
    "responsible_agency": "Department of Sanitation",
    "final_address": "1818 Burdette St",
    "address_councildis": "A",
    "status": "Pending",
    "rowid": "973627",
    "final_x": "3664291.07911",
    "final_y": "529326.924097",
    "longitude": "-90.12248331824331",
    "latitude": "29.949976719050046",
    "geocoded_column": {
      "latitude": "29.949976719050046",
      "longitude": "-90.12248331824331"
    }
  },
  {
    "service_request": "2023-973626",
    "request_type": "Trash/Recycling",
    "request_reason": "Replace Trash Cart",
    "date_created": "2023-02-07T14:31:00.000",
    "date_modified": "2023-02-07T14:31:00.000",
    "request_status": "Pending",
    "responsible_agency": "Department of Sanitation",
    "final_address": "1818 Burdette St",
    "address_councildis": "A",
    "status": "Assigned to Contractor",
    "contractor": "Richards Disposal",
    "rowid": "973626",
    "final_x": "3664291.07911",
    "final_y": "529326.924097",
    "longitude": "-90.12248331824331",
    "latitude": "29.949976719050046",
    "geocoded_column": {
      "latitude": "29.949976719050046",
      "longitude": "-90.12248331824331"
    }
  },
  {
    "service_request": "2023-973625",
    "request_type": "Trash/Recycling",
    "request_reason": "Repair Recycling Cart",
    "date_created": "2023-02-07T14:26:04.000",
    "date_modified": "2023-02-07T14:26:05.000",
    "request_status": "Pending",
    "responsible_agency": "Department of Sanitation",
    "final_address": "2416 Columbus St",
    "address_councildis": "D",
    "status": "Pending",
    "rowid": "973625",
    "final_x": "3679347.93813",
    "final_y": "538975.855242",
    "longitude": "-90.07460713449939",
    "latitude": "29.976061906333854",
    "geocoded_column": {
      "latitude": "29.976061906333854",
      "longitude": "-90.07460713449939"
    }
  },
  {
    "service_request": "2023-973623",
    "request_type": "Parks & Parkways",
    "request_reason": "Request Tree Service (Right of Way/Public Property)",
    "date_created": "2023-02-07T14:19:13.000",
    "date_modified": "2023-02-07T14:19:13.000",
    "request_status": "Pending",
    "responsible_agency": "Department of Parks & Parkway",
    "final_address": "1215 Ursulines Ave",
    "address_councildis": "C",
    "status": "Pending",
    "rowid": "973623",
    "final_x": "3681850.69416",
    "final_y": "534906.35239",
    "longitude": "-90.0668447690184",
    "latitude": "29.964796343985576",
    "geocoded_column": {
      "latitude": "29.964796343985576",
      "longitude": "-90.0668447690184"
    }
  },
  {
    "service_request": "2023-973622",
    "request_type": "Trash/Recycling",
    "request_reason": "Repair Recycling Cart",
    "date_created": "2023-02-07T14:17:11.000",
    "date_modified": "2023-02-07T14:17:12.000",
    "request_status": "Pending",
    "responsible_agency": "Department of Sanitation",
    "final_address": "22 Kristen Ct",
    "address_councildis": "E",
    "status": "Pending",
    "rowid": "973622",
    "final_x": "3713530.06834",
    "final_y": "567224.013028",
    "longitude": "-89.96558626034239",
    "latitude": "30.05265653468304",
    "geocoded_column": {
      "latitude": "30.05265653468304",
      "longitude": "-89.96558626034239"
    }
  },
  {
    "service_request": "2023-973621",
    "request_type": "Trash/Recycling",
    "request_reason": "Order Trash Cart",
    "date_created": "2023-02-07T14:16:02.000",
    "date_modified": "2023-02-07T14:16:03.000",
    "request_status": "Pending",
    "responsible_agency": "Department of Sanitation",
    "final_address": "1507 Burbank Dr",
    "address_councildis": "D",
    "status": "Assigned to Contractor",
    "contractor": "IV Waste",
    "rowid": "973621",
    "final_x": "3678436.38722",
    "final_y": "554372.720792",
    "longitude": "-90.07695288849283",
    "latitude": "30.018425348785144",
    "geocoded_column": {
      "latitude": "30.018425348785144",
      "longitude": "-90.07695288849283"
    }
  },
  {
    "service_request": "2023-973620",
    "request_type": "Abandoned Vehicles",
    "request_reason": "Abandoned/Junk Vehicles",
    "date_created": "2023-02-07T14:10:52.000",
    "date_modified": "2023-02-07T14:10:52.000",
    "request_status": "Pending",
    "responsible_agency": "Department of Public Works",
    "final_address": "3739 General Pershing St",
    "address_councildis": "B",
    "status": "Pending",
    "rowid": "973620",
    "final_x": "3670537.01153",
    "final_y": "528475.265664",
    "longitude": "-90.10279083079358",
    "latitude": "29.947451972991935",
    "geocoded_column": {
      "latitude": "29.947451972991935",
      "longitude": "-90.10279083079358"
    }
  },
  {
    "service_request": "2023-973619",
    "request_type": "Traffic Signals/Signs/Striping/Streetlights",
    "request_reason": "Street Light Outage/Malfunction",
    "date_created": "2023-02-07T14:10:16.000",
    "date_modified": "2023-02-07T14:10:17.000",
    "request_status": "Pending",
    "responsible_agency": "Department of Public Works",
    "final_address": "921 Lafayette St",
    "address_councildis": "B",
    "status": "Assigned to Contractor",
    "contractor": "Legacy Professional Services",
    "rowid": "973619",
    "final_x": "3679623.52079",
    "final_y": "529178.056256",
    "longitude": "-90.07407683625019",
    "latitude": "29.94911296611653",
    "geocoded_column": {
      "latitude": "29.94911296611653",
      "longitude": "-90.07407683625019"
    }
  },
  {
    "service_request": "2023-973618",
    "request_type": "Trash/Recycling",
    "request_reason": "Missed Trash Pick-Up",
    "date_created": "2023-02-07T14:10:04.000",
    "date_modified": "2023-02-07T14:10:04.000",
    "request_status": "Pending",
    "responsible_agency": "Department of Sanitation",
    "final_address": "10100 Chevy Chase Dr",
    "address_councildis": "E",
    "status": "Assigned to Contractor",
    "contractor": "Waste Pro",
    "rowid": "973618",
    "final_x": "3709774.92267",
    "final_y": "562949.806304",
    "longitude": "-89.97761493971325",
    "latitude": "30.04102689841945",
    "geocoded_column": {
      "latitude": "30.04102689841945",
      "longitude": "-89.97761493971325"
    }
  },
  {
    "service_request": "2023-973617",
    "request_type": "Trash/Recycling",
    "request_reason": "Order Recycling Cart",
    "date_created": "2023-02-07T14:06:48.000",
    "date_modified": "2023-02-07T14:06:48.000",
    "request_status": "Pending",
    "responsible_agency": "Department of Sanitation",
    "final_address": "1866 Carnot St",
    "address_councildis": "D",
    "status": "Pending",
    "rowid": "973617",
    "final_x": "3681529.68719",
    "final_y": "549700.528084",
    "longitude": "-90.06734230828614",
    "latitude": "30.005484887972724",
    "geocoded_column": {
      "latitude": "30.005484887972724",
      "longitude": "-90.06734230828614"
    }
  },
  {
    "service_request": "2023-973616",
    "request_type": "Trash/Recycling",
    "request_reason": "Order Recycling Cart",
    "date_created": "2023-02-07T14:05:42.000",
    "date_modified": "2023-02-07T14:05:42.000",
    "request_status": "Pending",
    "responsible_agency": "Department of Sanitation",
    "final_address": "2323 Constance St",
    "address_councildis": "B",
    "status": "Pending",
    "rowid": "973616",
    "final_x": "3678593.66619",
    "final_y": "521445.159161",
    "longitude": "-90.07759611773474",
    "latitude": "29.927881133448953",
    "geocoded_column": {
      "latitude": "29.927881133448953",
      "longitude": "-90.07759611773474"
    }
  },
  {
    "service_request": "2023-973615",
    "request_type": "Trash/Recycling",
    "request_reason": "Order Trash Cart",
    "date_created": "2023-02-07T14:05:06.000",
    "date_modified": "2023-02-07T14:06:21.000",
    "request_status": "Pending",
    "responsible_agency": "Department of Sanitation",
    "final_address": "2323 Constance St",
    "address_councildis": "B",
    "status": "Assigned to Contractor",
    "contractor": "Richards Disposal",
    "rowid": "973615",
    "final_x": "3678593.66619",
    "final_y": "521445.159161",
    "longitude": "-90.07759611773474",
    "latitude": "29.927881133448953",
    "geocoded_column": {
      "latitude": "29.927881133448953",
      "longitude": "-90.07759611773474"
    }
  },
  {
    "service_request": "2023-973614",
    "request_type": "Trash/Recycling",
    "request_reason": "Order Trash Cart",
    "date_created": "2023-02-07T14:04:51.000",
    "date_modified": "2023-02-07T14:04:52.000",
    "request_status": "Pending",
    "responsible_agency": "Department of Sanitation",
    "final_address": "1866 Carnot St",
    "address_councildis": "D",
    "status": "Assigned to Contractor",
    "contractor": "IV Waste",
    "rowid": "973614",
    "final_x": "3681529.68719",
    "final_y": "549700.528084",
    "longitude": "-90.06734230828614",
    "latitude": "30.005484887972724",
    "geocoded_column": {
      "latitude": "30.005484887972724",
      "longitude": "-90.06734230828614"
    }
  },
  {
    "service_request": "2023-973613",
    "request_type": "Safety & Permits",
    "request_reason": "Construction permit",
    "date_created": "2023-02-07T14:03:33.000",
    "date_modified": "2023-02-07T14:03:33.000",
    "request_status": "Pending",
    "responsible_agency": "Department of Code Enforcement",
    "final_address": "2035 Desire St",
    "address_councildis": "D",
    "status": "Pending",
    "rowid": "973613",
    "final_x": "3691152.91676",
    "final_y": "539367.663498",
    "longitude": "-90.03730971931242",
    "latitude": "29.97677738446074",
    "geocoded_column": {
      "latitude": "29.97677738446074",
      "longitude": "-90.03730971931242"
    }
  },
  {
    "service_request": "2023-973612",
    "request_type": "Trash/Recycling",
    "request_reason": "Return Recycling Cart",
    "date_created": "2023-02-07T13:57:50.000",
    "date_modified": "2023-02-07T13:57:51.000",
    "request_status": "Pending",
    "responsible_agency": "Department of Sanitation",
    "final_address": "7541 Briarheath Dr",
    "address_councildis": "E",
    "status": "Pending",
    "rowid": "973612",
    "final_x": "3714914.68735",
    "final_y": "566751.645731",
    "longitude": "-89.96122779905973",
    "latitude": "30.051312200476033",
    "geocoded_column": {
      "latitude": "30.051312200476033",
      "longitude": "-89.96122779905973"
    }
  },
  {
    "service_request": "2023-973611",
    "request_type": "Roads/Drainage",
    "request_reason": "Catch Basin - Clogged",
    "date_created": "2023-02-07T13:56:47.000",
    "date_modified": "2023-02-07T13:56:47.000",
    "request_status": "Pending",
    "responsible_agency": "Department of Public Works",
    "final_address": "2836 State St",
    "address_councildis": "A",
    "status": "Pending",
    "rowid": "973611",
    "final_x": "3667160.83354",
    "final_y": "527007.596862",
    "longitude": "-90.11350009666594",
    "latitude": "29.943515622888086",
    "geocoded_column": {
      "latitude": "29.943515622888086",
      "longitude": "-90.11350009666594"
    }
  },
  {
    "service_request": "2023-973610",
    "request_type": "Trash/Recycling",
    "request_reason": "Order Trash Cart",
    "date_created": "2023-02-07T13:56:43.000",
    "date_modified": "2023-02-07T13:56:43.000",
    "request_status": "Pending",
    "responsible_agency": "Department of Sanitation",
    "final_address": "3129 Audubon St",
    "address_councildis": "B",
    "status": "Assigned to Contractor",
    "contractor": "Richards Disposal",
    "rowid": "973610",
    "final_x": "3668320.00436",
    "final_y": "532121.157315",
    "longitude": "-90.1096678660113",
    "latitude": "29.957542262855434",
    "geocoded_column": {
      "latitude": "29.957542262855434",
      "longitude": "-90.1096678660113"
    }
  },
  {
    "service_request": "2023-973609",
    "request_type": "Trash/Recycling",
    "request_reason": "Missed Trash Pick-Up",
    "date_created": "2023-02-07T13:51:16.000",
    "date_modified": "2023-02-07T13:51:16.000",
    "request_status": "Pending",
    "responsible_agency": "Department of Sanitation",
    "final_address": "7500 Bullard Ave",
    "address_councildis": "E",
    "status": "Assigned to Contractor",
    "contractor": "Waste Pro",
    "rowid": "973609",
    "final_x": "3713397.11979",
    "final_y": "566755.044771",
    "longitude": "-89.96602415621832",
    "latitude": "30.05137142606786",
    "geocoded_column": {
      "latitude": "30.05137142606786",
      "longitude": "-89.96602415621832"
    }
  },
  {
    "service_request": "2023-973608",
    "request_type": "Trash/Recycling",
    "request_reason": "Order Trash Cart",
    "date_created": "2023-02-07T13:50:53.000",
    "date_modified": "2023-02-07T13:50:53.000",
    "request_status": "Pending",
    "responsible_agency": "Department of Sanitation",
    "final_address": "9011 Forshey St, New Orleans, Louisiana, 70118",
    "address_councildis": "A",
    "status": "Assigned to Contractor",
    "contractor": "Richards Disposal",
    "rowid": "973608",
    "final_x": "3664594.47828",
    "final_y": "536162.468999",
    "longitude": "-90.12129704286232",
    "latitude": "29.968763414850574",
    "geocoded_column": {
      "latitude": "29.968763414850574",
      "longitude": "-90.12129704286232"
    }
  },
  {
    "service_request": "2023-973607",
    "request_type": "Trash/Recycling",
    "request_reason": "Repair Trash Cart",
    "date_created": "2023-02-07T13:48:41.000",
    "date_modified": "2023-02-07T13:48:42.000",
    "request_status": "Pending",
    "responsible_agency": "Department of Sanitation",
    "final_address": "805 Pacific Ave",
    "address_councildis": "C",
    "status": "Assigned to Contractor",
    "contractor": "Richards Disposal",
    "rowid": "973607",
    "final_x": "3688408.76463",
    "final_y": "528623.569152",
    "longitude": "-90.04635771568243",
    "latitude": "29.94731991742576",
    "geocoded_column": {
      "latitude": "29.94731991742576",
      "longitude": "-90.04635771568243"
    }
  },
  {
    "service_request": "2023-973606",
    "request_type": "Roads/Drainage",
    "request_reason": "Pothole",
    "date_created": "2023-02-07T13:47:07.000",
    "date_modified": "2023-02-07T13:47:07.000",
    "request_status": "Pending",
    "responsible_agency": "Department of Public Works",
    "final_address": "913 Pacific Ave",
    "address_councildis": "C",
    "status": "Pending",
    "rowid": "973606",
    "final_x": "3688377.65539",
    "final_y": "528170.269568",
    "longitude": "-90.0464720129731",
    "latitude": "29.946074459115962",
    "geocoded_column": {
      "latitude": "29.946074459115962",
      "longitude": "-90.0464720129731"
    }
  },
  {
    "service_request": "2023-973605",
    "request_type": "Roads/Drainage",
    "request_reason": "Damaged Sidewalk",
    "date_created": "2023-02-07T13:45:44.000",
    "date_modified": "2023-02-07T14:38:11.000",
    "request_status": "Pending",
    "responsible_agency": "Department of Public Works",
    "final_address": "1526 Poland Ave",
    "address_councildis": "D",
    "status": "Inspected",
    "rowid": "973605",
    "final_x": "3693397.53033",
    "final_y": "536722.103495",
    "longitude": "-90.03031557343351",
    "latitude": "29.969433037060792",
    "geocoded_column": {
      "latitude": "29.969433037060792",
      "longitude": "-90.03031557343351"
    }
  },
  {
    "service_request": "2023-973604",
    "request_type": "Trash/Recycling",
    "request_reason": "Repair Trash Cart",
    "date_created": "2023-02-07T13:39:23.000",
    "date_modified": "2023-02-07T13:39:23.000",
    "request_status": "Pending",
    "responsible_agency": "Department of Sanitation",
    "final_address": "7790 Hayne Blvd",
    "address_councildis": "E",
    "status": "Assigned to Contractor",
    "contractor": "Waste Pro",
    "rowid": "973604",
    "final_x": "3700932.72337",
    "final_y": "562339.892831",
    "longitude": "-90.00558151813395",
    "latitude": "30.039634569624003",
    "geocoded_column": {
      "latitude": "30.039634569624003",
      "longitude": "-90.00558151813395"
    }
  },
  {
    "service_request": "2023-973601",
    "request_type": "Parks & Parkways",
    "request_reason": "Request Tree Service (Right of Way/Public Property)",
    "date_created": "2023-02-07T13:39:07.000",
    "date_modified": "2023-02-07T13:39:08.000",
    "request_status": "Pending",
    "responsible_agency": "Department of Parks & Parkway",
    "final_address": "1526 Poland Ave",
    "address_councildis": "D",
    "status": "Pending",
    "rowid": "973601",
    "final_x": "3693397.53033",
    "final_y": "536722.103495",
    "longitude": "-90.03031557343351",
    "latitude": "29.969433037060792",
    "geocoded_column": {
      "latitude": "29.969433037060792",
      "longitude": "-90.03031557343351"
    }
  },
  {
    "service_request": "2023-973600",
    "request_type": "Trash/Recycling",
    "request_reason": "Return Trash Cart",
    "date_created": "2023-02-07T13:36:37.000",
    "date_modified": "2023-02-07T13:36:37.000",
    "request_status": "Pending",
    "responsible_agency": "Department of Sanitation",
    "final_address": "1618 N Dorgenois St",
    "address_councildis": "D",
    "status": "Assigned to Contractor",
    "contractor": "IV Waste",
    "rowid": "973600",
    "final_x": "3679692.986",
    "final_y": "539922.874314",
    "longitude": "-90.07348448760935",
    "latitude": "29.978655454134092",
    "geocoded_column": {
      "latitude": "29.978655454134092",
      "longitude": "-90.07348448760935"
    }
  },
  {
    "service_request": "2023-973599",
    "request_type": "Trash/Recycling",
    "request_reason": "Request a Large Item Pick Up",
    "date_created": "2023-02-07T13:33:01.000",
    "date_modified": "2023-02-07T13:33:02.000",
    "request_status": "Pending",
    "responsible_agency": "Department of Sanitation",
    "final_address": "13721 PierreS Ct",
    "address_councildis": "E",
    "status": "Assigned to Contractor",
    "contractor": "Waste Pro",
    "rowid": "973599",
    "final_x": "3724987.76422",
    "final_y": "570074.382375",
    "longitude": "-89.92926186018231",
    "latitude": "30.060112819846847",
    "geocoded_column": {
      "latitude": "30.060112819846847",
      "longitude": "-89.92926186018231"
    }
  },
  {
    "service_request": "2023-973598",
    "request_type": "Parks & Parkways",
    "request_reason": "Request Tree Service (Right of Way/Public Property)",
    "date_created": "2023-02-07T13:30:09.000",
    "date_modified": "2023-02-07T13:30:09.000",
    "request_status": "Pending",
    "responsible_agency": "Department of Parks & Parkway",
    "final_address": "551 Joseph St",
    "address_councildis": "A",
    "status": "Pending",
    "rowid": "973598",
    "final_x": "3666027.17191",
    "final_y": "518285.101942",
    "longitude": "-90.11737162159568",
    "latitude": "29.91956466725834",
    "geocoded_column": {
      "latitude": "29.91956466725834",
      "longitude": "-90.11737162159568"
    }
  },
  {
    "service_request": "2023-973597",
    "request_type": "Trash/Recycling",
    "request_reason": "Missed Trash Pick-Up",
    "date_created": "2023-02-07T13:29:53.000",
    "date_modified": "2023-02-07T13:29:53.000",
    "request_status": "Pending",
    "responsible_agency": "Department of Sanitation",
    "final_address": "2324 Octavia St",
    "address_councildis": "A",
    "status": "Assigned to Contractor",
    "contractor": "Richards Disposal",
    "rowid": "973597",
    "final_x": "3667587.58714",
    "final_y": "524270.945852",
    "longitude": "-90.11224479701046",
    "latitude": "29.935978214067227",
    "geocoded_column": {
      "latitude": "29.935978214067227",
      "longitude": "-90.11224479701046"
    }
  },
  {
    "service_request": "2023-973596",
    "request_type": "Property Maintenance",
    "request_reason": "Property Maintenance",
    "date_created": "2023-02-07T13:27:33.000",
    "date_modified": "2023-02-07T13:42:17.000",
    "request_status": "Pending",
    "responsible_agency": "Department of Code Enforcement",
    "final_address": "1201-1203 Feliciana Street",
    "address_councildis": "C",
    "status": "Pending",
    "rowid": "973596",
    "final_x": "3688860.37033",
    "final_y": "536437.765447",
    "longitude": "-90.04465434869766",
    "latitude": "29.96879229635813",
    "geocoded_column": {
      "latitude": "29.96879229635813",
      "longitude": "-90.04465434869766"
    }
  },
  {
    "service_request": "2023-973594",
    "request_type": "Trash/Recycling",
    "request_reason": "Repair Trash Cart",
    "date_created": "2023-02-07T13:14:18.000",
    "date_modified": "2023-02-07T13:14:19.000",
    "request_status": "Pending",
    "responsible_agency": "Department of Sanitation",
    "final_address": "3222 Ursulines Ave",
    "address_councildis": "A",
    "status": "Assigned to Contractor",
    "contractor": "Richards Disposal",
    "rowid": "973594",
    "final_x": "3675700.10357",
    "final_y": "539555.09057",
    "longitude": "-90.08610815630108",
    "latitude": "29.97776428523752",
    "geocoded_column": {
      "latitude": "29.97776428523752",
      "longitude": "-90.08610815630108"
    }
  },