[
  {
    "service_request": "2022-893970",
    "request_type": "Trash/Recycling",
    "request_reason": "Order Trash Cart",
    "date_created": "2022-06-22T22:18:37.000",
    "date_modified": "2022-06-22T22:18:38.000",
    "request_status": "Pending",
    "responsible_agency": "Department of Sanitation",
    "final_address": "2756 N Rocheblave St",
    "address_councildis": "D",
    "status": "Assigned to Contractor",
    "contractor": "Metro Disposal",
    "rowid": "893970",
    "final_x": "3687780.98678",
    "final_y": "541311.193676",
    "longitude": "-90.0478904417981",
    "latitude": "29.98222584236384",
    "geocoded_column": {
      "latitude": "29.98222584236384",
      "longitude": "-90.0478904417981"
    }
  },
  {
    "service_request": "2022-893969",
    "request_type": "Trash/Recycling",
    "request_reason": "Order Trash Cart",
    "date_created": "2022-06-22T22:18:04.000",
    "date_modified": "2022-06-22T22:18:05.000",
    "request_status": "Pending",
    "responsible_agency": "Department of Sanitation",
    "final_address": "2754 N Rocheblave St",
    "address_councildis": "D",
    "status": "Assigned to Contractor",
    "contractor": "Metro Disposal",
    "rowid": "893969",
    "final_x": "3687769.48732",
    "final_y": "541310.888588",
    "longitude": "-90.04792677339506",
    "latitude": "29.982225358193304",
    "geocoded_column": {
      "latitude": "29.982225358193304",
      "longitude": "-90.04792677339506"
    }
  },
  {
    "service_request": "2022-893968",
    "request_type": "Trash/Recycling",
    "request_reason": "Order Trash Cart",
    "date_created": "2022-06-22T22:17:40.000",
    "date_modified": "2022-06-22T22:17:41.000",
    "request_status": "Pending",
    "responsible_agency": "Department of Sanitation",
    "final_address": "1616 Rev. John Raphael, Jr. Way",
    "address_councildis": "B",
    "status": "Assigned to Contractor",
    "contractor": "Richards Disposal",
    "rowid": "893968",
    "final_x": "3676430.05313",
    "final_y": "526748.35667",
    "longitude": "-90.08424364980274",
    "latitude": "29.942528211798876",
    "geocoded_column": {
      "latitude": "29.942528211798876",
      "longitude": "-90.08424364980274"
    }
  },
  {
    "service_request": "2022-893967",
    "request_type": "Trash/Recycling",
    "request_reason": "Order Trash Cart",
    "date_created": "2022-06-22T22:17:18.000",
    "date_modified": "2022-06-22T22:17:19.000",
    "request_status": "Pending",
    "responsible_agency": "Department of Sanitation",
    "final_address": "1614 Rev. John Raphael, Jr. Way",
    "address_councildis": "B",
    "status": "Assigned to Contractor",
    "contractor": "Richards Disposal",
    "rowid": "893967",
    "final_x": "3676437.39752",
    "final_y": "526759.691134",
    "longitude": "-90.08422007174946",
    "latitude": "29.94255915768934",
    "geocoded_column": {
      "latitude": "29.94255915768934",
      "longitude": "-90.08422007174946"
    }
  },
  {
    "service_request": "2022-893966",
    "request_type": "Trash/Recycling",
    "request_reason": "Order Trash Cart",
    "date_created": "2022-06-22T22:16:43.000",
    "date_modified": "2022-06-22T22:16:44.000",
    "request_status": "Pending",
    "responsible_agency": "Department of Sanitation",
    "final_address": "3136 Trafalgar St",
    "address_councildis": "A",
    "status": "Assigned to Contractor",
    "contractor": "Metro Disposal",
    "rowid": "893966",
    "final_x": "3678454.53544",
    "final_y": "543117.861965",
    "longitude": "-90.07728536193994",
    "latitude": "29.987477943297435",
    "geocoded_column": {
      "latitude": "29.987477943297435",
      "longitude": "-90.07728536193994"
    }
  },
  {
    "service_request": "2022-893965",
    "request_type": "Trash/Recycling",
    "request_reason": "Order Trash Cart",
    "date_created": "2022-06-22T22:16:12.000",
    "date_modified": "2022-06-22T22:16:13.000",
    "request_status": "Pending",
    "responsible_agency": "Department of Sanitation",
    "final_address": "1214 St Maurice Ave",
    "address_councildis": "E",
    "status": "Assigned to Contractor",
    "contractor": "Metro Disposal",
    "rowid": "893965",
    "final_x": "3699967.51325",
    "final_y": "533618.968901",
    "longitude": "-90.00968037582031",
    "latitude": "29.960693461940046",
    "geocoded_column": {
      "latitude": "29.960693461940046",
      "longitude": "-90.00968037582031"
    }
  },
  {
    "service_request": "2022-893964",
    "request_type": "Trash/Recycling",
    "request_reason": "Order Trash Cart",
    "date_created": "2022-06-22T22:15:30.000",
    "date_modified": "2022-06-22T22:15:30.000",
    "request_status": "Pending",
    "responsible_agency": "Department of Sanitation",
    "final_address": "1216 St Maurice Ave",
    "address_councildis": "E",
    "status": "Assigned to Contractor",
    "contractor": "Metro Disposal",
    "rowid": "893964",
    "final_x": "3699974.78359",
    "final_y": "533633.509125",
    "longitude": "-90.00965688724526",
    "latitude": "29.96073321143315",
    "geocoded_column": {
      "latitude": "29.96073321143315",
      "longitude": "-90.00965688724526"
    }
  },
  {
    "service_request": "2022-893963",
    "request_type": "Trash/Recycling",
    "request_reason": "Order Trash Cart",
    "date_created": "2022-06-22T22:14:42.000",
    "date_modified": "2022-06-22T22:14:43.000",
    "request_status": "Pending",
    "responsible_agency": "Department of Sanitation",
    "final_address": "6033 Baccich St",
    "address_councildis": "D",
    "status": "Assigned to Contractor",
    "contractor": "Metro Disposal",
    "rowid": "893963",
    "final_x": "3687513.36726",
    "final_y": "555556.713241",
    "longitude": "-90.04823108519038",
    "latitude": "30.021404104374223",
    "geocoded_column": {
      "latitude": "30.021404104374223",
      "longitude": "-90.04823108519038"
    }
  },
  {
    "service_request": "2022-893961",
    "request_type": "Trash/Recycling",
    "request_reason": "Order Trash Cart",
    "date_created": "2022-06-22T22:14:09.000",
    "date_modified": "2022-06-22T22:14:10.000",
    "request_status": "Pending",
    "responsible_agency": "Department of Sanitation",
    "final_address": "6031 Baccich St",
    "address_councildis": "D",
    "status": "Assigned to Contractor",
    "contractor": "Metro Disposal",
    "rowid": "893961",
    "final_x": "3687515.27644",
    "final_y": "555536.141977",
    "longitude": "-90.04822578171525",
    "latitude": "30.021347482159264",
    "geocoded_column": {
      "latitude": "30.021347482159264",
      "longitude": "-90.04822578171525"
    }
  },
  {
    "service_request": "2022-893960",
    "request_type": "Trash/Recycling",
    "request_reason": "Order Trash Cart",
    "date_created": "2022-06-22T22:13:23.000",
    "date_modified": "2022-06-22T22:13:24.000",
    "request_status": "Pending",
    "responsible_agency": "Department of Sanitation",
    "final_address": "4407 Washington Ave",
    "address_councildis": "B",
    "status": "Assigned to Contractor",
    "contractor": "Richards Disposal",
    "rowid": "893960",
    "final_x": "3670649.22875",
    "final_y": "531339.819522",
    "longitude": "-90.10233935033838",
    "latitude": "29.95532524075366",
    "geocoded_column": {
      "latitude": "29.95532524075366",
      "longitude": "-90.10233935033838"
    }
  },
  {
    "service_request": "2022-893959",
    "request_type": "Trash/Recycling",
    "request_reason": "Order Trash Cart",
    "date_created": "2022-06-22T22:12:44.000",
    "date_modified": "2022-06-22T22:12:45.000",
    "request_status": "Pending",
    "responsible_agency": "Department of Sanitation",
    "final_address": "4405 Washington Ave",
    "address_councildis": "B",
    "status": "Assigned to Contractor",
    "contractor": "Richards Disposal",
    "rowid": "893959",
    "final_x": "3670654.485",
    "final_y": "531325.473666",
    "longitude": "-90.10232323964009",
    "latitude": "29.955285639113548",
    "geocoded_column": {
      "latitude": "29.955285639113548",
      "longitude": "-90.10232323964009"
    }
  },
  {
    "service_request": "2022-893958",
    "request_type": "Traffic Signals/Signs/Striping/Streetlights",
    "request_reason": "Street Light Outage/Malfunction",
    "date_created": "2022-06-22T22:01:17.000",
    "date_modified": "2022-06-22T22:01:18.000",
    "request_status": "Pending",
    "responsible_agency": "Department of Public Works",
    "final_address": "1499 Prentiss Ave",
    "address_councildis": "D",
    "status": "Pending",
    "contractor": "Royal Engineering",
    "rowid": "893958",
    "final_x": "3678351.16949",
    "final_y": "553512.574103",
    "longitude": "-90.0772519374706",
    "latitude": "30.016062825476865",
    "geocoded_column": {
      "latitude": "30.016062825476865",
      "longitude": "-90.0772519374706"
    }
  },
  {
    "service_request": "2022-893957",
    "request_type": "Trash/Recycling",
    "request_reason": "Missed Trash Pick-Up",
    "date_created": "2022-06-22T21:54:27.000",
    "date_modified": "2022-06-22T21:54:28.000",
    "request_status": "Pending",
    "responsible_agency": "Department of Sanitation",
    "final_address": "7433 Woodbine Dr",
    "address_councildis": "E",
    "status": "Assigned to Contractor",
    "contractor": "Metro Disposal",
    "rowid": "893957",
    "final_x": "3702244.45629",
    "final_y": "560879.031646",
    "longitude": "-90.0014897344454",
    "latitude": "30.035575913908797",
    "geocoded_column": {
      "latitude": "30.035575913908797",
      "longitude": "-90.0014897344454"
    }
  },
  {
    "service_request": "2022-893956",
    "request_type": "Traffic Signals/Signs/Striping/Streetlights",
    "request_reason": "Traffic Signal Malfunctioning/Damaged",
    "date_created": "2022-06-22T21:50:39.000",
    "date_modified": "2022-06-22T21:50:40.000",
    "request_status": "Pending",
    "responsible_agency": "Department of Public Works",
    "final_address": "CHEF MENTEUR HWY & WILSON AVE",
    "address_councildis": "E",
    "status": "Pending",
    "rowid": "893956",
    "final_x": "3703240.7",
    "final_y": "552478.68",
    "longitude": "-89.99865066841369",
    "latitude": "30.0124463124892",
    "geocoded_column": {
      "latitude": "30.0124463124892",
      "longitude": "-89.99865066841369"
    }
  },
  {
    "service_request": "2022-893955",
    "request_type": "Trash/Recycling",
    "request_reason": "Damaged Caused By Contractor",
    "date_created": "2022-06-22T21:50:12.000",
    "date_modified": "2022-06-22T21:50:13.000",
    "request_status": "Pending",
    "responsible_agency": "Department of Sanitation",
    "final_address": "3017 Toledano St",
    "address_councildis": "B",
    "status": "Assigned to Contractor",
    "contractor": "Richards Disposal",
    "rowid": "893955",
    "final_x": "3672513.95227",
    "final_y": "526960.45779",
    "longitude": "-90.09660047666142",
    "latitude": "29.94322822219608",
    "geocoded_column": {
      "latitude": "29.94322822219608",
      "longitude": "-90.09660047666142"
    }
  },
  {
    "service_request": "2022-893954",
    "request_type": "Property Maintenance",
    "request_reason": "Property Maintenance",
    "date_created": "2022-06-22T21:48:21.000",
    "date_modified": "2022-06-22T21:48:21.000",
    "request_status": "Pending",
    "responsible_agency": "Department of Code Enforcement",
    "final_address": "3500 Elysian Fields Ave",
    "address_councildis": "D",
    "status": "Pending",
    "rowid": "893954",
    "final_x": "3684113.88642",
    "final_y": "545539.404752",
    "longitude": "-90.05932442373509",
    "latitude": "29.993964532645677",
    "geocoded_column": {
      "latitude": "29.993964532645677",
      "longitude": "-90.05932442373509"
    }
  },
  {
    "service_request": "2022-893953",
    "request_type": "Trash/Recycling",
    "request_reason": "Missed Trash Pick-Up",
    "date_created": "2022-06-22T21:38:32.000",
    "date_modified": "2022-06-22T21:38:33.000",
    "request_status": "Pending",
    "responsible_agency": "Department of Sanitation",
    "final_address": "1904 Milan St, New Orleans, Louisiana, 70115",
    "address_councildis": "B",
    "status": "Assigned to Contractor",
    "contractor": "Richards Disposal",
    "rowid": "893953",
    "final_x": "3671439.90388",
    "final_y": "522084.324538",
    "longitude": "-90.100157211905",
    "latitude": "29.929852265746902",
    "geocoded_column": {
      "latitude": "29.929852265746902",
      "longitude": "-90.100157211905"
    }
  },
  {
    "service_request": "2022-893952",
    "request_type": "Trash/Recycling",
    "request_reason": "MIssed Recycling Pick-Up",
    "date_created": "2022-06-22T21:35:51.000",
    "date_modified": "2022-06-22T21:35:52.000",
    "request_status": "Pending",
    "responsible_agency": "Department of Sanitation",
    "final_address": "438 Audubon Blvd",
    "address_councildis": "B",
    "status": "Assigned to Contractor",
    "contractor": "Richards Disposal",
    "rowid": "893952",
    "final_x": "3667448.83239",
    "final_y": "530593.17485",
    "longitude": "-90.11247018775092",
    "latitude": "29.953366364044836",
    "geocoded_column": {
      "latitude": "29.953366364044836",
      "longitude": "-90.11247018775092"
    }
  },
  {
    "service_request": "2022-893951",
    "request_type": "Property Maintenance",
    "request_reason": "Property Maintenance",
    "date_created": "2022-06-22T21:16:26.000",
    "date_modified": "2022-06-22T21:16:26.000",
    "request_status": "Pending",
    "responsible_agency": "Department of Code Enforcement",
    "final_address": "3729 Annunciation St",
    "address_councildis": "B",
    "status": "Pending",
    "rowid": "893951",
    "final_x": "3673662.79515",
    "final_y": "518085.373686",
    "longitude": "-90.0932765332611",
    "latitude": "29.918790466598665",
    "geocoded_column": {
      "latitude": "29.918790466598665",
      "longitude": "-90.0932765332611"
    }
  },
  {
    "service_request": "2022-893950",
    "request_type": "Traffic Signals/Signs/Striping/Streetlights",
    "request_reason": "Street Light Outage/Malfunction",
    "date_created": "2022-06-22T21:11:53.000",
    "date_modified": "2022-06-22T21:11:54.000",
    "request_status": "Pending",
    "responsible_agency": "Department of Public Works",
    "final_address": "N JOHNSON ST & POLAND AVE",
    "address_councildis": "D",
    "status": "Pending",
    "contractor": "Royal Engineering",
    "rowid": "893950",
    "final_x": "3693621.7",
    "final_y": "538447.08",
    "longitude": "-90.02954564534328",
    "latitude": "29.97416909749754",
    "geocoded_column": {
      "latitude": "29.97416909749754",
      "longitude": "-90.02954564534328"
    }
  },
  {
    "service_request": "2022-893949",
    "request_type": "Traffic Signals/Signs/Striping/Streetlights",
    "request_reason": "Street Light Outage/Malfunction",
    "date_created": "2022-06-22T21:09:50.000",
    "date_modified": "2022-06-22T21:09:51.000",
    "request_status": "Pending",
    "responsible_agency": "Department of Public Works",
    "final_address": "819 St Louis St",
    "address_councildis": "C",
    "status": "Pending",
    "contractor": "Royal Engineering",
    "rowid": "893949",
    "final_x": "3681732.08834",
    "final_y": "532255.725251",
    "longitude": "-90.06731180252456",
    "latitude": "29.957511628543656",
    "geocoded_column": {
      "latitude": "29.957511628543656",
      "longitude": "-90.06731180252456"
    }
  },
  {
    "service_request": "2022-893948",
    "request_type": "Traffic Signals/Signs/Striping/Streetlights",
    "request_reason": "Street Light Outage/Malfunction",
    "date_created": "2022-06-22T20:59:34.000",
    "date_modified": "2022-06-22T20:59:35.000",
    "request_status": "Pending",
    "responsible_agency": "Department of Public Works",
    "final_address": "6648 Avenue B",
    "address_councildis": "A",
    "status": "Pending",
    "contractor": "Royal Engineering",
    "rowid": "893948",
    "final_x": "3665698.66016",
    "final_y": "552408.745686",
    "longitude": "-90.11726544343219",
    "latitude": "30.013402984941397",
    "geocoded_column": {
      "latitude": "30.013402984941397",
      "longitude": "-90.11726544343219"
    }
  },
  {
    "service_request": "2022-893947",
    "request_type": "Traffic Signals/Signs/Striping/Streetlights",
    "request_reason": "Street Light Outage/Malfunction",
    "date_created": "2022-06-22T20:58:11.000",
    "date_modified": "2022-06-22T20:58:12.000",
    "request_status": "Pending",
    "responsible_agency": "Department of Public Works",
    "final_address": "6642 Avenue B",
    "address_councildis": "A",
    "status": "Pending",
    "contractor": "Royal Engineering",
    "rowid": "893947",
    "final_x": "3665693.91482",
    "final_y": "552362.185558",
    "longitude": "-90.11728199746234",
    "latitude": "30.013275099346448",
    "geocoded_column": {
      "latitude": "30.013275099346448",
      "longitude": "-90.11728199746234"
    }
  },
  {
    "service_request": "2022-893946",
    "request_type": "Property Maintenance",
    "request_reason": "Property Maintenance",
    "date_created": "2022-06-22T20:57:47.000",
    "date_modified": "2022-06-22T20:57:47.000",
    "request_status": "Pending",
    "responsible_agency": "Department of Code Enforcement",
    "final_address": "7900 Alabama St",
    "address_councildis": "D",
    "status": "Pending",
    "rowid": "893946",
    "final_x": "3694582.1455",
    "final_y": "559312.925853",
    "longitude": "-90.02576034594263",
    "latitude": "30.031512381283623",
    "geocoded_column": {
      "latitude": "30.031512381283623",
      "longitude": "-90.02576034594263"
    }
  },
  {
    "service_request": "2022-893945",
    "request_type": "Property Maintenance",
    "request_reason": "Property Maintenance",
    "date_created": "2022-06-22T20:57:43.000",
    "date_modified": "2022-06-22T20:57:43.000",
    "request_status": "Pending",
    "responsible_agency": "Department of Code Enforcement",
    "final_address": "7900 Alabama St",
    "address_councildis": "D",
    "status": "Pending",
    "rowid": "893945",
    "final_x": "3694582.1455",
    "final_y": "559312.925853",
    "longitude": "-90.02576034594263",
    "latitude": "30.031512381283623",
    "geocoded_column": {
      "latitude": "30.031512381283623",
      "longitude": "-90.02576034594263"
    }
  },
  {
    "service_request": "2022-893944",
    "request_type": "Trash/Recycling",
    "request_reason": "Missed Trash Pick-Up",
    "date_created": "2022-06-22T20:38:50.000",
    "date_modified": "2022-06-22T20:38:51.000",
    "request_status": "Pending",
    "responsible_agency": "Department of Sanitation",
    "final_address": "7560 Parry St",
    "address_councildis": "E",
    "status": "Assigned to Contractor",
    "contractor": "Metro Disposal",
    "rowid": "893944",
    "final_x": "3714551.61547",
    "final_y": "568113.265061",
    "longitude": "-89.96232384503374",
    "latitude": "30.05506804558295",
    "geocoded_column": {
      "latitude": "30.05506804558295",
      "longitude": "-89.96232384503374"
    }
  },
  {
    "service_request": "2022-893943",
    "request_type": "Trash/Recycling",
    "request_reason": "Request a Large Item Pick Up",
    "date_created": "2022-06-22T19:32:32.000",
    "date_modified": "2022-06-22T19:32:33.000",
    "request_status": "Pending",
    "responsible_agency": "Department of Sanitation",
    "final_address": "6010 Mandeville St, New Orleans, Louisiana, 70122",
    "address_councildis": "D",
    "status": "Assigned to Contractor",
    "contractor": "Metro Disposal",
    "rowid": "893943",
    "final_x": "3684223.99189",
    "final_y": "555109.775001",
    "longitude": "-90.05864030659247",
    "latitude": "30.02027621686551",
    "geocoded_column": {
      "latitude": "30.02027621686551",
      "longitude": "-90.05864030659247"
    }
  },
  {
    "service_request": "2022-893942",
    "request_type": "Trash/Recycling",
    "request_reason": "Missed Trash Pick-Up",
    "date_created": "2022-06-22T19:28:39.000",
    "date_modified": "2022-06-22T19:28:39.000",
    "request_status": "Pending",
    "responsible_agency": "Department of Sanitation",
    "final_address": "8365 Curran Rd",
    "address_councildis": "E",
    "status": "Assigned to Contractor",
    "contractor": "Metro Disposal",
    "rowid": "893942",
    "final_x": "3703072.36548",
    "final_y": "562141.737311",
    "longitude": "-89.99882694151184",
    "latitude": "30.039021374058024",
    "geocoded_column": {
      "latitude": "30.039021374058024",
      "longitude": "-89.99882694151184"
    }
  },
  {
    "service_request": "2022-893941",
    "request_type": "Trash/Recycling",
    "request_reason": "Request a Large Item Pick Up",
    "date_created": "2022-06-22T19:25:36.000",
    "date_modified": "2022-06-22T19:25:37.000",
    "request_status": "Pending",
    "responsible_agency": "Department of Sanitation",
    "final_address": "3511 Hyman Ct",
    "address_councildis": "C",
    "status": "Assigned to Contractor",
    "contractor": "Richards Disposal",
    "rowid": "893941",
    "final_x": "3700882.02666",
    "final_y": "518111.835382",
    "longitude": "-90.00735920604109",
    "latitude": "29.918025187329835",
    "geocoded_column": {
      "latitude": "29.918025187329835",
      "longitude": "-90.00735920604109"
    }
  },
  {
    "service_request": "2022-893940",
    "request_type": "Trash/Recycling",
    "request_reason": "Change Size of Trash Cart",
    "date_created": "2022-06-22T18:58:45.000",
    "date_modified": "2022-06-22T18:58:46.000",
    "request_status": "Pending",
    "responsible_agency": "Department of Sanitation",
    "final_address": "1421 Soniat St",
    "address_councildis": "B",
    "status": "Assigned to Contractor",
    "contractor": "Richards Disposal",
    "rowid": "893940",
    "final_x": "3668467.66113",
    "final_y": "520351.616824",
    "longitude": "-90.10959852040709",
    "latitude": "29.925175492107623",
    "geocoded_column": {
      "latitude": "29.925175492107623",
      "longitude": "-90.10959852040709"
    }
  },
  {
    "service_request": "2022-893939",
    "request_type": "Trash/Recycling",
    "request_reason": "MIssed Recycling Pick-Up",
    "date_created": "2022-06-22T18:57:35.000",
    "date_modified": "2022-06-22T18:57:36.000",
    "request_status": "Pending",
    "responsible_agency": "Department of Sanitation",
    "final_address": "1344 Camp St",
    "address_councildis": "B",
    "status": "Assigned to Contractor",
    "contractor": "Richards Disposal",
    "rowid": "893939",
    "final_x": "3680090.5956",
    "final_y": "524936.478845",
    "longitude": "-90.07274941320073",
    "latitude": "29.937435919427614",
    "geocoded_column": {
      "latitude": "29.937435919427614",
      "longitude": "-90.07274941320073"
    }
  },
  {
    "service_request": "2022-893937",
    "request_type": "Trash/Recycling",
    "request_reason": "Replace Trash Cart",
    "date_created": "2022-06-22T18:54:00.000",
    "date_modified": "2022-06-22T18:54:00.000",
    "request_status": "Pending",
    "responsible_agency": "Department of Sanitation",
    "final_address": "8626 Palm St, New Orleans, Louisiana, 70118",
    "address_councildis": "A",
    "status": "Assigned to Contractor",
    "contractor": "Richards Disposal",
    "rowid": "893937",
    "final_x": "3666190.82023",
    "final_y": "536032.255559",
    "longitude": "-90.11626004791046",
    "latitude": "29.96835884472703",
    "geocoded_column": {
      "latitude": "29.96835884472703",
      "longitude": "-90.11626004791046"
    }
  },
  {
    "service_request": "2022-893936",
    "request_type": "Parks & Parkways",
    "request_reason": "Request Grass Cutting Service (City Owned Property)",
    "date_created": "2022-06-22T18:47:55.000",
    "date_modified": "2022-06-22T18:47:55.000",
    "request_status": "Pending",
    "responsible_agency": "Department of Parks & Parkway",
    "final_address": "5916 St Bernard Ave",
    "address_councildis": "D",
    "status": "Pending",
    "rowid": "893936",
    "final_x": "3676850.26152",
    "final_y": "554038.468376",
    "longitude": "-90.08197599980204",
    "latitude": "30.01755399992406",
    "geocoded_column": {
      "latitude": "30.01755399992406",
      "longitude": "-90.08197599980204"
    }
  },
  {
    "service_request": "2022-893935",
    "request_type": "Trash/Recycling",
    "request_reason": "Request a Large Item Pick Up",
    "date_created": "2022-06-22T18:46:53.000",
    "date_modified": "2022-06-22T18:46:54.000",
    "request_status": "Pending",
    "responsible_agency": "Department of Sanitation",
    "final_address": "2325 Martin Luther King, Jr. Blvd",
    "address_councildis": "B",
    "status": "Assigned to Contractor",
    "contractor": "Richards Disposal",
    "rowid": "893935",
    "final_x": "3676822.52213",
    "final_y": "527127.537279",
    "longitude": "-90.08299147072692",
    "latitude": "29.943559063322628",
    "geocoded_column": {
      "latitude": "29.943559063322628",
      "longitude": "-90.08299147072692"
    }
  },
  {
    "service_request": "2022-893934",
    "request_type": "Trash/Recycling",
    "request_reason": "Missed Trash Pick-Up",
    "date_created": "2022-06-22T18:43:20.000",
    "date_modified": "2022-06-22T18:43:21.000",
    "request_status": "Pending",
    "responsible_agency": "Department of Sanitation",
    "final_address": "331 Cherokee St",
    "address_councildis": "A",
    "status": "Assigned to Contractor",
    "contractor": "Richards Disposal",
    "rowid": "893934",
    "final_x": "3661622.26099",
    "final_y": "524782.318332",
    "longitude": "-90.13106062442601",
    "latitude": "29.937557777689364",
    "geocoded_column": {
      "latitude": "29.937557777689364",
      "longitude": "-90.13106062442601"
    }
  },
  {
    "service_request": "2022-893933",
    "request_type": "Trash/Recycling",
    "request_reason": "Missed Trash Pick-Up",
    "date_created": "2022-06-22T18:32:38.000",
    "date_modified": "2022-06-22T18:32:38.000",
    "request_status": "Pending",
    "responsible_agency": "Department of Sanitation",
    "final_address": "8231 Lomond Rd",
    "address_councildis": "E",
    "status": "Assigned to Contractor",
    "contractor": "Metro Disposal",
    "rowid": "893933",
    "final_x": "3702948.9242",
    "final_y": "561782.128991",
    "longitude": "-89.9992302800815",
    "latitude": "30.03803654468898",
    "geocoded_column": {
      "latitude": "30.03803654468898",
      "longitude": "-89.9992302800815"
    }
  },
  {
    "service_request": "2022-893932",
    "request_type": "Trash/Recycling",
    "request_reason": "Missed Trash Pick-Up",
    "date_created": "2022-06-22T18:24:01.000",
    "date_modified": "2022-06-22T18:24:01.000",
    "request_status": "Pending",
    "responsible_agency": "Department of Sanitation",
    "final_address": "3904 Buchanan St",
    "address_councildis": "D",
    "status": "Assigned to Contractor",
    "contractor": "Metro Disposal",
    "rowid": "893932",
    "final_x": "3677275.25179",
    "final_y": "546479.473809",
    "longitude": "-90.08089425111824",
    "latitude": "29.99675669096608",
    "geocoded_column": {
      "latitude": "29.99675669096608",
      "longitude": "-90.08089425111824"
    }
  },
  {
    "service_request": "2022-893931",
    "request_type": "Property Maintenance",
    "request_reason": "Property Maintenance",
    "date_created": "2022-06-22T18:17:08.000",
    "date_modified": "2022-06-22T18:17:08.000",
    "request_status": "Pending",
    "responsible_agency": "Department of Code Enforcement",
    "final_address": "6700 Cindy Pl",
    "address_councildis": "E",
    "status": "Pending",
    "rowid": "893931",
    "final_x": "3707199.446",
    "final_y": "558627.075036",
    "longitude": "-89.98591491844806",
    "latitude": "30.02922462809095",
    "geocoded_column": {
      "latitude": "30.02922462809095",
      "longitude": "-89.98591491844806"
    }
  },
  {
    "service_request": "2022-893930",
    "request_type": "Trash/Recycling",
    "request_reason": "Order Trash Cart",
    "date_created": "2022-06-22T18:13:45.000",
    "date_modified": "2022-06-22T18:13:46.000",
    "request_status": "Pending",
    "responsible_agency": "Department of Sanitation",
    "final_address": "2550 Ursulines Ave",
    "address_councildis": "D",
    "status": "Assigned to Contractor",
    "contractor": "Richards Disposal",
    "rowid": "893930",
    "final_x": "3678076.69998",
    "final_y": "537716.914312",
    "longitude": "-90.07866561296773",
    "latitude": "29.97263858844416",
    "geocoded_column": {
      "latitude": "29.97263858844416",
      "longitude": "-90.07866561296773"
    }
  },
  {
    "service_request": "2022-893929",
    "request_type": "Property Maintenance",
    "request_reason": "Property Maintenance",
    "date_created": "2022-06-22T18:09:29.000",
    "date_modified": "2022-06-22T18:09:29.000",
    "request_status": "Pending",
    "responsible_agency": "Department of Code Enforcement",
    "final_address": "2540 Mistletoe St",
    "address_councildis": "A",
    "status": "Pending",
    "rowid": "893929",
    "final_x": "3662427.66995",
    "final_y": "534704.898054",
    "longitude": "-90.12818840054828",
    "latitude": "29.964818416642572",
    "geocoded_column": {
      "latitude": "29.964818416642572",
      "longitude": "-90.12818840054828"
    }
  },
  {
    "service_request": "2022-893928",
    "request_type": "Trash/Recycling",
    "request_reason": "Order Trash Cart",
    "date_created": "2022-06-22T17:58:56.000",
    "date_modified": "2022-06-22T17:58:57.000",
    "request_status": "Pending",
    "responsible_agency": "Department of Sanitation",
    "final_address": "5937 Freret St",
    "address_councildis": "A",
    "status": "Assigned to Contractor",
    "contractor": "Richards Disposal",
    "rowid": "893928",
    "final_x": "3666578.75009",
    "final_y": "524386.844092",
    "longitude": "-90.1154258411488",
    "latitude": "29.936326420045333",
    "geocoded_column": {
      "latitude": "29.936326420045333",
      "longitude": "-90.1154258411488"
    }
  },
  {
    "service_request": "2022-893927",
    "request_type": "Abandoned Vehicles",
    "request_reason": "Abandoned/Junk Vehicles",
    "date_created": "2022-06-22T17:57:08.000",
    "date_modified": "2022-06-22T17:57:08.000",
    "request_status": "Pending",
    "responsible_agency": "Department of Public Works",
    "final_address": "2 Blanc Pl",
    "address_councildis": "B",
    "status": "Pending",
    "rowid": "893927",
    "final_x": "3668055.16647",
    "final_y": "520834.185785",
    "longitude": "-90.11088438708313",
    "latitude": "29.926514510633858",
    "geocoded_column": {
      "latitude": "29.926514510633858",
      "longitude": "-90.11088438708313"
    }
  },
  {
    "service_request": "2022-893926",
    "request_type": "Property Maintenance",
    "request_reason": "Property Maintenance",
    "date_created": "2022-06-22T17:55:35.000",
    "date_modified": "2022-06-22T17:55:35.000",
    "request_status": "Pending",
    "responsible_agency": "Department of Code Enforcement",
    "final_address": "2222 Odin St",
    "address_councildis": "D",
    "status": "Pending",
    "rowid": "893926",
    "final_x": "3683917.50882",
    "final_y": "553011.662999",
    "longitude": "-90.05968238543699",
    "latitude": "30.01451654897638",
    "geocoded_column": {
      "latitude": "30.01451654897638",
      "longitude": "-90.05968238543699"
    }
  },
  {
    "service_request": "2022-893925",
    "request_type": "Property Maintenance",
    "request_reason": "Property Maintenance",
    "date_created": "2022-06-22T17:52:42.000",
    "date_modified": "2022-06-22T17:52:42.000",
    "request_status": "Pending",
    "responsible_agency": "Department of Code Enforcement",
    "final_address": "2222 Odin St, New Orleans, Louisiana, 70122",
    "address_councildis": "D",
    "status": "Pending",
    "rowid": "893925",
    "final_x": "3683917.50882",
    "final_y": "553011.662999",
    "longitude": "-90.05968238543699",
    "latitude": "30.01451654897638",
    "geocoded_column": {
      "latitude": "30.01451654897638",
      "longitude": "-90.05968238543699"
    }
  },
  {
    "service_request": "2022-893924",
    "request_type": "Trash/Recycling",
    "request_reason": "Missed Trash Pick-Up",
    "date_created": "2022-06-22T17:51:06.000",
    "date_modified": "2022-06-22T17:51:07.000",
    "request_status": "Pending",
    "responsible_agency": "Department of Sanitation",
    "final_address": "4124 Davey St",
    "address_councildis": "D",
    "status": "Assigned to Contractor",
    "contractor": "Metro Disposal",
    "rowid": "893924",
    "final_x": "3676127.3723",
    "final_y": "547209.863633",
    "longitude": "-90.08449519720051",
    "latitude": "29.998799455189765",
    "geocoded_column": {
      "latitude": "29.998799455189765",
      "longitude": "-90.08449519720051"
    }
  },
  {
    "service_request": "2022-893923",
    "request_type": "Traffic Signals/Signs/Striping/Streetlights",
    "request_reason": "Street Light Outage/Malfunction",
    "date_created": "2022-06-22T17:30:25.000",
    "date_modified": "2022-06-22T17:30:26.000",
    "request_status": "Pending",
    "responsible_agency": "Department of Public Works",
    "final_address": "5428 Dauphine St",
    "address_councildis": "E",
    "status": "Pending",
    "contractor": "Royal Engineering",
    "rowid": "893923",
    "final_x": "3697052.28695",
    "final_y": "532747.547972",
    "longitude": "-90.01891760549253",
    "latitude": "29.95838963857188",
    "geocoded_column": {
      "latitude": "29.95838963857188",
      "longitude": "-90.01891760549253"
    }
  },
  {
    "service_request": "2022-893922",
    "request_type": "Abandoned Vehicles",
    "request_reason": "Abandoned/Junk Vehicles",
    "date_created": "2022-06-22T17:22:09.000",
    "date_modified": "2022-06-22T17:22:09.000",
    "request_status": "Pending",
    "responsible_agency": "Department of Public Works",
    "final_address": "8701 Jeannette St",
    "address_councildis": "A",
    "status": "Pending",
    "rowid": "893922",
    "final_x": "3661096.3168",
    "final_y": "530632.925826",
    "longitude": "-90.13252750858861",
    "latitude": "29.953660247160588",
    "geocoded_column": {
      "latitude": "29.953660247160588",
      "longitude": "-90.13252750858861"
    }
  },
  {
    "service_request": "2022-893921",
    "request_type": "Traffic Signals/Signs/Striping/Streetlights",
    "request_reason": "Street Light Outage/Malfunction",
    "date_created": "2022-06-22T17:13:04.000",
    "date_modified": "2022-06-22T17:13:04.000",
    "request_status": "Pending",
    "responsible_agency": "Department of Public Works",
    "final_address": "7342 Beaconfield Dr",
    "address_councildis": "E",
    "status": "Pending",
    "contractor": "Royal Engineering",
    "rowid": "893921",
    "final_x": "3713396.38488",
    "final_y": "565831.595171",
    "longitude": "-89.96606130652027",
    "latitude": "30.048832339542074",
    "geocoded_column": {
      "latitude": "30.048832339542074",
      "longitude": "-89.96606130652027"
    }
  },
  {
    "service_request": "2022-893920",
    "request_type": "Traffic Signals/Signs/Striping/Streetlights",
    "request_reason": "Street Light Outage/Malfunction",
    "date_created": "2022-06-22T17:12:34.000",
    "date_modified": "2022-06-22T17:12:35.000",
    "request_status": "Pending",
    "responsible_agency": "Department of Public Works",
    "final_address": "7342 Beaconfield Dr",
    "address_councildis": "E",
    "status": "Pending",
    "contractor": "Royal Engineering",
    "rowid": "893920",
    "final_x": "3713396.38488",
    "final_y": "565831.595171",
    "longitude": "-89.96606130652027",
    "latitude": "30.048832339542074",
    "geocoded_column": {
      "latitude": "30.048832339542074",
      "longitude": "-89.96606130652027"
    }
  },
  {
    "service_request": "2022-893919",
    "request_type": "Traffic Signals/Signs/Striping/Streetlights",
    "request_reason": "Street Light Outage/Malfunction",
    "date_created": "2022-06-22T17:12:15.000",
    "date_modified": "2022-06-22T17:12:15.000",
    "request_status": "Pending",
    "responsible_agency": "Department of Public Works",
    "final_address": "7342 Beaconfield Dr",
    "address_councildis": "E",
    "status": "Pending",
    "contractor": "Royal Engineering",
    "rowid": "893919",
    "final_x": "3713396.38488",
    "final_y": "565831.595171",
    "longitude": "-89.96606130652027",
    "latitude": "30.048832339542074",
    "geocoded_column": {
      "latitude": "30.048832339542074",
      "longitude": "-89.96606130652027"
    }
  },
  {
    "service_request": "2022-893918",
    "request_type": "Abandoned Vehicles",
    "request_reason": "Abandoned/Junk Vehicles",
    "date_created": "2022-06-22T17:09:50.000",
    "date_modified": "2022-06-22T17:09:50.000",
    "request_status": "Pending",
    "responsible_agency": "Department of Public Works",
    "final_address": "2542 Mistletoe St",
    "address_councildis": "A",
    "status": "Pending",
    "rowid": "893918",
    "final_x": "3662437.36647",
    "final_y": "534717.008838",
    "longitude": "-90.12815737716123",
    "latitude": "29.96485143691225",
    "geocoded_column": {
      "latitude": "29.96485143691225",
      "longitude": "-90.12815737716123"
    }
  },
  {
    "service_request": "2022-893917",
    "request_type": "Safety & Permits",
    "request_reason": "Construction permit",
    "date_created": "2022-06-22T17:09:10.000",
    "date_modified": "2022-06-22T17:09:10.000",
    "request_status": "Pending",
    "responsible_agency": "Department of Code Enforcement",
    "final_address": "808 Bourbon St",
    "address_councildis": "C",
    "status": "Pending",
    "rowid": "893917",
    "final_x": "3682572.85736",
    "final_y": "533031.624388",
    "longitude": "-90.06462977814155",
    "latitude": "29.95961951663096",
    "geocoded_column": {
      "latitude": "29.95961951663096",
      "longitude": "-90.06462977814155"
    }
  },
  {
    "service_request": "2022-893916",
    "request_type": "Property Maintenance",
    "request_reason": "Property Maintenance",
    "date_created": "2022-06-22T17:08:45.000",
    "date_modified": "2022-06-22T17:08:45.000",
    "request_status": "Pending",
    "responsible_agency": "Department of Code Enforcement",
    "final_address": "2542 Mistletoe St",
    "address_councildis": "A",
    "status": "Pending",
    "rowid": "893916",
    "final_x": "3662437.36647",
    "final_y": "534717.008838",
    "longitude": "-90.12815737716123",
    "latitude": "29.96485143691225",
    "geocoded_column": {
      "latitude": "29.96485143691225",
      "longitude": "-90.12815737716123"
    }
  },
  {
    "service_request": "2022-893915",
    "request_type": "Property Maintenance",
    "request_reason": "Property Maintenance",
    "date_created": "2022-06-22T17:07:14.000",
    "date_modified": "2022-06-22T17:07:14.000",
    "request_status": "Pending",
    "responsible_agency": "Department of Code Enforcement",
    "final_address": "2542 Mistletoe St",
    "address_councildis": "A",
    "status": "Pending",
    "rowid": "893915",
    "final_x": "3662437.36647",
    "final_y": "534717.008838",
    "longitude": "-90.12815737716123",
    "latitude": "29.96485143691225",
    "geocoded_column": {
      "latitude": "29.96485143691225",
      "longitude": "-90.12815737716123"
    }
  },
  {
    "service_request": "2022-893914",
    "request_type": "Trash/Recycling",
    "request_reason": "Illegal Dumping",
    "date_created": "2022-06-22T17:06:36.000",
    "date_modified": "2022-06-22T17:06:36.000",
    "request_status": "Pending",
    "responsible_agency": "Department of Sanitation",
    "final_address": "2542 Mistletoe St",
    "address_councildis": "A",
    "status": "Pending",
    "rowid": "893914",
    "final_x": "3662437.36647",
    "final_y": "534717.008838",
    "longitude": "-90.12815737716123",
    "latitude": "29.96485143691225",
    "geocoded_column": {
      "latitude": "29.96485143691225",
      "longitude": "-90.12815737716123"
    }
  },
  {
    "service_request": "2022-893913",
    "request_type": "Property Maintenance",
    "request_reason": "Property Maintenance",
    "date_created": "2022-06-22T17:06:25.000",
    "date_modified": "2022-06-22T17:06:25.000",
    "request_status": "Pending",
    "responsible_agency": "Department of Code Enforcement",
    "final_address": "2540 Mistletoe St",
    "address_councildis": "A",
    "status": "Pending",
    "rowid": "893913",
    "final_x": "3662427.66995",
    "final_y": "534704.898054",
    "longitude": "-90.12818840054828",
    "latitude": "29.964818416642572",
    "geocoded_column": {
      "latitude": "29.964818416642572",
      "longitude": "-90.12818840054828"
    }
  },
  {
    "service_request": "2022-893912",
    "request_type": "Abandoned Vehicles",
    "request_reason": "Abandoned/Junk Vehicles",
    "date_created": "2022-06-22T17:04:53.000",
    "date_modified": "2022-06-22T17:04:53.000",
    "request_status": "Pending",
    "responsible_agency": "Department of Public Works",
    "final_address": "451 Andrew Higgins Dr",
    "address_councildis": "B",
    "status": "Pending",
    "rowid": "893912",
    "final_x": "3681348.75823",
    "final_y": "526842.316606",
    "longitude": "-90.06871090422254",
    "latitude": "29.942638218771787",
    "geocoded_column": {
      "latitude": "29.942638218771787",
      "longitude": "-90.06871090422254"
    }
  },
  {
    "service_request": "2022-893911",
    "request_type": "Trash/Recycling",
    "request_reason": "Illegal Dumping",
    "date_created": "2022-06-22T16:59:38.000",
    "date_modified": "2022-06-22T16:59:38.000",
    "request_status": "Pending",
    "responsible_agency": "Department of Sanitation",
    "final_address": "2542 Mistletoe St",
    "address_councildis": "A",
    "status": "Pending",
    "rowid": "893911",
    "final_x": "3662437.36647",
    "final_y": "534717.008838",
    "longitude": "-90.12815737716123",
    "latitude": "29.96485143691225",
    "geocoded_column": {
      "latitude": "29.96485143691225",
      "longitude": "-90.12815737716123"
    }
  },
  {
    "service_request": "2022-893910",
    "request_type": "Trash/Recycling",
    "request_reason": "Missed Trash Pick-Up",
    "date_created": "2022-06-22T16:57:25.000",
    "date_modified": "2022-06-22T16:57:26.000",
    "request_status": "Pending",
    "responsible_agency": "Department of Sanitation",
    "final_address": "4122 Vincennes Pl",
    "address_councildis": "B",
    "status": "Assigned to Contractor",
    "contractor": "Richards Disposal",
    "rowid": "893910",
    "final_x": "3668524.89614",
    "final_y": "530727.500354",
    "longitude": "-90.10906789585637",
    "latitude": "29.95370414588068",
    "geocoded_column": {
      "latitude": "29.95370414588068",
      "longitude": "-90.10906789585637"
    }
  },
  {
    "service_request": "2022-893909",
    "request_type": "Trash/Recycling",
    "request_reason": "Repair Trash Cart",
    "date_created": "2022-06-22T16:53:48.000",
    "date_modified": "2022-06-22T16:53:48.000",
    "request_status": "Pending",
    "responsible_agency": "Department of Sanitation",
    "final_address": "4917 Debore Cir",
    "address_councildis": "D",
    "status": "Assigned to Contractor",
    "contractor": "Metro Disposal",
    "rowid": "893909",
    "final_x": "3692304.62544",
    "final_y": "552318.547222",
    "longitude": "-90.03320817343229",
    "latitude": "30.01235173293418",
    "geocoded_column": {
      "latitude": "30.01235173293418",
      "longitude": "-90.03320817343229"
    }
  },
  {
    "service_request": "2022-893908",
    "request_type": "Property Maintenance",
    "request_reason": "Property Maintenance",
    "date_created": "2022-06-22T16:47:44.000",
    "date_modified": "2022-06-22T16:47:44.000",
    "request_status": "Pending",
    "responsible_agency": "Department of Code Enforcement",
    "final_address": "2741 Verbena St",
    "address_councildis": "D",
    "status": "Pending",
    "rowid": "893908",
    "final_x": "3687959.31753",
    "final_y": "547954.133778",
    "longitude": "-90.04709166299632",
    "latitude": "30.000486041880876",
    "geocoded_column": {
      "latitude": "30.000486041880876",
      "longitude": "-90.04709166299632"
    }
  },
  {
    "service_request": "2022-893907",
    "request_type": "Trash/Recycling",
    "request_reason": "Request a Large Item Pick Up",
    "date_created": "2022-06-22T16:45:47.000",
    "date_modified": "2022-06-22T16:45:47.000",
    "request_status": "Pending",
    "responsible_agency": "Department of Sanitation",
    "final_address": "3513 Desaix Blvd",
    "address_councildis": "D",
    "status": "Assigned to Contractor",
    "contractor": "Metro Disposal",
    "rowid": "893907",
    "final_x": "3676187.87534",
    "final_y": "543775.220686",
    "longitude": "-90.08442232790097",
    "latitude": "29.989353576177407",
    "geocoded_column": {
      "latitude": "29.989353576177407",
      "longitude": "-90.08442232790097"
    }
  },
  {
    "service_request": "2022-893906",
    "request_type": "Trash/Recycling",
    "request_reason": "Order Recycling Cart",
    "date_created": "2022-06-22T16:45:16.000",
    "date_modified": "2022-06-22T16:45:17.000",
    "request_status": "Pending",
    "responsible_agency": "Department of Sanitation",
    "final_address": "408 River Oaks Dr",
    "address_councildis": "C",
    "status": "Pending",
    "contractor": "Richards Disposal",
    "rowid": "893906",
    "final_x": "3701607.84093",
    "final_y": "522136.835898",
    "longitude": "-90.00492093214069",
    "latitude": "29.92906943721928",
    "geocoded_column": {
      "latitude": "29.92906943721928",
      "longitude": "-90.00492093214069"
    }
  },
  {
    "service_request": "2022-893905",
    "request_type": "Trash/Recycling",
    "request_reason": "Repair Trash Cart",
    "date_created": "2022-06-22T16:44:34.000",
    "date_modified": "2022-06-22T16:44:35.000",
    "request_status": "Pending",
    "responsible_agency": "Department of Sanitation",
    "final_address": "408 River Oaks Dr",
    "address_councildis": "C",
    "status": "Assigned to Contractor",
    "contractor": "Richards Disposal",
    "rowid": "893905",
    "final_x": "3701607.84093",
    "final_y": "522136.835898",
    "longitude": "-90.00492093214069",
    "latitude": "29.92906943721928",
    "geocoded_column": {
      "latitude": "29.92906943721928",
      "longitude": "-90.00492093214069"
    }
  },
  {
    "service_request": "2022-893904",
    "request_type": "Roads/Drainage",
    "request_reason": "Pothole",
    "date_created": "2022-06-22T16:43:37.000",
    "date_modified": "2022-06-22T16:43:37.000",
    "request_status": "Pending",
    "responsible_agency": "Department of Public Works",
    "final_address": "4903 N Rampart St, New Orleans, Louisiana, 70117",
    "address_councildis": "E",
    "status": "Pending",
    "rowid": "893904",
    "final_x": "3695321.89757",
    "final_y": "534027.906309",
    "longitude": "-90.02433549617727",
    "latitude": "29.961964638693967",
    "geocoded_column": {
      "latitude": "29.961964638693967",
      "longitude": "-90.02433549617727"
    }
  },
  {
    "service_request": "2022-893903",
    "request_type": "Trash/Recycling",
    "request_reason": "Replace Trash Cart",
    "date_created": "2022-06-22T16:42:16.000",
    "date_modified": "2022-06-22T16:42:17.000",
    "request_status": "Pending",
    "responsible_agency": "Department of Sanitation",
    "final_address": "4903 N Rampart St, New Orleans, Louisiana, 70117",
    "address_councildis": "E",
    "status": "Assigned to Contractor",
    "contractor": "Metro Disposal",
    "rowid": "893903",
    "final_x": "3695321.89757",
    "final_y": "534027.906309",
    "longitude": "-90.02433549617727",
    "latitude": "29.961964638693967",
    "geocoded_column": {
      "latitude": "29.961964638693967",
      "longitude": "-90.02433549617727"
    }
  },
  {
    "service_request": "2022-893902",
    "request_type": "Property Maintenance",
    "request_reason": "Property Maintenance",
    "date_created": "2022-06-22T16:39:18.000",
    "date_modified": "2022-06-22T16:39:18.000",
    "request_status": "Pending",
    "responsible_agency": "Department of Code Enforcement",
    "final_address": "5339 N Rampart St",
    "address_councildis": "E",
    "status": "Pending",
    "rowid": "893902",
    "final_x": "3696991.22736",
    "final_y": "533585.842309",
    "longitude": "-90.01908005253689",
    "latitude": "29.960696577155307",
    "geocoded_column": {
      "latitude": "29.960696577155307",
      "longitude": "-90.01908005253689"
    }
  },
  {
    "service_request": "2022-893901",
    "request_type": "Trash/Recycling",
    "request_reason": "Request a Large Item Pick Up",
    "date_created": "2022-06-22T16:36:57.000",
    "date_modified": "2022-06-22T16:36:58.000",
    "request_status": "Pending",
    "responsible_agency": "Department of Sanitation",
    "final_address": "2715 Fern St",
    "address_councildis": "A",
    "status": "Assigned to Contractor",
    "contractor": "Richards Disposal",
    "rowid": "893901",
    "final_x": "3666268.25377",
    "final_y": "531898.716611",
    "longitude": "-90.11615417470277",
    "latitude": "29.956990712265284",
    "geocoded_column": {
      "latitude": "29.956990712265284",
      "longitude": "-90.11615417470277"
    }
  },
  {
    "service_request": "2022-893900",
    "request_type": "Trash/Recycling",
    "request_reason": "Replace Trash Cart",
    "date_created": "2022-06-22T16:36:34.000",
    "date_modified": "2022-06-22T16:36:35.000",
    "request_status": "Pending",
    "responsible_agency": "Department of Sanitation",
    "final_address": "7827 Bass St",
    "address_councildis": "E",
    "status": "Assigned to Contractor",
    "contractor": "Metro Disposal",
    "rowid": "893900",
    "final_x": "3719937.91788",
    "final_y": "573896.336682",
    "longitude": "-89.9450776144253",
    "latitude": "30.07079076414743",
    "geocoded_column": {
      "latitude": "30.07079076414743",
      "longitude": "-89.9450776144253"
    }
  },
  {
    "service_request": "2022-893899",
    "request_type": "Trash/Recycling",
    "request_reason": "Request a Large Item Pick Up",
    "date_created": "2022-06-22T16:36:11.000",
    "date_modified": "2022-06-22T16:36:12.000",
    "request_status": "Pending",
    "responsible_agency": "Department of Sanitation",
    "final_address": "6317 N Rampart St",
    "address_councildis": "E",
    "status": "Assigned to Contractor",
    "contractor": "Metro Disposal",
    "rowid": "893899",
    "final_x": "3700104.05911",
    "final_y": "532608.74042",
    "longitude": "-90.00928605587106",
    "latitude": "29.957911355860332",
    "geocoded_column": {
      "latitude": "29.957911355860332",
      "longitude": "-90.00928605587106"
    }
  },
  {
    "service_request": "2022-893898",
    "request_type": "Abandoned Vehicles",
    "request_reason": "Vehicle Blocking Your Driveway",
    "date_created": "2022-06-22T16:35:46.000",
    "date_modified": "2022-06-22T16:35:46.000",
    "request_status": "Pending",
    "responsible_agency": "Department of Public Works",
    "final_address": "2805 Palmer Ave",
    "address_councildis": "A",
    "status": "Pending",
    "rowid": "893898",
    "final_x": "3666932.04858",
    "final_y": "526849.022782",
    "longitude": "-90.11422775983793",
    "latitude": "29.9430862903904",
    "geocoded_column": {
      "latitude": "29.9430862903904",
      "longitude": "-90.11422775983793"
    }
  },
  {
    "service_request": "2022-893896",
    "request_type": "Roads/Drainage",
    "request_reason": "Street Subsidence (Sinking)",
    "date_created": "2022-06-22T16:33:43.000",
    "date_modified": "2022-06-22T16:33:43.000",
    "request_status": "Pending",
    "responsible_agency": "Department of Public Works",
    "final_address": "2930 Laurel St",
    "address_councildis": "B",
    "status": "Pending",
    "rowid": "893896",
    "final_x": "3676843.04661",
    "final_y": "519773.046648",
    "longitude": "-90.08318000876423",
    "latitude": "29.92333600300221",
    "geocoded_column": {
      "latitude": "29.92333600300221",
      "longitude": "-90.08318000876423"
    }
  },
  {
    "service_request": "2022-893895",
    "request_type": "Trash/Recycling",
    "request_reason": "Order Recycling Cart",
    "date_created": "2022-06-22T16:27:49.000",
    "date_modified": "2022-06-22T16:27:50.000",
    "request_status": "Pending",
    "responsible_agency": "Department of Sanitation",
    "final_address": "1207 Josephine St",
    "address_councildis": "B",
    "status": "Pending",
    "rowid": "893895",
    "final_x": "3678920.16443",
    "final_y": "522681.56953",
    "longitude": "-90.07652262843074",
    "latitude": "29.931271014602547",
    "geocoded_column": {
      "latitude": "29.931271014602547",
      "longitude": "-90.07652262843074"
    }
  },
  {
    "service_request": "2022-893894",
    "request_type": "Trash/Recycling",
    "request_reason": "Missed Trash Pick-Up",
    "date_created": "2022-06-22T16:26:12.000",
    "date_modified": "2022-06-22T16:26:12.000",
    "request_status": "Pending",
    "responsible_agency": "Department of Sanitation",
    "final_address": "883 Navarre St",
    "address_councildis": "A",
    "status": "Assigned to Contractor",
    "contractor": "Metro Disposal",
    "rowid": "893894",
    "final_x": "3669372.46785",
    "final_y": "543816.225614",
    "longitude": "-90.10594891040328",
    "latitude": "29.989668822165346",
    "geocoded_column": {
      "latitude": "29.989668822165346",
      "longitude": "-90.10594891040328"
    }
  },
  {
    "service_request": "2022-893893",
    "request_type": "Traffic Signals/Signs/Striping/Streetlights",
    "request_reason": "Traffic Signal Malfunctioning/Damaged",
    "date_created": "2022-06-22T16:22:29.000",
    "date_modified": "2022-06-22T16:22:29.000",
    "request_status": "Pending",
    "responsible_agency": "Department of Public Works",
    "final_address": "6159 Canal Blvd",
    "address_councildis": "A",
    "status": "Pending",
    "rowid": "893893",
    "final_x": "3668739.79892",
    "final_y": "548363.839762",
    "longitude": "-90.10779370361752",
    "latitude": "30.002191812269",
    "geocoded_column": {
      "latitude": "30.002191812269",
      "longitude": "-90.10779370361752"
    }
  },
  {
    "service_request": "2022-893892",
    "request_type": "Property Maintenance",
    "request_reason": "Property Maintenance",
    "date_created": "2022-06-22T16:22:23.000",
    "date_modified": "2022-06-22T16:22:23.000",
    "request_status": "Pending",
    "responsible_agency": "Department of Code Enforcement",
    "final_address": "6934 Thor Ct",
    "address_councildis": "E",
    "status": "Pending",
    "rowid": "893892",
    "final_x": "3702743.68881",
    "final_y": "558546.894364",
    "longitude": "-89.99999784247949",
    "latitude": "30.029147479529087",
    "geocoded_column": {
      "latitude": "30.029147479529087",
      "longitude": "-89.99999784247949"
    }
  },
  {
    "service_request": "2022-893891",
    "request_type": "Trash/Recycling",
    "request_reason": "Order Recycling Cart",
    "date_created": "2022-06-22T16:20:16.000",
    "date_modified": "2022-06-22T16:20:17.000",
    "case_close_date": "2020-07-07T19:00:00.000",
    "request_status": "Closed",
    "responsible_agency": "Department of Sanitation",
    "final_address": "1207 Josephine St",
    "address_councildis": "B",
    "status": "Pending",
    "contractor": "Richards Disposal",
    "contractor_action": "Completed",
    "rowid": "893891",
    "final_x": "3678920.16443",
    "final_y": "522681.56953",
    "longitude": "-90.07652262843074",
    "latitude": "29.931271014602547",
    "geocoded_column": {
      "latitude": "29.931271014602547",
      "longitude": "-90.07652262843074"
    }
  },
  {
    "service_request": "2022-893890",
    "request_type": "Traffic Signals/Signs/Striping/Streetlights",
    "request_reason": "Request for Traffic Calming due to Speeding",
    "date_created": "2022-06-22T16:16:23.000",
    "date_modified": "2022-06-22T16:16:23.000",
    "request_status": "Pending",
    "responsible_agency": "Department of Public Works",
    "final_address": "4060 Clermont Dr",
    "address_councildis": "D",
    "status": "Pending",
    "rowid": "893890",
    "final_x": "3684794.81474",
    "final_y": "547439.401809",
    "longitude": "-90.05710662414494",
    "latitude": "29.9991680088125",
    "geocoded_column": {
      "latitude": "29.9991680088125",
      "longitude": "-90.05710662414494"
    }
  },
  {
    "service_request": "2022-893889",
    "request_type": "Trash/Recycling",
    "request_reason": "Missed Trash Pick-Up",
    "date_created": "2022-06-22T16:15:18.000",
    "date_modified": "2022-06-22T16:15:19.000",
    "request_status": "Pending",
    "responsible_agency": "Department of Sanitation",
    "final_address": "8033 Wales St",
    "address_councildis": "E",
    "status": "Assigned to Contractor",
    "contractor": "Metro Disposal",
    "rowid": "893889",
    "final_x": "3702000.56445",
    "final_y": "562299.600095",
    "longitude": "-90.00220831851539",
    "latitude": "30.03948971417866",
    "geocoded_column": {
      "latitude": "30.03948971417866",
      "longitude": "-90.00220831851539"
    }
  },
  {
    "service_request": "2022-893888",
    "request_type": "Trash/Recycling",
    "request_reason": "Repair Trash Cart",
    "date_created": "2022-06-22T16:10:42.000",
    "date_modified": "2022-06-22T16:10:43.000",
    "request_status": "Pending",
    "responsible_agency": "Department of Sanitation",
    "final_address": "6944 Foch Rd",
    "address_councildis": "D",
    "status": "Assigned to Contractor",
    "contractor": "Metro Disposal",
    "rowid": "893888",
    "final_x": "3696475.82365",
    "final_y": "556607.435866",
    "longitude": "-90.01987426705585",
    "latitude": "30.024013762167378",
    "geocoded_column": {
      "latitude": "30.024013762167378",
      "longitude": "-90.01987426705585"
    }
  },
  {
    "service_request": "2022-893887",
    "request_type": "Abandoned Vehicles",
    "request_reason": "Abandoned/Junk Vehicles",
    "date_created": "2022-06-22T16:01:04.000",
    "date_modified": "2022-06-22T16:01:04.000",
    "request_status": "Pending",
    "responsible_agency": "Department of Public Works",
    "final_address": "400 Decatur St",
    "address_councildis": "C",
    "status": "Pending",
    "rowid": "893887",
    "final_x": "3682527.94018",
    "final_y": "531132.159554",
    "longitude": "-90.06483801740818",
    "latitude": "29.95439800257623",
    "geocoded_column": {
      "latitude": "29.95439800257623",
      "longitude": "-90.06483801740818"
    }
  },
  {
    "service_request": "2022-893885",
    "request_type": "Trash/Recycling",
    "request_reason": "MIssed Recycling Pick-Up",
    "date_created": "2022-06-22T15:56:24.000",
    "date_modified": "2022-06-22T15:56:25.000",
    "request_status": "Pending",
    "responsible_agency": "Department of Sanitation",
    "final_address": "200 BLK S Scott St",
    "address_councildis": "A",
    "status": "Assigned to Contractor",
    "contractor": "Richards Disposal",
    "rowid": "893885",
    "final_x": "3671406.07054",
    "final_y": "537339.153784",
    "longitude": "-90.09974557094412",
    "latitude": "29.971799028148045",
    "geocoded_column": {
      "latitude": "29.971799028148045",
      "longitude": "-90.09974557094412"
    }
  },
  {
    "service_request": "2022-893884",
    "request_type": "Traffic Signals/Signs/Striping/Streetlights",
    "request_reason": "Additional signage",
    "date_created": "2022-06-22T15:49:34.000",
    "date_modified": "2022-06-22T15:49:34.000",
    "request_status": "Pending",
    "responsible_agency": "Department of Public Works",
    "final_address": "2425 Louisiana Ave",
    "address_councildis": "B",
    "status": "Pending",
    "rowid": "893884",
    "final_x": "3673036.66036",
    "final_y": "524451.248124",
    "longitude": "-90.09503576703251",
    "latitude": "29.93631319080628",
    "geocoded_column": {
      "latitude": "29.93631319080628",
      "longitude": "-90.09503576703251"
    }
  },
  {
    "service_request": "2022-893883",
    "request_type": "Abandoned Vehicles",
    "request_reason": "Abandoned/Junk Vehicles",
    "date_created": "2022-06-22T15:48:59.000",
    "date_modified": "2022-06-22T15:48:59.000",
    "request_status": "Pending",
    "responsible_agency": "Department of Public Works",
    "final_address": "2227 Brainard St",
    "address_councildis": "B",
    "status": "Pending",
    "rowid": "893883",
    "final_x": "3676988.06734",
    "final_y": "524140.428924",
    "longitude": "-90.08257174735182",
    "latitude": "29.935340530845217",
    "geocoded_column": {
      "latitude": "29.935340530845217",
      "longitude": "-90.08257174735182"
    }
  },
  {
    "service_request": "2022-893882",
    "request_type": "Trash/Recycling",
    "request_reason": "Request a Large Item Pick Up",
    "date_created": "2022-06-22T15:48:07.000",
    "date_modified": "2022-06-22T15:48:08.000",
    "request_status": "Pending",
    "responsible_agency": "Department of Sanitation",
    "final_address": "6253 Milne Blvd, New Orleans, Louisiana, 70124",
    "address_councildis": "A",
    "status": "Assigned to Contractor",
    "contractor": "Metro Disposal",
    "rowid": "893882",
    "final_x": "3667279.71693",
    "final_y": "549147.407699",
    "longitude": "-90.11237991493215",
    "latitude": "30.004389211193224",
    "geocoded_column": {
      "latitude": "30.004389211193224",
      "longitude": "-90.11237991493215"
    }
  },
  {
    "service_request": "2022-893881",
    "request_type": "Trash/Recycling",
    "request_reason": "Missed Trash Pick-Up",
    "date_created": "2022-06-22T15:44:11.000",
    "date_modified": "2022-06-22T15:44:11.000",
    "request_status": "Pending",
    "responsible_agency": "Department of Sanitation",
    "final_address": "308 Lowerline St",
    "address_councildis": "A",
    "status": "Assigned to Contractor",
    "contractor": "Richards Disposal",
    "rowid": "893881",
    "final_x": "3661384.69939",
    "final_y": "523467.333179",
    "longitude": "-90.13185415851835",
    "latitude": "29.93394883484401",
    "geocoded_column": {
      "latitude": "29.93394883484401",
      "longitude": "-90.13185415851835"
    }
  },
  {
    "service_request": "2022-893880",
    "request_type": "Roads/Drainage",
    "request_reason": "Street Subsidence (Sinking)",
    "date_created": "2022-06-22T15:43:07.000",
    "date_modified": "2022-06-22T15:43:07.000",
    "request_status": "Pending",
    "responsible_agency": "Department of Public Works",
    "final_address": "1500 Sugar Bowl Dr",
    "address_councildis": "B",
    "status": "Pending",
    "rowid": "893880",
    "final_x": "3677419.94741",
    "final_y": "529887.900033",
    "longitude": "-90.08100999051224",
    "latitude": "29.951131203927932",
    "geocoded_column": {
      "latitude": "29.951131203927932",
      "longitude": "-90.08100999051224"
    }
  },
  {
    "service_request": "2022-893879",
    "request_type": "Trash/Recycling",
    "request_reason": "MIssed Recycling Pick-Up",
    "date_created": "2022-06-22T15:38:52.000",
    "date_modified": "2022-06-22T15:38:52.000",
    "request_status": "Pending",
    "responsible_agency": "Department of Sanitation",
    "final_address": "1813 Farragut St",
    "address_councildis": "C",
    "status": "Assigned to Contractor",
    "contractor": "Richards Disposal",
    "rowid": "893879",
    "final_x": "3692222.044",
    "final_y": "524498.608252",
    "longitude": "-90.03446542120035",
    "latitude": "29.93585937138665",
    "geocoded_column": {
      "latitude": "29.93585937138665",
      "longitude": "-90.03446542120035"
    }
  },
  {
    "service_request": "2022-893878",
    "request_type": "Trash/Recycling",
    "request_reason": "Request a Large Item Pick Up",
    "date_created": "2022-06-22T15:37:49.000",
    "date_modified": "2022-06-22T15:37:50.000",
    "request_status": "Pending",
    "responsible_agency": "Department of Sanitation",
    "final_address": "3134 Orleans Ave",
    "address_councildis": "A",
    "status": "Assigned to Contractor",
    "contractor": "Richards Disposal",
    "rowid": "893878",
    "final_x": "3675034.84264",
    "final_y": "538249.322441",
    "longitude": "-90.08825409469848",
    "latitude": "29.974193763253222",
    "geocoded_column": {
      "latitude": "29.974193763253222",
      "longitude": "-90.08825409469848"
    }
  },
  {
    "service_request": "2022-893877",
    "request_type": "Property Maintenance",
    "request_reason": "Property Maintenance",
    "date_created": "2022-06-22T15:35:45.000",
    "date_modified": "2022-06-22T15:35:45.000",
    "request_status": "Pending",
    "responsible_agency": "Department of Code Enforcement",
    "final_address": "1849 Farragut St",
    "address_councildis": "C",
    "status": "Pending",
    "rowid": "893877",
    "final_x": "3692215.24656",
    "final_y": "524274.27878",
    "longitude": "-90.03449490851048",
    "latitude": "29.935242753631616",
    "geocoded_column": {
      "latitude": "29.935242753631616",
      "longitude": "-90.03449490851048"
    }
  },
  {
    "service_request": "2022-893876",
    "request_type": "Property Maintenance",
    "request_reason": "Property Maintenance",
    "date_created": "2022-06-22T15:35:29.000",
    "date_modified": "2022-06-22T15:35:30.000",
    "request_status": "Pending",
    "responsible_agency": "Department of Code Enforcement",
    "final_address": "1809 Farragut St",
    "address_councildis": "C",
    "status": "Pending",
    "rowid": "893876",
    "final_x": "3692226.83689",
    "final_y": "524559.106364",
    "longitude": "-90.03444812498212",
    "latitude": "29.936025571184647",
    "geocoded_column": {
      "latitude": "29.936025571184647",
      "longitude": "-90.03444812498212"
    }
  },
  {
    "service_request": "2022-893875",
    "request_type": "Trash/Recycling",
    "request_reason": "Order Recycling Cart",
    "date_created": "2022-06-22T15:35:16.000",
    "date_modified": "2022-06-22T15:35:16.000",
    "request_status": "Pending",
    "responsible_agency": "Department of Sanitation",
    "final_address": "8634 Birch St",
    "address_councildis": "A",
    "status": "Pending",
    "rowid": "893875",
    "final_x": "3661350.85203",
    "final_y": "530770.969346",
    "longitude": "-90.13171921751687",
    "latitude": "29.954032485327083",
    "geocoded_column": {
      "latitude": "29.954032485327083",
      "longitude": "-90.13171921751687"
    }
  },
  {
    "service_request": "2022-893874",
    "request_type": "Trash/Recycling",
    "request_reason": "Request a Large Item Pick Up",
    "date_created": "2022-06-22T15:32:33.000",
    "date_modified": "2022-06-22T15:32:34.000",
    "request_status": "Pending",
    "responsible_agency": "Department of Sanitation",
    "final_address": "1142 Hendee St",
    "address_councildis": "C",
    "status": "Assigned to Contractor",
    "contractor": "Richards Disposal",
    "rowid": "893874",
    "final_x": "3690812.21622",
    "final_y": "527076.472958",
    "longitude": "-90.03882431519719",
    "latitude": "29.942991487910614",
    "geocoded_column": {
      "latitude": "29.942991487910614",
      "longitude": "-90.03882431519719"
    }
  },
  {
    "service_request": "2022-893873",
    "request_type": "Traffic Signals/Signs/Striping/Streetlights",
    "request_reason": "Street Light Outage/Malfunction",
    "date_created": "2022-06-22T15:31:17.000",
    "date_modified": "2022-06-22T15:31:18.000",
    "request_status": "Pending",
    "responsible_agency": "Department of Public Works",
    "final_address": "1616 Louisa St",
    "address_councildis": "D",
    "status": "Pending",
    "contractor": "Royal Engineering",
    "rowid": "893873",
    "final_x": "3690036.40732",
    "final_y": "537890.575305",
    "longitude": "-90.04088861413985",
    "latitude": "29.97275059128336",
    "geocoded_column": {
      "latitude": "29.97275059128336",
      "longitude": "-90.04088861413985"
    }
  },
  {
    "service_request": "2022-893872",
    "request_type": "Trash/Recycling",
    "request_reason": "Request a Large Item Pick Up",
    "date_created": "2022-06-22T15:30:11.000",
    "date_modified": "2022-06-22T15:30:12.000",
    "request_status": "Pending",
    "responsible_agency": "Department of Sanitation",
    "final_address": "3555 River Oaks Dr",
    "address_councildis": "C",
    "status": "Assigned to Contractor",
    "contractor": "Richards Disposal",
    "rowid": "893872",
    "final_x": "3701292.21905",
    "final_y": "517822.050422",
    "longitude": "-90.0060750563269",
    "latitude": "29.917215319398668",
    "geocoded_column": {
      "latitude": "29.917215319398668",
      "longitude": "-90.0060750563269"
    }
  },
  {
    "service_request": "2022-893871",
    "request_type": "Trash/Recycling",
    "request_reason": "Replace Trash Cart",
    "date_created": "2022-06-22T15:28:13.000",
    "date_modified": "2022-06-22T15:28:14.000",
    "request_status": "Pending",
    "responsible_agency": "Department of Sanitation",
    "final_address": "934 Philip St",
    "address_councildis": "B",
    "status": "Assigned to Contractor",
    "contractor": "Richards Disposal",
    "rowid": "893871",
    "final_x": "3678759.3355",
    "final_y": "521460.841529",
    "longitude": "-90.07707259559236",
    "latitude": "29.927919261534097",
    "geocoded_column": {
      "latitude": "29.927919261534097",
      "longitude": "-90.07707259559236"
    }
  },
  {
    "service_request": "2022-893870",
    "request_type": "Trash/Recycling",
    "request_reason": "Request a Large Item Pick Up",
    "date_created": "2022-06-22T15:25:43.000",
    "date_modified": "2022-06-22T15:25:44.000",
    "request_status": "Pending",
    "responsible_agency": "Department of Sanitation",
    "final_address": "1459 Mirabeau Ave",
    "address_councildis": "D",
    "status": "Assigned to Contractor",
    "contractor": "Metro Disposal",
    "rowid": "893870",
    "final_x": "3678056.33538",
    "final_y": "550372.25026",
    "longitude": "-90.07829215935908",
    "latitude": "30.007436946148065",
    "geocoded_column": {
      "latitude": "30.007436946148065",
      "longitude": "-90.07829215935908"
    }
  },
  {
    "service_request": "2022-893869",
    "request_type": "Traffic Signals/Signs/Striping/Streetlights",
    "request_reason": "Street Light Outage/Malfunction",
    "date_created": "2022-06-22T15:23:13.000",
    "date_modified": "2022-06-22T15:23:14.000",
    "request_status": "Pending",
    "responsible_agency": "Department of Public Works",
    "final_address": "1224 N Rendon St",
    "address_councildis": "A",
    "status": "Pending",
    "contractor": "Royal Engineering",
    "rowid": "893869",
    "final_x": "3676043.88859",
    "final_y": "539716.941962",
    "longitude": "-90.0850167946905",
    "latitude": "29.978199027210213",
    "geocoded_column": {
      "latitude": "29.978199027210213",
      "longitude": "-90.0850167946905"
    }
  },
  {
    "service_request": "2022-893868",
    "request_type": "Trash/Recycling",
    "request_reason": "Request a Large Item Pick Up",
    "date_created": "2022-06-22T15:21:45.000",
    "date_modified": "2022-06-22T15:21:45.000",
    "request_status": "Pending",
    "responsible_agency": "Department of Sanitation",
    "final_address": "8237 Apricot St",
    "address_councildis": "A",
    "status": "Assigned to Contractor",
    "contractor": "Richards Disposal",
    "rowid": "893868",
    "final_x": "3665372.41389",
    "final_y": "533087.166724",
    "longitude": "-90.11894319578644",
    "latitude": "29.960284697163896",
    "geocoded_column": {
      "latitude": "29.960284697163896",
      "longitude": "-90.11894319578644"
    }
  },
  {
    "service_request": "2022-893866",
    "request_type": "Roads/Drainage",
    "request_reason": "Pothole",
    "date_created": "2022-06-22T15:19:47.000",
    "date_modified": "2022-06-22T15:19:47.000",
    "request_status": "Pending",
    "responsible_agency": "Department of Public Works",
    "final_address": "2299 Mercedes Blvd, New Orleans, Louisiana, 70114",
    "address_councildis": "C",
    "status": "Pending",
    "rowid": "893866",
    "final_x": "3698000.79722",
    "final_y": "522427.280698",
    "longitude": "-90.01629705716772",
    "latitude": "29.929982552588324",
    "geocoded_column": {
      "latitude": "29.929982552588324",
      "longitude": "-90.01629705716772"
    }
  },
  {
    "service_request": "2022-893865",
    "request_type": "Trash/Recycling",
    "request_reason": "Request a Large Item Pick Up",
    "date_created": "2022-06-22T15:19:43.000",
    "date_modified": "2022-06-22T15:19:43.000",
    "request_status": "Pending",
    "responsible_agency": "Department of Sanitation",
    "final_address": "1608 S Norman C Francis Prkwy",
    "address_councildis": "B",
    "status": "Assigned to Contractor",
    "contractor": "Richards Disposal",
    "rowid": "893865",
    "final_x": "3669525.36366",
    "final_y": "531169.341826",
    "longitude": "-90.10589388221253",
    "latitude": "29.954889634395727",
    "geocoded_column": {
      "latitude": "29.954889634395727",
      "longitude": "-90.10589388221253"
    }
  },
  {
    "service_request": "2022-893864",
    "request_type": "Roads/Drainage",
    "request_reason": "Pothole",
    "date_created": "2022-06-22T15:18:31.000",
    "date_modified": "2022-06-22T15:18:31.000",
    "request_status": "Pending",
    "responsible_agency": "Department of Public Works",
    "final_address": "2600 Holiday Dr",
    "address_councildis": "C",
    "status": "Pending",
    "rowid": "893864",
    "final_x": "3698905.59364",
    "final_y": "521651.261113",
    "longitude": "-90.01346900168886",
    "latitude": "29.927820138764904",
    "geocoded_column": {
      "latitude": "29.927820138764904",
      "longitude": "-90.01346900168886"
    }
  },
  {
    "service_request": "2022-893863",
    "request_type": "Trash/Recycling",
    "request_reason": "Illegal Dumping",
    "date_created": "2022-06-22T15:17:24.000",
    "date_modified": "2022-06-22T15:17:24.000",
    "request_status": "Pending",
    "responsible_agency": "Department of Sanitation",
    "final_address": "3131 Hamilton St",
    "address_councildis": "A",
    "status": "Pending",
    "rowid": "893863",
    "final_x": "3664162.43559",
    "final_y": "535972.873735",
    "longitude": "-90.12266779187448",
    "latitude": "29.968254649367484",
    "geocoded_column": {
      "latitude": "29.968254649367484",
      "longitude": "-90.12266779187448"
    }
  },
  {
    "service_request": "2022-893862",
    "request_type": "Trash/Recycling",
    "request_reason": "Illegal Dumping",
    "date_created": "2022-06-22T15:16:43.000",
    "date_modified": "2022-06-22T15:16:43.000",
    "request_status": "Pending",
    "responsible_agency": "Department of Sanitation",
    "final_address": "3201 Hamilton St",
    "address_councildis": "A",
    "status": "Pending",
    "rowid": "893862",
    "final_x": "3664218.16135",
    "final_y": "536041.560391",
    "longitude": "-90.12248951449435",
    "latitude": "29.96844189593542",
    "geocoded_column": {
      "latitude": "29.96844189593542",
      "longitude": "-90.12248951449435"
    }
  },
  {
    "service_request": "2022-893861",
    "request_type": "Traffic Signals/Signs/Striping/Streetlights",
    "request_reason": "Street Light Outage/Malfunction",
    "date_created": "2022-06-22T15:15:46.000",
    "date_modified": "2022-06-22T15:15:47.000",
    "request_status": "Pending",
    "responsible_agency": "Department of Public Works",
    "final_address": "7540 Mackenzie St",
    "address_councildis": "E",
    "status": "Pending",
    "contractor": "Royal Engineering",
    "rowid": "893861",
    "final_x": "3711320.12875",
    "final_y": "565571.572066",
    "longitude": "-89.9726332060892",
    "latitude": "30.048185339040817",
    "geocoded_column": {
      "latitude": "30.048185339040817",
      "longitude": "-89.9726332060892"
    }
  },
  {
    "service_request": "2022-893860",
    "request_type": "Trash/Recycling",
    "request_reason": "Request a Large Item Pick Up",
    "date_created": "2022-06-22T15:12:34.000",
    "date_modified": "2022-06-22T15:12:57.000",
    "request_status": "Pending",
    "responsible_agency": "Department of Sanitation",
    "final_address": "6318 Royal St",
    "address_councildis": "E",
    "status": "Assigned to Contractor",
    "contractor": "Metro Disposal",
    "rowid": "893860",
    "final_x": "3699707.16112",
    "final_y": "531527.735363",
    "longitude": "-90.01057874450474",
    "latitude": "29.954951580393665",
    "geocoded_column": {
      "latitude": "29.954951580393665",
      "longitude": "-90.01057874450474"
    }
  },
  {
    "service_request": "2022-893859",
    "request_type": "Trash/Recycling",
    "request_reason": "Missed Trash Pick-Up",
    "date_created": "2022-06-22T15:10:31.000",
    "date_modified": "2022-06-22T15:10:32.000",
    "request_status": "Pending",
    "responsible_agency": "Department of Sanitation",
    "final_address": "7451 Benjamin St",
    "address_councildis": "A",
    "status": "Assigned to Contractor",
    "contractor": "Richards Disposal",
    "rowid": "893859",
    "final_x": "3661576.44422",
    "final_y": "524507.525052",
    "longitude": "-90.13121437357768",
    "latitude": "29.936803504768722",
    "geocoded_column": {
      "latitude": "29.936803504768722",
      "longitude": "-90.13121437357768"
    }
  },
  {
    "service_request": "2022-893858",
    "request_type": "Roads/Drainage",
    "request_reason": "Man hole cover issue",
    "date_created": "2022-06-22T15:08:54.000",
    "date_modified": "2022-06-22T15:08:54.000",
    "request_status": "Pending",
    "responsible_agency": "Department of Public Works",
    "final_address": "13811 PierreS Ct",
    "address_councildis": "E",
    "status": "Pending",
    "rowid": "893858",
    "final_x": "3725166.98508",
    "final_y": "570453.243943",
    "longitude": "-89.92868067919294",
    "latitude": "30.061148489391947",
    "geocoded_column": {
      "latitude": "30.061148489391947",
      "longitude": "-89.92868067919294"
    }
  },
  {
    "service_request": "2022-893856",
    "request_type": "Trash/Recycling",
    "request_reason": "Request a Large Item Pick Up",
    "date_created": "2022-06-22T15:05:43.000",
    "date_modified": "2022-06-22T15:05:44.000",
    "request_status": "Pending",
    "responsible_agency": "Department of Sanitation",
    "final_address": "840 Emerald St",
    "address_councildis": "D",
    "status": "Assigned to Contractor",
    "contractor": "Metro Disposal",
    "rowid": "893856",
    "final_x": "3670543.24142",
    "final_y": "554795.403288",
    "longitude": "-90.10187803895184",
    "latitude": "30.019823183499255",
    "geocoded_column": {
      "latitude": "30.019823183499255",
      "longitude": "-90.10187803895184"
    }
  },
  {
    "service_request": "2022-893855",
    "request_type": "Traffic Signals/Signs/Striping/Streetlights",
    "request_reason": "Street Light Outage/Malfunction",
    "date_created": "2022-06-22T15:04:46.000",
    "date_modified": "2022-06-22T15:04:46.000",
    "request_status": "Pending",
    "responsible_agency": "Department of Public Works",
    "final_address": "PERLITA ST & MITHRA ST",
    "address_councildis": "D",
    "status": "Pending",
    "contractor": "Royal Engineering",
    "rowid": "893855",
    "final_x": "3678516.2",
    "final_y": "552169.28",
    "longitude": "-90.07677705706583",
    "latitude": "30.01236427566136",
    "geocoded_column": {
      "latitude": "30.01236427566136",
      "longitude": "-90.07677705706583"
    }
  },
  {
    "service_request": "2022-893854",
    "request_type": "Traffic Signals/Signs/Striping/Streetlights",
    "request_reason": "Street Light Outage/Malfunction",
    "date_created": "2022-06-22T15:00:48.000",
    "date_modified": "2022-06-22T15:00:48.000",
    "request_status": "Pending",
    "responsible_agency": "Department of Public Works",
    "final_address": "1498 Mithra St",
    "address_councildis": "D",
    "status": "Pending",
    "contractor": "Royal Engineering",
    "rowid": "893854",
    "final_x": "3678471.83854",
    "final_y": "552078.154838",
    "longitude": "-90.07692037135291",
    "latitude": "30.01211505180562",
    "geocoded_column": {
      "latitude": "30.01211505180562",
      "longitude": "-90.07692037135291"
    }
  },
  {
    "service_request": "2022-893853",
    "request_type": "Safety & Permits",
    "request_reason": "Licenses & Permits",
    "date_created": "2022-06-22T14:59:36.000",
    "date_modified": "2022-06-22T14:59:36.000",
    "request_status": "Pending",
    "responsible_agency": "Safety and Permits",
    "final_address": "333 Poydras St",
    "address_councildis": "B",
    "status": "Pending",
    "rowid": "893853",
    "final_x": "3682119.68354",
    "final_y": "529146.713216",
    "longitude": "-90.0661964585987",
    "latitude": "29.94895111751747",
    "geocoded_column": {
      "latitude": "29.94895111751747",
      "longitude": "-90.0661964585987"
    }
  },
  {
    "service_request": "2022-893852",
    "request_type": "Trash/Recycling",
    "request_reason": "Repair Trash Cart",
    "date_created": "2022-06-22T14:59:27.000",
    "date_modified": "2022-06-22T14:59:27.000",
    "request_status": "Pending",
    "responsible_agency": "Department of Sanitation",
    "final_address": "6633 Catina St, New Orleans, Louisiana, 70124",
    "address_councildis": "A",
    "status": "Assigned to Contractor",
    "contractor": "Metro Disposal",
    "rowid": "893852",
    "final_x": "3667096.82113",
    "final_y": "552109.49167",
    "longitude": "-90.11285804603074",
    "latitude": "30.01253926656775",
    "geocoded_column": {
      "latitude": "30.01253926656775",
      "longitude": "-90.11285804603074"
    }
  },
  {
    "service_request": "2022-893851",
    "request_type": "Trash/Recycling",
    "request_reason": "Request a Large Item Pick Up",
    "date_created": "2022-06-22T14:42:36.000",
    "date_modified": "2022-06-22T14:42:37.000",
    "request_status": "Pending",
    "responsible_agency": "Department of Sanitation",
    "final_address": "8623 Marks St",
    "address_councildis": "A",
    "status": "Assigned to Contractor",
    "contractor": "Richards Disposal",
    "rowid": "893851",
    "final_x": "3667510.02119",
    "final_y": "537366.874376",
    "longitude": "-90.11204901179528",
    "latitude": "29.97199000716756",
    "geocoded_column": {
      "latitude": "29.97199000716756",
      "longitude": "-90.11204901179528"
    }
  },
  {
    "service_request": "2022-893850",
    "request_type": "Abandoned Vehicles",
    "request_reason": "Abandoned/Junk Vehicles",
    "date_created": "2022-06-22T14:41:01.000",
    "date_modified": "2022-06-22T14:41:01.000",
    "request_status": "Pending",
    "responsible_agency": "Department of Public Works",
    "final_address": "1541 Owens Blvd",
    "address_councildis": "D",
    "status": "Pending",
    "rowid": "893850",
    "final_x": "3679200.47106",
    "final_y": "549135.501971",
    "longitude": "-90.07472042737318",
    "latitude": "30.004001823026943",
    "geocoded_column": {
      "latitude": "30.004001823026943",
      "longitude": "-90.07472042737318"
    }
  },
  {
    "service_request": "2022-893849",
    "request_type": "Property Maintenance",
    "request_reason": "Property Maintenance",
    "date_created": "2022-06-22T14:32:25.000",
    "date_modified": "2022-06-22T14:32:25.000",
    "request_status": "Pending",
    "responsible_agency": "Department of Code Enforcement",
    "final_address": "5763 Dauphine St",
    "address_councildis": "E",
    "status": "Pending",
    "rowid": "893849",
    "final_x": "3698547.98116",
    "final_y": "532443.103875",
    "longitude": "-90.01420570049427",
    "latitude": "29.957505263550086",
    "geocoded_column": {
      "latitude": "29.957505263550086",
      "longitude": "-90.01420570049427"
    }
  },
  {
    "service_request": "2022-893848",
    "request_type": "Property Maintenance",
    "request_reason": "Property Maintenance",
    "date_created": "2022-06-22T14:31:15.000",
    "date_modified": "2022-06-22T14:33:14.000",
    "request_status": "Pending",
    "responsible_agency": "Department of Code Enforcement",
    "final_address": "4701 N Villere St",
    "address_councildis": "E",
    "status": "Pending",
    "rowid": "893848",
    "final_x": "3695039.10774",
    "final_y": "535795.836231",
    "longitude": "-90.02516476070039",
    "latitude": "29.966834699953225",
    "geocoded_column": {
      "latitude": "29.966834699953225",
      "longitude": "-90.02516476070039"
    }
  },
  {
    "service_request": "2022-893847",
    "request_type": "Abandoned Vehicles",
    "request_reason": "Abandoned/Junk Vehicles",
    "date_created": "2022-06-22T14:26:58.000",
    "date_modified": "2022-06-22T14:26:58.000",
    "request_status": "Pending",
    "responsible_agency": "Department of Public Works",
    "final_address": "816 Alabo St",
    "address_councildis": "E",
    "status": "Pending",
    "rowid": "893847",
    "final_x": "3698601.92503",
    "final_y": "532566.541124",
    "longitude": "-90.01403087493652",
    "latitude": "29.957842964523383",
    "geocoded_column": {
      "latitude": "29.957842964523383",
      "longitude": "-90.01403087493652"
    }
  },
  {
    "service_request": "2022-893846",
    "request_type": "Mosquito, Termite & Rodent Control",
    "request_reason": "Non-Rodent Complaint (Mice, Possums, Snakes)",
    "date_created": "2022-06-22T14:23:01.000",
    "date_modified": "2022-06-22T14:23:01.000",
    "request_status": "Pending",
    "responsible_agency": "Mosquito, Termite & Rodent Control Board",
    "final_address": "6338 Colbert St",
    "address_councildis": "A",
    "status": "Pending",
    "rowid": "893846",
    "final_x": "3667535.90861",
    "final_y": "549742.999572",
    "longitude": "-90.1115504915677",
    "latitude": "30.006019373139583",
    "geocoded_column": {
      "latitude": "30.006019373139583",
      "longitude": "-90.1115504915677"
    }
  },
  {
    "service_request": "2022-893845",
    "request_type": "Trash/Recycling",
    "request_reason": "MIssed Recycling Pick-Up",
    "date_created": "2022-06-22T14:22:27.000",
    "date_modified": "2022-06-22T14:22:28.000",
    "request_status": "Pending",
    "responsible_agency": "Department of Sanitation",
    "final_address": "3000 Burgundy St",
    "address_councildis": "C",
    "status": "Assigned to Contractor",
    "contractor": "Metro Disposal",
    "rowid": "893845",
    "final_x": "3688291.36003",
    "final_y": "535300.28071",
    "longitude": "-90.04649165561362",
    "latitude": "29.96568219467396",
    "geocoded_column": {
      "latitude": "29.96568219467396",
      "longitude": "-90.04649165561362"
    }
  },
  {
    "service_request": "2022-893844",
    "request_type": "Traffic Signals/Signs/Striping/Streetlights",
    "request_reason": "Traffic Sign Missing/Damaged",
    "date_created": "2022-06-22T14:20:49.000",
    "date_modified": "2022-06-22T14:20:49.000",
    "request_status": "Pending",
    "responsible_agency": "Department of Public Works",
    "final_address": "900 Homer Plessy Way",
    "address_councildis": "C",
    "status": "Pending",
    "rowid": "893844",
    "final_x": "3687883.10959",
    "final_y": "535613.77287",
    "longitude": "-90.04776978451652",
    "latitude": "29.966556789353817",
    "geocoded_column": {
      "latitude": "29.966556789353817",
      "longitude": "-90.04776978451652"
    }
  },
  {
    "service_request": "2022-893843",
    "request_type": "Traffic Signals/Signs/Striping/Streetlights",
    "request_reason": "Street Light Outage/Malfunction",
    "date_created": "2022-06-22T14:17:51.000",
    "date_modified": "2022-06-22T14:17:51.000",
    "request_status": "Pending",
    "responsible_agency": "Department of Public Works",
    "final_address": "2513 Delachaise St",
    "address_councildis": "B",
    "status": "Pending",
    "contractor": "Royal Engineering",
    "rowid": "893843",
    "final_x": "3672546.04238",
    "final_y": "524446.892348",
    "longitude": "-90.09658481573379",
    "latitude": "29.93631578363176",
    "geocoded_column": {
      "latitude": "29.93631578363176",
      "longitude": "-90.09658481573379"
    }
  },
  {
    "service_request": "2022-893842",
    "request_type": "Traffic Signals/Signs/Striping/Streetlights",
    "request_reason": "Traffic Sign Missing/Damaged",
    "date_created": "2022-06-22T14:17:39.000",
    "date_modified": "2022-06-22T14:17:39.000",
    "request_status": "Pending",
    "responsible_agency": "Department of Public Works",
    "final_address": "900 Montegut St",
    "address_councildis": "C",
    "status": "Pending",
    "rowid": "893842",
    "final_x": "3688216.32329",
    "final_y": "535393.626566",
    "longitude": "-90.04672530818497",
    "latitude": "29.965941180156094",
    "geocoded_column": {
      "latitude": "29.965941180156094",
      "longitude": "-90.04672530818497"
    }
  },
  {
    "service_request": "2022-893841",
    "request_type": "Trash/Recycling",
    "request_reason": "Request a Large Item Pick Up",
    "date_created": "2022-06-22T14:13:37.000",
    "date_modified": "2022-06-22T14:13:38.000",
    "case_close_date": "2022-01-17T18:00:00.000",
    "request_status": "Pending",
    "responsible_agency": "Department of Sanitation",
    "final_address": "8621 Morrison Rd",
    "address_councildis": "E",
    "status": "Assigned to Contractor",
    "contractor": "Metro Disposal",
    "rowid": "893841",
    "final_x": "3704717.32657",
    "final_y": "561505.388255",
    "longitude": "-89.99365194961052",
    "latitude": "30.03721888456231",
    "geocoded_column": {
      "latitude": "30.03721888456231",
      "longitude": "-89.99365194961052"
    }
  },
  {
    "service_request": "2022-893840",
    "request_type": "Property Maintenance",
    "request_reason": "Property Maintenance",
    "date_created": "2022-06-22T14:08:01.000",
    "date_modified": "2022-06-22T14:08:01.000",
    "request_status": "Pending",
    "responsible_agency": "Department of Code Enforcement",
    "final_address": "2421 Laurel St",
    "address_councildis": "B",
    "status": "Pending",
    "rowid": "893840",
    "final_x": "3678321.74498",
    "final_y": "520813.573817",
    "longitude": "-90.07847634426939",
    "latitude": "29.926152670815465",
    "geocoded_column": {
      "latitude": "29.926152670815465",
      "longitude": "-90.07847634426939"
    }
  },
  {
    "service_request": "2022-893839",
    "request_type": "Trash/Recycling",
    "request_reason": "Request a Large Item Pick Up",
    "date_created": "2022-06-22T13:59:53.000",
    "date_modified": "2022-06-22T13:59:54.000",
    "request_status": "Pending",
    "responsible_agency": "Department of Sanitation",
    "final_address": "2201 Jefferson Ave",
    "address_councildis": "B",
    "status": "Assigned to Contractor",
    "contractor": "Richards Disposal",
    "rowid": "893839",
    "final_x": "3667903.52353",
    "final_y": "523673.711931",
    "longitude": "-90.11126748448591",
    "latitude": "29.934326750570808",
    "geocoded_column": {
      "latitude": "29.934326750570808",
      "longitude": "-90.11126748448591"
    }
  },
  {
    "service_request": "2022-893838",
    "request_type": "Trash/Recycling",
    "request_reason": "Missed Trash Pick-Up",
    "date_created": "2022-06-22T13:59:19.000",
    "date_modified": "2022-06-22T14:02:27.000",
    "request_status": "Pending",
    "responsible_agency": "Department of Sanitation",
    "final_address": "New Orleans,LA",
    "address_councildis": "E",
    "status": "Assigned to Contractor",
    "contractor": "Metro Disposal",
    "rowid": "893838",
    "final_x": "3718812.7614",
    "final_y": "568277.524901",
    "longitude": "-89.94884913857292",
    "latitude": "30.055378814566446",
    "geocoded_column": {
      "latitude": "30.055378814566446",
      "longitude": "-89.94884913857292"
    }
  },
  {
    "service_request": "2022-893837",
    "request_type": "Mosquito, Termite & Rodent Control",
    "request_reason": "Mosquito Complaint",
    "date_created": "2022-06-22T13:52:21.000",
    "date_modified": "2022-06-22T13:52:21.000",
    "request_status": "Pending",
    "responsible_agency": "Mosquito, Termite & Rodent Control Board",
    "final_address": "2008 Alvar St",
    "address_councildis": "D",
    "status": "Pending",
    "rowid": "893837",
    "final_x": "3692303.34441",
    "final_y": "538857.964297",
    "longitude": "-90.03369458144329",
    "latitude": "29.975340064320473",
    "geocoded_column": {
      "latitude": "29.975340064320473",
      "longitude": "-90.03369458144329"
    }
  },
  {
    "service_request": "2022-893836",
    "request_type": "Abandoned Vehicles",
    "request_reason": "Abandoned/Junk Vehicles",
    "date_created": "2022-06-22T13:49:37.000",
    "date_modified": "2022-06-22T13:49:37.000",
    "request_status": "Pending",
    "responsible_agency": "Department of Public Works",
    "final_address": "1309 Dufossat St",
    "address_councildis": "B",
    "status": "Pending",
    "rowid": "893836",
    "final_x": "3668121.94113",
    "final_y": "520014.512312",
    "longitude": "-90.11070120619415",
    "latitude": "29.924258709343157",
    "geocoded_column": {
      "latitude": "29.924258709343157",
      "longitude": "-90.11070120619415"
    }
  },
  {
    "service_request": "2022-893835",
    "request_type": "Trash/Recycling",
    "request_reason": "Missed Trash Pick-Up",
    "date_created": "2022-06-22T13:45:20.000",
    "date_modified": "2022-06-22T13:45:20.000",
    "request_status": "Pending",
    "responsible_agency": "Department of Sanitation",
    "final_address": "943 Chapelle St",
    "address_councildis": "A",
    "status": "Assigned to Contractor",
    "contractor": "Metro Disposal",
    "rowid": "893835",
    "final_x": "3670761.54887",
    "final_y": "552559.091286",
    "longitude": "-90.10126423398849",
    "latitude": "30.013667666979924",
    "geocoded_column": {
      "latitude": "30.013667666979924",
      "longitude": "-90.10126423398849"
    }
  },
  {
    "service_request": "2022-893834",
    "request_type": "Trash/Recycling",
    "request_reason": "Replace Trash Cart",
    "date_created": "2022-06-22T13:43:00.000",
    "date_modified": "2022-06-22T13:43:01.000",
    "request_status": "Pending",
    "responsible_agency": "Department of Sanitation",
    "final_address": "3007 Constance St",
    "address_councildis": "B",
    "status": "Assigned to Contractor",
    "contractor": "Richards Disposal",
    "rowid": "893834",
    "final_x": "3676465.80174",
    "final_y": "520049.75884",
    "longitude": "-90.08436130851679",
    "latitude": "29.92410818404873",
    "geocoded_column": {
      "latitude": "29.92410818404873",
      "longitude": "-90.08436130851679"
    }
  },
  {
    "service_request": "2022-893833",
    "request_type": "Traffic Signals/Signs/Striping/Streetlights",
    "request_reason": "Street Light Outage/Malfunction",
    "date_created": "2022-06-22T13:42:48.000",
    "date_modified": "2022-06-22T13:42:48.000",
    "request_status": "Pending",
    "responsible_agency": "Department of Public Works",
    "final_address": "7320 Thames St",
    "address_councildis": "E",
    "status": "Pending",
    "contractor": "Royal Engineering",
    "rowid": "893833",
    "final_x": "3697632.7841",
    "final_y": "558715.440988",
    "longitude": "-90.01614194385718",
    "latitude": "30.029773453713894",
    "geocoded_column": {
      "latitude": "30.029773453713894",
      "longitude": "-90.01614194385718"
    }
  },
  {
    "service_request": "2022-893832",
    "request_type": "Trash/Recycling",
    "request_reason": "MIssed Recycling Pick-Up",
    "date_created": "2022-06-22T13:41:03.000",
    "date_modified": "2022-06-22T13:41:04.000",
    "request_status": "Pending",
    "responsible_agency": "Department of Sanitation",
    "final_address": "2119 Brainard St",
    "address_councildis": "B",
    "status": "Assigned to Contractor",
    "contractor": "Richards Disposal",
    "rowid": "893832",
    "final_x": "3677330.62037",
    "final_y": "524406.539772",
    "longitude": "-90.08148112764877",
    "latitude": "29.936061962340204",
    "geocoded_column": {
      "latitude": "29.936061962340204",
      "longitude": "-90.08148112764877"
    }
  },
  {
    "service_request": "2022-893831",
    "request_type": "Trash/Recycling",
    "request_reason": "Request a Large Item Pick Up",
    "date_created": "2022-06-22T13:40:34.000",
    "date_modified": "2022-06-22T13:40:35.000",
    "request_status": "Pending",
    "responsible_agency": "Department of Sanitation",
    "final_address": "4107 Clara St, New Orleans, Louisiana, 70115",
    "address_councildis": "B",
    "status": "Assigned to Contractor",
    "contractor": "Richards Disposal",
    "rowid": "893831",
    "final_x": "3671565.1131",
    "final_y": "525234.260861",
    "longitude": "-90.099654886031",
    "latitude": "29.938509867671172",
    "geocoded_column": {
      "latitude": "29.938509867671172",
      "longitude": "-90.099654886031"
    }
  },
  {
    "service_request": "2022-893830",
    "request_type": "Trash/Recycling",
    "request_reason": "Order Recycling Cart",
    "date_created": "2022-06-22T13:36:10.000",
    "date_modified": "2022-06-22T13:36:10.000",
    "request_status": "Pending",
    "responsible_agency": "Department of Sanitation",
    "final_address": "815 Patterson St",
    "address_councildis": "C",
    "status": "Pending",
    "rowid": "893830",
    "final_x": "3688114.80079",
    "final_y": "531386.581955",
    "longitude": "-90.04718794814806",
    "latitude": "29.95492633026841",
    "geocoded_column": {
      "latitude": "29.95492633026841",
      "longitude": "-90.04718794814806"
    }
  },
  {
    "service_request": "2022-893828",
    "request_type": "Trash/Recycling",
    "request_reason": "Request a Large Item Pick Up",
    "date_created": "2022-06-22T13:31:44.000",
    "date_modified": "2022-06-22T13:31:45.000",
    "request_status": "Pending",
    "responsible_agency": "Department of Sanitation",
    "final_address": "904 Fourth St",
    "address_councildis": "B",
    "status": "Assigned to Contractor",
    "contractor": "Richards Disposal",
    "rowid": "893828",
    "final_x": "3677649.52187",
    "final_y": "520412.587832",
    "longitude": "-90.08061219851758",
    "latitude": "29.92507031500947",
    "geocoded_column": {
      "latitude": "29.92507031500947",
      "longitude": "-90.08061219851758"
    }
  },
  {
    "service_request": "2022-893827",
    "request_type": "Trash/Recycling",
    "request_reason": "Request a Large Item Pick Up",
    "date_created": "2022-06-22T13:26:58.000",
    "date_modified": "2022-06-22T13:26:59.000",
    "request_status": "Pending",
    "responsible_agency": "Department of Sanitation",
    "final_address": "4439 General Pershing St",
    "address_councildis": "B",
    "status": "Assigned to Contractor",
    "contractor": "Richards Disposal",
    "rowid": "893827",
    "final_x": "3669207.55674",
    "final_y": "530000.048961",
    "longitude": "-90.10693691651748",
    "latitude": "29.951683819782264",
    "geocoded_column": {
      "latitude": "29.951683819782264",
      "longitude": "-90.10693691651748"
    }
  },