[
  {
    "service_request": "2025-1186793",
    "request_type": "Trash/Recycling",
    "request_reason": "Request a Large Item Pick Up",
    "date_created": "2025-04-24T23:59:50.000",
    "date_modified": "2025-04-24T23:59:52.000",
    "request_status": "Pending",
    "responsible_agency": "Department of Sanitation",
    "final_address": "208 N Lopez St",
    "address_councildis": "B",
    "status": "Assigned to Contractor",
    "contractor": "IV Waste",
    "rowid": "1186793",
    "final_x": "3674191.01742",
    "final_y": "536599.323015",
    "longitude": "-90.09097559451003",
    "latitude": "29.96968200972407",
    "geocoded_column": {
      "latitude": "29.96968200972407",
      "longitude": "-90.09097559451003"
    }
  },
  {
    "service_request": "2025-1186792",
    "request_type": "Trash/Recycling",
    "request_reason": "Request a Large Item Pick Up",
    "date_created": "2025-04-24T23:24:18.000",
    "date_modified": "2025-04-24T23:24:20.000",
    "request_status": "Pending",
    "responsible_agency": "Department of Sanitation",
    "final_address": "2002 Rev. John Raphael, Jr. Way",
    "address_councildis": "B",
    "status": "Assigned to Contractor",
    "contractor": "IV Waste",
    "rowid": "1186792",
    "final_x": "3676337.11777",
    "final_y": "526413.273726",
    "longitude": "-90.08454859813787",
    "latitude": "29.941609629536725",
    "geocoded_column": {
      "latitude": "29.941609629536725",
      "longitude": "-90.08454859813787"
    }
  },
  {
    "service_request": "2025-1186791",
    "request_type": "Property Maintenance",
    "request_reason": "Property Maintenance",
    "date_created": "2025-04-24T23:19:05.000",
    "date_modified": "2025-04-24T23:19:07.000",
    "request_status": "Pending",
    "responsible_agency": "Department of Code Enforcement",
    "final_address": "4830 Flake Ave",
    "address_councildis": "E",
    "status": "Pending",
    "rowid": "1186791",
    "final_x": "3705994.08331",
    "final_y": "556019.300377",
    "longitude": "-89.98982042258724",
    "latitude": "30.022093181158056",
    "geocoded_column": {
      "latitude": "30.022093181158056",
      "longitude": "-89.98982042258724"
    }
  },
  {
    "service_request": "2025-1186790",
    "request_type": "Streetlights",
    "request_reason": "Streetlight Outage/Malfunction",
    "date_created": "2025-04-24T22:57:03.000",
    "date_modified": "2025-04-24T22:57:05.000",
    "request_status": "Pending",
    "responsible_agency": "Department of Public Works",
    "final_address": "13315 Dwyer Blvd",
    "address_councildis": "E",
    "status": "Pending",
    "contractor": "Legacy Professional Services",
    "rowid": "1186790",
    "final_x": "3725033.30099",
    "final_y": "561771.782111",
    "longitude": "-89.92943946658197",
    "latitude": "30.037282596575974",
    "geocoded_column": {
      "latitude": "30.037282596575974",
      "longitude": "-89.92943946658197"
    }
  },
  {
    "service_request": "2025-1186789",
    "request_type": "Trash/Recycling",
    "request_reason": "Replace Trash Cart",
    "date_created": "2025-04-24T22:56:52.000",
    "date_modified": "2025-04-24T22:56:55.000",
    "request_status": "Pending",
    "responsible_agency": "Department of Sanitation",
    "final_address": "2123 Jourdan Ave",
    "address_councildis": "E",
    "status": "Assigned to Contractor",
    "contractor": "Waste Pro",
    "rowid": "1186789",
    "final_x": "3696187.49142",
    "final_y": "538419.213961",
    "longitude": "-90.02144333384123",
    "latitude": "29.974011951176685",
    "geocoded_column": {
      "latitude": "29.974011951176685",
      "longitude": "-90.02144333384123"
    }
  },
  {
    "service_request": "2025-1186788",
    "request_type": "Streetlights",
    "request_reason": "Streetlight Outage/Malfunction",
    "date_created": "2025-04-24T22:56:45.000",
    "date_modified": "2025-04-24T22:56:48.000",
    "request_status": "Pending",
    "responsible_agency": "Department of Public Works",
    "final_address": "0 BLK English Turn Pkwy",
    "address_councildis": "C",
    "status": "Pending",
    "contractor": "Legacy Professional Services",
    "rowid": "1186788",
    "final_x": "3714551.83726",
    "final_y": "516290.452115",
    "longitude": "-89.96428023809985",
    "latitude": "29.912574985038365",
    "geocoded_column": {
      "latitude": "29.912574985038365",
      "longitude": "-89.96428023809985"
    }
  },
  {
    "service_request": "2025-1186787",
    "request_type": "Streetlights",
    "request_reason": "Streetlight Outage/Malfunction",
    "date_created": "2025-04-24T22:25:09.000",
    "date_modified": "2025-04-24T22:25:11.000",
    "request_status": "Pending",
    "responsible_agency": "Department of Public Works",
    "final_address": "7240 E Tamaron Blvd",
    "address_councildis": "E",
    "status": "Pending",
    "contractor": "Legacy Professional Services",
    "rowid": "1186787",
    "final_x": "3717916.79289",
    "final_y": "569695.779494",
    "longitude": "-89.95162702840578",
    "latitude": "30.059308163000818",
    "geocoded_column": {
      "latitude": "30.059308163000818",
      "longitude": "-89.95162702840578"
    }
  },
  {
    "service_request": "2025-1186786",
    "request_type": "Trash/Recycling",
    "request_reason": "Missed Trash Pick-Up",
    "date_created": "2025-04-24T22:16:34.000",
    "date_modified": "2025-04-24T22:16:36.000",
    "request_status": "Pending",
    "responsible_agency": "Department of Sanitation",
    "final_address": "6260 Kuebel dr",
    "address_councildis": "E",
    "status": "Assigned to Contractor",
    "contractor": "Waste Pro",
    "rowid": "1186786",
    "final_x": "3695973.75318",
    "final_y": "559963.297373",
    "longitude": "-90.02133929091868",
    "latitude": "30.03325691531223",
    "geocoded_column": {
      "latitude": "30.03325691531223",
      "longitude": "-90.02133929091868"
    }
  },
  {
    "service_request": "2025-1186785",
    "request_type": "Healthy Homes",
    "request_reason": "Healthy Homes",
    "date_created": "2025-04-24T21:49:17.000",
    "date_modified": "2025-04-24T21:49:20.000",
    "request_status": "Pending",
    "responsible_agency": "Department of Code Enforcement",
    "final_address": "1124 Barracks St",
    "address_councildis": "C",
    "status": "Pending",
    "rowid": "1186785",
    "final_x": "3682497.45672",
    "final_y": "535225.95143",
    "longitude": "-90.06479116395045",
    "latitude": "29.965655459402473",
    "geocoded_column": {
      "latitude": "29.965655459402473",
      "longitude": "-90.06479116395045"
    }
  },
  {
    "service_request": "2025-1186784",
    "request_type": "Abandoned Vehicles",
    "request_reason": "Abandoned/Junk Vehicles",
    "date_created": "2025-04-24T21:33:20.000",
    "date_modified": "2025-04-24T21:33:23.000",
    "request_status": "Pending",
    "responsible_agency": "Department of Public Works",
    "final_address": "3015 Short St",
    "address_councildis": "B",
    "status": "Pending",
    "rowid": "1186784",
    "final_x": "3666777.04692",
    "final_y": "532878.913348",
    "longitude": "-90.11451463625751",
    "latitude": "29.95967106078768",
    "geocoded_column": {
      "latitude": "29.95967106078768",
      "longitude": "-90.11451463625751"
    }
  },
  {
    "service_request": "2025-1186783",
    "request_type": "Trash/Recycling",
    "request_reason": "Illegal Dumping",
    "date_created": "2025-04-24T21:20:06.000",
    "date_modified": "2025-04-24T21:20:08.000",
    "request_status": "Pending",
    "responsible_agency": "Department of Sanitation",
    "final_address": "2217 Governor Nicholls St",
    "address_councildis": "D",
    "status": "Pending",
    "rowid": "1186783",
    "final_x": "3679353.9316",
    "final_y": "537294.50452",
    "longitude": "-90.07464653698692",
    "latitude": "29.971438589913323",
    "geocoded_column": {
      "latitude": "29.971438589913323",
      "longitude": "-90.07464653698692"
    }
  },
  {
    "service_request": "2025-1186782",
    "request_type": "Healthy Homes",
    "request_reason": "Healthy Homes",
    "date_created": "2025-04-24T21:07:34.000",
    "date_modified": "2025-04-24T21:07:36.000",
    "request_status": "Pending",
    "responsible_agency": "Department of Code Enforcement",
    "final_address": "2840 St Charles Ave",
    "address_councildis": "B",
    "status": "Pending",
    "rowid": "1186782",
    "final_x": "3675650.47745",
    "final_y": "522257.192122",
    "longitude": "-90.08685920165215",
    "latitude": "29.930202322409194",
    "geocoded_column": {
      "latitude": "29.930202322409194",
      "longitude": "-90.08685920165215"
    }
  },
  {
    "service_request": "2025-1186781",
    "request_type": "Abandoned Vehicles",
    "request_reason": "Abandoned/Junk Vehicles",
    "date_created": "2025-04-24T21:01:37.000",
    "date_modified": "2025-04-24T21:01:39.000",
    "request_status": "Pending",
    "responsible_agency": "Department of Public Works",
    "final_address": "4734 Eunice Dr",
    "address_councildis": "E",
    "status": "Pending",
    "rowid": "1186781",
    "final_x": "3710477.21829",
    "final_y": "555707.737049",
    "longitude": "-89.9756666473274",
    "latitude": "30.02109120688506",
    "geocoded_column": {
      "latitude": "30.02109120688506",
      "longitude": "-89.9756666473274"
    }
  },
  {
    "service_request": "2025-1186780",
    "request_type": "Streetlights",
    "request_reason": "Streetlight Outage/Malfunction",
    "date_created": "2025-04-24T21:00:47.000",
    "date_modified": "2025-04-24T21:00:48.000",
    "request_status": "Pending",
    "responsible_agency": "Department of Public Works",
    "final_address": "1011 Joliet St",
    "address_councildis": "A",
    "status": "Pending",
    "contractor": "Legacy Professional Services",
    "rowid": "1186780",
    "final_x": "3660530.2201",
    "final_y": "528861.301632",
    "longitude": "-90.1343735490156",
    "latitude": "29.94880514853095",
    "geocoded_column": {
      "latitude": "29.94880514853095",
      "longitude": "-90.1343735490156"
    }
  },
  {
    "service_request": "2025-1186779",
    "request_type": "Abandoned Vehicles",
    "request_reason": "Abandoned/Junk Vehicles",
    "date_created": "2025-04-24T21:00:32.000",
    "date_modified": "2025-04-24T21:00:34.000",
    "request_status": "Pending",
    "responsible_agency": "Department of Public Works",
    "final_address": "4121 LaSalle St",
    "address_councildis": "B",
    "status": "Pending",
    "rowid": "1186779",
    "final_x": "3671469.60891",
    "final_y": "523830.147387",
    "longitude": "-90.10000411728083",
    "latitude": "29.93465183714166",
    "geocoded_column": {
      "latitude": "29.93465183714166",
      "longitude": "-90.10000411728083"
    }
  },
  {
    "service_request": "2025-1186778",
    "request_type": "Streetlights",
    "request_reason": "Streetlight Outage/Malfunction",
    "date_created": "2025-04-24T20:57:17.000",
    "date_modified": "2025-04-24T20:57:19.000",
    "request_status": "Pending",
    "responsible_agency": "Department of Public Works",
    "final_address": "2800 St Charles Ave",
    "address_councildis": "B",
    "status": "Pending",
    "contractor": "Legacy Professional Services",
    "rowid": "1186778",
    "final_x": "3675920.10606",
    "final_y": "522442.467258",
    "longitude": "-90.08600165959062",
    "latitude": "29.930703701011186",
    "geocoded_column": {
      "latitude": "29.930703701011186",
      "longitude": "-90.08600165959062"
    }
  },
  {
    "service_request": "2025-1186777",
    "request_type": "Healthy Homes",
    "request_reason": "Healthy Homes",
    "date_created": "2025-04-24T20:50:58.000",
    "date_modified": "2025-04-24T20:51:00.000",
    "request_status": "Pending",
    "responsible_agency": "Department of Code Enforcement",
    "final_address": "2800 BLK Saint Charles Ave",
    "address_councildis": "B",
    "status": "Pending",
    "rowid": "1186777",
    "final_x": "3675584.7295",
    "final_y": "522342.31173",
    "longitude": "-90.08706383501838",
    "latitude": "29.930438340150385",
    "geocoded_column": {
      "latitude": "29.930438340150385",
      "longitude": "-90.08706383501838"
    }
  },
  {
    "service_request": "2025-1186776",
    "request_type": "Streetlights",
    "request_reason": "Streetlight Outage/Malfunction",
    "date_created": "2025-04-24T20:43:35.000",
    "date_modified": "2025-04-24T20:43:37.000",
    "request_status": "Pending",
    "responsible_agency": "Department of Public Works",
    "final_address": "1024 Kentucky St",
    "address_councildis": "C",
    "status": "Pending",
    "contractor": "Legacy Professional Services",
    "rowid": "1186776",
    "final_x": "3693148.97609",
    "final_y": "534706.357702",
    "longitude": "-90.0311728678535",
    "latitude": "29.96389821783591",
    "geocoded_column": {
      "latitude": "29.96389821783591",
      "longitude": "-90.0311728678535"
    }
  },
  {
    "service_request": "2025-1186775",
    "request_type": "Trash/Recycling",
    "request_reason": "Damaged Caused By Contractor",
    "date_created": "2025-04-24T20:22:20.000",
    "date_modified": "2025-04-24T20:22:22.000",
    "request_status": "Pending",
    "responsible_agency": "Department of Sanitation",
    "final_address": "2526 Robert St",
    "address_councildis": "B",
    "status": "Assigned to Contractor",
    "contractor": "IV Waste",
    "rowid": "1186775",
    "final_x": "3668787.31431",
    "final_y": "524841.448124",
    "longitude": "-90.108437966078",
    "latitude": "29.937511702379727",
    "geocoded_column": {
      "latitude": "29.937511702379727",
      "longitude": "-90.108437966078"
    }
  },
  {
    "service_request": "2025-1186774",
    "request_type": "Trash/Recycling",
    "request_reason": "Request a Large Item Pick Up",
    "date_created": "2025-04-24T20:21:08.000",
    "date_modified": "2025-04-24T20:21:10.000",
    "request_status": "Pending",
    "responsible_agency": "Department of Sanitation",
    "final_address": "7660 Arbor Dr",
    "address_councildis": "E",
    "status": "Assigned to Contractor",
    "contractor": "Waste Pro",
    "rowid": "1186774",
    "final_x": "3702355.9546",
    "final_y": "558332.316764",
    "longitude": "-90.00123094569753",
    "latitude": "30.028569874305187",
    "geocoded_column": {
      "latitude": "30.028569874305187",
      "longitude": "-90.00123094569753"
    }
  },
  {
    "service_request": "2025-1186773",
    "request_type": "Trash/Recycling",
    "request_reason": "Replace Trash Cart",
    "date_created": "2025-04-24T20:11:07.000",
    "date_modified": "2025-04-24T20:11:11.000",
    "request_status": "Pending",
    "responsible_agency": "Department of Sanitation",
    "final_address": "716 Robert St",
    "address_councildis": "B",
    "status": "Assigned to Contractor",
    "contractor": "IV Waste",
    "rowid": "1186773",
    "final_x": "3668581.76532",
    "final_y": "518001.45951",
    "longitude": "-90.10931757722733",
    "latitude": "29.918709951028184",
    "geocoded_column": {
      "latitude": "29.918709951028184",
      "longitude": "-90.10931757722733"
    }
  },
  {
    "service_request": "2025-1186772",
    "request_type": "Trash/Recycling",
    "request_reason": "Request a Large Item Pick Up",
    "date_created": "2025-04-24T19:46:42.000",
    "date_modified": "2025-04-24T19:46:44.000",
    "request_status": "Pending",
    "responsible_agency": "Department of Sanitation",
    "final_address": "3933 St Claude Ave",
    "address_councildis": "C",
    "status": "Assigned to Contractor",
    "contractor": "IV Waste",
    "rowid": "1186772",
    "final_x": "3691786.18697",
    "final_y": "535419.808454",
    "longitude": "-90.03545089125427",
    "latitude": "29.96590247038027",
    "geocoded_column": {
      "latitude": "29.96590247038027",
      "longitude": "-90.03545089125427"
    }
  },
  {
    "service_request": "2025-1186771",
    "request_type": "Trash/Recycling",
    "request_reason": "Request a Large Item Pick Up",
    "date_created": "2025-04-24T19:24:53.000",
    "date_modified": "2025-04-24T19:24:55.000",
    "request_status": "Pending",
    "responsible_agency": "Department of Sanitation",
    "final_address": "2723 N Robertson St",
    "address_councildis": "C",
    "status": "Assigned to Contractor",
    "contractor": "IV Waste",
    "rowid": "1186771",
    "final_x": "3687998.68713",
    "final_y": "537868.128521",
    "longitude": "-90.04732489175159",
    "latitude": "29.97275191218548",
    "geocoded_column": {
      "latitude": "29.97275191218548",
      "longitude": "-90.04732489175159"
    }
  },
  {
    "service_request": "2025-1186770",
    "request_type": "Trash/Recycling",
    "request_reason": "Order Trash Cart",
    "date_created": "2025-04-24T18:56:42.000",
    "date_modified": "2025-04-24T18:56:44.000",
    "request_status": "Pending",
    "responsible_agency": "Department of Sanitation",
    "final_address": "1129 Belleville St",
    "address_councildis": "C",
    "status": "Assigned to Contractor",
    "contractor": "Richards Disposal",
    "rowid": "1186770",
    "final_x": "3687696.24559",
    "final_y": "527313.103487",
    "longitude": "-90.04865379394391",
    "latitude": "29.943738568910337",
    "geocoded_column": {
      "latitude": "29.943738568910337",
      "longitude": "-90.04865379394391"
    }
  },
  {
    "service_request": "2025-1186769",
    "request_type": "Trash/Recycling",
    "request_reason": "Request a Large Item Pick Up",
    "date_created": "2025-04-24T18:55:19.000",
    "date_modified": "2025-04-24T18:55:21.000",
    "request_status": "Pending",
    "responsible_agency": "Department of Sanitation",
    "final_address": "1614 Opelousas Ave",
    "address_councildis": "C",
    "status": "Assigned to Contractor",
    "contractor": "Richards Disposal",
    "rowid": "1186769",
    "final_x": "3690405.86364",
    "final_y": "529085.611392",
    "longitude": "-90.04003566863395",
    "latitude": "29.94852854639118",
    "geocoded_column": {
      "latitude": "29.94852854639118",
      "longitude": "-90.04003566863395"
    }
  },
  {
    "service_request": "2025-1186768",
    "request_type": "Trash/Recycling",
    "request_reason": "Request a Large Item Pick Up",
    "date_created": "2025-04-24T18:39:06.000",
    "date_modified": "2025-04-24T18:39:08.000",
    "request_status": "Pending",
    "responsible_agency": "Department of Sanitation",
    "final_address": "1208 Second St",
    "address_councildis": "B",
    "status": "Assigned to Contractor",
    "contractor": "IV Waste",
    "rowid": "1186768",
    "final_x": "3677488.66798",
    "final_y": "521701.902393",
    "longitude": "-90.08107548324962",
    "latitude": "29.92862034542208",
    "geocoded_column": {
      "latitude": "29.92862034542208",
      "longitude": "-90.08107548324962"
    }
  },
  {
    "service_request": "2025-1186767",
    "request_type": "Trash/Recycling",
    "request_reason": "Request a Large Item Pick Up",
    "date_created": "2025-04-24T18:39:00.000",
    "date_modified": "2025-04-24T18:39:04.000",
    "request_status": "Pending",
    "responsible_agency": "Department of Sanitation",
    "final_address": "1833 Pauger St",
    "address_councildis": "C",
    "status": "Assigned to Contractor",
    "contractor": "IV Waste",
    "rowid": "1186767",
    "final_x": "3683883.32073",
    "final_y": "536485.857991",
    "longitude": "-90.06037046369843",
    "latitude": "29.96907750701022",
    "geocoded_column": {
      "latitude": "29.96907750701022",
      "longitude": "-90.06037046369843"
    }
  },
  {
    "service_request": "2025-1186766",
    "request_type": "Parks & Parkways",
    "request_reason": "Request Tree Service (Right of Way/Public Property)",
    "date_created": "2025-04-24T18:26:25.000",
    "date_modified": "2025-04-24T18:26:26.000",
    "request_status": "Pending",
    "responsible_agency": "Department of Parks & Parkway",
    "final_address": "8217 Spruce St",
    "address_councildis": "A",
    "status": "Pending",
    "rowid": "1186766",
    "final_x": "3663506.96775",
    "final_y": "530821.432258",
    "longitude": "-90.1249093681595",
    "latitude": "29.954108894103822",
    "geocoded_column": {
      "latitude": "29.954108894103822",
      "longitude": "-90.1249093681595"
    }
  },
  {
    "service_request": "2025-1186765",
    "request_type": "Trash/Recycling",
    "request_reason": "Replace Trash Cart",
    "date_created": "2025-04-24T18:23:15.000",
    "date_modified": "2025-04-24T18:23:17.000",
    "request_status": "Pending",
    "responsible_agency": "Department of Sanitation",
    "final_address": "2450 Halsey Ave",
    "address_councildis": "C",
    "status": "Assigned to Contractor",
    "contractor": "Richards Disposal",
    "rowid": "1186765",
    "final_x": "3697748.20791",
    "final_y": "521983.700154",
    "longitude": "-90.01711052009858",
    "latitude": "29.928770838969747",
    "geocoded_column": {
      "latitude": "29.928770838969747",
      "longitude": "-90.01711052009858"
    }
  },
  {
    "service_request": "2025-1186764",
    "request_type": "Trash/Recycling",
    "request_reason": "Order Trash Cart",
    "date_created": "2025-04-24T17:54:34.000",
    "date_modified": "2025-04-24T17:54:36.000",
    "request_status": "Pending",
    "responsible_agency": "Department of Sanitation",
    "final_address": "637 Reynes St",
    "address_councildis": "E",
    "status": "Assigned to Contractor",
    "contractor": "Waste Pro",
    "rowid": "1186764",
    "final_x": "3695558.29597",
    "final_y": "532722.864196",
    "longitude": "-90.02363609491465",
    "latitude": "29.95836880554703",
    "geocoded_column": {
      "latitude": "29.95836880554703",
      "longitude": "-90.02363609491465"
    }
  },
  {
    "service_request": "2025-1186763",
    "request_type": "Mosquito, Termite & Rodent Control",
    "request_reason": "Rodent Complaint (Rats)",
    "date_created": "2025-04-24T17:43:39.000",
    "date_modified": "2025-04-24T17:43:41.000",
    "request_status": "Pending",
    "responsible_agency": "Mosquito, Termite & Rodent Control Board",
    "final_address": "6739 Manchester St",
    "address_councildis": "E",
    "status": "Pending",
    "rowid": "1186763",
    "final_x": "3698073.16951",
    "final_y": "559864.600477",
    "longitude": "-90.014708548628",
    "latitude": "30.032919273072444",
    "geocoded_column": {
      "latitude": "30.032919273072444",
      "longitude": "-90.014708548628"
    }
  },
  {
    "service_request": "2025-1186762",
    "request_type": "Safety & Permits",
    "request_reason": "Licenses & Permits",
    "date_created": "2025-04-24T17:43:14.000",
    "date_modified": "2025-04-24T17:43:16.000",
    "request_status": "Pending",
    "responsible_agency": "Safety and Permits",
    "final_address": "2500 Tupelo St",
    "address_councildis": "E",
    "status": "Pending",
    "rowid": "1186762",
    "final_x": "3701430.29277",
    "final_y": "538387.425225",
    "longitude": "-90.0048866612889",
    "latitude": "29.97375845267157",
    "geocoded_column": {
      "latitude": "29.97375845267157",
      "longitude": "-90.0048866612889"
    }
  },
  {
    "service_request": "2025-1186761",
    "request_type": "Trash/Recycling",
    "request_reason": "Request a Large Item Pick Up",
    "date_created": "2025-04-24T17:42:54.000",
    "date_modified": "2025-04-24T17:42:56.000",
    "request_status": "Pending",
    "responsible_agency": "Department of Sanitation",
    "final_address": "3816 S Post Oak Ave",
    "address_councildis": "C",
    "status": "Assigned to Contractor",
    "contractor": "Richards Disposal",
    "rowid": "1186761",
    "final_x": "3704570.53265",
    "final_y": "514071.745458",
    "longitude": "-89.99586554568003",
    "latitude": "29.906798445353182",
    "geocoded_column": {
      "latitude": "29.906798445353182",
      "longitude": "-89.99586554568003"
    }
  },
  {
    "service_request": "2025-1186760",
    "request_type": "Street and Traffic Signs",
    "request_reason": "Additional Signage Request",
    "date_created": "2025-04-24T17:39:54.000",
    "date_modified": "2025-04-24T17:39:55.000",
    "request_status": "Pending",
    "responsible_agency": "Department of Public Works",
    "final_address": "100 BLK Morgan St",
    "address_councildis": "C",
    "status": "Pending",
    "rowid": "1186760",
    "final_x": "3685691.65187",
    "final_y": "530813.110406",
    "longitude": "-90.05485952518754",
    "latitude": "29.953424044080094",
    "geocoded_column": {
      "latitude": "29.953424044080094",
      "longitude": "-90.05485952518754"
    }
  },
  {
    "service_request": "2025-1186759",
    "request_type": "Trash/Recycling",
    "request_reason": "Missed Trash Pick-Up",
    "date_created": "2025-04-24T17:16:33.000",
    "date_modified": "2025-04-24T17:46:54.000",
    "case_close_date": "2025-04-24T12:46:53.000",
    "request_status": "Closed",
    "responsible_agency": "Department of Sanitation",
    "final_address": "2226 General Pershing St",
    "address_councildis": "B",
    "status": "Invalid Request",
    "contractor": "IV Waste",
    "contractor_action": "Invalid",
    "rowid": "1186759",
    "final_x": "3670967.96225",
    "final_y": "523265.166779",
    "longitude": "-90.10160698317655",
    "latitude": "29.933113159865265",
    "geocoded_column": {
      "latitude": "29.933113159865265",
      "longitude": "-90.10160698317655"
    }
  },
  {
    "service_request": "2025-1186758",
    "request_type": "Trash/Recycling",
    "request_reason": "Repair Trash Cart",
    "date_created": "2025-04-24T16:58:12.000",
    "date_modified": "2025-04-24T16:58:21.000",
    "request_status": "Pending",
    "responsible_agency": "Department of Sanitation",
    "final_address": "233 Whitney Ave",
    "address_councildis": "C",
    "status": "Assigned to Contractor",
    "contractor": "Richards Disposal",
    "rowid": "1186758",
    "final_x": "3690212.6111",
    "final_y": "530787.236098",
    "longitude": "-90.04058523017454",
    "latitude": "29.953213424006158",
    "geocoded_column": {
      "latitude": "29.953213424006158",
      "longitude": "-90.04058523017454"
    }
  },
  {
    "service_request": "2025-1186757",
    "request_type": "Trash/Recycling",
    "request_reason": "Request a Large Item Pick Up",
    "date_created": "2025-04-24T16:55:26.000",
    "date_modified": "2025-04-24T16:55:56.000",
    "request_status": "Pending",
    "responsible_agency": "Department of Sanitation",
    "final_address": "7331 Canterbury St",
    "address_councildis": "E",
    "status": "Assigned to Contractor",
    "contractor": "Waste Pro",
    "rowid": "1186757",
    "final_x": "3698976.67415",
    "final_y": "559247.8095",
    "longitude": "-90.01187588716543",
    "latitude": "30.031194715789955",
    "geocoded_column": {
      "latitude": "30.031194715789955",
      "longitude": "-90.01187588716543"
    }
  },
  {
    "service_request": "2025-1186756",
    "request_type": "Abandoned Vehicles",
    "request_reason": "Abandoned/Junk Vehicles",
    "date_created": "2025-04-24T16:54:39.000",
    "date_modified": "2025-04-24T16:54:41.000",
    "request_status": "Pending",
    "responsible_agency": "Department of Public Works",
    "final_address": "1506 Joliet St",
    "address_councildis": "A",
    "status": "Pending",
    "rowid": "1186756",
    "final_x": "3661642.52058",
    "final_y": "530195.132609",
    "longitude": "-90.13081732394461",
    "latitude": "29.952440706218056",
    "geocoded_column": {
      "latitude": "29.952440706218056",
      "longitude": "-90.13081732394461"
    }
  },
  {
    "service_request": "2025-1186755",
    "request_type": "Trash/Recycling",
    "request_reason": "Replace Recycling Cart",
    "date_created": "2025-04-24T16:52:21.000",
    "date_modified": "2025-04-24T16:52:23.000",
    "request_status": "Pending",
    "responsible_agency": "Department of Sanitation",
    "final_address": "2608 Comet St",
    "address_councildis": "C",
    "status": "Pending",
    "rowid": "1186755",
    "final_x": "3699884.43805",
    "final_y": "521381.758713",
    "longitude": "-90.01038886274853",
    "latitude": "29.92704806102616",
    "geocoded_column": {
      "latitude": "29.92704806102616",
      "longitude": "-90.01038886274853"
    }
  },
  {
    "service_request": "2025-1186754",
    "request_type": "Trash/Recycling",
    "request_reason": "Request a Large Item Pick Up",
    "date_created": "2025-04-24T16:44:35.000",
    "date_modified": "2025-04-24T16:44:38.000",
    "request_status": "Pending",
    "responsible_agency": "Department of Sanitation",
    "final_address": "5062 Stephen Girard Ave",
    "address_councildis": "D",
    "status": "Assigned to Contractor",
    "contractor": "IV Waste",
    "rowid": "1186754",
    "final_x": "3693075.81936",
    "final_y": "551205.015573",
    "longitude": "-90.03081163495635",
    "latitude": "30.0092658516872",
    "geocoded_column": {
      "latitude": "30.0092658516872",
      "longitude": "-90.03081163495635"
    }
  },
  {
    "service_request": "2025-1186753",
    "request_type": "Trash/Recycling",
    "request_reason": "Request a Large Item Pick Up",
    "date_created": "2025-04-24T16:44:19.000",
    "date_modified": "2025-04-24T16:44:21.000",
    "request_status": "Pending",
    "responsible_agency": "Department of Sanitation",
    "final_address": "5831 Brighton Pl",
    "address_councildis": "C",
    "status": "Assigned to Contractor",
    "contractor": "Richards Disposal",
    "rowid": "1186753",
    "final_x": "3705194.07966",
    "final_y": "520029.286392",
    "longitude": "-89.99367775578419",
    "latitude": "29.923159602078485",
    "geocoded_column": {
      "latitude": "29.923159602078485",
      "longitude": "-89.99367775578419"
    }
  },
  {
    "service_request": "2025-1186752",
    "request_type": "Trash/Recycling",
    "request_reason": "Request a Large Item Pick Up",
    "date_created": "2025-04-24T16:38:58.000",
    "date_modified": "2025-04-24T16:39:00.000",
    "request_status": "Pending",
    "responsible_agency": "Department of Sanitation",
    "final_address": "5034 St Ferdinand Dr",
    "address_councildis": "D",
    "status": "Assigned to Contractor",
    "contractor": "IV Waste",
    "rowid": "1186752",
    "final_x": "3689129.30659",
    "final_y": "551470.347605",
    "longitude": "-90.04327054341121",
    "latitude": "30.01011817987693",
    "geocoded_column": {
      "latitude": "30.01011817987693",
      "longitude": "-90.04327054341121"
    }
  },
  {
    "service_request": "2025-1186751",
    "request_type": "Trash/Recycling",
    "request_reason": "Dead Animal Pick Up",
    "date_created": "2025-04-24T16:35:21.000",
    "date_modified": "2025-04-24T17:14:21.000",
    "case_close_date": "2025-04-24T12:14:20.000",
    "request_status": "Closed",
    "responsible_agency": "Department of Sanitation",
    "final_address": "ALVAR ST & FRANCE RD OVERPASS",
    "address_councildis": "D",
    "status": "Invalid Request",
    "contractor": "IV Waste",
    "contractor_action": "Additional information required from resident",
    "rowid": "1186751",
    "final_x": "3693360.61",
    "final_y": "547920.62",
    "longitude": "-90.03002991248846",
    "latitude": "30.00022607144991",
    "geocoded_column": {
      "latitude": "30.00022607144991",
      "longitude": "-90.03002991248846"
    }
  },
  {
    "service_request": "2025-1186750",
    "request_type": "Trash/Recycling",
    "request_reason": "Order Trash Cart",
    "date_created": "2025-04-24T16:28:44.000",
    "date_modified": "2025-04-24T16:28:45.000",
    "request_status": "Pending",
    "responsible_agency": "Department of Sanitation",
    "final_address": "2033 Foucher St",
    "address_councildis": "B",
    "status": "Assigned to Contractor",
    "contractor": "IV Waste",
    "rowid": "1186750",
    "final_x": "3672971.11521",
    "final_y": "522911.156155",
    "longitude": "-90.09529522907422",
    "latitude": "29.93208038450072",
    "geocoded_column": {
      "latitude": "29.93208038450072",
      "longitude": "-90.09529522907422"
    }
  },
  {
    "service_request": "2025-1186749",
    "request_type": "Trash/Recycling",
    "request_reason": "Order Recycling Cart",
    "date_created": "2025-04-24T16:27:56.000",
    "date_modified": "2025-04-24T16:27:58.000",
    "request_status": "Pending",
    "responsible_agency": "Department of Sanitation",
    "final_address": "2033 Foucher St",
    "address_councildis": "B",
    "status": "Pending",
    "rowid": "1186749",
    "final_x": "3672971.11521",
    "final_y": "522911.156155",
    "longitude": "-90.09529522907422",
    "latitude": "29.93208038450072",
    "geocoded_column": {
      "latitude": "29.93208038450072",
      "longitude": "-90.09529522907422"
    }
  },
  {
    "service_request": "2025-1186748",
    "request_type": "Trash/Recycling",
    "request_reason": "Missed Trash Pick-Up",
    "date_created": "2025-04-24T16:19:42.000",
    "date_modified": "2025-04-24T18:25:45.000",
    "case_close_date": "2025-04-24T13:25:45.000",
    "request_status": "Closed",
    "responsible_agency": "Department of Sanitation",
    "final_address": "5434 N Rampart St",
    "address_councildis": "E",
    "status": "Invalid Request",
    "contractor": "Waste Pro",
    "contractor_action": "Invalid",
    "rowid": "1186748",
    "final_x": "3697322.60259",
    "final_y": "533422.6713",
    "longitude": "-90.01803955482936",
    "latitude": "29.960237459673728",
    "geocoded_column": {
      "latitude": "29.960237459673728",
      "longitude": "-90.01803955482936"
    }
  },
  {
    "service_request": "2025-1186747",
    "request_type": "Trash/Recycling",
    "request_reason": "Missed Trash Pick-Up",
    "date_created": "2025-04-24T16:18:40.000",
    "date_modified": "2025-04-24T16:18:42.000",
    "request_status": "Pending",
    "responsible_agency": "Department of Sanitation",
    "final_address": "5436 N Rampart St",
    "address_councildis": "E",
    "status": "Assigned to Contractor",
    "contractor": "Waste Pro",
    "rowid": "1186747",
    "final_x": "3697339.13635",
    "final_y": "533418.538244",
    "longitude": "-90.01798749480122",
    "latitude": "29.96022557337072",
    "geocoded_column": {
      "latitude": "29.96022557337072",
      "longitude": "-90.01798749480122"
    }
  },
  {
    "service_request": "2025-1186746",
    "request_type": "Trash/Recycling",
    "request_reason": "Missed Trash Pick-Up",
    "date_created": "2025-04-24T16:17:47.000",
    "date_modified": "2025-04-24T16:17:49.000",
    "request_status": "Pending",
    "responsible_agency": "Department of Sanitation",
    "final_address": "5438 N Rampart St",
    "address_councildis": "E",
    "status": "Assigned to Contractor",
    "contractor": "Waste Pro",
    "rowid": "1186746",
    "final_x": "3697350.15875",
    "final_y": "533415.78234",
    "longitude": "-90.01795278847887",
    "latitude": "29.960217647694172",
    "geocoded_column": {
      "latitude": "29.960217647694172",
      "longitude": "-90.01795278847887"
    }
  },
  {
    "service_request": "2025-1186745",
    "request_type": "Trash/Recycling",
    "request_reason": "Request a Large Item Pick Up",
    "date_created": "2025-04-24T16:17:00.000",
    "date_modified": "2025-04-24T16:17:02.000",
    "request_status": "Pending",
    "responsible_agency": "Department of Sanitation",
    "final_address": "171 Alix St",
    "address_councildis": "C",
    "status": "Assigned to Contractor",
    "contractor": "Richards Disposal",
    "rowid": "1186745",
    "final_x": "3686112.19894",
    "final_y": "529697.200961",
    "longitude": "-90.0535709732054",
    "latitude": "29.95034276544561",
    "geocoded_column": {
      "latitude": "29.95034276544561",
      "longitude": "-90.0535709732054"
    }
  },
  {
    "service_request": "2025-1186744",
    "request_type": "Trash/Recycling",
    "request_reason": "Request a Large Item Pick Up",
    "date_created": "2025-04-24T16:16:53.000",
    "date_modified": "2025-04-24T16:16:55.000",
    "request_status": "Pending",
    "responsible_agency": "Department of Sanitation",
    "final_address": "600 N Lopez St",
    "address_councildis": "A",
    "status": "Assigned to Contractor",
    "contractor": "IV Waste",
    "rowid": "1186744",
    "final_x": "3675060.23054",
    "final_y": "537721.57268",
    "longitude": "-90.08819202574117",
    "latitude": "29.972741872681475",
    "geocoded_column": {
      "latitude": "29.972741872681475",
      "longitude": "-90.08819202574117"
    }
  },
  {
    "service_request": "2025-1186743",
    "request_type": "Trash/Recycling",
    "request_reason": "Repair Trash Cart",
    "date_created": "2025-04-24T16:13:42.000",
    "date_modified": "2025-04-24T16:13:44.000",
    "request_status": "Pending",
    "responsible_agency": "Department of Sanitation",
    "final_address": "3215 N Miro St",
    "address_councildis": "D",
    "status": "Assigned to Contractor",
    "contractor": "IV Waste",
    "rowid": "1186743",
    "final_x": "3690746.35139",
    "final_y": "540059.845195",
    "longitude": "-90.03856907309697",
    "latitude": "29.978693276049693",
    "geocoded_column": {
      "latitude": "29.978693276049693",
      "longitude": "-90.03856907309697"
    }
  },
  {
    "service_request": "2025-1186742",
    "request_type": "Trash/Recycling",
    "request_reason": "Order Recycling Cart",
    "date_created": "2025-04-24T16:12:48.000",
    "date_modified": "2025-04-24T16:12:54.000",
    "request_status": "Pending",
    "responsible_agency": "Department of Sanitation",
    "final_address": "2127 Pine St",
    "address_councildis": "A",
    "status": "Pending",
    "rowid": "1186742",
    "final_x": "3665869.53799",
    "final_y": "529503.852801",
    "longitude": "-90.11749344160808",
    "latitude": "29.95041725639224",
    "geocoded_column": {
      "latitude": "29.95041725639224",
      "longitude": "-90.11749344160808"
    }
  },
  {
    "service_request": "2025-1186741",
    "request_type": "Abandoned Vehicles",
    "request_reason": "Abandoned/Junk Vehicles",
    "date_created": "2025-04-24T16:12:20.000",
    "date_modified": "2025-04-24T16:12:22.000",
    "request_status": "Pending",
    "responsible_agency": "Department of Public Works",
    "final_address": "500 S Hennessey St",
    "address_councildis": "A",
    "status": "Pending",
    "rowid": "1186741",
    "final_x": "3669328.40948",
    "final_y": "537625.285896",
    "longitude": "-90.10629749088581",
    "latitude": "29.972647135303404",
    "geocoded_column": {
      "latitude": "29.972647135303404",
      "longitude": "-90.10629749088581"
    }
  },
  {
    "service_request": "2025-1186740",
    "request_type": "Trash/Recycling",
    "request_reason": "Request a Large Item Pick Up",
    "date_created": "2025-04-24T16:10:15.000",
    "date_modified": "2025-04-24T16:10:18.000",
    "request_status": "Pending",
    "responsible_agency": "Department of Sanitation",
    "final_address": "5601 Durham Dr",
    "address_councildis": "C",
    "status": "Assigned to Contractor",
    "contractor": "Richards Disposal",
    "rowid": "1186740",
    "final_x": "3704645.38199",
    "final_y": "518677.718007",
    "longitude": "-89.99545958429145",
    "latitude": "29.91946088512268",
    "geocoded_column": {
      "latitude": "29.91946088512268",
      "longitude": "-89.99545958429145"
    }
  },
  {
    "service_request": "2025-1186739",
    "request_type": "Street and Traffic Signs",
    "request_reason": "Additional Signage Request",
    "date_created": "2025-04-24T16:08:43.000",
    "date_modified": "2025-04-24T16:08:45.000",
    "request_status": "Pending",
    "responsible_agency": "Department of Public Works",
    "final_address": "ST CLAUDE AVE & CAFFIN AVE",
    "address_councildis": "E",
    "status": "Pending",
    "rowid": "1186739",
    "final_x": "3698055.21",
    "final_y": "533817.48",
    "longitude": "-90.01571181177667",
    "latitude": "29.96129989979129",
    "geocoded_column": {
      "latitude": "29.96129989979129",
      "longitude": "-90.01571181177667"
    }
  },
  {
    "service_request": "2025-1186738",
    "request_type": "Trash/Recycling",
    "request_reason": "Request a Large Item Pick Up",
    "date_created": "2025-04-24T16:07:55.000",
    "date_modified": "2025-04-24T16:07:57.000",
    "request_status": "Pending",
    "responsible_agency": "Department of Sanitation",
    "final_address": "2325 Josephine St",
    "address_councildis": "B",
    "status": "Assigned to Contractor",
    "contractor": "IV Waste",
    "rowid": "1186738",
    "final_x": "3676211.66837",
    "final_y": "526215.569598",
    "longitude": "-90.08495146792309",
    "latitude": "29.94106976704863",
    "geocoded_column": {
      "latitude": "29.94106976704863",
      "longitude": "-90.08495146792309"
    }
  },
  {
    "service_request": "2025-1186737",
    "request_type": "Trash/Recycling",
    "request_reason": "Return Recycling Cart",
    "date_created": "2025-04-24T16:07:33.000",
    "date_modified": "2025-04-24T16:07:35.000",
    "request_status": "Pending",
    "responsible_agency": "Department of Sanitation",
    "final_address": "29 Fairway Oaks Dr",
    "address_councildis": "C",
    "status": "Pending",
    "rowid": "1186737",
    "final_x": "3716632.32191",
    "final_y": "515554.77394",
    "longitude": "-89.95774159452402",
    "latitude": "29.91048361597054",
    "geocoded_column": {
      "latitude": "29.91048361597054",
      "longitude": "-89.95774159452402"
    }
  },
  {
    "service_request": "2025-1186736",
    "request_type": "Trash/Recycling",
    "request_reason": "MIssed Recycling Pick-Up",
    "date_created": "2025-04-24T16:06:24.000",
    "date_modified": "2025-04-24T16:06:27.000",
    "request_status": "Pending",
    "responsible_agency": "Department of Sanitation",
    "final_address": "422 Lowerline St",
    "address_councildis": "A",
    "status": "Assigned to Contractor",
    "contractor": "IV Waste",
    "rowid": "1186736",
    "final_x": "3661738.88851",
    "final_y": "524097.462332",
    "longitude": "-90.1307151137995",
    "latitude": "29.935671274687156",
    "geocoded_column": {
      "latitude": "29.935671274687156",
      "longitude": "-90.1307151137995"
    }
  },
  {
    "service_request": "2025-1186735",
    "request_type": "Parks & Parkways",
    "request_reason": "Request Tree Service (Right of Way/Public Property)",
    "date_created": "2025-04-24T16:01:15.000",
    "date_modified": "2025-04-24T16:01:17.000",
    "request_status": "Pending",
    "responsible_agency": "Department of Parks & Parkway",
    "final_address": "1829 Ursulines Ave",
    "address_councildis": "D",
    "status": "Pending",
    "rowid": "1186735",
    "final_x": "3680223.66248",
    "final_y": "536221.765447",
    "longitude": "-90.07193709732829",
    "latitude": "29.968462627627474",
    "geocoded_column": {
      "latitude": "29.968462627627474",
      "longitude": "-90.07193709732829"
    }
  },
  {
    "service_request": "2025-1186734",
    "request_type": "Parks & Parkways",
    "request_reason": "Request Tree Service (Right of Way/Public Property)",
    "date_created": "2025-04-24T15:54:13.000",
    "date_modified": "2025-04-24T15:54:15.000",
    "request_status": "Pending",
    "responsible_agency": "Department of Parks & Parkway",
    "final_address": "2449 Prancer St",
    "address_councildis": "C",
    "status": "Pending",
    "rowid": "1186734",
    "final_x": "3699777.63869",
    "final_y": "522230.803514",
    "longitude": "-90.01069506089787",
    "latitude": "29.92938603175655",
    "geocoded_column": {
      "latitude": "29.92938603175655",
      "longitude": "-90.01069506089787"
    }
  },
  {
    "service_request": "2025-1186733",
    "request_type": "Trash/Recycling",
    "request_reason": "Repair Trash Cart",
    "date_created": "2025-04-24T15:53:17.000",
    "date_modified": "2025-04-24T15:53:19.000",
    "request_status": "Pending",
    "responsible_agency": "Department of Sanitation",
    "final_address": "4931 Treves St",
    "address_councildis": "E",
    "status": "Assigned to Contractor",
    "contractor": "Waste Pro",
    "rowid": "1186733",
    "final_x": "3729931.97005",
    "final_y": "562890.471136",
    "longitude": "-89.91391500574919",
    "latitude": "30.04019258619943",
    "geocoded_column": {
      "latitude": "30.04019258619943",
      "longitude": "-89.91391500574919"
    }
  },
  {
    "service_request": "2025-1186732",
    "request_type": "Streetlights",
    "request_reason": "Streetlight Outage/Malfunction",
    "date_created": "2025-04-24T15:52:27.000",
    "date_modified": "2025-04-24T15:52:29.000",
    "request_status": "Pending",
    "responsible_agency": "Department of Public Works",
    "final_address": "3108 Chippewa St",
    "address_councildis": "B",
    "status": "Pending",
    "contractor": "Legacy Professional Services",
    "rowid": "1186732",
    "final_x": "3676871.59861",
    "final_y": "518865.133559",
    "longitude": "-90.08312115071858",
    "latitude": "29.920838678582665",
    "geocoded_column": {
      "latitude": "29.920838678582665",
      "longitude": "-90.08312115071858"
    }
  },
  {
    "service_request": "2025-1186731",
    "request_type": "Trash/Recycling",
    "request_reason": "Order Recycling Cart",
    "date_created": "2025-04-24T15:51:38.000",
    "date_modified": "2025-04-24T15:51:39.000",
    "request_status": "Pending",
    "responsible_agency": "Department of Sanitation",
    "final_address": "2630 Third St",
    "address_councildis": "B",
    "status": "Pending",
    "rowid": "1186731",
    "final_x": "3674271.74305",
    "final_y": "526091.60595",
    "longitude": "-90.09108042032388",
    "latitude": "29.9407868801394",
    "geocoded_column": {
      "latitude": "29.9407868801394",
      "longitude": "-90.09108042032388"
    }
  },
  {
    "service_request": "2025-1186730",
    "request_type": "Trash/Recycling",
    "request_reason": "Request a Large Item Pick Up",
    "date_created": "2025-04-24T15:50:51.000",
    "date_modified": "2025-04-24T15:50:53.000",
    "request_status": "Pending",
    "responsible_agency": "Department of Sanitation",
    "final_address": "5461 Royal St",
    "address_councildis": "E",
    "status": "Assigned to Contractor",
    "contractor": "Waste Pro",
    "rowid": "1186730",
    "final_x": "3697146.47152",
    "final_y": "532427.669571",
    "longitude": "-90.01863178699895",
    "latitude": "29.957507114914314",
    "geocoded_column": {
      "latitude": "29.957507114914314",
      "longitude": "-90.01863178699895"
    }
  },
  {
    "service_request": "2025-1186729",
    "request_type": "Property Maintenance",
    "request_reason": "Property Maintenance",
    "date_created": "2025-04-24T15:49:22.000",
    "date_modified": "2025-04-24T15:49:23.000",
    "request_status": "Pending",
    "responsible_agency": "Department of Code Enforcement",
    "final_address": "339 N Broad St",
    "address_councildis": "B",
    "status": "Pending",
    "rowid": "1186729",
    "final_x": "3675915.94766",
    "final_y": "536032.005831",
    "longitude": "-90.0855476165665",
    "latitude": "29.968070542580932",
    "geocoded_column": {
      "latitude": "29.968070542580932",
      "longitude": "-90.0855476165665"
    }
  },
  {
    "service_request": "2025-1186728",
    "request_type": "Traffic Signals",
    "request_reason": "Traffic Signal Malfunctioning or Damaged",
    "date_created": "2025-04-24T15:44:13.000",
    "date_modified": "2025-04-24T15:44:15.000",
    "request_status": "Pending",
    "responsible_agency": "Department of Public Works",
    "final_address": "BULLARD AVE & CHEF MENTEUR HWY",
    "address_councildis": "E",
    "status": "Pending",
    "rowid": "1186728",
    "final_x": "3719420.4",
    "final_y": "556924.28",
    "longitude": "-89.94736259270046",
    "latitude": "30.024141818205965",
    "geocoded_column": {
      "latitude": "30.024141818205965",
      "longitude": "-89.94736259270046"
    }
  },
  {
    "service_request": "2025-1186727",
    "request_type": "Trash/Recycling",
    "request_reason": "MIssed Recycling Pick-Up",
    "date_created": "2025-04-24T15:43:28.000",
    "date_modified": "2025-04-24T16:36:31.000",
    "case_close_date": "2025-04-24T11:36:31.000",
    "request_status": "Closed",
    "responsible_agency": "Department of Sanitation",
    "final_address": "2830 Broadway St",
    "address_councildis": "B",
    "status": "Invalid Request",
    "contractor": "IV Waste",
    "contractor_action": "Invalid",
    "rowid": "1186727",
    "final_x": "3667412.55341",
    "final_y": "531530.738115",
    "longitude": "-90.11255320122584",
    "latitude": "29.955945419086795",
    "geocoded_column": {
      "latitude": "29.955945419086795",
      "longitude": "-90.11255320122584"
    }
  },
  {
    "service_request": "2025-1186726",
    "request_type": "Trash/Recycling",
    "request_reason": "Return Trash Cart",
    "date_created": "2025-04-24T15:39:05.000",
    "date_modified": "2025-04-24T15:39:07.000",
    "request_status": "Pending",
    "responsible_agency": "Department of Sanitation",
    "final_address": "3140 Urquhart St",
    "address_councildis": "C",
    "status": "Assigned to Contractor",
    "contractor": "IV Waste",
    "rowid": "1186726",
    "final_x": "3689509.19638",
    "final_y": "536610.783495",
    "longitude": "-90.0425991681929",
    "latitude": "29.969247954850026",
    "geocoded_column": {
      "latitude": "29.969247954850026",
      "longitude": "-90.0425991681929"
    }
  },
  {
    "service_request": "2025-1186725",
    "request_type": "Trash/Recycling",
    "request_reason": "Request a Large Item Pick Up",
    "date_created": "2025-04-24T15:38:58.000",
    "date_modified": "2025-04-24T15:38:59.000",
    "request_status": "Pending",
    "responsible_agency": "Department of Sanitation",
    "final_address": "4811 Marque Dr",
    "address_councildis": "E",
    "status": "Assigned to Contractor",
    "contractor": "Waste Pro",
    "rowid": "1186725",
    "final_x": "3710049.06635",
    "final_y": "556282.377306",
    "longitude": "-89.97699798062582",
    "latitude": "30.02268518479185",
    "geocoded_column": {
      "latitude": "30.02268518479185",
      "longitude": "-89.97699798062582"
    }
  },
  {
    "service_request": "2025-1186724",
    "request_type": "Property Maintenance",
    "request_reason": "Property Maintenance",
    "date_created": "2025-04-24T15:38:03.000",
    "date_modified": "2025-04-24T15:38:05.000",
    "request_status": "Pending",
    "responsible_agency": "Department of Code Enforcement",
    "final_address": "2927 Conti St",
    "address_councildis": "B",
    "status": "Pending",
    "rowid": "1186724",
    "final_x": "3675200.44955",
    "final_y": "536842.95028",
    "longitude": "-90.0877793508118",
    "latitude": "29.970321769487384",
    "geocoded_column": {
      "latitude": "29.970321769487384",
      "longitude": "-90.0877793508118"
    }
  },
  {
    "service_request": "2025-1186723",
    "request_type": "Abandoned Vehicles",
    "request_reason": "Abandoned/Junk Vehicles",
    "date_created": "2025-04-24T15:37:22.000",
    "date_modified": "2025-04-24T15:37:23.000",
    "request_status": "Pending",
    "responsible_agency": "Department of Public Works",
    "final_address": "6040 Lafaye St",
    "address_councildis": "D",
    "status": "Pending",
    "rowid": "1186723",
    "final_x": "3687037.4415",
    "final_y": "555560.921817",
    "longitude": "-90.04973472795369",
    "latitude": "30.021430344481686",
    "geocoded_column": {
      "latitude": "30.021430344481686",
      "longitude": "-90.04973472795369"
    }
  },
  {
    "service_request": "2025-1186722",
    "request_type": "Trash/Recycling",
    "request_reason": "Request a Large Item Pick Up",
    "date_created": "2025-04-24T15:37:20.000",
    "date_modified": "2025-04-24T15:37:22.000",
    "request_status": "Pending",
    "responsible_agency": "Department of Sanitation",
    "final_address": "3766 Preston Pl",
    "address_councildis": "C",
    "status": "Assigned to Contractor",
    "contractor": "Richards Disposal",
    "rowid": "1186722",
    "final_x": "3708294.67755",
    "final_y": "517092.210165",
    "longitude": "-89.98399962158388",
    "latitude": "29.914983625950814",
    "geocoded_column": {
      "latitude": "29.914983625950814",
      "longitude": "-89.98399962158388"
    }
  },
  {
    "service_request": "2025-1186721",
    "request_type": "Streetlights",
    "request_reason": "Streetlight Outage/Malfunction",
    "date_created": "2025-04-24T15:31:42.000",
    "date_modified": "2025-04-24T15:31:43.000",
    "request_status": "Pending",
    "responsible_agency": "Department of Public Works",
    "final_address": "4601 Good Dr",
    "address_councildis": "E",
    "status": "Pending",
    "contractor": "Legacy Professional Services",
    "rowid": "1186721",
    "final_x": "3714935.56811",
    "final_y": "556017.789721",
    "longitude": "-89.96156795548328",
    "latitude": "30.021797725378455",
    "geocoded_column": {
      "latitude": "30.021797725378455",
      "longitude": "-89.96156795548328"
    }
  },
  {
    "service_request": "2025-1186720",
    "request_type": "Parks & Parkways",
    "request_reason": "Request Tree Service (Right of Way/Public Property)",
    "date_created": "2025-04-24T15:31:05.000",
    "date_modified": "2025-04-24T15:31:08.000",
    "request_status": "Pending",
    "responsible_agency": "Department of Parks & Parkway",
    "final_address": "501 Mouton St",
    "address_councildis": "A",
    "status": "Pending",
    "rowid": "1186720",
    "final_x": "3668399.09012",
    "final_y": "553448.948887",
    "longitude": "-90.10869835478682",
    "latitude": "30.016184097640906",
    "geocoded_column": {
      "latitude": "30.016184097640906",
      "longitude": "-90.10869835478682"
    }
  },
  {
    "service_request": "2025-1186719",
    "request_type": "Trash/Recycling",
    "request_reason": "Return Trash Cart",
    "date_created": "2025-04-24T15:22:59.000",
    "date_modified": "2025-04-24T15:23:00.000",
    "request_status": "Pending",
    "responsible_agency": "Department of Sanitation",
    "final_address": "168 Mary Jane Ln",
    "address_councildis": "E",
    "status": "Assigned to Contractor",
    "contractor": "Waste Pro",
    "rowid": "1186719",
    "final_x": "3718143.98489",
    "final_y": "571327.286248",
    "longitude": "-89.95084667850864",
    "latitude": "30.063786592166252",
    "geocoded_column": {
      "latitude": "30.063786592166252",
      "longitude": "-89.95084667850864"
    }
  },
  {
    "service_request": "2025-1186718",
    "request_type": "Trash/Recycling",
    "request_reason": "Return Trash Cart",
    "date_created": "2025-04-24T15:20:55.000",
    "date_modified": "2025-04-24T15:20:58.000",
    "request_status": "Pending",
    "responsible_agency": "Department of Sanitation",
    "final_address": "2841 Magazine St",
    "address_councildis": "B",
    "status": "Assigned to Contractor",
    "contractor": "IV Waste",
    "rowid": "1186718",
    "final_x": "3676722.44533",
    "final_y": "520681.650169",
    "longitude": "-90.08352941831266",
    "latitude": "29.92583798608136",
    "geocoded_column": {
      "latitude": "29.92583798608136",
      "longitude": "-90.08352941831266"
    }
  },
  {
    "service_request": "2025-1186717",
    "request_type": "Abandoned Vehicles",
    "request_reason": "Abandoned/Junk Vehicles",
    "date_created": "2025-04-24T15:19:26.000",
    "date_modified": "2025-04-24T15:22:27.000",
    "request_status": "Pending",
    "responsible_agency": "Department of Public Works",
    "final_address": "N WHITE ST & ST ANN ST",
    "address_councildis": "A",
    "status": "Pending",
    "rowid": "1186717",
    "final_x": "3676470.3",
    "final_y": "537555.28",
    "longitude": "-90.08374448823255",
    "latitude": "29.972242417120526",
    "geocoded_column": {
      "latitude": "29.972242417120526",
      "longitude": "-90.08374448823255"
    }
  },
  {
    "service_request": "2025-1186716",
    "request_type": "Trash/Recycling",
    "request_reason": "Request a Large Item Pick Up",
    "date_created": "2025-04-24T15:17:39.000",
    "date_modified": "2025-04-24T15:17:40.000",
    "request_status": "Pending",
    "responsible_agency": "Department of Sanitation",
    "final_address": "1115 Allen Toussaint Blvd",
    "address_councildis": "D",
    "status": "Assigned to Contractor",
    "contractor": "IV Waste",
    "rowid": "1186716",
    "final_x": "3674601.99643",
    "final_y": "554716.942168",
    "longitude": "-90.0890563599312",
    "latitude": "30.01948687942195",
    "geocoded_column": {
      "latitude": "30.01948687942195",
      "longitude": "-90.0890563599312"
    }
  },
  {
    "service_request": "2025-1186715",
    "request_type": "Abandoned Vehicles",
    "request_reason": "Abandoned/Junk Vehicles",
    "date_created": "2025-04-24T15:16:23.000",
    "date_modified": "2025-04-24T15:16:26.000",
    "request_status": "Pending",
    "responsible_agency": "Department of Public Works",
    "final_address": "2501 Ursulines Ave",
    "address_councildis": "D",
    "status": "Pending",
    "rowid": "1186715",
    "final_x": "3678440.84168",
    "final_y": "537587.67444",
    "longitude": "-90.07752006015615",
    "latitude": "29.972272254514152",
    "geocoded_column": {
      "latitude": "29.972272254514152",
      "longitude": "-90.07752006015615"
    }
  },
  {
    "service_request": "2025-1186714",
    "request_type": "Trash/Recycling",
    "request_reason": "Repair Trash Cart",
    "date_created": "2025-04-24T15:15:08.000",
    "date_modified": "2025-04-24T15:15:10.000",
    "request_status": "Pending",
    "responsible_agency": "Department of Sanitation",
    "final_address": "2117 Sere St",
    "address_councildis": "D",
    "status": "Assigned to Contractor",
    "contractor": "IV Waste",
    "rowid": "1186714",
    "final_x": "3683606.25948",
    "final_y": "545912.705808",
    "longitude": "-90.06091484810698",
    "latitude": "29.995006486942035",
    "geocoded_column": {
      "latitude": "29.995006486942035",
      "longitude": "-90.06091484810698"
    }
  },
  {
    "service_request": "2025-1186713",
    "request_type": "Property Maintenance",
    "request_reason": "Property Maintenance",
    "date_created": "2025-04-24T15:11:10.000",
    "date_modified": "2025-04-24T15:11:12.000",
    "request_status": "Pending",
    "responsible_agency": "Department of Code Enforcement",
    "final_address": "501 Moss St",
    "address_councildis": "A",
    "status": "Pending",
    "rowid": "1186713",
    "final_x": "3673919.37851",
    "final_y": "538106.515273",
    "longitude": "-90.09178188132455",
    "latitude": "29.973834372774853",
    "geocoded_column": {
      "latitude": "29.973834372774853",
      "longitude": "-90.09178188132455"
    }
  },
  {
    "service_request": "2025-1186712",
    "request_type": "General Services",
    "request_reason": "General Service Request",
    "date_created": "2025-04-24T15:10:38.000",
    "date_modified": "2025-04-24T15:10:39.000",
    "request_status": "Pending",
    "responsible_agency": "Orleans Parish Communication District",
    "final_address": "300 BLK Florida Blvd",
    "address_councildis": "A",
    "status": "Pending",
    "rowid": "1186712",
    "final_x": "3667098.29962",
    "final_y": "545460.356702",
    "longitude": "-90.11307709412544",
    "latitude": "29.994256406502206",
    "geocoded_column": {
      "latitude": "29.994256406502206",
      "longitude": "-90.11307709412544"
    }
  },
  {
    "service_request": "2025-1186711",
    "request_type": "Drainage",
    "request_reason": "Street Flooding",
    "date_created": "2025-04-24T15:08:36.000",
    "date_modified": "2025-04-24T15:08:39.000",
    "request_status": "Pending",
    "responsible_agency": "Sewerage & Water Board",
    "final_address": "6232 Carlisle Ct",
    "address_councildis": "C",
    "status": "Pending",
    "rowid": "1186711",
    "final_x": "3707194.20728",
    "final_y": "516543.932469",
    "longitude": "-89.987493396082",
    "latitude": "29.91351163935187",
    "geocoded_column": {
      "latitude": "29.91351163935187",
      "longitude": "-89.987493396082"
    }
  },
  {
    "service_request": "2025-1186710",
    "request_type": "Abandoned Vehicles",
    "request_reason": "Abandoned/Junk Vehicles",
    "date_created": "2025-04-24T15:06:54.000",
    "date_modified": "2025-04-24T15:07:18.000",
    "request_status": "Pending",
    "responsible_agency": "Department of Public Works",
    "final_address": "4951 Piety Dr",
    "address_councildis": "D",
    "status": "Pending",
    "rowid": "1186710",
    "final_x": "3691397.311",
    "final_y": "552209.319638",
    "longitude": "-90.03607867514513",
    "latitude": "30.012079673363136",
    "geocoded_column": {
      "latitude": "30.012079673363136",
      "longitude": "-90.03607867514513"
    }
  },
  {
    "service_request": "2025-1186709",
    "request_type": "Parks & Parkways",
    "request_reason": "Request Tree Service (Right of Way/Public Property)",
    "date_created": "2025-04-24T15:04:38.000",
    "date_modified": "2025-04-24T15:04:40.000",
    "request_status": "Pending",
    "responsible_agency": "Department of Parks & Parkway",
    "final_address": "9120 Oleander St",
    "address_councildis": "A",
    "status": "Pending",
    "rowid": "1186709",
    "final_x": "3664012.67988",
    "final_y": "536123.082567",
    "longitude": "-90.1231357189781",
    "latitude": "29.968672024002014",
    "geocoded_column": {
      "latitude": "29.968672024002014",
      "longitude": "-90.1231357189781"
    }
  },
  {
    "service_request": "2025-1186708",
    "request_type": "Property Maintenance",
    "request_reason": "Property Maintenance",
    "date_created": "2025-04-24T15:03:38.000",
    "date_modified": "2025-04-24T15:03:40.000",
    "request_status": "Pending",
    "responsible_agency": "Department of Code Enforcement",
    "final_address": "3027 Eads St",
    "address_councildis": "D",
    "status": "Pending",
    "rowid": "1186708",
    "final_x": "3687703.32188",
    "final_y": "544153.24571",
    "longitude": "-90.04803505371585",
    "latitude": "29.990042867855838",
    "geocoded_column": {
      "latitude": "29.990042867855838",
      "longitude": "-90.04803505371585"
    }
  },
  {
    "service_request": "2025-1186707",
    "request_type": "Property Maintenance",
    "request_reason": "Property Maintenance",
    "date_created": "2025-04-24T15:03:07.000",
    "date_modified": "2025-04-24T15:03:08.000",
    "request_status": "Pending",
    "responsible_agency": "Department of Code Enforcement",
    "final_address": "3039 Eads St",
    "address_councildis": "D",
    "status": "Pending",
    "rowid": "1186707",
    "final_x": "3687695.77807",
    "final_y": "544251.225742",
    "longitude": "-90.0480554109913",
    "latitude": "29.99031251052809",
    "geocoded_column": {
      "latitude": "29.99031251052809",
      "longitude": "-90.0480554109913"
    }
  },
  {
    "service_request": "2025-1186706",
    "request_type": "Property Maintenance",
    "request_reason": "Property Maintenance",
    "date_created": "2025-04-24T15:02:56.000",
    "date_modified": "2025-04-24T15:02:57.000",
    "request_status": "Pending",
    "responsible_agency": "Department of Code Enforcement",
    "final_address": "2145 Piety St",
    "address_councildis": "D",
    "status": "Pending",
    "rowid": "1186706",
    "final_x": "3690893.05552",
    "final_y": "539887.846218",
    "longitude": "-90.03811186881133",
    "latitude": "29.978215781162177",
    "geocoded_column": {
      "latitude": "29.978215781162177",
      "longitude": "-90.03811186881133"
    }
  },
  {
    "service_request": "2025-1186705",
    "request_type": "Trash/Recycling",
    "request_reason": "Repair Trash Cart",
    "date_created": "2025-04-24T15:01:46.000",
    "date_modified": "2025-04-24T15:01:47.000",
    "request_status": "Pending",
    "responsible_agency": "Department of Sanitation",
    "final_address": "1301 Lyons St",
    "address_councildis": "B",
    "status": "Assigned to Contractor",
    "contractor": "IV Waste",
    "rowid": "1186705",
    "final_x": "3669141.95194",
    "final_y": "519923.812152",
    "longitude": "-90.10748444052511",
    "latitude": "29.923979346622986",
    "geocoded_column": {
      "latitude": "29.923979346622986",
      "longitude": "-90.10748444052511"
    }
  },
  {
    "service_request": "2025-1186704",
    "request_type": "Trash/Recycling",
    "request_reason": "Return Trash Cart",
    "date_created": "2025-04-24T14:56:48.000",
    "date_modified": "2025-04-24T14:56:50.000",
    "request_status": "Pending",
    "responsible_agency": "Department of Sanitation",
    "final_address": "2637 Milan St",
    "address_councildis": "B",
    "status": "Assigned to Contractor",
    "contractor": "IV Waste",
    "rowid": "1186704",
    "final_x": "3671265.52385",
    "final_y": "524732.00998",
    "longitude": "-90.10061778106343",
    "latitude": "29.937137706280648",
    "geocoded_column": {
      "latitude": "29.937137706280648",
      "longitude": "-90.10061778106343"
    }
  },
  {
    "service_request": "2025-1186703",
    "request_type": "Property Maintenance",
    "request_reason": "Property Maintenance",
    "date_created": "2025-04-24T14:55:55.000",
    "date_modified": "2025-04-24T14:55:56.000",
    "request_status": "Pending",
    "responsible_agency": "Department of Code Enforcement",
    "final_address": "7448 Burke Ave",
    "address_councildis": "E",
    "status": "Pending",
    "rowid": "1186703",
    "final_x": "3705697.02711",
    "final_y": "562389.227039",
    "longitude": "-89.99052316575678",
    "latitude": "30.039617560880604",
    "geocoded_column": {
      "latitude": "30.039617560880604",
      "longitude": "-89.99052316575678"
    }
  },
  {
    "service_request": "2025-1186702",
    "request_type": "Trash/Recycling",
    "request_reason": "Illegal Dumping",
    "date_created": "2025-04-24T14:55:29.000",
    "date_modified": "2025-04-24T14:55:32.000",
    "request_status": "Pending",
    "responsible_agency": "Department of Sanitation",
    "final_address": "5936 Airway St",
    "address_councildis": "D",
    "status": "Pending",
    "rowid": "1186702",
    "final_x": "3696470.58538",
    "final_y": "552800.036182",
    "longitude": "-90.02002870799811",
    "latitude": "30.01354501657649",
    "geocoded_column": {
      "latitude": "30.01354501657649",
      "longitude": "-90.02002870799811"
    }
  },
  {
    "service_request": "2025-1186701",
    "request_type": "Abandoned Vehicles",
    "request_reason": "Abandoned/Junk Vehicles",
    "date_created": "2025-04-24T14:54:32.000",
    "date_modified": "2025-04-24T14:56:35.000",
    "request_status": "Pending",
    "responsible_agency": "Department of Public Works",
    "final_address": "LOUISA DR & MIRABEAU AVE",
    "address_councildis": "D",
    "status": "Pending",
    "rowid": "1186701",
    "final_x": "3690799.3",
    "final_y": "551499.58",
    "longitude": "-90.03799339245658",
    "latitude": "30.010146754074434",
    "geocoded_column": {
      "latitude": "30.010146754074434",
      "longitude": "-90.03799339245658"
    }
  },
  {
    "service_request": "2025-1186700",
    "request_type": "Trash/Recycling",
    "request_reason": "Replace Trash Cart",
    "date_created": "2025-04-24T14:54:24.000",
    "date_modified": "2025-04-24T14:54:25.000",
    "request_status": "Pending",
    "responsible_agency": "Department of Sanitation",
    "final_address": "1801 Nie Prkwy",
    "address_councildis": "C",
    "status": "Assigned to Contractor",
    "contractor": "Richards Disposal",
    "rowid": "1186700",
    "final_x": "3701094.44177",
    "final_y": "524265.42662",
    "longitude": "-90.00646381027909",
    "latitude": "29.934938678930216",
    "geocoded_column": {
      "latitude": "29.934938678930216",
      "longitude": "-90.00646381027909"
    }
  },
  {
    "service_request": "2025-1186699",
    "request_type": "Utility Poles",
    "request_reason": "Utility Pole Leaning",
    "date_created": "2025-04-24T14:54:18.000",
    "date_modified": "2025-04-24T14:54:21.000",
    "request_status": "Pending",
    "responsible_agency": "Utility Company Collective",
    "final_address": "1815 Kerlerec St",
    "address_councildis": "D",
    "status": "Pending",
    "rowid": "1186699",
    "final_x": "3680847.60437",
    "final_y": "537442.59988",
    "longitude": "-90.06992414803906",
    "latitude": "29.97180060087676",
    "geocoded_column": {
      "latitude": "29.97180060087676",
      "longitude": "-90.06992414803906"
    }
  },
  {
    "service_request": "2025-1186698",
    "request_type": "Abandoned Vehicles",
    "request_reason": "Abandoned/Junk Vehicles",
    "date_created": "2025-04-24T14:53:04.000",
    "date_modified": "2025-04-24T14:53:06.000",
    "request_status": "Pending",
    "responsible_agency": "Department of Public Works",
    "final_address": "800 BLK Melpomene St",
    "address_councildis": "B",
    "status": "Pending",
    "rowid": "1186698",
    "final_x": "3681649.19277",
    "final_y": "524603.127091",
    "longitude": "-90.06784044180259",
    "latitude": "29.93647207298302",
    "geocoded_column": {
      "latitude": "29.93647207298302",
      "longitude": "-90.06784044180259"
    }
  },
  {
    "service_request": "2025-1186697",
    "request_type": "Trash/Recycling",
    "request_reason": "Missed Trash Pick-Up",
    "date_created": "2025-04-24T14:52:53.000",
    "date_modified": "2025-04-24T14:52:55.000",
    "request_status": "Pending",
    "responsible_agency": "Department of Sanitation",
    "final_address": "4518 Sierra Madre Dr",
    "address_councildis": "E",
    "status": "Assigned to Contractor",
    "contractor": "Waste Pro",
    "rowid": "1186697",
    "final_x": "3713936.85419",
    "final_y": "555409.677465",
    "longitude": "-89.96474654627855",
    "latitude": "30.020158493965184",
    "geocoded_column": {
      "latitude": "30.020158493965184",
      "longitude": "-89.96474654627855"
    }
  },
  {
    "service_request": "2025-1186696",
    "request_type": "Trash/Recycling",
    "request_reason": "Order Recycling Cart",
    "date_created": "2025-04-24T14:49:32.000",
    "date_modified": "2025-04-24T14:49:34.000",
    "request_status": "Pending",
    "responsible_agency": "Department of Sanitation",
    "final_address": "2323 Madrid St",
    "address_councildis": "D",
    "status": "Pending",
    "rowid": "1186696",
    "final_x": "3684444.50953",
    "final_y": "555490.788633",
    "longitude": "-90.05793014000395",
    "latitude": "30.0213171168758",
    "geocoded_column": {
      "latitude": "30.0213171168758",
      "longitude": "-90.05793014000395"
    }
  },
  {
    "service_request": "2025-1186695",
    "request_type": "Trash/Recycling",
    "request_reason": "Repair Recycling Cart",
    "date_created": "2025-04-24T14:46:23.000",
    "date_modified": "2025-04-24T14:46:25.000",
    "request_status": "Pending",
    "responsible_agency": "Department of Sanitation",
    "final_address": "6217 Paris Ave",
    "address_councildis": "D",
    "status": "Pending",
    "rowid": "1186695",
    "final_x": "3678981.9819",
    "final_y": "555718.729497",
    "longitude": "-90.07518231235376",
    "latitude": "30.022109922963047",
    "geocoded_column": {
      "latitude": "30.022109922963047",
      "longitude": "-90.07518231235376"
    }
  },
  {
    "service_request": "2025-1186694",
    "request_type": "Street and Traffic Signs",
    "request_reason": "Traffic or Parking Sign Damaged or Missing",
    "date_created": "2025-04-24T14:40:37.000",
    "date_modified": "2025-04-24T14:40:39.000",
    "request_status": "Pending",
    "responsible_agency": "Department of Public Works",
    "final_address": "2032 S Carrollton Ave",
    "address_councildis": "A",
    "status": "Pending",
    "rowid": "1186694",
    "final_x": "3664025.31322",
    "final_y": "530686.665986",
    "longitude": "-90.12327712905319",
    "latitude": "29.95372328912856",
    "geocoded_column": {
      "latitude": "29.95372328912856",
      "longitude": "-90.12327712905319"
    }
  },
  {
    "service_request": "2025-1186693",
    "request_type": "Trash/Recycling",
    "request_reason": "Repair Trash Cart",
    "date_created": "2025-04-24T14:40:04.000",
    "date_modified": "2025-04-24T14:40:05.000",
    "request_status": "Pending",
    "responsible_agency": "Department of Sanitation",
    "final_address": "5643 Durbridge Dr",
    "address_councildis": "C",
    "status": "Assigned to Contractor",
    "contractor": "Richards Disposal",
    "rowid": "1186693",
    "final_x": "3704647.78442",
    "final_y": "521690.013881",
    "longitude": "-89.99534097327665",
    "latitude": "29.927743575761237",
    "geocoded_column": {
      "latitude": "29.927743575761237",
      "longitude": "-89.99534097327665"
    }
  },
  {
    "service_request": "2025-1186692",
    "request_type": "Parks & Parkways",
    "request_reason": "Request Tree Service (Right of Way/Public Property)",
    "date_created": "2025-04-24T14:36:52.000",
    "date_modified": "2025-04-24T14:36:55.000",
    "request_status": "Pending",
    "responsible_agency": "Department of Parks & Parkway",
    "final_address": "6300 Dauphine St",
    "address_councildis": "E",
    "status": "Pending",
    "rowid": "1186692",
    "final_x": "3699712.06391",
    "final_y": "531916.510019",
    "longitude": "-90.01054909173708",
    "latitude": "29.956020417188466",
    "geocoded_column": {
      "latitude": "29.956020417188466",
      "longitude": "-90.01054909173708"
    }
  },
  {
    "service_request": "2025-1186691",
    "request_type": "Trash/Recycling",
    "request_reason": "Order Second Trash Cart",
    "date_created": "2025-04-24T14:35:53.000",
    "date_modified": "2025-04-24T14:35:55.000",
    "request_status": "Pending",
    "responsible_agency": "Department of Sanitation",
    "final_address": "2442 Alabo St",
    "address_councildis": "E",
    "status": "Assigned to Contractor",
    "contractor": "Waste Pro",
    "rowid": "1186691",
    "final_x": "3700274.23101",
    "final_y": "538754.321993",
    "longitude": "-90.00852433508152",
    "latitude": "29.97480408859937",
    "geocoded_column": {
      "latitude": "29.97480408859937",
      "longitude": "-90.00852433508152"
    }
  },
  {
    "service_request": "2025-1186690",
    "request_type": "Safety & Permits",
    "request_reason": "Licenses & Permits",
    "date_created": "2025-04-24T14:35:24.000",
    "date_modified": "2025-04-24T14:35:26.000",
    "request_status": "Pending",
    "responsible_agency": "Safety and Permits",
    "final_address": "4250 San Remo St",
    "address_councildis": "E",
    "status": "Pending",
    "rowid": "1186690",
    "final_x": "3760552.35382",
    "final_y": "572860.089321",
    "longitude": "-89.81673033567998",
    "latitude": "30.066526006322945",
    "geocoded_column": {
      "latitude": "30.066526006322945",
      "longitude": "-89.81673033567998"
    }
  },
  {
    "service_request": "2025-1186689",
    "request_type": "General Services",
    "request_reason": "General Service Request",
    "date_created": "2025-04-24T14:34:15.000",
    "date_modified": "2025-04-24T14:34:17.000",
    "request_status": "Pending",
    "responsible_agency": "Orleans Parish Communication District",
    "final_address": "4425 St Claude Ave",
    "address_councildis": "D",
    "status": "Pending",
    "rowid": "1186689",
    "final_x": "3693317.20873",
    "final_y": "535081.630406",
    "longitude": "-90.03062813423618",
    "latitude": "29.96492482750057",
    "geocoded_column": {
      "latitude": "29.96492482750057",
      "longitude": "-90.03062813423618"
    }
  },
  {
    "service_request": "2025-1186688",
    "request_type": "Trash/Recycling",
    "request_reason": "Request a Large Item Pick Up",
    "date_created": "2025-04-24T14:34:01.000",
    "date_modified": "2025-04-24T14:34:03.000",
    "request_status": "Pending",
    "responsible_agency": "Department of Sanitation",
    "final_address": "616 Poland Ave",
    "address_councildis": "C",
    "status": "Assigned to Contractor",
    "contractor": "IV Waste",
    "rowid": "1186688",
    "final_x": "3692554.34269",
    "final_y": "533325.013188",
    "longitude": "-90.03310015554823",
    "latitude": "29.96011857279911",
    "geocoded_column": {
      "latitude": "29.96011857279911",
      "longitude": "-90.03310015554823"
    }
  },
  {
    "service_request": "2025-1186687",
    "request_type": "Trash/Recycling",
    "request_reason": "Illegal Dumping",
    "date_created": "2025-04-24T14:33:35.000",
    "date_modified": "2025-04-24T14:33:38.000",
    "request_status": "Pending",
    "responsible_agency": "Department of Sanitation",
    "final_address": "4820 N Miro St",
    "address_councildis": "E",
    "status": "Pending",
    "rowid": "1186687",
    "final_x": "3696357.73968",
    "final_y": "538530.332873",
    "longitude": "-90.02090163463018",
    "latitude": "29.974312127575605",
    "geocoded_column": {
      "latitude": "29.974312127575605",
      "longitude": "-90.02090163463018"
    }
  },
  {
    "service_request": "2025-1186686",
    "request_type": "Trash/Recycling",
    "request_reason": "Request a Large Item Pick Up",
    "date_created": "2025-04-24T14:30:30.000",
    "date_modified": "2025-04-24T14:30:33.000",
    "request_status": "Pending",
    "responsible_agency": "Department of Sanitation",
    "final_address": "5616 N Rampart St",
    "address_councildis": "E",
    "status": "Assigned to Contractor",
    "contractor": "Waste Pro",
    "rowid": "1186686",
    "final_x": "3698065.18314",
    "final_y": "533256.392068",
    "longitude": "-90.01570069309913",
    "latitude": "29.959756791917872",
    "geocoded_column": {
      "latitude": "29.959756791917872",
      "longitude": "-90.01570069309913"
    }
  },
  {
    "service_request": "2025-1186685",
    "request_type": "Trash/Recycling",
    "request_reason": "Repair Trash Cart",
    "date_created": "2025-04-24T14:26:54.000",
    "date_modified": "2025-04-24T14:26:56.000",
    "request_status": "Pending",
    "responsible_agency": "Department of Sanitation",
    "final_address": "3030 Louisiana Avenue Prkwy",
    "address_councildis": "B",
    "status": "Assigned to Contractor",
    "contractor": "IV Waste",
    "rowid": "1186685",
    "final_x": "3672028.95444",
    "final_y": "526453.88851",
    "longitude": "-90.09814898097038",
    "latitude": "29.941849706774594",
    "geocoded_column": {
      "latitude": "29.941849706774594",
      "longitude": "-90.09814898097038"
    }
  },
  {
    "service_request": "2025-1186684",
    "request_type": "Trash/Recycling",
    "request_reason": "Missed Trash Pick-Up",
    "date_created": "2025-04-24T14:25:44.000",
    "date_modified": "2025-04-24T15:34:47.000",
    "case_close_date": "2025-04-24T10:34:46.000",
    "request_status": "Closed",
    "responsible_agency": "Department of Sanitation",
    "final_address": "3224 Toledano St",
    "address_councildis": "B",
    "status": "Invalid Request",
    "contractor": "IV Waste",
    "contractor_action": "Invalid",
    "rowid": "1186684",
    "final_x": "3672040.72609",
    "final_y": "527533.500415",
    "longitude": "-90.09807506978677",
    "latitude": "29.944817937919186",
    "geocoded_column": {
      "latitude": "29.944817937919186",
      "longitude": "-90.09807506978677"
    }
  },
  {
    "service_request": "2025-1186683",
    "request_type": "Trash/Recycling",
    "request_reason": "Missed Trash Pick-Up",
    "date_created": "2025-04-24T14:25:03.000",
    "date_modified": "2025-04-24T15:34:15.000",
    "case_close_date": "2025-04-24T10:34:14.000",
    "request_status": "Closed",
    "responsible_agency": "Department of Sanitation",
    "final_address": "3226 Toledano St",
    "address_councildis": "B",
    "status": "Invalid Request",
    "contractor": "IV Waste",
    "contractor_action": "Invalid",
    "rowid": "1186683",
    "final_x": "3672033.64276",
    "final_y": "527541.000383",
    "longitude": "-90.09809717877629",
    "latitude": "29.944838770342407",
    "geocoded_column": {
      "latitude": "29.944838770342407",
      "longitude": "-90.09809717877629"
    }
  },
  {
    "service_request": "2025-1186682",
    "request_type": "Drainage",
    "request_reason": "Catch Basin Damaged",
    "date_created": "2025-04-24T14:24:58.000",
    "date_modified": "2025-04-24T14:24:59.000",
    "request_status": "Pending",
    "responsible_agency": "Sewerage & Water Board",
    "final_address": "1916 Pace Blvd",
    "address_councildis": "C",
    "status": "Pending",
    "rowid": "1186682",
    "final_x": "3694514.27862",
    "final_y": "523507.980219",
    "longitude": "-90.02726447523264",
    "latitude": "29.93306383799318",
    "geocoded_column": {
      "latitude": "29.93306383799318",
      "longitude": "-90.02726447523264"
    }
  },
  {
    "service_request": "2025-1186681",
    "request_type": "Roads and Streets",
    "request_reason": "Debris in Driving Lanes",
    "date_created": "2025-04-24T14:24:29.000",
    "date_modified": "2025-04-24T14:25:38.000",
    "request_status": "Pending",
    "responsible_agency": "Department of Public Works",
    "final_address": "2622 Constance St",
    "address_councildis": "B",
    "status": "Pending",
    "rowid": "1186681",
    "final_x": "3677628.65538",
    "final_y": "520713.924153",
    "longitude": "-90.08066766829985",
    "latitude": "29.925899519299865",
    "geocoded_column": {
      "latitude": "29.925899519299865",
      "longitude": "-90.08066766829985"
    }
  },
  {
    "service_request": "2025-1186680",
    "request_type": "Trash/Recycling",
    "request_reason": "Request a Large Item Pick Up",
    "date_created": "2025-04-24T14:21:04.000",
    "date_modified": "2025-04-24T14:21:06.000",
    "request_status": "Pending",
    "responsible_agency": "Department of Sanitation",
    "final_address": "4848 Francisco Verrett Dr",
    "address_councildis": "E",
    "status": "Assigned to Contractor",
    "contractor": "Waste Pro",
    "rowid": "1186680",
    "final_x": "3704096.96567",
    "final_y": "555902.700185",
    "longitude": "-89.99581909121962",
    "latitude": "30.021833601777598",
    "geocoded_column": {
      "latitude": "30.021833601777598",
      "longitude": "-89.99581909121962"
    }
  },
  {
    "service_request": "2025-1186679",
    "request_type": "Safety & Permits",
    "request_reason": "Zoning Enforcement",
    "date_created": "2025-04-24T14:20:41.000",
    "date_modified": "2025-04-24T14:20:42.000",
    "request_status": "Pending",
    "responsible_agency": "Safety and Permits",
    "final_address": "6959 Deanne St",
    "address_councildis": "D",
    "status": "Pending",
    "rowid": "1186679",
    "final_x": "3695721.14506",
    "final_y": "556479.575642",
    "longitude": "-90.02226351808844",
    "latitude": "30.023685959863215",
    "geocoded_column": {
      "latitude": "30.023685959863215",
      "longitude": "-90.02226351808844"
    }
  },
  {
    "service_request": "2025-1186678",
    "request_type": "Trash/Recycling",
    "request_reason": "Illegal Dumping",
    "date_created": "2025-04-24T14:18:18.000",
    "date_modified": "2025-04-24T14:18:20.000",
    "request_status": "Pending",
    "responsible_agency": "Department of Sanitation",
    "final_address": "6600 Old Gentilly Rd",
    "address_councildis": "E",
    "status": "Pending",
    "rowid": "1186678",
    "final_x": "3698961.10781",
    "final_y": "551066.582037",
    "longitude": "-90.01222315145581",
    "latitude": "30.008699946802174",
    "geocoded_column": {
      "latitude": "30.008699946802174",
      "longitude": "-90.01222315145581"
    }
  },
  {
    "service_request": "2025-1186677",
    "request_type": "Trash/Recycling",
    "request_reason": "Damaged Caused By Contractor",
    "date_created": "2025-04-24T14:15:43.000",
    "date_modified": "2025-04-24T14:15:45.000",
    "request_status": "Pending",
    "responsible_agency": "Department of Sanitation",
    "final_address": "2469 Gladiolus St",
    "address_councildis": "D",
    "status": "Assigned to Contractor",
    "contractor": "IV Waste",
    "rowid": "1186677",
    "final_x": "3686146.28457",
    "final_y": "547480.060882",
    "longitude": "-90.05283587442428",
    "latitude": "29.99923834823161",
    "geocoded_column": {
      "latitude": "29.99923834823161",
      "longitude": "-90.05283587442428"
    }
  },
  {
    "service_request": "2025-1186676",
    "request_type": "Drainage",
    "request_reason": "Ditch and Culvert Maintenance",
    "date_created": "2025-04-24T14:14:13.000",
    "date_modified": "2025-04-24T14:14:15.000",
    "request_status": "Pending",
    "responsible_agency": "Department of Public Works",
    "final_address": "7722 Hickman St",
    "address_councildis": "E",
    "status": "Pending",
    "rowid": "1186676",
    "final_x": "3705909.59454",
    "final_y": "563588.400416",
    "longitude": "-89.98980695804248",
    "latitude": "30.042907961410407",
    "geocoded_column": {
      "latitude": "30.042907961410407",
      "longitude": "-89.98980695804248"
    }
  },
  {
    "service_request": "2025-1186675",
    "request_type": "Trash/Recycling",
    "request_reason": "Replace Trash Cart",
    "date_created": "2025-04-24T14:08:48.000",
    "date_modified": "2025-04-24T14:08:49.000",
    "request_status": "Pending",
    "responsible_agency": "Department of Sanitation",
    "final_address": "2018 Tupelo St",
    "address_councildis": "E",
    "status": "Assigned to Contractor",
    "contractor": "Waste Pro",
    "rowid": "1186675",
    "final_x": "3700742.23991",
    "final_y": "536691.125895",
    "longitude": "-90.00712167338398",
    "latitude": "29.96911615935357",
    "geocoded_column": {
      "latitude": "29.96911615935357",
      "longitude": "-90.00712167338398"
    }
  },
  {
    "service_request": "2025-1186674",
    "request_type": "Trash/Recycling",
    "request_reason": "Replace Trash Cart",
    "date_created": "2025-04-24T14:08:08.000",
    "date_modified": "2025-04-24T14:08:10.000",
    "request_status": "Pending",
    "responsible_agency": "Department of Sanitation",
    "final_address": "4610 Lennox Blvd",
    "address_councildis": "C",
    "status": "Assigned to Contractor",
    "contractor": "Richards Disposal",
    "rowid": "1186674",
    "final_x": "3700851.62321",
    "final_y": "513751.210866",
    "longitude": "-90.007614420725",
    "latitude": "29.906035919005962",
    "geocoded_column": {
      "latitude": "29.906035919005962",
      "longitude": "-90.007614420725"
    }
  },
  {
    "service_request": "2025-1186673",
    "request_type": "Trash/Recycling",
    "request_reason": "Missed Trash Pick-Up",
    "date_created": "2025-04-24T14:07:42.000",
    "date_modified": "2025-04-24T15:33:20.000",
    "case_close_date": "2025-04-24T10:33:20.000",
    "request_status": "Closed",
    "responsible_agency": "Department of Sanitation",
    "final_address": "4425 S Roman St",
    "address_councildis": "B",
    "status": "Invalid Request",
    "contractor": "IV Waste",
    "contractor_action": "Invalid",
    "rowid": "1186673",
    "final_x": "3669997.70855",
    "final_y": "526633.250814",
    "longitude": "-90.10455599205035",
    "latitude": "29.942402946116587",
    "geocoded_column": {
      "latitude": "29.942402946116587",
      "longitude": "-90.10455599205035"
    }
  },
  {
    "service_request": "2025-1186672",
    "request_type": "Streetlights",
    "request_reason": "Streetlight Outage/Malfunction",
    "date_created": "2025-04-24T14:06:25.000",
    "date_modified": "2025-04-24T14:06:28.000",
    "request_status": "Pending",
    "responsible_agency": "Department of Public Works",
    "final_address": "5309 Spain St",
    "address_councildis": "D",
    "status": "Pending",
    "contractor": "Legacy Professional Services",
    "rowid": "1186672",
    "final_x": "3684871.991",
    "final_y": "552668.232662",
    "longitude": "-90.05667878555364",
    "latitude": "30.013543034412653",
    "geocoded_column": {
      "latitude": "30.013543034412653",
      "longitude": "-90.05667878555364"
    }
  },
  {
    "service_request": "2025-1186671",
    "request_type": "Streetlights",
    "request_reason": "Streetlight Outage/Malfunction",
    "date_created": "2025-04-24T14:05:57.000",
    "date_modified": "2025-04-24T14:05:59.000",
    "request_status": "Pending",
    "responsible_agency": "Department of Public Works",
    "final_address": "7722 Hickman St",
    "address_councildis": "E",
    "status": "Pending",
    "contractor": "Legacy Professional Services",
    "rowid": "1186671",
    "final_x": "3705909.59454",
    "final_y": "563588.400416",
    "longitude": "-89.98980695804248",
    "latitude": "30.042907961410407",
    "geocoded_column": {
      "latitude": "30.042907961410407",
      "longitude": "-89.98980695804248"
    }
  },
  {
    "service_request": "2025-1186670",
    "request_type": "Drainage",
    "request_reason": "Catch Basin Clogged",
    "date_created": "2025-04-24T14:05:57.000",
    "date_modified": "2025-04-24T14:05:58.000",
    "request_status": "Pending",
    "responsible_agency": "Sewerage & Water Board",
    "final_address": "4504 St Claude Ave",
    "address_councildis": "C",
    "status": "Pending",
    "rowid": "1186670",
    "final_x": "3693357.06473",
    "final_y": "534866.475398",
    "longitude": "-90.03050999730534",
    "latitude": "29.96433198111983",
    "geocoded_column": {
      "latitude": "29.96433198111983",
      "longitude": "-90.03050999730534"
    }
  },
  {
    "service_request": "2025-1186669",
    "request_type": "Abandoned Vehicles",
    "request_reason": "Abandoned/Junk Vehicles",
    "date_created": "2025-04-24T13:52:06.000",
    "date_modified": "2025-04-24T15:08:51.000",
    "request_status": "Pending",
    "responsible_agency": "Department of Public Works",
    "final_address": "1000 Elmira Ave",
    "address_councildis": "C",
    "status": "Inspected",
    "rowid": "1186669",
    "final_x": "3688165.55279",
    "final_y": "527900.745023",
    "longitude": "-90.04715124362684",
    "latitude": "29.94533990669692",
    "geocoded_column": {
      "latitude": "29.94533990669692",
      "longitude": "-90.04715124362684"
    }
  },
  {
    "service_request": "2025-1186668",
    "request_type": "Trash/Recycling",
    "request_reason": "Repair Trash Cart",
    "date_created": "2025-04-24T13:51:45.000",
    "date_modified": "2025-04-24T13:51:47.000",
    "request_status": "Pending",
    "responsible_agency": "Department of Sanitation",
    "final_address": "519 Socrates St",
    "address_councildis": "C",
    "status": "Assigned to Contractor",
    "contractor": "Richards Disposal",
    "rowid": "1186668",
    "final_x": "3687286.44444",
    "final_y": "526381.626046",
    "longitude": "-90.04998058139762",
    "latitude": "29.94118994888838",
    "geocoded_column": {
      "latitude": "29.94118994888838",
      "longitude": "-90.04998058139762"
    }
  },
  {
    "service_request": "2025-1186667",
    "request_type": "Trash/Recycling",
    "request_reason": "Illegal Dumping",
    "date_created": "2025-04-24T13:51:25.000",
    "date_modified": "2025-04-24T13:51:27.000",
    "request_status": "Pending",
    "responsible_agency": "Department of Sanitation",
    "final_address": "1901 Lamanche St",
    "address_councildis": "E",
    "status": "Pending",
    "rowid": "1186667",
    "final_x": "3699222.1786",
    "final_y": "536700.314823",
    "longitude": "-90.01192177034584",
    "latitude": "29.96918971377243",
    "geocoded_column": {
      "latitude": "29.96918971377243",
      "longitude": "-90.01192177034584"
    }
  },
  {
    "service_request": "2025-1186666",
    "request_type": "Roads and Streets",
    "request_reason": "Abandoned Service Cut",
    "date_created": "2025-04-24T13:48:12.000",
    "date_modified": "2025-04-24T22:15:10.000",
    "request_status": "Pending",
    "responsible_agency": "Department of Public Works",
    "final_address": "CHEF MENTEUR HWY & FLAKE AVE",
    "address_councildis": "E",
    "status": "Pending",
    "rowid": "1186666",
    "final_x": "3706336.5",
    "final_y": "553145.28",
    "longitude": "-89.98884503618441",
    "latitude": "30.014179691174405",
    "geocoded_column": {
      "latitude": "30.014179691174405",
      "longitude": "-89.98884503618441"
    }
  },
  {
    "service_request": "2025-1186665",
    "request_type": "Roads and Streets",
    "request_reason": "Sidewalk Damaged or Missing",
    "date_created": "2025-04-24T13:47:30.000",
    "date_modified": "2025-04-24T13:47:31.000",
    "request_status": "Pending",
    "responsible_agency": "Department of Public Works",
    "final_address": "3501 Magnolia St",
    "address_councildis": "B",
    "status": "Pending",
    "rowid": "1186665",
    "final_x": "3672151.12443",
    "final_y": "524994.421885",
    "longitude": "-90.09781294884901",
    "latitude": "29.937833026780385",
    "geocoded_column": {
      "latitude": "29.937833026780385",
      "longitude": "-90.09781294884901"
    }
  },
  {
    "service_request": "2025-1186664",
    "request_type": "Abandoned Vehicles",
    "request_reason": "Abandoned/Junk Vehicles",
    "date_created": "2025-04-24T13:40:29.000",
    "date_modified": "2025-04-24T13:40:31.000",
    "request_status": "Pending",
    "responsible_agency": "Department of Public Works",
    "final_address": "2002 St Andrew St",
    "address_councildis": "B",
    "status": "Pending",
    "rowid": "1186664",
    "final_x": "3677116.83016",
    "final_y": "525400.264829",
    "longitude": "-90.08212181200746",
    "latitude": "29.93880080032774",
    "geocoded_column": {
      "latitude": "29.93880080032774",
      "longitude": "-90.08212181200746"
    }
  },
  {
    "service_request": "2025-1186663",
    "request_type": "Trash/Recycling",
    "request_reason": "Order Trash Cart",
    "date_created": "2025-04-24T13:38:41.000",
    "date_modified": "2025-04-24T13:40:21.000",
    "request_status": "Pending",
    "responsible_agency": "Department of Sanitation",
    "final_address": "3039 N Galvez St",
    "address_councildis": "D",
    "status": "Assigned to Contractor",
    "contractor": "IV Waste",
    "rowid": "1186663",
    "final_x": "3689726.63766",
    "final_y": "539872.926218",
    "longitude": "-90.04179635436185",
    "latitude": "29.978210958537975",
    "geocoded_column": {
      "latitude": "29.978210958537975",
      "longitude": "-90.04179635436185"
    }
  },
  {
    "service_request": "2025-1186662",
    "request_type": "Drainage",
    "request_reason": "Catch Basin Clogged",
    "date_created": "2025-04-24T13:33:02.000",
    "date_modified": "2025-04-24T13:37:34.000",
    "request_status": "Pending",
    "responsible_agency": "Sewerage & Water Board",
    "final_address": "2318 Gentilly Blvd",
    "address_councildis": "D",
    "status": "Pending",
    "rowid": "1186662",
    "final_x": "3681017.90274",
    "final_y": "544607.489487",
    "longitude": "-90.06913666845362",
    "latitude": "29.9914963825638",
    "geocoded_column": {
      "latitude": "29.9914963825638",
      "longitude": "-90.06913666845362"
    }
  },
  {
    "service_request": "2025-1186661",
    "request_type": "Trash/Recycling",
    "request_reason": "Request a Large Item Pick Up",
    "date_created": "2025-04-24T13:29:06.000",
    "date_modified": "2025-04-24T13:29:08.000",
    "request_status": "Pending",
    "responsible_agency": "Department of Sanitation",
    "final_address": "4435 America St",
    "address_councildis": "E",
    "status": "Assigned to Contractor",
    "contractor": "Waste Pro",
    "rowid": "1186661",
    "final_x": "3699921.92855",
    "final_y": "553401.338135",
    "longitude": "-90.00910238069012",
    "latitude": "30.015089148793216",
    "geocoded_column": {
      "latitude": "30.015089148793216",
      "longitude": "-90.00910238069012"
    }
  },
  {
    "service_request": "2025-1186660",
    "request_type": "Streetlights",
    "request_reason": "Streetlight Outage/Malfunction",
    "date_created": "2025-04-24T13:27:53.000",
    "date_modified": "2025-04-24T13:27:55.000",
    "request_status": "Pending",
    "responsible_agency": "Department of Public Works",
    "final_address": "2346 Gentilly Blvd",
    "address_councildis": "D",
    "status": "Pending",
    "contractor": "Legacy Professional Services",
    "rowid": "1186660",
    "final_x": "3681228.15932",
    "final_y": "544741.591183",
    "longitude": "-90.0684678387133",
    "latitude": "29.99185873469841",
    "geocoded_column": {
      "latitude": "29.99185873469841",
      "longitude": "-90.0684678387133"
    }
  },
  {
    "service_request": "2025-1186659",
    "request_type": "Trash/Recycling",
    "request_reason": "Repair Trash Cart",
    "date_created": "2025-04-24T13:27:46.000",
    "date_modified": "2025-04-24T13:27:49.000",
    "request_status": "Pending",
    "responsible_agency": "Department of Sanitation",
    "final_address": "1524 Owens Blvd",
    "address_councildis": "D",
    "status": "Assigned to Contractor",
    "contractor": "IV Waste",
    "rowid": "1186659",
    "final_x": "3679054.4797",
    "final_y": "548964.223635",
    "longitude": "-90.07518758103444",
    "latitude": "30.00353527717865",
    "geocoded_column": {
      "latitude": "30.00353527717865",
      "longitude": "-90.07518758103444"
    }
  },
  {
    "service_request": "2025-1186658",
    "request_type": "Trash/Recycling",
    "request_reason": "Request a Large Item Pick Up",
    "date_created": "2025-04-24T13:24:31.000",
    "date_modified": "2025-04-24T13:24:32.000",
    "request_status": "Pending",
    "responsible_agency": "Department of Sanitation",
    "final_address": "1026 Delaronde St",
    "address_councildis": "C",
    "status": "Assigned to Contractor",
    "contractor": "Richards Disposal",
    "rowid": "1186658",
    "final_x": "3688821.82646",
    "final_y": "531188.106754",
    "longitude": "-90.04496248164055",
    "latitude": "29.95435875171074",
    "geocoded_column": {
      "latitude": "29.95435875171074",
      "longitude": "-90.04496248164055"
    }
  },
  {
    "service_request": "2025-1186657",
    "request_type": "Trash/Recycling",
    "request_reason": "Request a Large Item Pick Up",
    "date_created": "2025-04-24T13:22:00.000",
    "date_modified": "2025-04-24T13:22:02.000",
    "request_status": "Pending",
    "responsible_agency": "Department of Sanitation",
    "final_address": "1411 Burbank Dr",
    "address_councildis": "D",
    "status": "Assigned to Contractor",
    "contractor": "IV Waste",
    "rowid": "1186657",
    "final_x": "3677574.3348",
    "final_y": "554302.73276",
    "longitude": "-90.0796790779699",
    "latitude": "30.018258868820748",
    "geocoded_column": {
      "latitude": "30.018258868820748",
      "longitude": "-90.0796790779699"
    }
  },
  {
    "service_request": "2025-1186656",
    "request_type": "Trash/Recycling",
    "request_reason": "Request a Large Item Pick Up",
    "date_created": "2025-04-24T13:21:21.000",
    "date_modified": "2025-04-24T13:21:23.000",
    "request_status": "Pending",
    "responsible_agency": "Department of Sanitation",
    "final_address": "3530 Constance St",
    "address_councildis": "B",
    "status": "Assigned to Contractor",
    "contractor": "IV Waste",
    "rowid": "1186656",
    "final_x": "3674348.02875",
    "final_y": "518932.267255",
    "longitude": "-90.0910846234869",
    "latitude": "29.92109874410639",
    "geocoded_column": {
      "latitude": "29.92109874410639",
      "longitude": "-90.0910846234869"
    }
  },