[
  {
    "service_request": "2026-1297300",
    "request_type": "Streetlights",
    "request_reason": "Streetlight Outage/Malfunction",
    "date_created": "2026-07-06T22:37:54.000",
    "date_modified": "2026-07-06T22:37:56.000",
    "request_status": "Pending",
    "responsible_agency": "Department of Public Works",
    "final_address": "2200 Louisiana Ave",
    "address_councildis": "B",
    "status": "Pending",
    "rowid": "1297300",
    "final_x": "3673275.55617",
    "final_y": "523537.744955",
    "longitude": "-90.09431274857724",
    "latitude": "29.93379425257843",
    "geocoded_column": {
      "latitude": "29.93379425257843",
      "longitude": "-90.09431274857724"
    }
  },
  {
    "service_request": "2026-1297299",
    "request_type": "Streetlights",
    "request_reason": "Streetlight Outage/Malfunction",
    "date_created": "2026-07-06T22:35:53.000",
    "date_modified": "2026-07-06T22:35:54.000",
    "request_status": "Pending",
    "responsible_agency": "Department of Public Works",
    "final_address": "2200 Louisiana Ave",
    "address_councildis": "B",
    "status": "Pending",
    "rowid": "1297299",
    "final_x": "3673275.55617",
    "final_y": "523537.744955",
    "longitude": "-90.09431274857724",
    "latitude": "29.93379425257843",
    "geocoded_column": {
      "latitude": "29.93379425257843",
      "longitude": "-90.09431274857724"
    }
  },
  {
    "service_request": "2026-1297298",
    "request_type": "Trash/Recycling",
    "request_reason": "Request a Large Item Pick Up",
    "date_created": "2026-07-06T22:32:35.000",
    "date_modified": "2026-07-06T22:32:39.000",
    "request_status": "Pending",
    "responsible_agency": "Department of Sanitation",
    "final_address": "5508 Hawthorne Pl",
    "address_councildis": "A",
    "status": "Assigned to Contractor",
    "contractor": "IV Waste",
    "rowid": "1297298",
    "final_x": "3667741.50612",
    "final_y": "544287.391183",
    "longitude": "-90.1110848067295",
    "latitude": "29.99101230293315",
    "geocoded_column": {
      "latitude": "29.99101230293315",
      "longitude": "-90.1110848067295"
    }
  },
  {
    "service_request": "2026-1297297",
    "request_type": "Trash/Recycling",
    "request_reason": "Request a Large Item Pick Up",
    "date_created": "2026-07-06T22:16:45.000",
    "date_modified": "2026-07-06T22:16:47.000",
    "request_status": "Pending",
    "responsible_agency": "Department of Sanitation",
    "final_address": "4717 Viola St",
    "address_councildis": "E",
    "status": "Assigned to Contractor",
    "contractor": "Waste Pro",
    "rowid": "1297297",
    "final_x": "3704031.80772",
    "final_y": "555058.258329",
    "longitude": "-89.99605611173331",
    "latitude": "30.019513803137713",
    "geocoded_column": {
      "latitude": "30.019513803137713",
      "longitude": "-89.99605611173331"
    }
  },
  {
    "service_request": "2026-1297296",
    "request_type": "Property Maintenance",
    "request_reason": "Property Maintenance",
    "date_created": "2026-07-06T22:05:33.000",
    "date_modified": "2026-07-06T22:05:35.000",
    "request_status": "Pending",
    "responsible_agency": "Department of Code Enforcement",
    "final_address": "2755 Edna St",
    "address_councildis": "D",
    "status": "Pending",
    "rowid": "1297296",
    "final_x": "3689830.97513",
    "final_y": "545377.01416",
    "longitude": "-90.04127079785832",
    "latitude": "29.9933419950957",
    "geocoded_column": {
      "latitude": "29.9933419950957",
      "longitude": "-90.04127079785832"
    }
  },
  {
    "service_request": "2026-1297295",
    "request_type": "Abandoned Vehicles",
    "request_reason": "Abandoned/Junk Vehicles",
    "date_created": "2026-07-06T21:38:15.000",
    "date_modified": "2026-07-06T21:38:16.000",
    "request_status": "Pending",
    "responsible_agency": "Department of Public Works",
    "final_address": "9028 Chef Menteur Hwy",
    "address_councildis": "E",
    "status": "Pending",
    "rowid": "1297295",
    "final_x": "3709108.18398",
    "final_y": "553517.248919",
    "longitude": "-89.98007410926994",
    "latitude": "30.01511274712377",
    "geocoded_column": {
      "latitude": "30.01511274712377",
      "longitude": "-89.98007410926994"
    }
  },
  {
    "service_request": "2026-1297294",
    "request_type": "Drainage",
    "request_reason": "Catch Basin Not Draining",
    "date_created": "2026-07-06T21:35:45.000",
    "date_modified": "2026-07-06T21:35:48.000",
    "request_status": "Pending",
    "responsible_agency": "Sewerage & Water Board",
    "final_address": "518 Walnut St",
    "address_councildis": "A",
    "status": "Pending",
    "rowid": "1297294",
    "final_x": "3663029.47898",
    "final_y": "523813.527931",
    "longitude": "-90.1266501235132",
    "latitude": "29.934853236362184",
    "geocoded_column": {
      "latitude": "29.934853236362184",
      "longitude": "-90.1266501235132"
    }
  },
  {
    "service_request": "2026-1297293",
    "request_type": "Streetlights",
    "request_reason": "Streetlight Outage/Malfunction",
    "date_created": "2026-07-06T21:30:23.000",
    "date_modified": "2026-07-06T21:30:28.000",
    "request_status": "Pending",
    "responsible_agency": "Department of Public Works",
    "final_address": "6035 General Diaz St",
    "address_councildis": "A",
    "status": "Pending",
    "rowid": "1297293",
    "final_x": "3669622.37466",
    "final_y": "547456.429713",
    "longitude": "-90.10503626365627",
    "latitude": "29.999670764823797",
    "geocoded_column": {
      "latitude": "29.999670764823797",
      "longitude": "-90.10503626365627"
    }
  },
  {
    "service_request": "2026-1297292",
    "request_type": "Parks & Grass Service",
    "request_reason": "Request Grass Cutting Service (City Owned Property)",
    "date_created": "2026-07-06T21:19:10.000",
    "date_modified": "2026-07-06T21:19:12.000",
    "request_status": "Pending",
    "responsible_agency": "Department of Parks & Parkways",
    "final_address": "1701 Hillary St",
    "address_councildis": "A",
    "status": "Pending",
    "rowid": "1297292",
    "final_x": "3664506.58228",
    "final_y": "528429.208128",
    "longitude": "-90.12183284086257",
    "latitude": "29.947502026158155",
    "geocoded_column": {
      "latitude": "29.947502026158155",
      "longitude": "-90.12183284086257"
    }
  },
  {
    "service_request": "2026-1297291",
    "request_type": "Street and Traffic Signs",
    "request_reason": "Street Name Sign Damaged or Missing",
    "date_created": "2026-07-06T21:03:22.000",
    "date_modified": "2026-07-06T21:03:23.000",
    "request_status": "Pending",
    "responsible_agency": "Department of Public Works",
    "final_address": "34 Vivian Ct",
    "address_councildis": "C",
    "status": "Pending",
    "rowid": "1297291",
    "final_x": "3702284.50135",
    "final_y": "521010.723897",
    "longitude": "-90.00282614141814",
    "latitude": "29.925951431624426",
    "geocoded_column": {
      "latitude": "29.925951431624426",
      "longitude": "-90.00282614141814"
    }
  },
  {
    "service_request": "2026-1297290",
    "request_type": "Healthy Homes",
    "request_reason": "Healthy Homes",
    "date_created": "2026-07-06T21:01:40.000",
    "date_modified": "2026-07-06T21:01:42.000",
    "request_status": "Pending",
    "responsible_agency": "Department of Code Enforcement",
    "final_address": "282 Audubon St",
    "address_councildis": "A",
    "status": "Pending",
    "rowid": "1297290",
    "final_x": "3661390.95206",
    "final_y": "521894.457402",
    "longitude": "-90.1318864838228",
    "latitude": "29.929623739803247",
    "geocoded_column": {
      "latitude": "29.929623739803247",
      "longitude": "-90.1318864838228"
    }
  },
  {
    "service_request": "2026-1297289",
    "request_type": "Trash/Recycling",
    "request_reason": "Missed Trash Pick-Up",
    "date_created": "2026-07-06T20:51:14.000",
    "date_modified": "2026-07-06T20:51:15.000",
    "request_status": "Pending",
    "responsible_agency": "Department of Sanitation",
    "final_address": "1629 Washington Ave",
    "address_councildis": "B",
    "status": "Assigned to Contractor",
    "contractor": "IV Waste",
    "rowid": "1297289",
    "final_x": "3675845.54472",
    "final_y": "522803.958587",
    "longitude": "-90.0862246188927",
    "latitude": "29.931699916139575",
    "geocoded_column": {
      "latitude": "29.931699916139575",
      "longitude": "-90.0862246188927"
    }
  },
  {
    "service_request": "2026-1297288",
    "request_type": "Trash/Recycling",
    "request_reason": "Order Trash Cart",
    "date_created": "2026-07-06T20:47:12.000",
    "date_modified": "2026-07-06T20:47:16.000",
    "request_status": "Pending",
    "responsible_agency": "Department of Sanitation",
    "final_address": "3922 Hamilton St",
    "address_councildis": "A",
    "status": "Assigned to Contractor",
    "contractor": "IV Waste",
    "rowid": "1297288",
    "final_x": "3665937.62029",
    "final_y": "538029.444809",
    "longitude": "-90.11699271545757",
    "latitude": "29.97385784382911",
    "geocoded_column": {
      "latitude": "29.97385784382911",
      "longitude": "-90.11699271545757"
    }
  },
  {
    "service_request": "2026-1297287",
    "request_type": "Trash/Recycling",
    "request_reason": "Missed Trash Pick-Up",
    "date_created": "2026-07-06T20:28:43.000",
    "date_modified": "2026-07-06T20:28:51.000",
    "request_status": "Pending",
    "responsible_agency": "Department of Sanitation",
    "final_address": "5711 Bancroft Dr",
    "address_councildis": "D",
    "status": "Assigned to Contractor",
    "contractor": "IV Waste",
    "rowid": "1297287",
    "final_x": "3676578.9924",
    "final_y": "553404.685143",
    "longitude": "-90.08285495741183",
    "latitude": "30.01581946720152",
    "geocoded_column": {
      "latitude": "30.01581946720152",
      "longitude": "-90.08285495741183"
    }
  },
  {
    "service_request": "2026-1297286",
    "request_type": "Streetlights",
    "request_reason": "Streetlight Outage/Malfunction",
    "date_created": "2026-07-06T20:26:51.000",
    "date_modified": "2026-07-06T20:26:53.000",
    "request_status": "Pending",
    "responsible_agency": "Department of Public Works",
    "final_address": "3719 Timber Wolf Ln",
    "address_councildis": "C",
    "status": "Pending",
    "rowid": "1297286",
    "final_x": "3704140.25303",
    "final_y": "510662.236975",
    "longitude": "-89.99734900441263",
    "latitude": "29.897437256736044",
    "geocoded_column": {
      "latitude": "29.897437256736044",
      "longitude": "-89.99734900441263"
    }
  },
  {
    "service_request": "2026-1297285",
    "request_type": "Roads and Streets",
    "request_reason": "Debris in Driving Lanes",
    "date_created": "2026-07-06T20:26:09.000",
    "date_modified": "2026-07-06T20:26:11.000",
    "request_status": "Pending",
    "responsible_agency": "Department of Public Works",
    "final_address": "6140 Kingston Ct",
    "address_councildis": "C",
    "status": "Pending",
    "rowid": "1297285",
    "final_x": "3706797.8371",
    "final_y": "517813.336118",
    "longitude": "-89.98869743581308",
    "latitude": "29.9170148552168",
    "geocoded_column": {
      "latitude": "29.9170148552168",
      "longitude": "-89.98869743581308"
    }
  },
  {
    "service_request": "2026-1297284",
    "request_type": "Safety & Permits",
    "request_reason": "Licenses & Permits",
    "date_created": "2026-07-06T20:17:10.000",
    "date_modified": "2026-07-06T20:17:14.000",
    "request_status": "Pending",
    "responsible_agency": "Safety and Permits",
    "final_address": "6640 Lincoln Beach Blvd",
    "address_councildis": "E",
    "status": "Pending",
    "rowid": "1297284",
    "final_x": "3697454.42365",
    "final_y": "560628.644638",
    "longitude": "-90.01663608650651",
    "latitude": "30.0350396642001",
    "geocoded_column": {
      "latitude": "30.0350396642001",
      "longitude": "-90.01663608650651"
    }
  },
  {
    "service_request": "2026-1297283",
    "request_type": "Street and Traffic Signs",
    "request_reason": "Crosswalk Signage Damaged or Missing",
    "date_created": "2026-07-06T20:01:32.000",
    "date_modified": "2026-07-06T20:01:33.000",
    "request_status": "Pending",
    "responsible_agency": "Department of Public Works",
    "final_address": "1042 Franklin Ave",
    "address_councildis": "C",
    "status": "Pending",
    "rowid": "1297283",
    "final_x": "3687079.08553",
    "final_y": "536441.998023",
    "longitude": "-90.05027959096962",
    "latitude": "29.968858899088517",
    "geocoded_column": {
      "latitude": "29.968858899088517",
      "longitude": "-90.05027959096962"
    }
  },
  {
    "service_request": "2026-1297282",
    "request_type": "Roads and Streets",
    "request_reason": "Debris in Driving Lanes",
    "date_created": "2026-07-06T19:59:24.000",
    "date_modified": "2026-07-06T19:59:25.000",
    "request_status": "Pending",
    "responsible_agency": "Department of Public Works",
    "final_address": "3401 Marais St",
    "address_councildis": "C",
    "status": "Pending",
    "rowid": "1297282",
    "final_x": "3690407.61296",
    "final_y": "536068.640391",
    "longitude": "-90.03978123930173",
    "latitude": "29.967729394244813",
    "geocoded_column": {
      "latitude": "29.967729394244813",
      "longitude": "-90.03978123930173"
    }
  },
  {
    "service_request": "2026-1297281",
    "request_type": "Streetlights",
    "request_reason": "Streetlight Outage/Malfunction",
    "date_created": "2026-07-06T19:54:58.000",
    "date_modified": "2026-07-06T19:55:00.000",
    "request_status": "Pending",
    "responsible_agency": "Department of Public Works",
    "final_address": "108 Neil Ave",
    "address_councildis": "C",
    "status": "Pending",
    "rowid": "1297281",
    "final_x": "3705948.17387",
    "final_y": "518833.316855",
    "longitude": "-89.99134160368092",
    "latitude": "29.91984683768692",
    "geocoded_column": {
      "latitude": "29.91984683768692",
      "longitude": "-89.99134160368092"
    }
  },
  {
    "service_request": "2026-1297280",
    "request_type": "Trash/Recycling",
    "request_reason": "Replace Recycling Cart",
    "date_created": "2026-07-06T19:54:21.000",
    "date_modified": "2026-07-06T19:54:23.000",
    "request_status": "Pending",
    "responsible_agency": "Department of Sanitation",
    "final_address": "4527 Constance St",
    "address_councildis": "B",
    "status": "Pending",
    "rowid": "1297280",
    "final_x": "3670465.16577",
    "final_y": "518394.94079",
    "longitude": "-90.10335932053194",
    "latitude": "29.91973644493919",
    "geocoded_column": {
      "latitude": "29.91973644493919",
      "longitude": "-90.10335932053194"
    }
  },
  {
    "service_request": "2026-1297279",
    "request_type": "Trash/Recycling",
    "request_reason": "Request a Large Item Pick Up",
    "date_created": "2026-07-06T19:41:13.000",
    "date_modified": "2026-07-06T19:43:46.000",
    "request_status": "Pending",
    "responsible_agency": "Department of Sanitation",
    "final_address": "1754 Shirley Dr",
    "address_councildis": "C",
    "status": "Assigned to Contractor",
    "contractor": "Richards Disposal",
    "rowid": "1297279",
    "final_x": "3693056.86313",
    "final_y": "523535.001211",
    "longitude": "-90.03186444584163",
    "latitude": "29.933183733888107",
    "geocoded_column": {
      "latitude": "29.933183733888107",
      "longitude": "-90.03186444584163"
    }
  },
  {
    "service_request": "2026-1297278",
    "request_type": "Trash/Recycling",
    "request_reason": "Request a Large Item Pick Up",
    "date_created": "2026-07-06T19:35:37.000",
    "date_modified": "2026-07-06T19:35:39.000",
    "request_status": "Pending",
    "responsible_agency": "Department of Sanitation",
    "final_address": "203 Walker St",
    "address_councildis": "A",
    "status": "Assigned to Contractor",
    "contractor": "IV Waste",
    "rowid": "1297278",
    "final_x": "3667189.63265",
    "final_y": "554129.934616",
    "longitude": "-90.11249679909052",
    "latitude": "30.018092055464933",
    "geocoded_column": {
      "latitude": "30.018092055464933",
      "longitude": "-90.11249679909052"
    }
  },
  {
    "service_request": "2026-1297277",
    "request_type": "Parks & Grass Service",
    "request_reason": "Request Grass Cutting Service (City Owned Property)",
    "date_created": "2026-07-06T19:35:23.000",
    "date_modified": "2026-07-06T19:35:26.000",
    "request_status": "Pending",
    "responsible_agency": "Department of Parks & Parkways",
    "final_address": "1500 St Roch Ave",
    "address_councildis": "C",
    "status": "Pending",
    "rowid": "1297277",
    "final_x": "3686297.54025",
    "final_y": "537931.246601",
    "longitude": "-90.05269519049259",
    "latitude": "29.972977852767453",
    "geocoded_column": {
      "latitude": "29.972977852767453",
      "longitude": "-90.05269519049259"
    }
  },
  {
    "service_request": "2026-1297276",
    "request_type": "Streetlights",
    "request_reason": "Streetlight Outage/Malfunction",
    "date_created": "2026-07-06T19:19:05.000",
    "date_modified": "2026-07-06T19:19:06.000",
    "request_status": "Pending",
    "responsible_agency": "Department of Public Works",
    "final_address": "13056 Biscay St",
    "address_councildis": "E",
    "status": "Pending",
    "rowid": "1297276",
    "final_x": "3724136.74291",
    "final_y": "561606.397343",
    "longitude": "-89.93227914606689",
    "latitude": "30.036858029649977",
    "geocoded_column": {
      "latitude": "30.036858029649977",
      "longitude": "-89.93227914606689"
    }
  },
  {
    "service_request": "2026-1297275",
    "request_type": "Tree Service",
    "request_reason": "Dead or Dying Tree",
    "date_created": "2026-07-06T19:18:51.000",
    "date_modified": "2026-07-06T19:18:53.000",
    "request_status": "Pending",
    "responsible_agency": "Department of Parks & Parkways",
    "final_address": "7711 Benjamin St",
    "address_councildis": "A",
    "status": "Pending",
    "rowid": "1297275",
    "final_x": "3660882.03162",
    "final_y": "525141.579325",
    "longitude": "-90.13338571708049",
    "latitude": "29.93856696755448",
    "geocoded_column": {
      "latitude": "29.93856696755448",
      "longitude": "-90.13338571708049"
    }
  },
  {
    "service_request": "2026-1297274",
    "request_type": "Homeless Related Request",
    "request_reason": "Homeless Encampment Complaint",
    "date_created": "2026-07-06T19:13:52.000",
    "date_modified": "2026-07-06T19:13:55.000",
    "request_status": "Pending",
    "responsible_agency": "Office Of Homeless Services And Strategy",
    "final_address": "Memphis Street & Virginia Court",
    "address_councildis": "A",
    "status": "Pending",
    "rowid": "1297274",
    "final_x": "3668660.6402",
    "final_y": "542310.545549",
    "longitude": "-90.10824823232751",
    "latitude": "29.985549662279702",
    "geocoded_column": {
      "latitude": "29.985549662279702",
      "longitude": "-90.10824823232751"
    }
  },
  {
    "service_request": "2026-1297273",
    "request_type": "Streetlights",
    "request_reason": "Streetlight Outage/Malfunction",
    "date_created": "2026-07-06T19:12:48.000",
    "date_modified": "2026-07-06T19:12:49.000",
    "request_status": "Pending",
    "responsible_agency": "Department of Public Works",
    "final_address": "13056 Biscay St",
    "address_councildis": "E",
    "status": "Pending",
    "rowid": "1297273",
    "final_x": "3724136.74291",
    "final_y": "561606.397343",
    "longitude": "-89.93227914606689",
    "latitude": "30.036858029649977",
    "geocoded_column": {
      "latitude": "30.036858029649977",
      "longitude": "-89.93227914606689"
    }
  },
  {
    "service_request": "2026-1297272",
    "request_type": "Trash/Recycling",
    "request_reason": "Repair Trash Cart",
    "date_created": "2026-07-06T19:11:54.000",
    "date_modified": "2026-07-06T19:11:57.000",
    "request_status": "Pending",
    "responsible_agency": "Department of Sanitation",
    "final_address": "4843 Corinne St",
    "address_councildis": "E",
    "status": "Assigned to Contractor",
    "contractor": "Waste Pro",
    "rowid": "1297272",
    "final_x": "3715067.19352",
    "final_y": "557302.799067",
    "longitude": "-89.9611034333544",
    "latitude": "30.02532665821529",
    "geocoded_column": {
      "latitude": "30.02532665821529",
      "longitude": "-89.9611034333544"
    }
  },
  {
    "service_request": "2026-1297271",
    "request_type": "Trash/Recycling",
    "request_reason": "Replace Trash Cart",
    "date_created": "2026-07-06T18:26:44.000",
    "date_modified": "2026-07-06T18:26:46.000",
    "request_status": "Pending",
    "responsible_agency": "Department of Sanitation",
    "final_address": "4820 Warrington Dr",
    "address_councildis": "D",
    "status": "Assigned to Contractor",
    "contractor": "IV Waste",
    "rowid": "1297271",
    "final_x": "3681073.89167",
    "final_y": "550267.37762",
    "longitude": "-90.06876250324943",
    "latitude": "30.007057359573366",
    "geocoded_column": {
      "latitude": "30.007057359573366",
      "longitude": "-90.06876250324943"
    }
  },
  {
    "service_request": "2026-1297270",
    "request_type": "Trash/Recycling",
    "request_reason": "Request a Large Item Pick Up",
    "date_created": "2026-07-06T18:20:08.000",
    "date_modified": "2026-07-06T18:20:10.000",
    "request_status": "Pending",
    "responsible_agency": "Department of Sanitation",
    "final_address": "630 Pine St",
    "address_councildis": "A",
    "status": "Assigned to Contractor",
    "contractor": "IV Waste",
    "rowid": "1297270",
    "final_x": "3662828.27936",
    "final_y": "525184.107965",
    "longitude": "-90.12723976678225",
    "latitude": "29.938627721833665",
    "geocoded_column": {
      "latitude": "29.938627721833665",
      "longitude": "-90.12723976678225"
    }
  },
  {
    "service_request": "2026-1297269",
    "request_type": "Tree Service",
    "request_reason": "Tree Trim",
    "date_created": "2026-07-06T18:12:57.000",
    "date_modified": "2026-07-06T18:13:00.000",
    "request_status": "Pending",
    "responsible_agency": "Department of Parks & Parkways",
    "final_address": "919 Short St",
    "address_councildis": "A",
    "status": "Pending",
    "rowid": "1297269",
    "final_x": "3661713.52685",
    "final_y": "527384.388991",
    "longitude": "-90.13068626794377",
    "latitude": "29.944710012364858",
    "geocoded_column": {
      "latitude": "29.944710012364858",
      "longitude": "-90.13068626794377"
    }
  },
  {
    "service_request": "2026-1297268",
    "request_type": "Trash/Recycling",
    "request_reason": "Request a Large Item Pick Up",
    "date_created": "2026-07-06T17:51:59.000",
    "date_modified": "2026-07-06T17:52:02.000",
    "request_status": "Pending",
    "responsible_agency": "Department of Sanitation",
    "final_address": "7506 Briarheath Dr",
    "address_councildis": "E",
    "status": "Assigned to Contractor",
    "contractor": "Waste Pro",
    "rowid": "1297268",
    "final_x": "3714776.62034",
    "final_y": "567092.816036",
    "longitude": "-89.96165127044453",
    "latitude": "30.052254824523214",
    "geocoded_column": {
      "latitude": "30.052254824523214",
      "longitude": "-89.96165127044453"
    }
  },
  {
    "service_request": "2026-1297267",
    "request_type": "Street and Traffic Signs",
    "request_reason": "Traffic or Parking Sign Damaged or Missing",
    "date_created": "2026-07-06T17:31:09.000",
    "date_modified": "2026-07-06T17:31:11.000",
    "request_status": "Pending",
    "responsible_agency": "Department of Public Works",
    "final_address": "6000 BLK Bullard Ave",
    "address_councildis": "E",
    "status": "Pending",
    "rowid": "1297267",
    "final_x": "3715847.03251",
    "final_y": "563765.539251",
    "longitude": "-89.95839424479725",
    "latitude": "30.043070894280685",
    "geocoded_column": {
      "latitude": "30.043070894280685",
      "longitude": "-89.95839424479725"
    }
  },
  {
    "service_request": "2026-1297266",
    "request_type": "Abandoned Vehicles",
    "request_reason": "Abandoned/Junk Vehicles",
    "date_created": "2026-07-06T17:24:48.000",
    "date_modified": "2026-07-06T17:24:51.000",
    "request_status": "Pending",
    "responsible_agency": "Department of Public Works",
    "final_address": "4681 Western St",
    "address_councildis": "D",
    "status": "Pending",
    "rowid": "1297266",
    "final_x": "3684192.55369",
    "final_y": "550040.380564",
    "longitude": "-90.05891779208507",
    "latitude": "30.00633819366218",
    "geocoded_column": {
      "latitude": "30.00633819366218",
      "longitude": "-90.05891779208507"
    }
  },
  {
    "service_request": "2026-1297265",
    "request_type": "Trash/Recycling",
    "request_reason": "Request a Large Item Pick Up",
    "date_created": "2026-07-06T17:09:21.000",
    "date_modified": "2026-07-06T17:09:23.000",
    "request_status": "Pending",
    "responsible_agency": "Department of Sanitation",
    "final_address": "2823 Dante St",
    "address_councildis": "A",
    "status": "Assigned to Contractor",
    "contractor": "IV Waste",
    "rowid": "1297265",
    "final_x": "3665448.66292",
    "final_y": "533231.611972",
    "longitude": "-90.1186975811258",
    "latitude": "29.960679651999914",
    "geocoded_column": {
      "latitude": "29.960679651999914",
      "longitude": "-90.1186975811258"
    }
  },
  {
    "service_request": "2026-1297264",
    "request_type": "Abandoned Vehicles",
    "request_reason": "Abandoned/Junk Vehicles",
    "date_created": "2026-07-06T17:08:41.000",
    "date_modified": "2026-07-06T17:08:44.000",
    "request_status": "Pending",
    "responsible_agency": "Department of Public Works",
    "final_address": "2000 Prytania St",
    "address_councildis": "B",
    "status": "Pending",
    "rowid": "1297264",
    "final_x": "3678536.15112",
    "final_y": "523700.954363",
    "longitude": "-90.07769964593763",
    "latitude": "29.93408556457426",
    "geocoded_column": {
      "latitude": "29.93408556457426",
      "longitude": "-90.07769964593763"
    }
  },
  {
    "service_request": "2026-1297263",
    "request_type": "Street and Traffic Signs",
    "request_reason": "Stop Sign Missing or Damaged",
    "date_created": "2026-07-06T16:58:46.000",
    "date_modified": "2026-07-06T16:58:49.000",
    "request_status": "Pending",
    "responsible_agency": "Department of Public Works",
    "final_address": "2012 Camp St",
    "address_councildis": "B",
    "status": "Pending",
    "rowid": "1297263",
    "final_x": "3679224.36168",
    "final_y": "522795.853243",
    "longitude": "-90.0755583559419",
    "latitude": "29.931576079311704",
    "geocoded_column": {
      "latitude": "29.931576079311704",
      "longitude": "-90.0755583559419"
    }
  },
  {
    "service_request": "2026-1297262",
    "request_type": "Trash/Recycling",
    "request_reason": "Request a Large Item Pick Up",
    "date_created": "2026-07-06T16:57:45.000",
    "date_modified": "2026-07-06T16:57:47.000",
    "request_status": "Pending",
    "responsible_agency": "Department of Sanitation",
    "final_address": "7132 Salem Dr",
    "address_councildis": "E",
    "status": "Assigned to Contractor",
    "contractor": "Waste Pro",
    "rowid": "1297262",
    "final_x": "3706391.58302",
    "final_y": "561260.851806",
    "longitude": "-89.98837003365698",
    "latitude": "30.03649257598499",
    "geocoded_column": {
      "latitude": "30.03649257598499",
      "longitude": "-89.98837003365698"
    }
  },
  {
    "service_request": "2026-1297261",
    "request_type": "Trash/Recycling",
    "request_reason": "Illegal Dumping",
    "date_created": "2026-07-06T16:54:32.000",
    "date_modified": "2026-07-06T16:54:33.000",
    "request_status": "Pending",
    "responsible_agency": "Department of Sanitation",
    "final_address": "2529 Elder St",
    "address_councildis": "D",
    "status": "Pending",
    "rowid": "1297261",
    "final_x": "3686806.92111",
    "final_y": "545793.443792",
    "longitude": "-90.0508085485081",
    "latitude": "29.994580442235872",
    "geocoded_column": {
      "latitude": "29.994580442235872",
      "longitude": "-90.0508085485081"
    }
  },
  {
    "service_request": "2026-1297260",
    "request_type": "Trash/Recycling",
    "request_reason": "Repair Recycling Cart",
    "date_created": "2026-07-06T16:52:34.000",
    "date_modified": "2026-07-06T16:52:35.000",
    "request_status": "Pending",
    "responsible_agency": "Department of Sanitation",
    "final_address": "1420 Desire St",
    "address_councildis": "C",
    "status": "Pending",
    "rowid": "1297260",
    "final_x": "3690469.60694",
    "final_y": "537005.514824",
    "longitude": "-90.03955205462482",
    "latitude": "29.970303544709232",
    "geocoded_column": {
      "latitude": "29.970303544709232",
      "longitude": "-90.03955205462482"
    }
  },
  {
    "service_request": "2026-1297259",
    "request_type": "Trash/Recycling",
    "request_reason": "Request a Large Item Pick Up",
    "date_created": "2026-07-06T16:49:32.000",
    "date_modified": "2026-07-06T16:49:34.000",
    "request_status": "Pending",
    "responsible_agency": "Department of Sanitation",
    "final_address": "7616 Bullard Ave",
    "address_councildis": "E",
    "status": "Assigned to Contractor",
    "contractor": "Waste Pro",
    "rowid": "1297259",
    "final_x": "3713029.97368",
    "final_y": "567375.037156",
    "longitude": "-89.96716120993317",
    "latitude": "30.0530881936062",
    "geocoded_column": {
      "latitude": "30.0530881936062",
      "longitude": "-89.96716120993317"
    }
  },
  {
    "service_request": "2026-1297258",
    "request_type": "Safety & Permits",
    "request_reason": "Licenses & Permits",
    "date_created": "2026-07-06T16:47:56.000",
    "date_modified": "2026-07-06T16:47:58.000",
    "request_status": "Pending",
    "responsible_agency": "Safety and Permits",
    "final_address": "14211 Chef Menteur Hwy",
    "address_councildis": "E",
    "status": "Pending",
    "rowid": "1297258",
    "final_x": "3729815.82195",
    "final_y": "561325.235294",
    "longitude": "-89.91434332333519",
    "latitude": "30.035892795204653",
    "geocoded_column": {
      "latitude": "30.035892795204653",
      "longitude": "-89.91434332333519"
    }
  },
  {
    "service_request": "2026-1297257",
    "request_type": "Trash/Recycling",
    "request_reason": "Request a Large Item Pick Up",
    "date_created": "2026-07-06T16:47:22.000",
    "date_modified": "2026-07-06T16:47:23.000",
    "request_status": "Pending",
    "responsible_agency": "Department of Sanitation",
    "final_address": "8226 Panola St",
    "address_councildis": "A",
    "status": "Assigned to Contractor",
    "contractor": "IV Waste",
    "rowid": "1297257",
    "final_x": "3663652.99968",
    "final_y": "531061.824258",
    "longitude": "-90.12444024787916",
    "latitude": "29.95476565868568",
    "geocoded_column": {
      "latitude": "29.95476565868568",
      "longitude": "-90.12444024787916"
    }
  },
  {
    "service_request": "2026-1297256",
    "request_type": "Trash/Recycling",
    "request_reason": "Request a Large Item Pick Up",
    "date_created": "2026-07-06T16:44:54.000",
    "date_modified": "2026-07-06T16:44:56.000",
    "request_status": "Pending",
    "responsible_agency": "Department of Sanitation",
    "final_address": "5610 Red Maple Dr",
    "address_councildis": "E",
    "status": "Assigned to Contractor",
    "contractor": "Waste Pro",
    "rowid": "1297256",
    "final_x": "3723330.68831",
    "final_y": "564127.379809",
    "longitude": "-89.93472917474924",
    "latitude": "30.0438167692205",
    "geocoded_column": {
      "latitude": "30.0438167692205",
      "longitude": "-89.93472917474924"
    }
  },
  {
    "service_request": "2026-1297255",
    "request_type": "Trash/Recycling",
    "request_reason": "Order Recycling Cart",
    "date_created": "2026-07-06T16:43:22.000",
    "date_modified": "2026-07-06T16:43:24.000",
    "request_status": "Pending",
    "responsible_agency": "Department of Sanitation",
    "final_address": "2415 Memorial Park Dr",
    "address_councildis": "C",
    "status": "Pending",
    "rowid": "1297255",
    "final_x": "3692346.2104",
    "final_y": "521460.451513",
    "longitude": "-90.03418217537981",
    "latitude": "29.92750160076308",
    "geocoded_column": {
      "latitude": "29.92750160076308",
      "longitude": "-90.03418217537981"
    }
  },
  {
    "service_request": "2026-1297254",
    "request_type": "Trash/Recycling",
    "request_reason": "Order Trash Cart",
    "date_created": "2026-07-06T16:43:00.000",
    "date_modified": "2026-07-06T16:43:03.000",
    "request_status": "Pending",
    "responsible_agency": "Department of Sanitation",
    "final_address": "3533 S Liberty St",
    "address_councildis": "B",
    "status": "Assigned to Contractor",
    "contractor": "IV Waste",
    "rowid": "1297254",
    "final_x": "3672561.85659",
    "final_y": "523643.558523",
    "longitude": "-90.09656226379872",
    "latitude": "29.93410640661636",
    "geocoded_column": {
      "latitude": "29.93410640661636",
      "longitude": "-90.09656226379872"
    }
  },
  {
    "service_request": "2026-1297253",
    "request_type": "Safety & Permits",
    "request_reason": "Construction permit",
    "date_created": "2026-07-06T16:42:35.000",
    "date_modified": "2026-07-06T16:42:37.000",
    "request_status": "Pending",
    "responsible_agency": "Safety and Permits",
    "final_address": "4501 Marque Dr",
    "address_councildis": "E",
    "status": "Pending",
    "rowid": "1297253",
    "final_x": "3710286.13758",
    "final_y": "554199.691736",
    "longitude": "-89.97632683350508",
    "latitude": "30.01695089448695",
    "geocoded_column": {
      "latitude": "30.01695089448695",
      "longitude": "-89.97632683350508"
    }
  },
  {
    "service_request": "2026-1297252",
    "request_type": "Trash/Recycling",
    "request_reason": "Request a Large Item Pick Up",
    "date_created": "2026-07-06T16:40:59.000",
    "date_modified": "2026-07-06T16:41:02.000",
    "request_status": "Pending",
    "responsible_agency": "Department of Sanitation",
    "final_address": "4819 Warren Dr",
    "address_councildis": "E",
    "status": "Assigned to Contractor",
    "contractor": "Waste Pro",
    "rowid": "1297252",
    "final_x": "3713494.70571",
    "final_y": "556629.07337",
    "longitude": "-89.96609760865526",
    "latitude": "30.023525865337415",
    "geocoded_column": {
      "latitude": "30.023525865337415",
      "longitude": "-89.96609760865526"
    }
  },
  {
    "service_request": "2026-1297251",
    "request_type": "Trash/Recycling",
    "request_reason": "Request a Large Item Pick Up",
    "date_created": "2026-07-06T16:38:52.000",
    "date_modified": "2026-07-06T16:38:53.000",
    "request_status": "Pending",
    "responsible_agency": "Department of Sanitation",
    "final_address": "10821 Roger Dr",
    "address_councildis": "E",
    "status": "Assigned to Contractor",
    "contractor": "Waste Pro",
    "rowid": "1297251",
    "final_x": "3711728.0076",
    "final_y": "563182.724832",
    "longitude": "-89.9714338249306",
    "latitude": "30.041603647474425",
    "geocoded_column": {
      "latitude": "30.041603647474425",
      "longitude": "-89.9714338249306"
    }
  },
  {
    "service_request": "2026-1297250",
    "request_type": "Trash/Recycling",
    "request_reason": "Request a Large Item Pick Up",
    "date_created": "2026-07-06T16:37:38.000",
    "date_modified": "2026-07-06T16:37:43.000",
    "request_status": "Pending",
    "responsible_agency": "Department of Sanitation",
    "final_address": "10830 Roger Dr",
    "address_councildis": "E",
    "status": "Assigned to Contractor",
    "contractor": "Waste Pro",
    "rowid": "1297250",
    "final_x": "3711821.88101",
    "final_y": "563150.568032",
    "longitude": "-89.97113836173169",
    "latitude": "30.041512160991395",
    "geocoded_column": {
      "latitude": "30.041512160991395",
      "longitude": "-89.97113836173169"
    }
  },
  {
    "service_request": "2026-1297249",
    "request_type": "Trash/Recycling",
    "request_reason": "Order Trash Cart",
    "date_created": "2026-07-06T16:37:14.000",
    "date_modified": "2026-07-06T16:37:16.000",
    "request_status": "Pending",
    "responsible_agency": "Department of Sanitation",
    "final_address": "1904 N Tonti St",
    "address_councildis": "D",
    "status": "Assigned to Contractor",
    "contractor": "IV Waste",
    "rowid": "1297249",
    "final_x": "3682122.37474",
    "final_y": "540491.038219",
    "longitude": "-90.06579172826065",
    "latitude": "29.98014403674864",
    "geocoded_column": {
      "latitude": "29.98014403674864",
      "longitude": "-90.06579172826065"
    }
  },
  {
    "service_request": "2026-1297248",
    "request_type": "Trash/Recycling",
    "request_reason": "Request a Large Item Pick Up",
    "date_created": "2026-07-06T16:37:06.000",
    "date_modified": "2026-07-06T16:37:08.000",
    "request_status": "Pending",
    "responsible_agency": "Department of Sanitation",
    "final_address": "7826 Mayo Rd",
    "address_councildis": "E",
    "status": "Assigned to Contractor",
    "contractor": "Waste Pro",
    "rowid": "1297248",
    "final_x": "3700429.0113",
    "final_y": "561436.799134",
    "longitude": "-90.00720642210472",
    "latitude": "30.037167453537435",
    "geocoded_column": {
      "latitude": "30.037167453537435",
      "longitude": "-90.00720642210472"
    }
  },
  {
    "service_request": "2026-1297247",
    "request_type": "Trash/Recycling",
    "request_reason": "Request a Large Item Pick Up",
    "date_created": "2026-07-06T16:37:00.000",
    "date_modified": "2026-07-06T17:04:26.000",
    "request_status": "Pending",
    "responsible_agency": "Department of Sanitation",
    "final_address": "2918 Mandeville St Apt B",
    "address_councildis": "D",
    "status": "Pending",
    "contractor": "IV Waste",
    "rowid": "1297247",
    "final_x": "3685149.65052",
    "final_y": "543567.625038",
    "longitude": "-90.05612202511884",
    "latitude": "29.98851113500585",
    "geocoded_column": {
      "latitude": "29.98851113500585",
      "longitude": "-90.05612202511884"
    }
  },
  {
    "service_request": "2026-1297246",
    "request_type": "Trash/Recycling",
    "request_reason": "Request a Large Item Pick Up",
    "date_created": "2026-07-06T16:36:24.000",
    "date_modified": "2026-07-06T16:36:27.000",
    "request_status": "Pending",
    "responsible_agency": "Department of Sanitation",
    "final_address": "10900 Roger Dr",
    "address_councildis": "E",
    "status": "Assigned to Contractor",
    "contractor": "Waste Pro",
    "rowid": "1297246",
    "final_x": "3711926.30475",
    "final_y": "563227.913184",
    "longitude": "-89.9708054414871",
    "latitude": "30.041721415282215",
    "geocoded_column": {
      "latitude": "30.041721415282215",
      "longitude": "-89.9708054414871"
    }
  },
  {
    "service_request": "2026-1297245",
    "request_type": "Trash/Recycling",
    "request_reason": "Request a Large Item Pick Up",
    "date_created": "2026-07-06T16:33:57.000",
    "date_modified": "2026-07-06T16:33:58.000",
    "request_status": "Pending",
    "responsible_agency": "Department of Sanitation",
    "final_address": "10931 Roger Dr",
    "address_councildis": "E",
    "status": "Assigned to Contractor",
    "contractor": "Waste Pro",
    "rowid": "1297245",
    "final_x": "3711983.80453",
    "final_y": "563371.03248",
    "longitude": "-89.97061834358104",
    "latitude": "30.042113055697705",
    "geocoded_column": {
      "latitude": "30.042113055697705",
      "longitude": "-89.97061834358104"
    }
  },
  {
    "service_request": "2026-1297244",
    "request_type": "Tree Service",
    "request_reason": "Tree Trim",
    "date_created": "2026-07-06T16:33:27.000",
    "date_modified": "2026-07-06T16:33:29.000",
    "request_status": "Pending",
    "responsible_agency": "Department of Parks & Parkways",
    "final_address": "1400 BLK Caton St",
    "address_councildis": "D",
    "status": "Pending",
    "rowid": "1297244",
    "final_x": "3678234.50406",
    "final_y": "546877.827948",
    "longitude": "-90.07785023621521",
    "latitude": "29.99782315947358",
    "geocoded_column": {
      "latitude": "29.99782315947358",
      "longitude": "-90.07785023621521"
    }
  },
  {
    "service_request": "2026-1297243",
    "request_type": "Trash/Recycling",
    "request_reason": "Request a Large Item Pick Up",
    "date_created": "2026-07-06T16:32:41.000",
    "date_modified": "2026-07-06T16:32:43.000",
    "request_status": "Pending",
    "responsible_agency": "Department of Sanitation",
    "final_address": "10940 Roger Dr",
    "address_councildis": "E",
    "status": "Assigned to Contractor",
    "contractor": "Waste Pro",
    "rowid": "1297243",
    "final_x": "3712138.98622",
    "final_y": "563385.519136",
    "longitude": "-89.97012737042596",
    "latitude": "30.042147812759573",
    "geocoded_column": {
      "latitude": "30.042147812759573",
      "longitude": "-89.97012737042596"
    }
  },
  {
    "service_request": "2026-1297242",
    "request_type": "Tree Service",
    "request_reason": "Tree Trim",
    "date_created": "2026-07-06T16:32:23.000",
    "date_modified": "2026-07-06T16:32:25.000",
    "request_status": "Pending",
    "responsible_agency": "Department of Parks & Parkways",
    "final_address": "1400 BLK Caton St",
    "address_councildis": "D",
    "status": "Pending",
    "rowid": "1297242",
    "final_x": "3678234.50406",
    "final_y": "546877.827948",
    "longitude": "-90.07785023621521",
    "latitude": "29.99782315947358",
    "geocoded_column": {
      "latitude": "29.99782315947358",
      "longitude": "-90.07785023621521"
    }
  },
  {
    "service_request": "2026-1297241",
    "request_type": "Trash/Recycling",
    "request_reason": "Request a Large Item Pick Up",
    "date_created": "2026-07-06T16:31:22.000",
    "date_modified": "2026-07-06T16:31:23.000",
    "request_status": "Pending",
    "responsible_agency": "Department of Sanitation",
    "final_address": "10961 Roger Dr",
    "address_councildis": "E",
    "status": "Assigned to Contractor",
    "contractor": "Waste Pro",
    "rowid": "1297241",
    "final_x": "3712109.63474",
    "final_y": "563457.30288",
    "longitude": "-89.97021743259738",
    "latitude": "30.042346149307274",
    "geocoded_column": {
      "latitude": "30.042346149307274",
      "longitude": "-89.97021743259738"
    }
  },
  {
    "service_request": "2026-1297240",
    "request_type": "Trash/Recycling",
    "request_reason": "Request a Large Item Pick Up",
    "date_created": "2026-07-06T16:30:52.000",
    "date_modified": "2026-07-06T16:30:55.000",
    "request_status": "Pending",
    "responsible_agency": "Department of Sanitation",
    "final_address": "4800 Rosalia Dr",
    "address_councildis": "E",
    "status": "Assigned to Contractor",
    "contractor": "Waste Pro",
    "rowid": "1297240",
    "final_x": "3711082.1363",
    "final_y": "556321.578906",
    "longitude": "-89.97373228301849",
    "latitude": "30.022759309583435",
    "geocoded_column": {
      "latitude": "30.022759309583435",
      "longitude": "-89.97373228301849"
    }
  },
  {
    "service_request": "2026-1297239",
    "request_type": "Trash/Recycling",
    "request_reason": "Request a Large Item Pick Up",
    "date_created": "2026-07-06T16:30:12.000",
    "date_modified": "2026-07-06T16:30:14.000",
    "request_status": "Pending",
    "responsible_agency": "Department of Sanitation",
    "final_address": "11030 Roger Dr",
    "address_councildis": "E",
    "status": "Assigned to Contractor",
    "contractor": "Waste Pro",
    "rowid": "1297239",
    "final_x": "3712354.63301",
    "final_y": "563548.12368",
    "longitude": "-89.96943973403509",
    "latitude": "30.04258785378137",
    "geocoded_column": {
      "latitude": "30.04258785378137",
      "longitude": "-89.96943973403509"
    }
  },
  {
    "service_request": "2026-1297238",
    "request_type": "Streetlights",
    "request_reason": "Streetlight Outage/Malfunction",
    "date_created": "2026-07-06T16:29:25.000",
    "date_modified": "2026-07-06T16:29:26.000",
    "request_status": "Pending",
    "responsible_agency": "Department of Public Works",
    "final_address": "2811 Bennett St",
    "address_councildis": "C",
    "status": "Pending",
    "rowid": "1297238",
    "final_x": "3710444.70853",
    "final_y": "518913.985591",
    "longitude": "-89.97714536208902",
    "latitude": "29.9199230775601",
    "geocoded_column": {
      "latitude": "29.9199230775601",
      "longitude": "-89.97714536208902"
    }
  },
  {
    "service_request": "2026-1297237",
    "request_type": "Trash/Recycling",
    "request_reason": "Illegal Dumping",
    "date_created": "2026-07-06T16:28:57.000",
    "date_modified": "2026-07-06T16:28:58.000",
    "request_status": "Pending",
    "responsible_agency": "Department of Sanitation",
    "final_address": "1469 Prentiss Ave",
    "address_councildis": "D",
    "status": "Pending",
    "rowid": "1297237",
    "final_x": "3678054.78357",
    "final_y": "553488.466967",
    "longitude": "-90.07818922048547",
    "latitude": "30.016005469830223",
    "geocoded_column": {
      "latitude": "30.016005469830223",
      "longitude": "-90.07818922048547"
    }
  },
  {
    "service_request": "2026-1297236",
    "request_type": "Parks & Grass Service",
    "request_reason": "Request Grass Cutting Service (City Owned Property)",
    "date_created": "2026-07-06T16:28:53.000",
    "date_modified": "2026-07-06T16:28:54.000",
    "request_status": "Pending",
    "responsible_agency": "Department of Parks & Parkways",
    "final_address": "5600 BLK Wisner Blvd",
    "address_councildis": "A",
    "status": "Pending",
    "rowid": "1297236",
    "final_x": "3675768.50473",
    "final_y": "553177.374732",
    "longitude": "-90.08542355795096",
    "latitude": "30.015218740828868",
    "geocoded_column": {
      "latitude": "30.015218740828868",
      "longitude": "-90.08542355795096"
    }
  },
  {
    "service_request": "2026-1297235",
    "request_type": "Trash/Recycling",
    "request_reason": "Request a Large Item Pick Up",
    "date_created": "2026-07-06T16:28:21.000",
    "date_modified": "2026-07-06T16:28:24.000",
    "request_status": "Pending",
    "responsible_agency": "Department of Sanitation",
    "final_address": "11030 Roger Dr",
    "address_councildis": "E",
    "status": "Assigned to Contractor",
    "contractor": "Waste Pro",
    "rowid": "1297235",
    "final_x": "3712354.63301",
    "final_y": "563548.12368",
    "longitude": "-89.96943973403509",
    "latitude": "30.04258785378137",
    "geocoded_column": {
      "latitude": "30.04258785378137",
      "longitude": "-89.96943973403509"
    }
  },
  {
    "service_request": "2026-1297234",
    "request_type": "Trash/Recycling",
    "request_reason": "Request a Large Item Pick Up",
    "date_created": "2026-07-06T16:27:56.000",
    "date_modified": "2026-07-06T16:27:59.000",
    "request_status": "Pending",
    "responsible_agency": "Department of Sanitation",
    "final_address": "10830 Yardley Rd",
    "address_councildis": "E",
    "status": "Assigned to Contractor",
    "contractor": "Waste Pro",
    "rowid": "1297234",
    "final_x": "3711679.83922",
    "final_y": "563455.312096",
    "longitude": "-89.97157581507152",
    "latitude": "30.042354727067966",
    "geocoded_column": {
      "latitude": "30.042354727067966",
      "longitude": "-89.97157581507152"
    }
  },
  {
    "service_request": "2026-1297233",
    "request_type": "Trash/Recycling",
    "request_reason": "Order Trash Cart",
    "date_created": "2026-07-06T16:26:16.000",
    "date_modified": "2026-07-06T16:26:24.000",
    "request_status": "Pending",
    "responsible_agency": "Department of Sanitation",
    "final_address": "1924 Broadway St",
    "address_councildis": "A",
    "status": "Assigned to Contractor",
    "contractor": "IV Waste",
    "rowid": "1297233",
    "final_x": "3665654.44295",
    "final_y": "528804.889088",
    "longitude": "-90.11819600683415",
    "latitude": "29.94850160645685",
    "geocoded_column": {
      "latitude": "29.94850160645685",
      "longitude": "-90.11819600683415"
    }
  },
  {
    "service_request": "2026-1297232",
    "request_type": "Trash/Recycling",
    "request_reason": "Missed Trash Pick-Up",
    "date_created": "2026-07-06T16:25:10.000",
    "date_modified": "2026-07-06T16:25:13.000",
    "request_status": "Pending",
    "responsible_agency": "Department of Sanitation",
    "final_address": "7609 Shorewood Blvd",
    "address_councildis": "E",
    "status": "Assigned to Contractor",
    "contractor": "Waste Pro",
    "rowid": "1297232",
    "final_x": "3719898.1525",
    "final_y": "572788.565737",
    "longitude": "-89.94524574618318",
    "latitude": "30.06774618604276",
    "geocoded_column": {
      "latitude": "30.06774618604276",
      "longitude": "-89.94524574618318"
    }
  },
  {
    "service_request": "2026-1297231",
    "request_type": "Trash/Recycling",
    "request_reason": "Order Trash Cart",
    "date_created": "2026-07-06T16:20:09.000",
    "date_modified": "2026-07-06T16:20:11.000",
    "request_status": "Pending",
    "responsible_agency": "Department of Sanitation",
    "final_address": "6032 Lincoln Beach Blvd",
    "address_councildis": "E",
    "status": "Assigned to Contractor",
    "contractor": "Waste Pro",
    "rowid": "1297231",
    "final_x": "3695018.73763",
    "final_y": "560005.590365",
    "longitude": "-90.02435569620967",
    "latitude": "30.033403237377886",
    "geocoded_column": {
      "latitude": "30.033403237377886",
      "longitude": "-90.02435569620967"
    }
  },
  {
    "service_request": "2026-1297230",
    "request_type": "Streetlights",
    "request_reason": "Streetlight Outage/Malfunction",
    "date_created": "2026-07-06T16:19:11.000",
    "date_modified": "2026-07-06T16:19:13.000",
    "request_status": "Pending",
    "responsible_agency": "Department of Public Works",
    "final_address": "429 Leboeuf St",
    "address_councildis": "C",
    "status": "Pending",
    "rowid": "1297230",
    "final_x": "3689789.50006",
    "final_y": "529998.381505",
    "longitude": "-90.04194930004824",
    "latitude": "29.95105746481915",
    "geocoded_column": {
      "latitude": "29.95105746481915",
      "longitude": "-90.04194930004824"
    }
  },
  {
    "service_request": "2026-1297229",
    "request_type": "Trash/Recycling",
    "request_reason": "Request a Large Item Pick Up",
    "date_created": "2026-07-06T16:17:52.000",
    "date_modified": "2026-07-06T16:17:53.000",
    "request_status": "Pending",
    "responsible_agency": "Department of Sanitation",
    "final_address": "4509 Rosemont Pl",
    "address_councildis": "E",
    "status": "Assigned to Contractor",
    "contractor": "Waste Pro",
    "rowid": "1297229",
    "final_x": "3702929.58039",
    "final_y": "553623.002071",
    "longitude": "-89.99959154291491",
    "latitude": "30.015602722593886",
    "geocoded_column": {
      "latitude": "30.015602722593886",
      "longitude": "-89.99959154291491"
    }
  },
  {
    "service_request": "2026-1297228",
    "request_type": "Property Maintenance",
    "request_reason": "Property Maintenance",
    "date_created": "2026-07-06T16:15:57.000",
    "date_modified": "2026-07-06T16:15:59.000",
    "request_status": "Pending",
    "responsible_agency": "Department of Code Enforcement",
    "final_address": "1528 Fats Domino Ave",
    "address_councildis": "E",
    "status": "Pending",
    "rowid": "1297228",
    "final_x": "3698378.75946",
    "final_y": "535465.975942",
    "longitude": "-90.01463019595892",
    "latitude": "29.965822441544407",
    "geocoded_column": {
      "latitude": "29.965822441544407",
      "longitude": "-90.01463019595892"
    }
  },
  {
    "service_request": "2026-1297227",
    "request_type": "Trash/Recycling",
    "request_reason": "Request a Large Item Pick Up",
    "date_created": "2026-07-06T16:14:26.000",
    "date_modified": "2026-07-06T16:14:28.000",
    "request_status": "Pending",
    "responsible_agency": "Department of Sanitation",
    "final_address": "8603 Bill St",
    "address_councildis": "E",
    "status": "Assigned to Contractor",
    "contractor": "Waste Pro",
    "rowid": "1297227",
    "final_x": "3703728.47895",
    "final_y": "563251.28368",
    "longitude": "-89.99671254890941",
    "latitude": "30.04205116216645",
    "geocoded_column": {
      "latitude": "30.04205116216645",
      "longitude": "-89.99671254890941"
    }
  },
  {
    "service_request": "2026-1297226",
    "request_type": "Property Maintenance",
    "request_reason": "Property Maintenance",
    "date_created": "2026-07-06T16:11:49.000",
    "date_modified": "2026-07-06T16:11:50.000",
    "request_status": "Pending",
    "responsible_agency": "Department of Code Enforcement",
    "final_address": "7557 Shorewood Blvd",
    "address_councildis": "E",
    "status": "Pending",
    "rowid": "1297226",
    "final_x": "3720214.71071",
    "final_y": "572668.572137",
    "longitude": "-89.94424965528252",
    "latitude": "30.067405706138384",
    "geocoded_column": {
      "latitude": "30.067405706138384",
      "longitude": "-89.94424965528252"
    }
  },
  {
    "service_request": "2026-1297225",
    "request_type": "Property Maintenance",
    "request_reason": "Property Maintenance",
    "date_created": "2026-07-06T16:11:48.000",
    "date_modified": "2026-07-06T16:11:51.000",
    "request_status": "Pending",
    "responsible_agency": "Department of Code Enforcement",
    "final_address": "7557 Shorewood Blvd",
    "address_councildis": "E",
    "status": "Pending",
    "rowid": "1297225",
    "final_x": "3720214.71071",
    "final_y": "572668.572137",
    "longitude": "-89.94424965528252",
    "latitude": "30.067405706138384",
    "geocoded_column": {
      "latitude": "30.067405706138384",
      "longitude": "-89.94424965528252"
    }
  },
  {
    "service_request": "2026-1297224",
    "request_type": "Trash/Recycling",
    "request_reason": "Request a Large Item Pick Up",
    "date_created": "2026-07-06T16:10:39.000",
    "date_modified": "2026-07-06T16:10:41.000",
    "request_status": "Pending",
    "responsible_agency": "Department of Sanitation",
    "final_address": "8933 Bunker Hill Rd",
    "address_councildis": "E",
    "status": "Assigned to Contractor",
    "contractor": "Waste Pro",
    "rowid": "1297224",
    "final_x": "3705975.8122",
    "final_y": "561695.319647",
    "longitude": "-89.98966784311499",
    "latitude": "30.037700603467304",
    "geocoded_column": {
      "latitude": "30.037700603467304",
      "longitude": "-89.98966784311499"
    }
  },
  {
    "service_request": "2026-1297223",
    "request_type": "Trash/Recycling",
    "request_reason": "Request a Large Item Pick Up",
    "date_created": "2026-07-06T16:09:48.000",
    "date_modified": "2026-07-06T16:09:50.000",
    "request_status": "Pending",
    "responsible_agency": "Department of Sanitation",
    "final_address": "44 Marywood Ct",
    "address_councildis": "E",
    "status": "Assigned to Contractor",
    "contractor": "Waste Pro",
    "rowid": "1297223",
    "final_x": "3712233.94373",
    "final_y": "567025.747748",
    "longitude": "-89.96969035871096",
    "latitude": "30.052153862366005",
    "geocoded_column": {
      "latitude": "30.052153862366005",
      "longitude": "-89.96969035871096"
    }
  },
  {
    "service_request": "2026-1297222",
    "request_type": "Traffic Signals",
    "request_reason": "Traffic Signal Malfunctioning or Damaged",
    "date_created": "2026-07-06T16:09:39.000",
    "date_modified": "2026-07-06T16:09:41.000",
    "request_status": "Pending",
    "responsible_agency": "Department of Public Works",
    "final_address": "GENERAL DE GAULLE DR & GARDEN OAKS DR & WESTBEND PKWY",
    "address_councildis": "C",
    "status": "Pending",
    "rowid": "1297222",
    "final_x": "3696351.7",
    "final_y": "520532.68",
    "longitude": "-90.02157142374539",
    "latitude": "29.924825063772325",
    "geocoded_column": {
      "latitude": "29.924825063772325",
      "longitude": "-90.02157142374539"
    }
  },
  {
    "service_request": "2026-1297221",
    "request_type": "Street and Traffic Signs",
    "request_reason": "Additional Signage Request",
    "date_created": "2026-07-06T16:03:09.000",
    "date_modified": "2026-07-06T16:03:10.000",
    "request_status": "Pending",
    "responsible_agency": "Department of Public Works",
    "final_address": "THALIA ST & CLARA ST",
    "address_councildis": "B",
    "status": "Pending",
    "rowid": "1297221",
    "final_x": "3675805.6",
    "final_y": "528045.98",
    "longitude": "-90.0861706020606",
    "latitude": "29.94611495038447",
    "geocoded_column": {
      "latitude": "29.94611495038447",
      "longitude": "-90.0861706020606"
    }
  },
  {
    "service_request": "2026-1297220",
    "request_type": "Traffic Safety",
    "request_reason": "Request for Traffic Calming due to Speeding",
    "date_created": "2026-07-06T16:03:04.000",
    "date_modified": "2026-07-06T16:03:06.000",
    "request_status": "Pending",
    "responsible_agency": "Department of Public Works",
    "final_address": "6200 BLK Waldo Dr",
    "address_councildis": "D",
    "status": "Pending",
    "rowid": "1297220",
    "final_x": "3681085.56266",
    "final_y": "555894.18754",
    "longitude": "-90.068529409177",
    "latitude": "30.022528690448688",
    "geocoded_column": {
      "latitude": "30.022528690448688",
      "longitude": "-90.068529409177"
    }
  },
  {
    "service_request": "2026-1297219",
    "request_type": "Trash/Recycling",
    "request_reason": "Request a Large Item Pick Up",
    "date_created": "2026-07-06T16:02:10.000",
    "date_modified": "2026-07-06T16:02:12.000",
    "request_status": "Pending",
    "responsible_agency": "Department of Sanitation",
    "final_address": "7130 Salem Dr",
    "address_councildis": "E",
    "status": "Assigned to Contractor",
    "contractor": "Waste Pro",
    "rowid": "1297219",
    "final_x": "3706401.24254",
    "final_y": "561236.681758",
    "longitude": "-89.98834040443197",
    "latitude": "30.036425806125873",
    "geocoded_column": {
      "latitude": "30.036425806125873",
      "longitude": "-89.98834040443197"
    }
  },
  {
    "service_request": "2026-1297218",
    "request_type": "Trash/Recycling",
    "request_reason": "Request a Large Item Pick Up",
    "date_created": "2026-07-06T15:59:21.000",
    "date_modified": "2026-07-06T16:46:57.000",
    "case_close_date": "2026-07-06T11:46:55.000",
    "request_status": "Closed",
    "responsible_agency": "Department of Sanitation",
    "final_address": "6619 Avenue A",
    "address_councildis": "A",
    "status": "Canceled By Citizen",
    "contractor": "IV Waste",
    "rowid": "1297218",
    "final_x": "3666110.02586",
    "final_y": "552192.028758",
    "longitude": "-90.11597301394458",
    "latitude": "30.012795078471534",
    "geocoded_column": {
      "latitude": "30.012795078471534",
      "longitude": "-90.11597301394458"
    }
  },
  {
    "service_request": "2026-1297217",
    "request_type": "Abandoned Vehicles",
    "request_reason": "Abandoned/Junk Vehicles",
    "date_created": "2026-07-06T15:58:40.000",
    "date_modified": "2026-07-06T15:58:41.000",
    "request_status": "Pending",
    "responsible_agency": "Department of Public Works",
    "final_address": "2907 Banks St",
    "address_councildis": "B",
    "status": "Pending",
    "rowid": "1297217",
    "final_x": "3673865.23361",
    "final_y": "534800.996934",
    "longitude": "-90.09206597291343",
    "latitude": "29.964746928056908",
    "geocoded_column": {
      "latitude": "29.964746928056908",
      "longitude": "-90.09206597291343"
    }
  },
  {
    "service_request": "2026-1297216",
    "request_type": "Trash/Recycling",
    "request_reason": "Request a Large Item Pick Up",
    "date_created": "2026-07-06T15:58:14.000",
    "date_modified": "2026-07-06T15:58:18.000",
    "request_status": "Pending",
    "responsible_agency": "Department of Sanitation",
    "final_address": "4956 Meadowbank Dr",
    "address_councildis": "E",
    "status": "Assigned to Contractor",
    "contractor": "Waste Pro",
    "rowid": "1297216",
    "final_x": "3718834.76306",
    "final_y": "558378.283676",
    "longitude": "-89.94915757293923",
    "latitude": "30.028159209670193",
    "geocoded_column": {
      "latitude": "30.028159209670193",
      "longitude": "-89.94915757293923"
    }
  },
  {
    "service_request": "2026-1297215",
    "request_type": "Parks & Grass Service",
    "request_reason": "Request Grass Cutting Service (City Owned Property)",
    "date_created": "2026-07-06T15:57:57.000",
    "date_modified": "2026-07-06T15:57:58.000",
    "request_status": "Pending",
    "responsible_agency": "Department of Parks & Parkways",
    "final_address": "1626 Mirabeau Ave",
    "address_councildis": "D",
    "status": "Pending",
    "rowid": "1297215",
    "final_x": "3680459.54088",
    "final_y": "550298.824404",
    "longitude": "-90.07070230914321",
    "latitude": "30.00716245544575",
    "geocoded_column": {
      "latitude": "30.00716245544575",
      "longitude": "-90.07070230914321"
    }
  },
  {
    "service_request": "2026-1297214",
    "request_type": "Property Maintenance",
    "request_reason": "Property Maintenance",
    "date_created": "2026-07-06T15:54:37.000",
    "date_modified": "2026-07-06T15:54:39.000",
    "request_status": "Pending",
    "responsible_agency": "Department of Code Enforcement",
    "final_address": "2512 St Roch Ave",
    "address_councildis": "D",
    "status": "Pending",
    "rowid": "1297214",
    "final_x": "3685989.18921",
    "final_y": "541690.015628",
    "longitude": "-90.05353643361181",
    "latitude": "29.98332261780351",
    "geocoded_column": {
      "latitude": "29.98332261780351",
      "longitude": "-90.05353643361181"
    }
  },
  {
    "service_request": "2026-1297213",
    "request_type": "Trash/Recycling",
    "request_reason": "Request a Large Item Pick Up",
    "date_created": "2026-07-06T15:53:31.000",
    "date_modified": "2026-07-06T15:53:33.000",
    "request_status": "Pending",
    "responsible_agency": "Department of Sanitation",
    "final_address": "11040 Roger Dr",
    "address_councildis": "E",
    "status": "Assigned to Contractor",
    "contractor": "Waste Pro",
    "rowid": "1297213",
    "final_x": "3712397.49253",
    "final_y": "563579.453024",
    "longitude": "-89.96930310364468",
    "latitude": "30.042672594059926",
    "geocoded_column": {
      "latitude": "30.042672594059926",
      "longitude": "-89.96930310364468"
    }
  },
  {
    "service_request": "2026-1297212",
    "request_type": "Property Maintenance",
    "request_reason": "Property Maintenance",
    "date_created": "2026-07-06T15:50:46.000",
    "date_modified": "2026-07-06T15:50:48.000",
    "request_status": "Pending",
    "responsible_agency": "Department of Code Enforcement",
    "final_address": "5923 N Prieur St",
    "address_councildis": "E",
    "status": "Pending",
    "rowid": "1297212",
    "final_x": "3700173.97085",
    "final_y": "536382.835911",
    "longitude": "-90.00892754892617",
    "latitude": "29.968286545788015",
    "geocoded_column": {
      "latitude": "29.968286545788015",
      "longitude": "-90.00892754892617"
    }
  },
  {
    "service_request": "2026-1297211",
    "request_type": "Street and Traffic Signs",
    "request_reason": "Traffic or Parking Sign Damaged or Missing",
    "date_created": "2026-07-06T15:48:17.000",
    "date_modified": "2026-07-06T15:48:18.000",
    "request_status": "Pending",
    "responsible_agency": "Department of Public Works",
    "final_address": "6003 Bullard Ave",
    "address_councildis": "E",
    "status": "Pending",
    "rowid": "1297211",
    "final_x": "3716107.82546",
    "final_y": "563950.871393",
    "longitude": "-89.95756300834744",
    "latitude": "30.043571875272146",
    "geocoded_column": {
      "latitude": "30.043571875272146",
      "longitude": "-89.95756300834744"
    }
  },
  {
    "service_request": "2026-1297210",
    "request_type": "Trash/Recycling",
    "request_reason": "Request a Large Item Pick Up",
    "date_created": "2026-07-06T15:46:39.000",
    "date_modified": "2026-07-06T15:46:41.000",
    "request_status": "Pending",
    "responsible_agency": "Department of Sanitation",
    "final_address": "7241 Restgate Rd",
    "address_councildis": "E",
    "status": "Assigned to Contractor",
    "contractor": "Waste Pro",
    "rowid": "1297210",
    "final_x": "3710596.71006",
    "final_y": "563541.602848",
    "longitude": "-89.97499565960281",
    "latitude": "30.042627341434027",
    "geocoded_column": {
      "latitude": "30.042627341434027",
      "longitude": "-89.97499565960281"
    }
  },
  {
    "service_request": "2026-1297209",
    "request_type": "Trash/Recycling",
    "request_reason": "Order Trash Cart",
    "date_created": "2026-07-06T15:46:13.000",
    "date_modified": "2026-07-06T15:46:15.000",
    "request_status": "Pending",
    "responsible_agency": "Department of Sanitation",
    "final_address": "3001 Banks St",
    "address_councildis": "B",
    "status": "Assigned to Contractor",
    "contractor": "IV Waste",
    "rowid": "1297209",
    "final_x": "3673627.12097",
    "final_y": "534977.22151",
    "longitude": "-90.09281189295528",
    "latitude": "29.965238576795137",
    "geocoded_column": {
      "latitude": "29.965238576795137",
      "longitude": "-90.09281189295528"
    }
  },
  {
    "service_request": "2026-1297208",
    "request_type": "Trash/Recycling",
    "request_reason": "Request a Large Item Pick Up",
    "date_created": "2026-07-06T15:44:40.000",
    "date_modified": "2026-07-06T15:44:41.000",
    "request_status": "Pending",
    "responsible_agency": "Department of Sanitation",
    "final_address": "4217 Vincennes Pl",
    "address_councildis": "B",
    "status": "Assigned to Contractor",
    "contractor": "IV Waste",
    "rowid": "1297208",
    "final_x": "3668809.25614",
    "final_y": "531353.570434",
    "longitude": "-90.10814886511454",
    "latitude": "29.955417275911277",
    "geocoded_column": {
      "latitude": "29.955417275911277",
      "longitude": "-90.10814886511454"
    }
  },
  {
    "service_request": "2026-1297207",
    "request_type": "Trash/Recycling",
    "request_reason": "Order Trash Cart",
    "date_created": "2026-07-06T15:44:08.000",
    "date_modified": "2026-07-06T15:44:10.000",
    "request_status": "Pending",
    "responsible_agency": "Department of Sanitation",
    "final_address": "3003 Banks St",
    "address_councildis": "B",
    "status": "Assigned to Contractor",
    "contractor": "IV Waste",
    "rowid": "1297207",
    "final_x": "3673617.8916",
    "final_y": "534982.759558",
    "longitude": "-90.09284084954122",
    "latitude": "29.96525407930724",
    "geocoded_column": {
      "latitude": "29.96525407930724",
      "longitude": "-90.09284084954122"
    }
  },
  {
    "service_request": "2026-1297206",
    "request_type": "Trash/Recycling",
    "request_reason": "Request a Large Item Pick Up",
    "date_created": "2026-07-06T15:43:07.000",
    "date_modified": "2026-07-06T15:43:08.000",
    "request_status": "Pending",
    "responsible_agency": "Department of Sanitation",
    "final_address": "7313 Chatelain Dr",
    "address_councildis": "E",
    "status": "Assigned to Contractor",
    "contractor": "Waste Pro",
    "rowid": "1297206",
    "final_x": "3715226.2828",
    "final_y": "567294.008548",
    "longitude": "-89.96022241616326",
    "latitude": "30.052793212964904",
    "geocoded_column": {
      "latitude": "30.052793212964904",
      "longitude": "-89.96022241616326"
    }
  },
  {
    "service_request": "2026-1297205",
    "request_type": "Trash/Recycling",
    "request_reason": "Request a Large Item Pick Up",
    "date_created": "2026-07-06T15:38:00.000",
    "date_modified": "2026-07-06T15:38:01.000",
    "request_status": "Pending",
    "responsible_agency": "Department of Sanitation",
    "final_address": "1813 Tennessee St",
    "address_councildis": "E",
    "status": "Assigned to Contractor",
    "contractor": "Waste Pro",
    "rowid": "1297205",
    "final_x": "3696499.43747",
    "final_y": "537056.373192",
    "longitude": "-90.02050745704705",
    "latitude": "29.970254803340918",
    "geocoded_column": {
      "latitude": "29.970254803340918",
      "longitude": "-90.02050745704705"
    }
  },
  {
    "service_request": "2026-1297204",
    "request_type": "Property Maintenance",
    "request_reason": "Property Maintenance",
    "date_created": "2026-07-06T15:37:42.000",
    "date_modified": "2026-07-06T15:41:34.000",
    "request_status": "Pending",
    "responsible_agency": "Department of Code Enforcement",
    "final_address": "1516 Reynes St",
    "address_councildis": "E",
    "status": "Pending",
    "rowid": "1297204",
    "final_x": "3696359.84701",
    "final_y": "535958.171911",
    "longitude": "-90.0209880183952",
    "latitude": "29.967239538639063",
    "geocoded_column": {
      "latitude": "29.967239538639063",
      "longitude": "-90.0209880183952"
    }
  },
  {
    "service_request": "2026-1297203",
    "request_type": "Abandoned Vehicles",
    "request_reason": "Abandoned/Junk Vehicles",
    "date_created": "2026-07-06T15:36:52.000",
    "date_modified": "2026-07-06T15:36:53.000",
    "request_status": "Pending",
    "responsible_agency": "Department of Public Works",
    "final_address": "400 BLK Lawrence St",
    "address_councildis": "C",
    "status": "Pending",
    "rowid": "1297203",
    "final_x": "3686911.61138",
    "final_y": "525628.937703",
    "longitude": "-90.05119058735433",
    "latitude": "29.939131848487214",
    "geocoded_column": {
      "latitude": "29.939131848487214",
      "longitude": "-90.05119058735433"
    }
  },
  {
    "service_request": "2026-1297202",
    "request_type": "Trash/Recycling",
    "request_reason": "Repair Trash Cart",
    "date_created": "2026-07-06T15:36:37.000",
    "date_modified": "2026-07-06T15:36:39.000",
    "request_status": "Pending",
    "responsible_agency": "Department of Sanitation",
    "final_address": "1354 Mandolin St",
    "address_councildis": "D",
    "status": "Assigned to Contractor",
    "contractor": "IV Waste",
    "rowid": "1297202",
    "final_x": "3677667.24328",
    "final_y": "547937.641042",
    "longitude": "-90.0796055708162",
    "latitude": "30.00075434882864",
    "geocoded_column": {
      "latitude": "30.00075434882864",
      "longitude": "-90.0796055708162"
    }
  },
  {
    "service_request": "2026-1297201",
    "request_type": "Trash/Recycling",
    "request_reason": "Request a Large Item Pick Up",
    "date_created": "2026-07-06T15:36:29.000",
    "date_modified": "2026-07-06T15:36:31.000",
    "request_status": "Pending",
    "responsible_agency": "Department of Sanitation",
    "final_address": "4716 Wright Rd",
    "address_councildis": "E",
    "status": "Assigned to Contractor",
    "contractor": "Waste Pro",
    "rowid": "1297201",
    "final_x": "3716611.95564",
    "final_y": "556884.449178",
    "longitude": "-89.95623816024403",
    "latitude": "30.024125405022623",
    "geocoded_column": {
      "latitude": "30.024125405022623",
      "longitude": "-89.95623816024403"
    }
  },
  {
    "service_request": "2026-1297200",
    "request_type": "Trash/Recycling",
    "request_reason": "Order Trash Cart",
    "date_created": "2026-07-06T15:34:17.000",
    "date_modified": "2026-07-06T15:34:18.000",
    "request_status": "Pending",
    "responsible_agency": "Department of Sanitation",
    "final_address": "6326 Ransom St",
    "address_councildis": "D",
    "status": "Assigned to Contractor",
    "contractor": "Waste Pro",
    "rowid": "1297200",
    "final_x": "3698258.58173",
    "final_y": "552869.582423",
    "longitude": "-90.01437707747944",
    "latitude": "30.013679772758923",
    "geocoded_column": {
      "latitude": "30.013679772758923",
      "longitude": "-90.01437707747944"
    }
  },
  {
    "service_request": "2026-1297199",
    "request_type": "Abandoned Vehicles",
    "request_reason": "Abandoned/Junk Vehicles",
    "date_created": "2026-07-06T15:34:16.000",
    "date_modified": "2026-07-06T15:34:18.000",
    "request_status": "Closed",
    "responsible_agency": "Department of Public Works",
    "final_address": "1400 BLK Lawrence St",
    "address_councildis": "C",
    "status": "Pending",
    "rowid": "1297199",
    "final_x": "3689821.87393",
    "final_y": "525635.356653",
    "longitude": "-90.0420023343038",
    "latitude": "29.939059636076664",
    "geocoded_column": {
      "latitude": "29.939059636076664",
      "longitude": "-90.0420023343038"
    }
  },
  {
    "service_request": "2026-1297198",
    "request_type": "Trash/Recycling",
    "request_reason": "Request a Large Item Pick Up",
    "date_created": "2026-07-06T15:33:08.000",
    "date_modified": "2026-07-06T15:33:10.000",
    "request_status": "Pending",
    "responsible_agency": "Department of Sanitation",
    "final_address": "4926 Eastview Dr",
    "address_councildis": "E",
    "status": "Assigned to Contractor",
    "contractor": "Waste Pro",
    "rowid": "1297198",
    "final_x": "3704970.30039",
    "final_y": "556244.130714",
    "longitude": "-89.99304698350736",
    "latitude": "30.022744344373454",
    "geocoded_column": {
      "latitude": "30.022744344373454",
      "longitude": "-89.99304698350736"
    }
  },
  {
    "service_request": "2026-1297197",
    "request_type": "Trash/Recycling",
    "request_reason": "Illegal Dumping",
    "date_created": "2026-07-06T15:32:25.000",
    "date_modified": "2026-07-06T15:32:27.000",
    "request_status": "Pending",
    "responsible_agency": "Department of Sanitation",
    "final_address": "BARRACKS ST & N RAMPART ST",
    "address_councildis": "C",
    "status": "Pending",
    "rowid": "1297197",
    "final_x": "3682727.1",
    "final_y": "535087.38",
    "longitude": "-90.06407080749892",
    "latitude": "29.96526744305682",
    "geocoded_column": {
      "latitude": "29.96526744305682",
      "longitude": "-90.06407080749892"
    }
  },
  {
    "service_request": "2026-1297196",
    "request_type": "Utility Poles",
    "request_reason": "Utility Pole Down",
    "date_created": "2026-07-06T15:32:19.000",
    "date_modified": "2026-07-06T15:33:25.000",
    "request_status": "Pending",
    "responsible_agency": "Utility Company Collective",
    "final_address": "2610 Esplanade Ave",
    "address_councildis": "A",
    "status": "Pending",
    "rowid": "1297196",
    "final_x": "3678054.3083",
    "final_y": "538989.869514",
    "longitude": "-90.07869231044045",
    "latitude": "29.976139452012614",
    "geocoded_column": {
      "latitude": "29.976139452012614",
      "longitude": "-90.07869231044045"
    }
  },
  {
    "service_request": "2026-1297195",
    "request_type": "Streetlights",
    "request_reason": "Streetlight Outage/Malfunction",
    "date_created": "2026-07-06T15:32:05.000",
    "date_modified": "2026-07-06T15:32:06.000",
    "request_status": "Pending",
    "responsible_agency": "Department of Public Works",
    "final_address": "6003 Bullard Ave",
    "address_councildis": "E",
    "status": "Pending",
    "rowid": "1297195",
    "final_x": "3716107.82546",
    "final_y": "563950.871393",
    "longitude": "-89.95756300834744",
    "latitude": "30.043571875272146",
    "geocoded_column": {
      "latitude": "30.043571875272146",
      "longitude": "-89.95756300834744"
    }
  },
  {
    "service_request": "2026-1297194",
    "request_type": "Drainage",
    "request_reason": "Catch Basin Not Draining",
    "date_created": "2026-07-06T15:30:56.000",
    "date_modified": "2026-07-06T15:30:58.000",
    "request_status": "Pending",
    "responsible_agency": "Sewerage & Water Board",
    "final_address": "6401 Maumus Ave",
    "address_councildis": "C",
    "status": "Pending",
    "rowid": "1297194",
    "final_x": "3707607.3315",
    "final_y": "516652.416501",
    "longitude": "-89.986185433082",
    "latitude": "29.913796584112944",
    "geocoded_column": {
      "latitude": "29.913796584112944",
      "longitude": "-89.986185433082"
    }
  },
  {
    "service_request": "2026-1297193",
    "request_type": "Trash/Recycling",
    "request_reason": "Request a Large Item Pick Up",
    "date_created": "2026-07-06T15:29:11.000",
    "date_modified": "2026-07-06T15:29:15.000",
    "request_status": "Pending",
    "responsible_agency": "Department of Sanitation",
    "final_address": "7361 Symmes Ave",
    "address_councildis": "E",
    "status": "Assigned to Contractor",
    "contractor": "Waste Pro",
    "rowid": "1297193",
    "final_x": "3708303.68657",
    "final_y": "563883.998113",
    "longitude": "-89.98222970363396",
    "latitude": "30.043643334321047",
    "geocoded_column": {
      "latitude": "30.043643334321047",
      "longitude": "-89.98222970363396"
    }
  },
  {
    "service_request": "2026-1297192",
    "request_type": "Trash/Recycling",
    "request_reason": "Request a Large Item Pick Up",
    "date_created": "2026-07-06T15:28:50.000",
    "date_modified": "2026-07-06T15:28:52.000",
    "request_status": "Pending",
    "responsible_agency": "Department of Sanitation",
    "final_address": "4905 S Saratoga St",
    "address_councildis": "B",
    "status": "Assigned to Contractor",
    "contractor": "IV Waste",
    "rowid": "1297192",
    "final_x": "3669048.37326",
    "final_y": "522528.148346",
    "longitude": "-90.10769190081281",
    "latitude": "29.93114319424113",
    "geocoded_column": {
      "latitude": "29.93114319424113",
      "longitude": "-90.10769190081281"
    }
  },
  {
    "service_request": "2026-1297191",
    "request_type": "Trash/Recycling",
    "request_reason": "Repair Recycling Cart",
    "date_created": "2026-07-06T15:27:57.000",
    "date_modified": "2026-07-06T15:27:59.000",
    "request_status": "Pending",
    "responsible_agency": "Department of Sanitation",
    "final_address": "2019 St Claude Ave",
    "address_councildis": "C",
    "status": "Pending",
    "rowid": "1297191",
    "final_x": "3684416.92137",
    "final_y": "536327.133895",
    "longitude": "-90.05869089443202",
    "latitude": "29.96862476003874",
    "geocoded_column": {
      "latitude": "29.96862476003874",
      "longitude": "-90.05869089443202"
    }
  },
  {
    "service_request": "2026-1297190",
    "request_type": "Trash/Recycling",
    "request_reason": "Order Trash Cart",
    "date_created": "2026-07-06T15:26:02.000",
    "date_modified": "2026-07-06T15:26:03.000",
    "request_status": "Pending",
    "responsible_agency": "Department of Sanitation",
    "final_address": "7937 Read Blvd",
    "address_councildis": "E",
    "status": "Assigned to Contractor",
    "contractor": "Waste Pro",
    "rowid": "1297190",
    "final_x": "3708012.47492",
    "final_y": "565690.315106",
    "longitude": "-89.98308277854997",
    "latitude": "30.048619421479064",
    "geocoded_column": {
      "latitude": "30.048619421479064",
      "longitude": "-89.98308277854997"
    }
  },
  {
    "service_request": "2026-1297189",
    "request_type": "Streetlights",
    "request_reason": "Streetlight Knocked Down/Leaning",
    "date_created": "2026-07-06T15:23:10.000",
    "date_modified": "2026-07-06T15:23:12.000",
    "request_status": "Pending",
    "responsible_agency": "Department of Public Works",
    "final_address": "9552 Palm St",
    "address_councildis": "A",
    "status": "Pending",
    "rowid": "1297189",
    "final_x": "3663700.55712",
    "final_y": "538288.053129",
    "longitude": "-90.12404926821361",
    "latitude": "29.974634037498276",
    "geocoded_column": {
      "latitude": "29.974634037498276",
      "longitude": "-90.12404926821361"
    }
  },
  {
    "service_request": "2026-1297188",
    "request_type": "Trash/Recycling",
    "request_reason": "Replace Trash Cart",
    "date_created": "2026-07-06T15:21:58.000",
    "date_modified": "2026-07-06T15:22:00.000",
    "request_status": "Pending",
    "responsible_agency": "Department of Sanitation",
    "final_address": "143 22Nd St",
    "address_councildis": "A",
    "status": "Assigned to Contractor",
    "contractor": "IV Waste",
    "rowid": "1297188",
    "final_x": "3665870.78912",
    "final_y": "549336.917203",
    "longitude": "-90.11682464382098",
    "latitude": "30.004951501575015",
    "geocoded_column": {
      "latitude": "30.004951501575015",
      "longitude": "-90.11682464382098"
    }
  },
  {
    "service_request": "2026-1297187",
    "request_type": "Trash/Recycling",
    "request_reason": "Request a Large Item Pick Up",
    "date_created": "2026-07-06T15:21:45.000",
    "date_modified": "2026-07-06T16:09:43.000",
    "request_status": "Pending",
    "responsible_agency": "Department of Sanitation",
    "final_address": "260 Hay Pl",
    "address_councildis": "A",
    "status": "Assigned to Contractor",
    "contractor": "IV Waste",
    "rowid": "1297187",
    "final_x": "3665669.40967",
    "final_y": "554169.386264",
    "longitude": "-90.11729882519377",
    "latitude": "30.01824498256028",
    "geocoded_column": {
      "latitude": "30.01824498256028",
      "longitude": "-90.11729882519377"
    }
  },
  {
    "service_request": "2026-1297186",
    "request_type": "Trash/Recycling",
    "request_reason": "Return Trash Cart",
    "date_created": "2026-07-06T15:19:19.000",
    "date_modified": "2026-07-06T15:19:22.000",
    "request_status": "Pending",
    "responsible_agency": "Department of Sanitation",
    "final_address": "439 Belleville St",
    "address_councildis": "C",
    "status": "Assigned to Contractor",
    "contractor": "Richards Disposal",
    "rowid": "1297186",
    "final_x": "3687824.47491",
    "final_y": "530012.658817",
    "longitude": "-90.04815334395397",
    "latitude": "29.95115747082882",
    "geocoded_column": {
      "latitude": "29.95115747082882",
      "longitude": "-90.04815334395397"
    }
  },
  {
    "service_request": "2026-1297185",
    "request_type": "Trash/Recycling",
    "request_reason": "Request a Large Item Pick Up",
    "date_created": "2026-07-06T15:18:26.000",
    "date_modified": "2026-07-06T15:18:28.000",
    "request_status": "Pending",
    "responsible_agency": "Department of Sanitation",
    "final_address": "4818 Cernay St",
    "address_councildis": "E",
    "status": "Assigned to Contractor",
    "contractor": "Waste Pro",
    "rowid": "1297185",
    "final_x": "3727579.67097",
    "final_y": "561730.640863",
    "longitude": "-89.92139407933438",
    "latitude": "30.03708344587417",
    "geocoded_column": {
      "latitude": "30.03708344587417",
      "longitude": "-89.92139407933438"
    }
  },
  {
    "service_request": "2026-1297184",
    "request_type": "Trash/Recycling",
    "request_reason": "Request a Large Item Pick Up",
    "date_created": "2026-07-06T15:17:17.000",
    "date_modified": "2026-07-06T15:17:19.000",
    "request_status": "Pending",
    "responsible_agency": "Department of Sanitation",
    "final_address": "7320 Zimple St",
    "address_councildis": "A",
    "status": "Assigned to Contractor",
    "contractor": "IV Waste",
    "rowid": "1297184",
    "final_x": "3663511.40179",
    "final_y": "526461.41715",
    "longitude": "-90.12504054266441",
    "latitude": "29.942120126017578",
    "geocoded_column": {
      "latitude": "29.942120126017578",
      "longitude": "-90.12504054266441"
    }
  },
  {
    "service_request": "2026-1297183",
    "request_type": "Trash/Recycling",
    "request_reason": "Replace Trash Cart",
    "date_created": "2026-07-06T15:11:36.000",
    "date_modified": "2026-07-06T15:11:38.000",
    "request_status": "Pending",
    "responsible_agency": "Department of Sanitation",
    "final_address": "3140 Jackson Ave",
    "address_councildis": "B",
    "status": "Assigned to Contractor",
    "contractor": "IV Waste",
    "rowid": "1297183",
    "final_x": "3673923.45524",
    "final_y": "528450.708608",
    "longitude": "-90.09209934575418",
    "latitude": "29.947284015525973",
    "geocoded_column": {
      "latitude": "29.947284015525973",
      "longitude": "-90.09209934575418"
    }
  },
  {
    "service_request": "2026-1297182",
    "request_type": "Safety & Permits",
    "request_reason": "Licenses & Permits",
    "date_created": "2026-07-06T15:10:24.000",
    "date_modified": "2026-07-06T15:10:26.000",
    "request_status": "Pending",
    "responsible_agency": "Safety and Permits",
    "final_address": "2901 Hollygrove St",
    "address_councildis": "A",
    "status": "Pending",
    "rowid": "1297182",
    "final_x": "3663766.17856",
    "final_y": "535026.57639",
    "longitude": "-90.12395073637794",
    "latitude": "29.965664149215097",
    "geocoded_column": {
      "latitude": "29.965664149215097",
      "longitude": "-90.12395073637794"
    }
  },
  {
    "service_request": "2026-1297181",
    "request_type": "Abandoned Vehicles",
    "request_reason": "Abandoned/Junk Vehicles",
    "date_created": "2026-07-06T15:10:18.000",
    "date_modified": "2026-07-06T15:10:20.000",
    "request_status": "Pending",
    "responsible_agency": "Department of Public Works",
    "final_address": "2100 Dante St",
    "address_councildis": "A",
    "status": "Pending",
    "rowid": "1297181",
    "final_x": "3663552.77229",
    "final_y": "531203.817026",
    "longitude": "-90.1247519999441",
    "latitude": "29.955158999954453",
    "geocoded_column": {
      "latitude": "29.955158999954453",
      "longitude": "-90.1247519999441"
    }
  },
  {
    "service_request": "2026-1297180",
    "request_type": "Trash/Recycling",
    "request_reason": "Illegal Dumping",
    "date_created": "2026-07-06T15:10:12.000",
    "date_modified": "2026-07-06T15:16:53.000",
    "request_status": "Pending",
    "responsible_agency": "Department of Sanitation",
    "final_address": "TCHOUPITOULAS ST & NASHVILLE AVE",
    "address_councildis": "A",
    "status": "Pending",
    "rowid": "1297180",
    "final_x": "3665146.3",
    "final_y": "517267.68",
    "longitude": "-90.12018610984786",
    "latitude": "29.916792748343077",
    "geocoded_column": {
      "latitude": "29.916792748343077",
      "longitude": "-90.12018610984786"
    }
  },
  {
    "service_request": "2026-1297179",
    "request_type": "Trash/Recycling",
    "request_reason": "Request a Large Item Pick Up",
    "date_created": "2026-07-06T15:07:21.000",
    "date_modified": "2026-07-06T15:09:08.000",
    "request_status": "Pending",
    "responsible_agency": "Department of Sanitation",
    "final_address": "125 S Murat St",
    "address_councildis": "A",
    "status": "Assigned to Contractor",
    "contractor": "IV Waste",
    "rowid": "1297179",
    "final_x": "3669510.47278",
    "final_y": "539212.832778",
    "longitude": "-90.10566878206552",
    "latitude": "29.977006992491603",
    "geocoded_column": {
      "latitude": "29.977006992491603",
      "longitude": "-90.10566878206552"
    }
  },
  {
    "service_request": "2026-1297178",
    "request_type": "Abandoned Vehicles",
    "request_reason": "Abandoned/Junk Vehicles",
    "date_created": "2026-07-06T15:07:09.000",
    "date_modified": "2026-07-06T15:07:12.000",
    "request_status": "Pending",
    "responsible_agency": "Department of Public Works",
    "final_address": "2100 Dante St",
    "address_councildis": "A",
    "status": "Pending",
    "rowid": "1297178",
    "final_x": "3663552.77229",
    "final_y": "531203.817026",
    "longitude": "-90.1247519999441",
    "latitude": "29.955158999954453",
    "geocoded_column": {
      "latitude": "29.955158999954453",
      "longitude": "-90.1247519999441"
    }
  },
  {
    "service_request": "2026-1297177",
    "request_type": "Trash/Recycling",
    "request_reason": "Request a Large Item Pick Up",
    "date_created": "2026-07-06T15:06:32.000",
    "date_modified": "2026-07-06T15:06:34.000",
    "request_status": "Pending",
    "responsible_agency": "Department of Sanitation",
    "final_address": "10111 Chevy Chase Dr",
    "address_councildis": "E",
    "status": "Assigned to Contractor",
    "contractor": "Waste Pro",
    "rowid": "1297177",
    "final_x": "3709741.726",
    "final_y": "563110.792288",
    "longitude": "-89.97771383260023",
    "latitude": "30.04147062548357",
    "geocoded_column": {
      "latitude": "30.04147062548357",
      "longitude": "-89.97771383260023"
    }
  },
  {
    "service_request": "2026-1297176",
    "request_type": "Trash/Recycling",
    "request_reason": "Request a Large Item Pick Up",
    "date_created": "2026-07-06T15:06:20.000",
    "date_modified": "2026-07-06T15:06:21.000",
    "request_status": "Pending",
    "responsible_agency": "Department of Sanitation",
    "final_address": "7720 Windward Ct",
    "address_councildis": "E",
    "status": "Assigned to Contractor",
    "contractor": "Waste Pro",
    "rowid": "1297176",
    "final_x": "3715450.21931",
    "final_y": "569846.184998",
    "longitude": "-89.95941790004419",
    "latitude": "30.059803267004344",
    "geocoded_column": {
      "latitude": "30.059803267004344",
      "longitude": "-89.95941790004419"
    }
  },
  {
    "service_request": "2026-1297175",
    "request_type": "Trash/Recycling",
    "request_reason": "Request a Large Item Pick Up",
    "date_created": "2026-07-06T14:59:46.000",
    "date_modified": "2026-07-06T14:59:48.000",
    "request_status": "Pending",
    "responsible_agency": "Department of Sanitation",
    "final_address": "1503 Desire St",
    "address_councildis": "D",
    "status": "Assigned to Contractor",
    "contractor": "IV Waste",
    "rowid": "1297175",
    "final_x": "3690597.45609",
    "final_y": "537236.097928",
    "longitude": "-90.03914006967952",
    "latitude": "29.97093359701751",
    "geocoded_column": {
      "latitude": "29.97093359701751",
      "longitude": "-90.03914006967952"
    }
  },
  {
    "service_request": "2026-1297174",
    "request_type": "Trash/Recycling",
    "request_reason": "Request a Large Item Pick Up",
    "date_created": "2026-07-06T14:55:35.000",
    "date_modified": "2026-07-06T14:55:37.000",
    "request_status": "Pending",
    "responsible_agency": "Department of Sanitation",
    "final_address": "5134 Cameron Blvd",
    "address_councildis": "D",
    "status": "Assigned to Contractor",
    "contractor": "IV Waste",
    "rowid": "1297174",
    "final_x": "3682575.12303",
    "final_y": "551736.719061",
    "longitude": "-90.06396828487144",
    "latitude": "30.011051875940787",
    "geocoded_column": {
      "latitude": "30.011051875940787",
      "longitude": "-90.06396828487144"
    }
  },
  {
    "service_request": "2026-1297173",
    "request_type": "Traffic Signals",
    "request_reason": "Traffic Signal Malfunctioning or Damaged",
    "date_created": "2026-07-06T14:52:19.000",
    "date_modified": "2026-07-06T14:52:21.000",
    "request_status": "Pending",
    "responsible_agency": "Department of Public Works",
    "final_address": "GENERAL DE GAULLE DR & WESTBEND PKWY",
    "address_councildis": "C",
    "status": "Pending",
    "rowid": "1297173",
    "final_x": "3696463.6",
    "final_y": "520687.78",
    "longitude": "-90.02121258781013",
    "latitude": "29.92524801305741",
    "geocoded_column": {
      "latitude": "29.92524801305741",
      "longitude": "-90.02121258781013"
    }
  },
  {
    "service_request": "2026-1297172",
    "request_type": "Trash/Recycling",
    "request_reason": "Request a Large Item Pick Up",
    "date_created": "2026-07-06T14:51:16.000",
    "date_modified": "2026-07-06T14:51:18.000",
    "request_status": "Pending",
    "responsible_agency": "Department of Sanitation",
    "final_address": "1432 Poland Ave",
    "address_councildis": "D",
    "status": "Assigned to Contractor",
    "contractor": "IV Waste",
    "rowid": "1297172",
    "final_x": "3693324.89693",
    "final_y": "536403.894023",
    "longitude": "-90.03055638026272",
    "latitude": "29.968560344700983",
    "geocoded_column": {
      "latitude": "29.968560344700983",
      "longitude": "-90.03055638026272"
    }
  },
  {
    "service_request": "2026-1297171",
    "request_type": "Abandoned Vehicles",
    "request_reason": "Abandoned/Junk Vehicles",
    "date_created": "2026-07-06T14:49:37.000",
    "date_modified": "2026-07-06T14:49:39.000",
    "request_status": "Pending",
    "responsible_agency": "Department of Public Works",
    "final_address": "4902 Loyola Ave",
    "address_councildis": "B",
    "status": "Pending",
    "rowid": "1297171",
    "final_x": "3669087.68039",
    "final_y": "522812.807355",
    "longitude": "-90.10755819974142",
    "latitude": "29.931924759298777",
    "geocoded_column": {
      "latitude": "29.931924759298777",
      "longitude": "-90.10755819974142"
    }
  },
  {
    "service_request": "2026-1297170",
    "request_type": "Trash/Recycling",
    "request_reason": "Request a Large Item Pick Up",
    "date_created": "2026-07-06T14:47:28.000",
    "date_modified": "2026-07-06T14:47:35.000",
    "request_status": "Pending",
    "responsible_agency": "Department of Sanitation",
    "final_address": "11801 W Barrington Dr",
    "address_councildis": "E",
    "status": "Assigned to Contractor",
    "contractor": "Waste Pro",
    "rowid": "1297170",
    "final_x": "3714017.67883",
    "final_y": "565625.386658",
    "longitude": "-89.96410545699075",
    "latitude": "30.04824495089119",
    "geocoded_column": {
      "latitude": "30.04824495089119",
      "longitude": "-89.96410545699075"
    }
  },
  {
    "service_request": "2026-1297169",
    "request_type": "Trash/Recycling",
    "request_reason": "Request a Large Item Pick Up",
    "date_created": "2026-07-06T14:45:59.000",
    "date_modified": "2026-07-06T14:46:01.000",
    "request_status": "Pending",
    "responsible_agency": "Department of Sanitation",
    "final_address": "9900 Morrison Rd",
    "address_councildis": "E",
    "status": "Assigned to Contractor",
    "contractor": "Waste Pro",
    "rowid": "1297169",
    "final_x": "3708195.80843",
    "final_y": "563090.641824",
    "longitude": "-89.98260019889054",
    "latitude": "30.041465418044186",
    "geocoded_column": {
      "latitude": "30.041465418044186",
      "longitude": "-89.98260019889054"
    }
  },
  {
    "service_request": "2026-1297168",
    "request_type": "Trash/Recycling",
    "request_reason": "Request a Large Item Pick Up",
    "date_created": "2026-07-06T14:45:25.000",
    "date_modified": "2026-07-06T14:45:28.000",
    "request_status": "Pending",
    "responsible_agency": "Department of Sanitation",
    "final_address": "7327 Hickman St",
    "address_councildis": "E",
    "status": "Assigned to Contractor",
    "contractor": "Waste Pro",
    "rowid": "1297168",
    "final_x": "3706593.72663",
    "final_y": "562656.691296",
    "longitude": "-89.98767942047823",
    "latitude": "30.04032405698312",
    "geocoded_column": {
      "latitude": "30.04032405698312",
      "longitude": "-89.98767942047823"
    }
  },
  {
    "service_request": "2026-1297167",
    "request_type": "Trash/Recycling",
    "request_reason": "Illegal Dumping",
    "date_created": "2026-07-06T14:44:54.000",
    "date_modified": "2026-07-06T14:46:32.000",
    "request_status": "Pending",
    "responsible_agency": "Department of Sanitation",
    "final_address": "1844 Frenchmen St",
    "address_councildis": "D",
    "status": "Pending",
    "rowid": "1297167",
    "final_x": "3684318.42633",
    "final_y": "539180.909066",
    "longitude": "-90.05890170890505",
    "latitude": "29.97647466067209",
    "geocoded_column": {
      "latitude": "29.97647466067209",
      "longitude": "-90.05890170890505"
    }
  },
  {
    "service_request": "2026-1297166",
    "request_type": "Healthy Homes",
    "request_reason": "Healthy Homes",
    "date_created": "2026-07-06T14:44:00.000",
    "date_modified": "2026-07-06T14:44:03.000",
    "request_status": "Pending",
    "responsible_agency": "Department of Code Enforcement",
    "final_address": "416 Dearmas St",
    "address_councildis": "C",
    "status": "Pending",
    "rowid": "1297166",
    "final_x": "3686769.32937",
    "final_y": "527205.590143",
    "longitude": "-90.05158410715009",
    "latitude": "29.943471486424585",
    "geocoded_column": {
      "latitude": "29.943471486424585",
      "longitude": "-90.05158410715009"
    }
  },
  {
    "service_request": "2026-1297165",
    "request_type": "Trash/Recycling",
    "request_reason": "Repair Trash Cart",
    "date_created": "2026-07-06T14:42:16.000",
    "date_modified": "2026-07-06T14:42:18.000",
    "request_status": "Pending",
    "responsible_agency": "Department of Sanitation",
    "final_address": "5376 Hawthorne Pl",
    "address_councildis": "A",
    "status": "Assigned to Contractor",
    "contractor": "IV Waste",
    "rowid": "1297165",
    "final_x": "3667735.9602",
    "final_y": "543045.447885",
    "longitude": "-90.11114416909516",
    "latitude": "29.98759754526663",
    "geocoded_column": {
      "latitude": "29.98759754526663",
      "longitude": "-90.11114416909516"
    }
  },
  {
    "service_request": "2026-1297164",
    "request_type": "Trash/Recycling",
    "request_reason": "Order Recycling Cart",
    "date_created": "2026-07-06T14:42:12.000",
    "date_modified": "2026-07-06T14:42:13.000",
    "request_status": "Pending",
    "responsible_agency": "Department of Sanitation",
    "final_address": "5376 Hawthorne Pl",
    "address_councildis": "A",
    "status": "Pending",
    "rowid": "1297164",
    "final_x": "3667735.9602",
    "final_y": "543045.447885",
    "longitude": "-90.11114416909516",
    "latitude": "29.98759754526663",
    "geocoded_column": {
      "latitude": "29.98759754526663",
      "longitude": "-90.11114416909516"
    }
  },
  {
    "service_request": "2026-1297163",
    "request_type": "Streetlights",
    "request_reason": "New Streetlight Request",
    "date_created": "2026-07-06T14:40:38.000",
    "date_modified": "2026-07-06T14:40:40.000",
    "request_status": "Pending",
    "responsible_agency": "Department of Public Works",
    "final_address": "8000 BLK Wales St",
    "address_councildis": "E",
    "status": "Pending",
    "rowid": "1297163",
    "final_x": "3702202.39477",
    "final_y": "562310.560862",
    "longitude": "-90.00157007616787",
    "latitude": "30.03951340350094",
    "geocoded_column": {
      "latitude": "30.03951340350094",
      "longitude": "-90.00157007616787"
    }
  },
  {
    "service_request": "2026-1297162",
    "request_type": "Trash/Recycling",
    "request_reason": "Request a Large Item Pick Up",
    "date_created": "2026-07-06T14:38:56.000",
    "date_modified": "2026-07-06T14:38:58.000",
    "request_status": "Pending",
    "responsible_agency": "Department of Sanitation",
    "final_address": "4661 Stephen Girard Ave",
    "address_councildis": "D",
    "status": "Assigned to Contractor",
    "contractor": "IV Waste",
    "rowid": "1297162",
    "final_x": "3691468.9919",
    "final_y": "550665.378772",
    "longitude": "-90.03590743796941",
    "latitude": "30.007832175101335",
    "geocoded_column": {
      "latitude": "30.007832175101335",
      "longitude": "-90.03590743796941"
    }
  },