[
  {
    "service_request": "2024-1103514",
    "request_type": "Property Maintenance",
    "request_reason": "Property Maintenance",
    "date_created": "2024-06-13T23:43:08.000",
    "date_modified": "2024-06-13T23:43:08.000",
    "request_status": "Pending",
    "responsible_agency": "Department of Code Enforcement",
    "final_address": "3930 Mimosa Dr",
    "address_councildis": "C",
    "status": "Pending",
    "rowid": "1103514",
    "final_x": "3704587.09802",
    "final_y": "512879.362225",
    "longitude": "-89.99585719070468",
    "latitude": "29.903519266042185",
    "geocoded_column": {
      "latitude": "29.903519266042185",
      "longitude": "-89.99585719070468"
    }
  },
  {
    "service_request": "2024-1103513",
    "request_type": "Roads/Drainage",
    "request_reason": "Pothole",
    "date_created": "2024-06-13T23:37:16.000",
    "date_modified": "2024-06-13T23:37:16.000",
    "request_status": "Pending",
    "responsible_agency": "Department of Public Works",
    "final_address": "1670 Soniat St",
    "address_councildis": "B",
    "status": "Pending",
    "rowid": "1103513",
    "final_x": "3668358.26177",
    "final_y": "521549.647161",
    "longitude": "-90.10990348154347",
    "latitude": "29.92847290717269",
    "geocoded_column": {
      "latitude": "29.92847290717269",
      "longitude": "-90.10990348154347"
    }
  },
  {
    "service_request": "2024-1103512",
    "request_type": "Abandoned Vehicles",
    "request_reason": "Vehicle Blocking Your Driveway",
    "date_created": "2024-06-13T23:09:25.000",
    "date_modified": "2024-06-13T23:09:25.000",
    "request_status": "Pending",
    "responsible_agency": "Department of Public Works",
    "final_address": "2118 Dumaine St, New Orleans, Louisiana, 70116",
    "address_councildis": "D",
    "status": "Pending",
    "rowid": "1103512",
    "final_x": "3678914.80712",
    "final_y": "536120.777927",
    "longitude": "-90.07607402803266",
    "latitude": "29.968224500032143",
    "geocoded_column": {
      "latitude": "29.968224500032143",
      "longitude": "-90.07607402803266"
    }
  },
  {
    "service_request": "2024-1103511",
    "request_type": "Traffic Signals/Signs/Striping/Streetlights",
    "request_reason": "Street Light Outage/Malfunction",
    "date_created": "2024-06-13T23:02:33.000",
    "date_modified": "2024-06-13T23:02:33.000",
    "request_status": "Pending",
    "responsible_agency": "Department of Public Works",
    "final_address": "2227 Josephine St",
    "address_councildis": "B",
    "status": "Assigned to Contractor",
    "contractor": "Legacy Professional Services",
    "rowid": "1103511",
    "final_x": "3676407.35675",
    "final_y": "525951.961469",
    "longitude": "-90.08434271508013",
    "latitude": "29.940339067731973",
    "geocoded_column": {
      "latitude": "29.940339067731973",
      "longitude": "-90.08434271508013"
    }
  },
  {
    "service_request": "2024-1103510",
    "request_type": "Trash/Recycling",
    "request_reason": "Order Recycling Cart",
    "date_created": "2024-06-13T22:59:39.000",
    "date_modified": "2024-06-13T22:59:39.000",
    "request_status": "Pending",
    "responsible_agency": "Department of Sanitation",
    "final_address": "2325 Clouet St",
    "address_councildis": "D",
    "status": "Pending",
    "rowid": "1103510",
    "final_x": "3690271.49142",
    "final_y": "540682.665419",
    "longitude": "-90.0400466511945",
    "latitude": "29.98042055540787",
    "geocoded_column": {
      "latitude": "29.98042055540787",
      "longitude": "-90.0400466511945"
    }
  },
  {
    "service_request": "2024-1103509",
    "request_type": "Trash/Recycling",
    "request_reason": "Order Trash Cart",
    "date_created": "2024-06-13T22:55:00.000",
    "date_modified": "2024-06-13T22:55:01.000",
    "request_status": "Pending",
    "responsible_agency": "Department of Sanitation",
    "final_address": "2325 Clouet St",
    "address_councildis": "D",
    "status": "Assigned to Contractor",
    "contractor": "IV Waste",
    "rowid": "1103509",
    "final_x": "3690271.49142",
    "final_y": "540682.665419",
    "longitude": "-90.0400466511945",
    "latitude": "29.98042055540787",
    "geocoded_column": {
      "latitude": "29.98042055540787",
      "longitude": "-90.0400466511945"
    }
  },
  {
    "service_request": "2024-1103508",
    "request_type": "Trash/Recycling",
    "request_reason": "Order Recycling Cart",
    "date_created": "2024-06-13T22:52:49.000",
    "date_modified": "2024-06-13T22:52:49.000",
    "request_status": "Pending",
    "responsible_agency": "Department of Sanitation",
    "final_address": "2325 Clouet St",
    "address_councildis": "D",
    "status": "Pending",
    "rowid": "1103508",
    "final_x": "3690271.49142",
    "final_y": "540682.665419",
    "longitude": "-90.0400466511945",
    "latitude": "29.98042055540787",
    "geocoded_column": {
      "latitude": "29.98042055540787",
      "longitude": "-90.0400466511945"
    }
  },
  {
    "service_request": "2024-1103507",
    "request_type": "Traffic Signals/Signs/Striping/Streetlights",
    "request_reason": "Street Light Outage/Malfunction",
    "date_created": "2024-06-13T22:47:05.000",
    "date_modified": "2024-06-13T22:47:05.000",
    "request_status": "Pending",
    "responsible_agency": "Department of Public Works",
    "final_address": "2352 Camp St",
    "address_councildis": "B",
    "status": "Assigned to Contractor",
    "contractor": "Legacy Professional Services",
    "rowid": "1103507",
    "final_x": "3677985.64846",
    "final_y": "521852.447226",
    "longitude": "-90.07950141949946",
    "latitude": "29.92901935076882",
    "geocoded_column": {
      "latitude": "29.92901935076882",
      "longitude": "-90.07950141949946"
    }
  },
  {
    "service_request": "2024-1103506",
    "request_type": "Trash/Recycling",
    "request_reason": "Repair Trash Cart",
    "date_created": "2024-06-13T22:36:30.000",
    "date_modified": "2024-06-13T22:36:31.000",
    "request_status": "Pending",
    "responsible_agency": "Department of Sanitation",
    "final_address": "1329 Sixth St",
    "address_councildis": "B",
    "status": "Assigned to Contractor",
    "contractor": "IV Waste",
    "rowid": "1103506",
    "final_x": "3676104.31035",
    "final_y": "521390.088825",
    "longitude": "-90.08545633317891",
    "latitude": "29.927804487238564",
    "geocoded_column": {
      "latitude": "29.927804487238564",
      "longitude": "-90.08545633317891"
    }
  },
  {
    "service_request": "2024-1103505",
    "request_type": "Property Maintenance",
    "request_reason": "Property Maintenance",
    "date_created": "2024-06-13T22:24:11.000",
    "date_modified": "2024-06-13T22:24:11.000",
    "request_status": "Pending",
    "responsible_agency": "Department of Code Enforcement",
    "final_address": "1854 Industry St",
    "address_councildis": "D",
    "status": "Pending",
    "rowid": "1103505",
    "final_x": "3682014.59983",
    "final_y": "542696.571533",
    "longitude": "-90.06605508374888",
    "latitude": "29.98621175818758",
    "geocoded_column": {
      "latitude": "29.98621175818758",
      "longitude": "-90.06605508374888"
    }
  },
  {
    "service_request": "2024-1103504",
    "request_type": "Trash/Recycling",
    "request_reason": "Missed Trash Pick-Up",
    "date_created": "2024-06-13T21:56:18.000",
    "date_modified": "2024-06-13T21:56:18.000",
    "request_status": "Pending",
    "responsible_agency": "Department of Sanitation",
    "final_address": "8327 Sycamore St",
    "address_councildis": "A",
    "status": "Assigned to Contractor",
    "contractor": "IV Waste",
    "rowid": "1103504",
    "final_x": "3663653.48973",
    "final_y": "531670.479491",
    "longitude": "-90.12441842351333",
    "latitude": "29.956439248838567",
    "geocoded_column": {
      "latitude": "29.956439248838567",
      "longitude": "-90.12441842351333"
    }
  },
  {
    "service_request": "2024-1103503",
    "request_type": "Traffic Signals/Signs/Striping/Streetlights",
    "request_reason": "Street Light Outage/Malfunction",
    "date_created": "2024-06-13T21:55:46.000",
    "date_modified": "2024-06-13T21:55:47.000",
    "request_status": "Pending",
    "responsible_agency": "Department of Public Works",
    "final_address": "6446 Memphis St",
    "address_councildis": "A",
    "status": "Assigned to Contractor",
    "contractor": "Legacy Professional Services",
    "rowid": "1103503",
    "final_x": "3669385.82126",
    "final_y": "550399.642324",
    "longitude": "-90.10568393153284",
    "latitude": "30.007770543971198",
    "geocoded_column": {
      "latitude": "30.007770543971198",
      "longitude": "-90.10568393153284"
    }
  },
  {
    "service_request": "2024-1103502",
    "request_type": "Traffic Signals/Signs/Striping/Streetlights",
    "request_reason": "Street Light Outage/Malfunction",
    "date_created": "2024-06-13T21:51:03.000",
    "date_modified": "2024-06-13T21:51:04.000",
    "request_status": "Pending",
    "responsible_agency": "Department of Public Works",
    "final_address": "6622 Memphis St",
    "address_councildis": "A",
    "status": "Assigned to Contractor",
    "contractor": "Legacy Professional Services",
    "rowid": "1103502",
    "final_x": "3669486.09742",
    "final_y": "551512.471509",
    "longitude": "-90.10532945006746",
    "latitude": "30.01082747914417",
    "geocoded_column": {
      "latitude": "30.01082747914417",
      "longitude": "-90.10532945006746"
    }
  },
  {
    "service_request": "2024-1103501",
    "request_type": "Property Maintenance",
    "request_reason": "Property Maintenance",
    "date_created": "2024-06-13T21:44:24.000",
    "date_modified": "2024-06-13T21:44:24.000",
    "request_status": "Pending",
    "responsible_agency": "Department of Code Enforcement",
    "final_address": "3704 N Rocheblave St",
    "address_councildis": "D",
    "status": "Pending",
    "rowid": "1103501",
    "final_x": "3692211.59702",
    "final_y": "540365.799243",
    "longitude": "-90.0339303396215",
    "latitude": "29.97948893349251",
    "geocoded_column": {
      "latitude": "29.97948893349251",
      "longitude": "-90.0339303396215"
    }
  },
  {
    "service_request": "2024-1103500",
    "request_type": "Traffic Signals/Signs/Striping/Streetlights",
    "request_reason": "Street Light Outage/Malfunction",
    "date_created": "2024-06-13T21:44:20.000",
    "date_modified": "2024-06-13T21:44:21.000",
    "request_status": "Pending",
    "responsible_agency": "Department of Public Works",
    "final_address": "6850 Memphis St",
    "address_councildis": "A",
    "status": "Assigned to Contractor",
    "contractor": "Legacy Professional Services",
    "rowid": "1103500",
    "final_x": "3669622.7819",
    "final_y": "553025.795223",
    "longitude": "-90.1048463486104",
    "latitude": "30.014984557119256",
    "geocoded_column": {
      "latitude": "30.014984557119256",
      "longitude": "-90.1048463486104"
    }
  },
  {
    "service_request": "2024-1103499",
    "request_type": "Traffic Signals/Signs/Striping/Streetlights",
    "request_reason": "Street Light Outage/Malfunction",
    "date_created": "2024-06-13T21:39:41.000",
    "date_modified": "2024-06-13T21:39:41.000",
    "request_status": "Pending",
    "responsible_agency": "Department of Public Works",
    "final_address": "765 Walker St",
    "address_councildis": "A",
    "status": "Assigned to Contractor",
    "contractor": "Legacy Professional Services",
    "rowid": "1103499",
    "final_x": "3669637.68423",
    "final_y": "554028.048792",
    "longitude": "-90.10476531148942",
    "latitude": "30.017739960135664",
    "geocoded_column": {
      "latitude": "30.017739960135664",
      "longitude": "-90.10476531148942"
    }
  },
  {
    "service_request": "2024-1103498",
    "request_type": "Traffic Signals/Signs/Striping/Streetlights",
    "request_reason": "Street Light Outage/Malfunction",
    "date_created": "2024-06-13T21:35:37.000",
    "date_modified": "2024-06-13T21:35:38.000",
    "request_status": "Pending",
    "responsible_agency": "Department of Public Works",
    "final_address": "6951 Memphis St",
    "address_councildis": "A",
    "status": "Assigned to Contractor",
    "contractor": "Legacy Professional Services",
    "rowid": "1103498",
    "final_x": "3669866.9419",
    "final_y": "553668.141783",
    "longitude": "-90.10405314424752",
    "latitude": "30.016743582662375",
    "geocoded_column": {
      "latitude": "30.016743582662375",
      "longitude": "-90.10405314424752"
    }
  },
  {
    "service_request": "2024-1103497",
    "request_type": "Traffic Signals/Signs/Striping/Streetlights",
    "request_reason": "Street Light Outage/Malfunction",
    "date_created": "2024-06-13T21:34:12.000",
    "date_modified": "2024-06-13T21:34:13.000",
    "request_status": "Pending",
    "responsible_agency": "Department of Public Works",
    "final_address": "6650 Memphis St",
    "address_councildis": "A",
    "status": "Assigned to Contractor",
    "contractor": "Legacy Professional Services",
    "rowid": "1103497",
    "final_x": "3669504.17441",
    "final_y": "551711.034069",
    "longitude": "-90.10526561404846",
    "latitude": "30.01137292362441",
    "geocoded_column": {
      "latitude": "30.01137292362441",
      "longitude": "-90.10526561404846"
    }
  },
  {
    "service_request": "2024-1103496",
    "request_type": "Trash/Recycling",
    "request_reason": "Request a Large Item Pick Up",
    "date_created": "2024-06-13T21:31:00.000",
    "date_modified": "2024-06-13T21:31:01.000",
    "request_status": "Pending",
    "responsible_agency": "Department of Sanitation",
    "final_address": "4754 Tulip St, New Orleans, Louisiana, 70126",
    "address_councildis": "E",
    "status": "Assigned to Contractor",
    "contractor": "Waste Pro",
    "rowid": "1103496",
    "final_x": "3701997.62935",
    "final_y": "554348.247448",
    "longitude": "-90.00250944763184",
    "latitude": "30.017626665021382",
    "geocoded_column": {
      "latitude": "30.017626665021382",
      "longitude": "-90.00250944763184"
    }
  },
  {
    "service_request": "2024-1103495",
    "request_type": "Trash/Recycling",
    "request_reason": "Replace Trash Cart",
    "date_created": "2024-06-13T21:23:06.000",
    "date_modified": "2024-06-13T21:23:06.000",
    "request_status": "Pending",
    "responsible_agency": "Department of Sanitation",
    "final_address": "4910 Eunice Dr",
    "address_councildis": "E",
    "status": "Assigned to Contractor",
    "contractor": "Waste Pro",
    "rowid": "1103495",
    "final_x": "3710368.10353",
    "final_y": "556794.792346",
    "longitude": "-89.97597072732894",
    "latitude": "30.02408373753857",
    "geocoded_column": {
      "latitude": "30.02408373753857",
      "longitude": "-89.97597072732894"
    }
  },
  {
    "service_request": "2024-1103494",
    "request_type": "Trash/Recycling",
    "request_reason": "Request a Large Item Pick Up",
    "date_created": "2024-06-13T21:20:35.000",
    "date_modified": "2024-06-13T21:20:36.000",
    "request_status": "Pending",
    "responsible_agency": "Department of Sanitation",
    "final_address": "4910 Eunice Dr",
    "address_councildis": "E",
    "status": "Assigned to Contractor",
    "contractor": "Waste Pro",
    "rowid": "1103494",
    "final_x": "3710368.10353",
    "final_y": "556794.792346",
    "longitude": "-89.97597072732894",
    "latitude": "30.02408373753857",
    "geocoded_column": {
      "latitude": "30.02408373753857",
      "longitude": "-89.97597072732894"
    }
  },
  {
    "service_request": "2024-1103493",
    "request_type": "Roads/Drainage",
    "request_reason": "Pothole",
    "date_created": "2024-06-13T21:05:02.000",
    "date_modified": "2024-06-13T21:05:02.000",
    "request_status": "Pending",
    "responsible_agency": "Department of Public Works",
    "final_address": "1314 Webster St",
    "address_councildis": "A",
    "status": "Pending",
    "rowid": "1103493",
    "final_x": "3664719.14957",
    "final_y": "521176.679929",
    "longitude": "-90.12140387903943",
    "latitude": "29.927553702734272",
    "geocoded_column": {
      "latitude": "29.927553702734272",
      "longitude": "-90.12140387903943"
    }
  },
  {
    "service_request": "2024-1103492",
    "request_type": "Trash/Recycling",
    "request_reason": "Order Recycling Cart",
    "date_created": "2024-06-13T20:48:46.000",
    "date_modified": "2024-06-13T20:48:46.000",
    "request_status": "Pending",
    "responsible_agency": "Department of Sanitation",
    "final_address": "6571 Louis Xiv St",
    "address_councildis": "A",
    "status": "Pending",
    "rowid": "1103492",
    "final_x": "3668537.54004",
    "final_y": "551286.181333",
    "longitude": "-90.10833396718775",
    "latitude": "30.01023317859903",
    "geocoded_column": {
      "latitude": "30.01023317859903",
      "longitude": "-90.10833396718775"
    }
  },
  {
    "service_request": "2024-1103491",
    "request_type": "Roads/Drainage",
    "request_reason": "Pothole",
    "date_created": "2024-06-13T20:40:19.000",
    "date_modified": "2024-06-13T20:40:19.000",
    "request_status": "Pending",
    "responsible_agency": "Department of Public Works",
    "final_address": "5923 Pitt St",
    "address_councildis": "A",
    "status": "Pending",
    "rowid": "1103491",
    "final_x": "3665490.05639",
    "final_y": "521140.942649",
    "longitude": "-90.11897149996602",
    "latitude": "29.92743299392239",
    "geocoded_column": {
      "latitude": "29.92743299392239",
      "longitude": "-90.11897149996602"
    }
  },
  {
    "service_request": "2024-1103490",
    "request_type": "Trash/Recycling",
    "request_reason": "Missed Trash Pick-Up",
    "date_created": "2024-06-13T20:39:19.000",
    "date_modified": "2024-06-13T20:39:20.000",
    "request_status": "Pending",
    "responsible_agency": "Department of Sanitation",
    "final_address": "11200 Chef Menteur Hwy",
    "address_councildis": "E",
    "status": "Assigned to Contractor",
    "contractor": "Waste Pro",
    "rowid": "1103490",
    "final_x": "3716501.04197",
    "final_y": "555743.655193",
    "longitude": "-89.95663193198165",
    "latitude": "30.020992339521815",
    "geocoded_column": {
      "latitude": "30.020992339521815",
      "longitude": "-89.95663193198165"
    }
  },
  {
    "service_request": "2024-1103489",
    "request_type": "Property Maintenance",
    "request_reason": "Property Maintenance",
    "date_created": "2024-06-13T20:11:22.000",
    "date_modified": "2024-06-13T20:11:22.000",
    "request_status": "Pending",
    "responsible_agency": "Department of Code Enforcement",
    "final_address": "4917 N Derbigny St",
    "address_councildis": "E",
    "status": "Pending",
    "rowid": "1103489",
    "final_x": "3696495.87607",
    "final_y": "536558.406919",
    "longitude": "-90.02053672196635",
    "latitude": "29.968885686232674",
    "geocoded_column": {
      "latitude": "29.968885686232674",
      "longitude": "-90.02053672196635"
    }
  },
  {
    "service_request": "2024-1103488",
    "request_type": "Trash/Recycling",
    "request_reason": "Replace Trash Cart",
    "date_created": "2024-06-13T20:09:49.000",
    "date_modified": "2024-06-13T20:09:50.000",
    "request_status": "Pending",
    "responsible_agency": "Department of Sanitation",
    "final_address": "2110 Josephine St",
    "address_councildis": "B",
    "status": "Assigned to Contractor",
    "contractor": "IV Waste",
    "rowid": "1103488",
    "final_x": "3676667.30235",
    "final_y": "525513.277821",
    "longitude": "-90.0835371309745",
    "latitude": "29.93912503843695",
    "geocoded_column": {
      "latitude": "29.93912503843695",
      "longitude": "-90.0835371309745"
    }
  },
  {
    "service_request": "2024-1103487",
    "request_type": "Roads/Drainage",
    "request_reason": "Unpermitted work in ROW",
    "date_created": "2024-06-13T19:48:50.000",
    "date_modified": "2024-06-13T19:48:50.000",
    "request_status": "Pending",
    "responsible_agency": "Department of Public Works",
    "final_address": "7705 Jeannette St",
    "address_councildis": "A",
    "status": "Pending",
    "rowid": "1103487",
    "final_x": "3663715.75955",
    "final_y": "528250.480192",
    "longitude": "-90.12433573992229",
    "latitude": "29.947033549154934",
    "geocoded_column": {
      "latitude": "29.947033549154934",
      "longitude": "-90.12433573992229"
    }
  },
  {
    "service_request": "2024-1103486",
    "request_type": "Trash/Recycling",
    "request_reason": "Request a Large Item Pick Up",
    "date_created": "2024-06-13T19:48:41.000",
    "date_modified": "2024-06-13T19:48:41.000",
    "request_status": "Pending",
    "responsible_agency": "Department of Sanitation",
    "final_address": "3618 N Rampart St",
    "address_councildis": "C",
    "status": "Assigned to Contractor",
    "contractor": "IV Waste",
    "rowid": "1103486",
    "final_x": "3690771.78691",
    "final_y": "535068.628934",
    "longitude": "-90.0386668546016",
    "latitude": "29.964968404472852",
    "geocoded_column": {
      "latitude": "29.964968404472852",
      "longitude": "-90.0386668546016"
    }
  },
  {
    "service_request": "2024-1103485",
    "request_type": "Property Maintenance",
    "request_reason": "Property Maintenance",
    "date_created": "2024-06-13T19:46:40.000",
    "date_modified": "2024-06-13T19:46:40.000",
    "request_status": "Pending",
    "responsible_agency": "Department of Code Enforcement",
    "final_address": "1610 Forstall St",
    "address_councildis": "E",
    "status": "Pending",
    "rowid": "1103485",
    "final_x": "3696741.81066",
    "final_y": "536191.939463",
    "longitude": "-90.0197733163545",
    "latitude": "29.96787028163395",
    "geocoded_column": {
      "latitude": "29.96787028163395",
      "longitude": "-90.0197733163545"
    }
  },
  {
    "service_request": "2024-1103484",
    "request_type": "Property Maintenance",
    "request_reason": "Property Maintenance",
    "date_created": "2024-06-13T19:46:02.000",
    "date_modified": "2024-06-13T19:46:02.000",
    "request_status": "Pending",
    "responsible_agency": "Department of Code Enforcement",
    "final_address": "6916 Lake Willow Dr",
    "address_councildis": "E",
    "status": "Pending",
    "rowid": "1103484",
    "final_x": "3703070.75102",
    "final_y": "558583.890268",
    "longitude": "-89.99896298132492",
    "latitude": "30.029238735330658",
    "geocoded_column": {
      "latitude": "30.029238735330658",
      "longitude": "-89.99896298132492"
    }
  },
  {
    "service_request": "2024-1103483",
    "request_type": "Roads/Drainage",
    "request_reason": "Street Flooding / Drainage",
    "date_created": "2024-06-13T19:41:30.000",
    "date_modified": "2024-06-13T19:41:30.000",
    "request_status": "Pending",
    "responsible_agency": "Department of Public Works",
    "final_address": "518 Walnut St",
    "address_councildis": "A",
    "status": "Pending",
    "rowid": "1103483",
    "final_x": "3663029.47898",
    "final_y": "523813.527931",
    "longitude": "-90.1266501235132",
    "latitude": "29.934853236362184",
    "geocoded_column": {
      "latitude": "29.934853236362184",
      "longitude": "-90.1266501235132"
    }
  },
  {
    "service_request": "2024-1103482",
    "request_type": "Trash/Recycling",
    "request_reason": "Request a Large Item Pick Up",
    "date_created": "2024-06-13T19:35:45.000",
    "date_modified": "2024-06-13T19:35:45.000",
    "request_status": "Pending",
    "responsible_agency": "Department of Sanitation",
    "final_address": "406 Huntlee Dr",
    "address_councildis": "C",
    "status": "Assigned to Contractor",
    "contractor": "Richards Disposal",
    "rowid": "1103482",
    "final_x": "3701914.01079",
    "final_y": "522270.241594",
    "longitude": "-90.00394953480962",
    "latitude": "29.929426493034768",
    "geocoded_column": {
      "latitude": "29.929426493034768",
      "longitude": "-90.00394953480962"
    }
  },
  {
    "service_request": "2024-1103481",
    "request_type": "Property Maintenance",
    "request_reason": "Property Maintenance",
    "date_created": "2024-06-13T19:33:25.000",
    "date_modified": "2024-06-13T19:33:25.000",
    "request_status": "Pending",
    "responsible_agency": "Department of Code Enforcement",
    "final_address": "4916 N Derbigny St",
    "address_councildis": "E",
    "status": "Pending",
    "rowid": "1103481",
    "final_x": "3696505.40445",
    "final_y": "536477.596679",
    "longitude": "-90.02050955483914",
    "latitude": "29.968663186749627",
    "geocoded_column": {
      "latitude": "29.968663186749627",
      "longitude": "-90.02050955483914"
    }
  },
  {
    "service_request": "2024-1103480",
    "request_type": "Property Maintenance",
    "request_reason": "Property Maintenance",
    "date_created": "2024-06-13T19:28:24.000",
    "date_modified": "2024-06-13T19:28:24.000",
    "request_status": "Pending",
    "responsible_agency": "Department of Code Enforcement",
    "final_address": "4646 Stemway Dr",
    "address_councildis": "D",
    "status": "Pending",
    "rowid": "1103480",
    "final_x": "3696888.75299",
    "final_y": "553737.765591",
    "longitude": "-90.01867353163085",
    "latitude": "30.01611023430476",
    "geocoded_column": {
      "latitude": "30.01611023430476",
      "longitude": "-90.01867353163085"
    }
  },
  {
    "service_request": "2024-1103479",
    "request_type": "Trash/Recycling",
    "request_reason": "Request a Large Item Pick Up",
    "date_created": "2024-06-13T19:13:07.000",
    "date_modified": "2024-06-13T19:13:08.000",
    "request_status": "Pending",
    "responsible_agency": "Department of Sanitation",
    "final_address": "2019 Easter Ln",
    "address_councildis": "C",
    "status": "Assigned to Contractor",
    "contractor": "Richards Disposal",
    "rowid": "1103479",
    "final_x": "3699453.84183",
    "final_y": "524027.80902",
    "longitude": "-90.01165178742752",
    "latitude": "29.93433744893314",
    "geocoded_column": {
      "latitude": "29.93433744893314",
      "longitude": "-90.01165178742752"
    }
  },
  {
    "service_request": "2024-1103478",
    "request_type": "Trash/Recycling",
    "request_reason": "Request a Large Item Pick Up",
    "date_created": "2024-06-13T19:09:11.000",
    "date_modified": "2024-06-13T19:09:11.000",
    "request_status": "Pending",
    "responsible_agency": "Department of Sanitation",
    "final_address": "5610 Woodlawn Pl",
    "address_councildis": "A",
    "status": "Assigned to Contractor",
    "contractor": "IV Waste",
    "rowid": "1103478",
    "final_x": "3667425.01351",
    "final_y": "544764.612047",
    "longitude": "-90.11206846917456",
    "latitude": "29.992333776091748",
    "geocoded_column": {
      "latitude": "29.992333776091748",
      "longitude": "-90.11206846917456"
    }
  },
  {
    "service_request": "2024-1103477",
    "request_type": "Roads/Drainage",
    "request_reason": "Man hole cover issue",
    "date_created": "2024-06-13T18:31:39.000",
    "date_modified": "2024-06-13T18:31:39.000",
    "request_status": "Pending",
    "responsible_agency": "Department of Public Works",
    "final_address": "6072 Wingate Dr",
    "address_councildis": "D",
    "status": "Pending",
    "rowid": "1103477",
    "final_x": "3681132.47413",
    "final_y": "555463.073369",
    "longitude": "-90.06839621821436",
    "latitude": "30.02134186040953",
    "geocoded_column": {
      "latitude": "30.02134186040953",
      "longitude": "-90.06839621821436"
    }
  },
  {
    "service_request": "2024-1103476",
    "request_type": "Trash/Recycling",
    "request_reason": "Replace Trash Cart",
    "date_created": "2024-06-13T18:27:30.000",
    "date_modified": "2024-06-13T18:27:31.000",
    "request_status": "Pending",
    "responsible_agency": "Department of Sanitation",
    "final_address": "2026 Egania St",
    "address_councildis": "E",
    "status": "Assigned to Contractor",
    "contractor": "Waste Pro",
    "rowid": "1103476",
    "final_x": "3697773.40803",
    "final_y": "537669.896584",
    "longitude": "-90.01646187714186",
    "latitude": "29.971901576179786",
    "geocoded_column": {
      "latitude": "29.971901576179786",
      "longitude": "-90.01646187714186"
    }
  },
  {
    "service_request": "2024-1103475",
    "request_type": "Abandoned Vehicles",
    "request_reason": "Abandoned/Junk Vehicles",
    "date_created": "2024-06-13T18:26:35.000",
    "date_modified": "2024-06-13T18:26:35.000",
    "request_status": "Pending",
    "responsible_agency": "Department of Public Works",
    "final_address": "1661 Industry St",
    "address_councildis": "D",
    "status": "Pending",
    "rowid": "1103475",
    "final_x": "3680466.4909",
    "final_y": "542713.511501",
    "longitude": "-90.07094436797605",
    "latitude": "29.98630532528641",
    "geocoded_column": {
      "latitude": "29.98630532528641",
      "longitude": "-90.07094436797605"
    }
  },
  {
    "service_request": "2024-1103474",
    "request_type": "Mosquito, Termite & Rodent Control",
    "request_reason": "Rodent Complaint (Rats)",
    "date_created": "2024-06-13T18:26:08.000",
    "date_modified": "2024-06-13T18:26:08.000",
    "request_status": "Pending",
    "responsible_agency": "Mosquito, Termite & Rodent Control Board",
    "final_address": "2501 Annette St",
    "address_councildis": "D",
    "status": "Pending",
    "rowid": "1103474",
    "final_x": "3682767.54677",
    "final_y": "541341.2827",
    "longitude": "-90.06372425126963",
    "latitude": "29.98246227127369",
    "geocoded_column": {
      "latitude": "29.98246227127369",
      "longitude": "-90.06372425126963"
    }
  },
  {
    "service_request": "2024-1103473",
    "request_type": "Trash/Recycling",
    "request_reason": "Replace Recycling Cart",
    "date_created": "2024-06-13T18:15:39.000",
    "date_modified": "2024-06-13T18:15:39.000",
    "request_status": "Pending",
    "responsible_agency": "Department of Sanitation",
    "final_address": "3701 Rue Denise",
    "address_councildis": "C",
    "status": "Pending",
    "rowid": "1103473",
    "final_x": "3704202.23537",
    "final_y": "516923.488437",
    "longitude": "-89.99692294706256",
    "latitude": "29.914651577869794",
    "geocoded_column": {
      "latitude": "29.914651577869794",
      "longitude": "-89.99692294706256"
    }
  },
  {
    "service_request": "2024-1103472",
    "request_type": "Trash/Recycling",
    "request_reason": "Replace Recycling Cart",
    "date_created": "2024-06-13T18:12:47.000",
    "date_modified": "2024-06-13T18:12:47.000",
    "request_status": "Pending",
    "responsible_agency": "Department of Sanitation",
    "final_address": "3660 Rue Denise",
    "address_councildis": "C",
    "status": "Pending",
    "rowid": "1103472",
    "final_x": "3704307.87038",
    "final_y": "516985.770549",
    "longitude": "-89.9965872354538",
    "latitude": "29.914819444150027",
    "geocoded_column": {
      "latitude": "29.914819444150027",
      "longitude": "-89.9965872354538"
    }
  },
  {
    "service_request": "2024-1103471",
    "request_type": "Trash/Recycling",
    "request_reason": "Replace Recycling Cart",
    "date_created": "2024-06-13T18:12:35.000",
    "date_modified": "2024-06-13T18:12:35.000",
    "request_status": "Pending",
    "responsible_agency": "Department of Sanitation",
    "final_address": "837 Bartholomew St",
    "address_councildis": "C",
    "status": "Pending",
    "rowid": "1103471",
    "final_x": "3691618.9823",
    "final_y": "534439.193605",
    "longitude": "-90.03601397778566",
    "latitude": "29.96321133044722",
    "geocoded_column": {
      "latitude": "29.96321133044722",
      "longitude": "-90.03601397778566"
    }
  },
  {
    "service_request": "2024-1103470",
    "request_type": "Roads/Drainage",
    "request_reason": "Street Subsidence (Sinking)",
    "date_created": "2024-06-13T17:55:36.000",
    "date_modified": "2024-06-13T17:55:36.000",
    "request_status": "Pending",
    "responsible_agency": "Department of Public Works",
    "final_address": "5000 Iberville St",
    "address_councildis": "A",
    "status": "Pending",
    "rowid": "1103470",
    "final_x": "3668405.85966",
    "final_y": "540864.530187",
    "longitude": "-90.10910178095098",
    "latitude": "29.981581098414082",
    "geocoded_column": {
      "latitude": "29.981581098414082",
      "longitude": "-90.10910178095098"
    }
  },
  {
    "service_request": "2024-1103469",
    "request_type": "Abandoned Vehicles",
    "request_reason": "Abandoned/Junk Vehicles",
    "date_created": "2024-06-13T17:48:32.000",
    "date_modified": "2024-06-13T17:48:32.000",
    "request_status": "Pending",
    "responsible_agency": "Department of Public Works",
    "final_address": "7613 Tricia Ct",
    "address_councildis": "E",
    "status": "Pending",
    "rowid": "1103469",
    "final_x": "3717867.09893",
    "final_y": "570998.024295",
    "longitude": "-89.95173447333262",
    "latitude": "30.062890441864123",
    "geocoded_column": {
      "latitude": "30.062890441864123",
      "longitude": "-89.95173447333262"
    }
  },
  {
    "service_request": "2024-1103468",
    "request_type": "Traffic Signals/Signs/Striping/Streetlights",
    "request_reason": "Traffic Sign Missing/Damaged",
    "date_created": "2024-06-13T17:47:32.000",
    "date_modified": "2024-06-13T17:47:32.000",
    "request_status": "Pending",
    "responsible_agency": "Department of Public Works",
    "final_address": "7800 BLK Hickory St",
    "address_councildis": "A",
    "status": "Pending",
    "rowid": "1103468",
    "final_x": "3664084.23052",
    "final_y": "529290.992715",
    "longitude": "-90.12313763665884",
    "latitude": "29.94988392806582",
    "geocoded_column": {
      "latitude": "29.94988392806582",
      "longitude": "-90.12313763665884"
    }
  },
  {
    "service_request": "2024-1103467",
    "request_type": "Traffic Signals/Signs/Striping/Streetlights",
    "request_reason": "Traffic Sign Missing/Damaged",
    "date_created": "2024-06-13T17:42:56.000",
    "date_modified": "2024-06-13T17:42:56.000",
    "request_status": "Pending",
    "responsible_agency": "Department of Public Works",
    "final_address": "2100 BLK Adams St",
    "address_councildis": "A",
    "status": "Pending",
    "rowid": "1103467",
    "final_x": "3665300.87671",
    "final_y": "529844.292789",
    "longitude": "-90.11927759592749",
    "latitude": "29.951369935310396",
    "geocoded_column": {
      "latitude": "29.951369935310396",
      "longitude": "-90.11927759592749"
    }
  },
  {
    "service_request": "2024-1103466",
    "request_type": "Safety & Permits",
    "request_reason": "Licenses & Permits",
    "date_created": "2024-06-13T17:08:54.000",
    "date_modified": "2024-06-13T17:08:54.000",
    "request_status": "Pending",
    "responsible_agency": "Safety and Permits",
    "final_address": "6314 Magazine St",
    "address_councildis": "A",
    "status": "Pending",
    "rowid": "1103466",
    "final_x": "3663308.89447",
    "final_y": "519744.26284",
    "longitude": "-90.12590337980288",
    "latitude": "29.923655943003517",
    "geocoded_column": {
      "latitude": "29.923655943003517",
      "longitude": "-90.12590337980288"
    }
  },
  {
    "service_request": "2024-1103465",
    "request_type": "Trash/Recycling",
    "request_reason": "Return Recycling Cart",
    "date_created": "2024-06-13T17:07:39.000",
    "date_modified": "2024-06-13T17:07:40.000",
    "request_status": "Pending",
    "responsible_agency": "Department of Sanitation",
    "final_address": "4850 Read Blvd",
    "address_councildis": "E",
    "status": "Pending",
    "rowid": "1103465",
    "final_x": "3712602.74718",
    "final_y": "556810.45385",
    "longitude": "-89.96890915955319",
    "latitude": "30.02405382422736",
    "geocoded_column": {
      "latitude": "30.02405382422736",
      "longitude": "-89.96890915955319"
    }
  },
  {
    "service_request": "2024-1103464",
    "request_type": "Parks & Parkways",
    "request_reason": "Request Tree Service (Right of Way/Public Property)",
    "date_created": "2024-06-13T16:48:31.000",
    "date_modified": "2024-06-13T16:48:31.000",
    "request_status": "Pending",
    "responsible_agency": "Department of Parks & Parkway",
    "final_address": "2701 Allen Toussaint Blvd",
    "address_councildis": "D",
    "status": "Pending",
    "rowid": "1103464",
    "final_x": "3687119.30543",
    "final_y": "556113.615962",
    "longitude": "-90.04945649345518",
    "latitude": "30.02294752635801",
    "geocoded_column": {
      "latitude": "30.02294752635801",
      "longitude": "-90.04945649345518"
    }
  },
  {
    "service_request": "2024-1103462",
    "request_type": "Trash/Recycling",
    "request_reason": "Illegal Dumping",
    "date_created": "2024-06-13T16:45:00.000",
    "date_modified": "2024-06-13T16:45:00.000",
    "request_status": "Pending",
    "responsible_agency": "Department of Sanitation",
    "final_address": "1821 N Villere St",
    "address_councildis": "C",
    "status": "Pending",
    "rowid": "1103462",
    "final_x": "3683598.38793",
    "final_y": "537405.146952",
    "longitude": "-90.06123806948737",
    "latitude": "29.971613933796043",
    "geocoded_column": {
      "latitude": "29.971613933796043",
      "longitude": "-90.06123806948737"
    }
  },
  {
    "service_request": "2024-1103460",
    "request_type": "Trash/Recycling",
    "request_reason": "Missed Trash Pick-Up",
    "date_created": "2024-06-13T16:36:24.000",
    "date_modified": "2024-06-13T16:36:24.000",
    "request_status": "Pending",
    "responsible_agency": "Department of Sanitation",
    "final_address": "5705 N Johnson St",
    "address_councildis": "E",
    "status": "Assigned to Contractor",
    "contractor": "Waste Pro",
    "rowid": "1103460",
    "final_x": "3699375.0936",
    "final_y": "537091.698184",
    "longitude": "-90.0114245972065",
    "latitude": "29.97026102738125",
    "geocoded_column": {
      "latitude": "29.97026102738125",
      "longitude": "-90.0114245972065"
    }
  },
  {
    "service_request": "2024-1103459",
    "request_type": "Trash/Recycling",
    "request_reason": "Repair Trash Cart",
    "date_created": "2024-06-13T16:35:01.000",
    "date_modified": "2024-06-13T16:35:01.000",
    "request_status": "Pending",
    "responsible_agency": "Department of Sanitation",
    "final_address": "2309 New Orleans St",
    "address_councildis": "D",
    "status": "Assigned to Contractor",
    "contractor": "IV Waste",
    "rowid": "1103459",
    "final_x": "3682082.94607",
    "final_y": "540606.392459",
    "longitude": "-90.06591223049737",
    "latitude": "29.980462419852746",
    "geocoded_column": {
      "latitude": "29.980462419852746",
      "longitude": "-90.06591223049737"
    }
  },
  {
    "service_request": "2024-1103458",
    "request_type": "Traffic Signals/Signs/Striping/Streetlights",
    "request_reason": "Street Light Outage/Malfunction",
    "date_created": "2024-06-13T16:28:02.000",
    "date_modified": "2024-06-13T16:28:03.000",
    "request_status": "Pending",
    "responsible_agency": "Department of Public Works",
    "final_address": "1555 Poydras St",
    "address_councildis": "B",
    "status": "Assigned to Contractor",
    "contractor": "Legacy Professional Services",
    "rowid": "1103458",
    "final_x": "3677963.7917",
    "final_y": "530354.310466",
    "longitude": "-90.079276682772",
    "latitude": "29.95239732174202",
    "geocoded_column": {
      "latitude": "29.95239732174202",
      "longitude": "-90.079276682772"
    }
  },
  {
    "service_request": "2024-1103457",
    "request_type": "Trash/Recycling",
    "request_reason": "Request a Large Item Pick Up",
    "date_created": "2024-06-13T16:27:25.000",
    "date_modified": "2024-06-13T16:27:26.000",
    "request_status": "Pending",
    "responsible_agency": "Department of Sanitation",
    "final_address": "4549 Viola St",
    "address_councildis": "E",
    "status": "Assigned to Contractor",
    "contractor": "Waste Pro",
    "rowid": "1103457",
    "final_x": "3704131.49278",
    "final_y": "553921.459031",
    "longitude": "-89.99578307116771",
    "latitude": "30.016384842490773",
    "geocoded_column": {
      "latitude": "30.016384842490773",
      "longitude": "-89.99578307116771"
    }
  },
  {
    "service_request": "2024-1103456",
    "request_type": "Parks & Parkways",
    "request_reason": "Request Tree Service (Right of Way/Public Property)",
    "date_created": "2024-06-13T16:26:01.000",
    "date_modified": "2024-06-13T16:26:01.000",
    "request_status": "Pending",
    "responsible_agency": "Department of Parks & Parkway",
    "final_address": "8415 Pritchard Pl",
    "address_councildis": "A",
    "status": "Pending",
    "rowid": "1103456",
    "final_x": "3665192.35028",
    "final_y": "533728.181701",
    "longitude": "-90.11949035823164",
    "latitude": "29.96205252428003",
    "geocoded_column": {
      "latitude": "29.96205252428003",
      "longitude": "-90.11949035823164"
    }
  },
  {
    "service_request": "2024-1103455",
    "request_type": "Trash/Recycling",
    "request_reason": "Replace Trash Cart",
    "date_created": "2024-06-13T16:25:31.000",
    "date_modified": "2024-06-13T16:25:32.000",
    "request_status": "Pending",
    "responsible_agency": "Department of Sanitation",
    "final_address": "2326 Lafreniere St",
    "address_councildis": "D",
    "status": "Assigned to Contractor",
    "contractor": "IV Waste",
    "rowid": "1103455",
    "final_x": "3685211.22837",
    "final_y": "545507.359248",
    "longitude": "-90.05585921171914",
    "latitude": "29.993842825293704",
    "geocoded_column": {
      "latitude": "29.993842825293704",
      "longitude": "-90.05585921171914"
    }
  },
  {
    "service_request": "2024-1103454",
    "request_type": "Trash/Recycling",
    "request_reason": "Illegal Dumping",
    "date_created": "2024-06-13T16:23:22.000",
    "date_modified": "2024-06-13T16:23:23.000",
    "request_status": "Pending",
    "responsible_agency": "Department of Sanitation",
    "final_address": "MONTICELLO AVE & PRITCHARD PL",
    "address_councildis": "A",
    "status": "Pending",
    "rowid": "1103454",
    "final_x": "3662609.3",
    "final_y": "536032.98",
    "longitude": "-90.12757068855134",
    "latitude": "29.968464952479756",
    "geocoded_column": {
      "latitude": "29.968464952479756",
      "longitude": "-90.12757068855134"
    }
  },
  {
    "service_request": "2024-1103453",
    "request_type": "Trash/Recycling",
    "request_reason": "Order Recycling Cart",
    "date_created": "2024-06-13T16:21:11.000",
    "date_modified": "2024-06-13T16:21:36.000",
    "request_status": "Pending",
    "responsible_agency": "Department of Sanitation",
    "final_address": "214 Audubon St",
    "address_councildis": "A",
    "status": "Pending",
    "rowid": "1103453",
    "final_x": "3661003.34419",
    "final_y": "521303.304825",
    "longitude": "-90.13312964631137",
    "latitude": "29.928009424419194",
    "geocoded_column": {
      "latitude": "29.928009424419194",
      "longitude": "-90.13312964631137"
    }
  },
  {
    "service_request": "2024-1103452",
    "request_type": "Roads/Drainage",
    "request_reason": "Pothole",
    "date_created": "2024-06-13T16:19:10.000",
    "date_modified": "2024-06-13T16:19:10.000",
    "request_status": "Pending",
    "responsible_agency": "Department of Public Works",
    "final_address": "1709 Poydras St",
    "address_councildis": "B",
    "status": "Pending",
    "rowid": "1103452",
    "final_x": "3677245.28949",
    "final_y": "530911.219266",
    "longitude": "-90.08152617407193",
    "latitude": "29.953950237256482",
    "geocoded_column": {
      "latitude": "29.953950237256482",
      "longitude": "-90.08152617407193"
    }
  },
  {
    "service_request": "2024-1103451",
    "request_type": "Trash/Recycling",
    "request_reason": "Request a Large Item Pick Up",
    "date_created": "2024-06-13T16:19:08.000",
    "date_modified": "2024-06-13T16:19:09.000",
    "request_status": "Pending",
    "responsible_agency": "Department of Sanitation",
    "final_address": "1835 Andry St",
    "address_councildis": "E",
    "status": "Assigned to Contractor",
    "contractor": "Waste Pro",
    "rowid": "1103451",
    "final_x": "3698008.60535",
    "final_y": "536847.305736",
    "longitude": "-90.01574896339582",
    "latitude": "29.969632312269646",
    "geocoded_column": {
      "latitude": "29.969632312269646",
      "longitude": "-90.01574896339582"
    }
  },
  {
    "service_request": "2024-1103450",
    "request_type": "Trash/Recycling",
    "request_reason": "Repair Trash Cart",
    "date_created": "2024-06-13T16:16:11.000",
    "date_modified": "2024-06-13T16:16:11.000",
    "request_status": "Pending",
    "responsible_agency": "Department of Sanitation",
    "final_address": "212 Maumus Ave",
    "address_councildis": "C",
    "status": "Assigned to Contractor",
    "contractor": "Richards Disposal",
    "rowid": "1103450",
    "final_x": "3706447.34487",
    "final_y": "516834.741877",
    "longitude": "-89.98983994468205",
    "latitude": "29.914335364387984",
    "geocoded_column": {
      "latitude": "29.914335364387984",
      "longitude": "-89.98983994468205"
    }
  },
  {
    "service_request": "2024-1103449",
    "request_type": "Roads/Drainage",
    "request_reason": "Pothole",
    "date_created": "2024-06-13T16:13:26.000",
    "date_modified": "2024-06-13T16:13:26.000",
    "request_status": "Pending",
    "responsible_agency": "Department of Public Works",
    "final_address": "1601 Perdido St",
    "address_councildis": "B",
    "status": "Pending",
    "rowid": "1103449",
    "final_x": "3677948.4308",
    "final_y": "530827.709698",
    "longitude": "-90.07930882640612",
    "latitude": "29.953699473206782",
    "geocoded_column": {
      "latitude": "29.953699473206782",
      "longitude": "-90.07930882640612"
    }
  },
  {
    "service_request": "2024-1103448",
    "request_type": "Roads/Drainage",
    "request_reason": "Road Shoulder Repair",
    "date_created": "2024-06-13T16:10:44.000",
    "date_modified": "2024-06-13T16:10:44.000",
    "request_status": "Pending",
    "responsible_agency": "Department of Public Works",
    "final_address": "1501 Perdido St",
    "address_councildis": "B",
    "status": "Pending",
    "rowid": "1103448",
    "final_x": "3678330.08891",
    "final_y": "530678.011458",
    "longitude": "-90.07810888698067",
    "latitude": "29.953276362646115",
    "geocoded_column": {
      "latitude": "29.953276362646115",
      "longitude": "-90.07810888698067"
    }
  },
  {
    "service_request": "2024-1103447",
    "request_type": "Traffic Signals/Signs/Striping/Streetlights",
    "request_reason": "Traffic Sign Missing/Damaged",
    "date_created": "2024-06-13T16:09:38.000",
    "date_modified": "2024-06-13T16:09:38.000",
    "request_status": "Pending",
    "responsible_agency": "Department of Public Works",
    "final_address": "1501 Perdido St",
    "address_councildis": "B",
    "status": "Pending",
    "rowid": "1103447",
    "final_x": "3678330.08891",
    "final_y": "530678.011458",
    "longitude": "-90.07810888698067",
    "latitude": "29.953276362646115",
    "geocoded_column": {
      "latitude": "29.953276362646115",
      "longitude": "-90.07810888698067"
    }
  },
  {
    "service_request": "2024-1103446",
    "request_type": "Traffic Signals/Signs/Striping/Streetlights",
    "request_reason": "Street Light Knocked Down/Leaning",
    "date_created": "2024-06-13T16:08:02.000",
    "date_modified": "2024-06-13T16:08:02.000",
    "request_status": "Pending",
    "responsible_agency": "Department of Public Works",
    "final_address": "2325 Bienville Ave",
    "address_councildis": "B",
    "status": "Pending",
    "contractor": "Legacy Professional Services",
    "rowid": "1103446",
    "final_x": "3677025.40603",
    "final_y": "534895.64487",
    "longitude": "-90.08208309079829",
    "latitude": "29.964912668762462",
    "geocoded_column": {
      "latitude": "29.964912668762462",
      "longitude": "-90.08208309079829"
    }
  },
  {
    "service_request": "2024-1103445",
    "request_type": "Abandoned Vehicles",
    "request_reason": "Abandoned/Junk Vehicles",
    "date_created": "2024-06-13T16:08:00.000",
    "date_modified": "2024-06-13T16:08:01.000",
    "request_status": "Pending",
    "responsible_agency": "Department of Public Works",
    "final_address": "2500 BLK Gladiolus St",
    "address_councildis": "D",
    "status": "Pending",
    "rowid": "1103445",
    "final_x": "3686662.91437",
    "final_y": "547475.928786",
    "longitude": "-90.05120397796789",
    "latitude": "29.999211101465193",
    "geocoded_column": {
      "latitude": "29.999211101465193",
      "longitude": "-90.05120397796789"
    }
  },
  {
    "service_request": "2024-1103444",
    "request_type": "Roads/Drainage",
    "request_reason": "Leaking Hydrant",
    "date_created": "2024-06-13T16:07:29.000",
    "date_modified": "2024-06-13T16:07:29.000",
    "request_status": "Pending",
    "responsible_agency": "Department of Public Works",
    "final_address": "300 LaSalle St",
    "address_councildis": "B",
    "status": "Pending",
    "rowid": "1103444",
    "final_x": "3678539.33269",
    "final_y": "530993.211778",
    "longitude": "-90.07743727642904",
    "latitude": "29.954136753242764",
    "geocoded_column": {
      "latitude": "29.954136753242764",
      "longitude": "-90.07743727642904"
    }
  },
  {
    "service_request": "2024-1103443",
    "request_type": "Roads/Drainage",
    "request_reason": "Man hole cover issue",
    "date_created": "2024-06-13T16:06:04.000",
    "date_modified": "2024-06-13T16:06:04.000",
    "request_status": "Pending",
    "responsible_agency": "Department of Public Works",
    "final_address": "1500 Gravier St",
    "address_councildis": "B",
    "status": "Pending",
    "rowid": "1103443",
    "final_x": "3678448.88136",
    "final_y": "531044.220482",
    "longitude": "-90.07772112038394",
    "latitude": "29.954279735716245",
    "geocoded_column": {
      "latitude": "29.954279735716245",
      "longitude": "-90.07772112038394"
    }
  },
  {
    "service_request": "2024-1103442",
    "request_type": "Property Maintenance",
    "request_reason": "Property Maintenance",
    "date_created": "2024-06-13T16:04:40.000",
    "date_modified": "2024-06-13T16:04:40.000",
    "request_status": "Pending",
    "responsible_agency": "Department of Code Enforcement",
    "final_address": "715 Majestic Pl",
    "address_councildis": "C",
    "status": "Pending",
    "rowid": "1103442",
    "final_x": "3688279.82665",
    "final_y": "526198.749566",
    "longitude": "-90.04685077881327",
    "latitude": "29.940656470510604",
    "geocoded_column": {
      "latitude": "29.940656470510604",
      "longitude": "-90.04685077881327"
    }
  },
  {
    "service_request": "2024-1103441",
    "request_type": "Roads/Drainage",
    "request_reason": "Pothole",
    "date_created": "2024-06-13T16:04:05.000",
    "date_modified": "2024-06-13T16:04:05.000",
    "request_status": "Pending",
    "responsible_agency": "Department of Public Works",
    "final_address": "300 LaSalle St",
    "address_councildis": "B",
    "status": "Pending",
    "rowid": "1103441",
    "final_x": "3678539.33269",
    "final_y": "530993.211778",
    "longitude": "-90.07743727642904",
    "latitude": "29.954136753242764",
    "geocoded_column": {
      "latitude": "29.954136753242764",
      "longitude": "-90.07743727642904"
    }
  },
  {
    "service_request": "2024-1103440",
    "request_type": "Traffic Signals/Signs/Striping/Streetlights",
    "request_reason": "Traffic Sign Missing/Damaged",
    "date_created": "2024-06-13T16:02:45.000",
    "date_modified": "2024-06-13T16:02:46.000",
    "request_status": "Pending",
    "responsible_agency": "Department of Public Works",
    "final_address": "JOLIET ST & PALM ST",
    "address_councildis": "A",
    "status": "Pending",
    "rowid": "1103440",
    "final_x": "3666663.6",
    "final_y": "535652.88",
    "longitude": "-90.11477972277537",
    "latitude": "29.967301871305725",
    "geocoded_column": {
      "latitude": "29.967301871305725",
      "longitude": "-90.11477972277537"
    }
  },
  {
    "service_request": "2024-1103439",
    "request_type": "Abandoned Vehicles",
    "request_reason": "Abandoned/Junk Vehicles",
    "date_created": "2024-06-13T16:02:27.000",
    "date_modified": "2024-06-13T16:02:27.000",
    "request_status": "Pending",
    "responsible_agency": "Department of Public Works",
    "final_address": "715 Majestic Pl",
    "address_councildis": "C",
    "status": "Pending",
    "rowid": "1103439",
    "final_x": "3688279.82665",
    "final_y": "526198.749566",
    "longitude": "-90.04685077881327",
    "latitude": "29.940656470510604",
    "geocoded_column": {
      "latitude": "29.940656470510604",
      "longitude": "-90.04685077881327"
    }
  },
  {
    "service_request": "2024-1103438",
    "request_type": "Abandoned Vehicles",
    "request_reason": "Abandoned/Junk Vehicles",
    "date_created": "2024-06-13T15:58:13.000",
    "date_modified": "2024-06-13T15:58:13.000",
    "request_status": "Pending",
    "responsible_agency": "Department of Public Works",
    "final_address": "1800 BLK Semmes St",
    "address_councildis": "C",
    "status": "Pending",
    "rowid": "1103438",
    "final_x": "3689893.09557",
    "final_y": "524251.238031",
    "longitude": "-90.04182673319933",
    "latitude": "29.935251572274158",
    "geocoded_column": {
      "latitude": "29.935251572274158",
      "longitude": "-90.04182673319933"
    }
  },
  {
    "service_request": "2024-1103437",
    "request_type": "Trash/Recycling",
    "request_reason": "Order Trash Cart",
    "date_created": "2024-06-13T15:56:32.000",
    "date_modified": "2024-06-13T15:57:17.000",
    "request_status": "Pending",
    "responsible_agency": "Department of Sanitation",
    "final_address": "5117 Lakeview Ct",
    "address_councildis": "E",
    "status": "Assigned to Contractor",
    "contractor": "Waste Pro",
    "rowid": "1103437",
    "final_x": "3698914.1242",
    "final_y": "556132.724698",
    "longitude": "-90.01218704403654",
    "latitude": "30.022631410592243",
    "geocoded_column": {
      "latitude": "30.022631410592243",
      "longitude": "-90.01218704403654"
    }
  },
  {
    "service_request": "2024-1103436",
    "request_type": "Traffic Signals/Signs/Striping/Streetlights",
    "request_reason": "Street Light Outage/Malfunction",
    "date_created": "2024-06-13T15:56:26.000",
    "date_modified": "2024-06-13T15:57:28.000",
    "request_status": "Pending",
    "responsible_agency": "Department of Public Works",
    "final_address": "4401 St Roch Ave",
    "address_councildis": "D",
    "status": "Assigned to Contractor",
    "contractor": "Legacy Professional Services",
    "rowid": "1103436",
    "final_x": "3685536.98601",
    "final_y": "548927.187923",
    "longitude": "-90.0547096471598",
    "latitude": "30.00323613364496",
    "geocoded_column": {
      "latitude": "30.00323613364496",
      "longitude": "-90.0547096471598"
    }
  },
  {
    "service_request": "2024-1103435",
    "request_type": "Trash/Recycling",
    "request_reason": "Repair Trash Cart",
    "date_created": "2024-06-13T15:56:22.000",
    "date_modified": "2024-06-13T15:56:39.000",
    "request_status": "Pending",
    "responsible_agency": "Department of Sanitation",
    "final_address": "3930 Palmyra St",
    "address_councildis": "A",
    "status": "Assigned to Contractor",
    "contractor": "IV Waste",
    "rowid": "1103435",
    "final_x": "3671059.70279",
    "final_y": "537247.421704",
    "longitude": "-90.10084257307058",
    "latitude": "29.971557044538482",
    "geocoded_column": {
      "latitude": "29.971557044538482",
      "longitude": "-90.10084257307058"
    }
  },
  {
    "service_request": "2024-1103434",
    "request_type": "Traffic Signals/Signs/Striping/Streetlights",
    "request_reason": "Street Light Outage/Malfunction",
    "date_created": "2024-06-13T15:56:13.000",
    "date_modified": "2024-06-13T15:56:14.000",
    "request_status": "Pending",
    "responsible_agency": "Department of Public Works",
    "final_address": "66 Flamingo St",
    "address_councildis": "D",
    "status": "Assigned to Contractor",
    "contractor": "Legacy Professional Services",
    "rowid": "1103434",
    "final_x": "3674644.09403",
    "final_y": "556002.793433",
    "longitude": "-90.08887922017769",
    "latitude": "30.023021249930736",
    "geocoded_column": {
      "latitude": "30.023021249930736",
      "longitude": "-90.08887922017769"
    }
  },
  {
    "service_request": "2024-1103433",
    "request_type": "Abandoned Vehicles",
    "request_reason": "Abandoned/Junk Vehicles",
    "date_created": "2024-06-13T15:55:04.000",
    "date_modified": "2024-06-13T15:55:04.000",
    "request_status": "Pending",
    "responsible_agency": "Department of Public Works",
    "final_address": "4120 N Tonti St",
    "address_councildis": "D",
    "status": "Pending",
    "rowid": "1103433",
    "final_x": "3693384.9768",
    "final_y": "539637.50177",
    "longitude": "-90.03025051309179",
    "latitude": "29.97744973639438",
    "geocoded_column": {
      "latitude": "29.97744973639438",
      "longitude": "-90.03025051309179"
    }
  },
  {
    "service_request": "2024-1103432",
    "request_type": "Abandoned Vehicles",
    "request_reason": "Abandoned/Junk Vehicles",
    "date_created": "2024-06-13T15:53:38.000",
    "date_modified": "2024-06-13T15:53:38.000",
    "request_status": "Pending",
    "responsible_agency": "Department of Public Works",
    "final_address": "1614 Bodenger Blvd",
    "address_councildis": "C",
    "status": "Pending",
    "rowid": "1103432",
    "final_x": "3688547.00105",
    "final_y": "525701.207485",
    "longitude": "-90.04602491371398",
    "latitude": "29.939280147727743",
    "geocoded_column": {
      "latitude": "29.939280147727743",
      "longitude": "-90.04602491371398"
    }
  },
  {
    "service_request": "2024-1103431",
    "request_type": "Traffic Signals/Signs/Striping/Streetlights",
    "request_reason": "Street Light Outage/Malfunction",
    "date_created": "2024-06-13T15:52:54.000",
    "date_modified": "2024-06-13T15:53:56.000",
    "request_status": "Pending",
    "responsible_agency": "Department of Public Works",
    "final_address": "62 Flamingo St",
    "address_councildis": "D",
    "status": "Assigned to Contractor",
    "contractor": "Legacy Professional Services",
    "rowid": "1103431",
    "final_x": "3674654.56763",
    "final_y": "555850.429529",
    "longitude": "-90.08885135469771",
    "latitude": "30.022601991438517",
    "geocoded_column": {
      "latitude": "30.022601991438517",
      "longitude": "-90.08885135469771"
    }
  },
  {
    "service_request": "2024-1103430",
    "request_type": "Trash/Recycling",
    "request_reason": "Repair Trash Cart",
    "date_created": "2024-06-13T15:52:08.000",
    "date_modified": "2024-06-13T15:53:03.000",
    "request_status": "Pending",
    "responsible_agency": "Department of Sanitation",
    "final_address": "11031 Roger Dr Apt B",
    "address_councildis": "E",
    "status": "Assigned to Contractor",
    "contractor": "Waste Pro",
    "rowid": "1103430",
    "final_x": "3712273.41797",
    "final_y": "563644.727905",
    "longitude": "-89.96969276981577",
    "latitude": "30.04285613432818",
    "geocoded_column": {
      "latitude": "30.04285613432818",
      "longitude": "-89.96969276981577"
    }
  },
  {
    "service_request": "2024-1103429",
    "request_type": "Roads/Drainage",
    "request_reason": "Damaged Sidewalk",
    "date_created": "2024-06-13T15:51:19.000",
    "date_modified": "2024-06-13T15:51:19.000",
    "request_status": "Pending",
    "responsible_agency": "Department of Public Works",
    "final_address": "1532 Tulane Ave",
    "address_councildis": "B",
    "status": "Pending",
    "rowid": "1103429",
    "final_x": "3678292.39464",
    "final_y": "531588.875331",
    "longitude": "-90.0781964047379",
    "latitude": "29.955782067566325",
    "geocoded_column": {
      "latitude": "29.955782067566325",
      "longitude": "-90.0781964047379"
    }
  },
  {
    "service_request": "2024-1103428",
    "request_type": "Abandoned Vehicles",
    "request_reason": "Abandoned/Junk Vehicles",
    "date_created": "2024-06-13T15:47:09.000",
    "date_modified": "2024-06-13T15:47:09.000",
    "request_status": "Pending",
    "responsible_agency": "Department of Public Works",
    "final_address": "1526 Bodenger Blvd",
    "address_councildis": "C",
    "status": "Pending",
    "rowid": "1103428",
    "final_x": "3688561.02198",
    "final_y": "525894.725821",
    "longitude": "-90.04597378379307",
    "latitude": "29.93981182440794",
    "geocoded_column": {
      "latitude": "29.93981182440794",
      "longitude": "-90.04597378379307"
    }
  },
  {
    "service_request": "2024-1103427",
    "request_type": "Trash/Recycling",
    "request_reason": "Illegal Dumping",
    "date_created": "2024-06-13T15:46:57.000",
    "date_modified": "2024-06-13T15:46:57.000",
    "request_status": "Pending",
    "responsible_agency": "Department of Sanitation",
    "final_address": "RANSOM ST & RAY AVE",
    "address_councildis": "E",
    "status": "Pending",
    "rowid": "1103427",
    "final_x": "3698911.1",
    "final_y": "553011.78",
    "longitude": "-90.01231029080078",
    "latitude": "30.01405009368162",
    "geocoded_column": {
      "latitude": "30.01405009368162",
      "longitude": "-90.01231029080078"
    }
  },
  {
    "service_request": "2024-1103426",
    "request_type": "Trash/Recycling",
    "request_reason": "Repair Trash Cart",
    "date_created": "2024-06-13T15:46:33.000",
    "date_modified": "2024-06-13T15:46:34.000",
    "request_status": "Pending",
    "responsible_agency": "Department of Sanitation",
    "final_address": "3810 Perrier St",
    "address_councildis": "B",
    "status": "Assigned to Contractor",
    "contractor": "IV Waste",
    "rowid": "1103426",
    "final_x": "3672989.666",
    "final_y": "520261.094072",
    "longitude": "-90.09532705501827",
    "latitude": "29.924793015895194",
    "geocoded_column": {
      "latitude": "29.924793015895194",
      "longitude": "-90.09532705501827"
    }
  },
  {
    "service_request": "2024-1103425",
    "request_type": "Traffic Signals/Signs/Striping/Streetlights",
    "request_reason": "Striping/Road Surface Markings",
    "date_created": "2024-06-13T15:45:47.000",
    "date_modified": "2024-06-13T15:45:47.000",
    "request_status": "Pending",
    "responsible_agency": "Department of Public Works",
    "final_address": "1001 S Broad St Spc 205",
    "address_councildis": "B",
    "status": "Pending",
    "rowid": "1103425",
    "final_x": "3672607.81979",
    "final_y": "531616.013955",
    "longitude": "-90.0961454069616",
    "latitude": "29.956026681550103",
    "geocoded_column": {
      "latitude": "29.956026681550103",
      "longitude": "-90.0961454069616"
    }
  },
  {
    "service_request": "2024-1103424",
    "request_type": "Trash/Recycling",
    "request_reason": "Repair Recycling Cart",
    "date_created": "2024-06-13T15:44:50.000",
    "date_modified": "2024-06-13T15:44:50.000",
    "request_status": "Pending",
    "responsible_agency": "Department of Sanitation",
    "final_address": "11321 Old Spanish Trl",
    "address_councildis": "E",
    "status": "Pending",
    "rowid": "1103424",
    "final_x": "3717487.299",
    "final_y": "556372.907546",
    "longitude": "-89.95349173720686",
    "latitude": "30.022689914153144",
    "geocoded_column": {
      "latitude": "30.022689914153144",
      "longitude": "-89.95349173720686"
    }
  },
  {
    "service_request": "2024-1103423",
    "request_type": "Trash/Recycling",
    "request_reason": "MIssed Recycling Pick-Up",
    "date_created": "2024-06-13T15:44:10.000",
    "date_modified": "2024-06-13T15:44:10.000",
    "request_status": "Pending",
    "responsible_agency": "Department of Sanitation",
    "final_address": "11321 Old Spanish Trl",
    "address_councildis": "E",
    "status": "Assigned to Contractor",
    "contractor": "Waste Pro",
    "rowid": "1103423",
    "final_x": "3717487.299",
    "final_y": "556372.907546",
    "longitude": "-89.95349173720686",
    "latitude": "30.022689914153144",
    "geocoded_column": {
      "latitude": "30.022689914153144",
      "longitude": "-89.95349173720686"
    }
  },
  {
    "service_request": "2024-1103422",
    "request_type": "Parks & Parkways",
    "request_reason": "Request Tree Service (Right of Way/Public Property)",
    "date_created": "2024-06-13T15:41:35.000",
    "date_modified": "2024-06-13T15:41:35.000",
    "request_status": "Pending",
    "responsible_agency": "Department of Parks & Parkway",
    "final_address": "2021 Chippewa St",
    "address_councildis": "B",
    "status": "Pending",
    "rowid": "1103422",
    "final_x": "3680310.13461",
    "final_y": "521437.393849",
    "longitude": "-90.07217789953083",
    "latitude": "29.92780794586775",
    "geocoded_column": {
      "latitude": "29.92780794586775",
      "longitude": "-90.07217789953083"
    }
  },
  {
    "service_request": "2024-1103421",
    "request_type": "Trash/Recycling",
    "request_reason": "Request a Large Item Pick Up",
    "date_created": "2024-06-13T15:41:20.000",
    "date_modified": "2024-06-13T15:41:20.000",
    "request_status": "Pending",
    "responsible_agency": "Department of Sanitation",
    "final_address": "2737 Amelia St",
    "address_councildis": "B",
    "status": "Assigned to Contractor",
    "contractor": "IV Waste",
    "rowid": "1103421",
    "final_x": "3672144.70196",
    "final_y": "525274.596541",
    "longitude": "-90.09782368759977",
    "latitude": "29.938603606485994",
    "geocoded_column": {
      "latitude": "29.938603606485994",
      "longitude": "-90.09782368759977"
    }
  },
  {
    "service_request": "2024-1103420",
    "request_type": "Trash/Recycling",
    "request_reason": "Request a Large Item Pick Up",
    "date_created": "2024-06-13T15:41:17.000",
    "date_modified": "2024-06-13T15:42:02.000",
    "request_status": "Pending",
    "responsible_agency": "Department of Sanitation",
    "final_address": "1501 Paula St",
    "address_councildis": "D",
    "status": "Assigned to Contractor",
    "contractor": "IV Waste",
    "rowid": "1103420",
    "final_x": "3678781.98517",
    "final_y": "549349.256083",
    "longitude": "-90.07603508815741",
    "latitude": "30.004602203352512",
    "geocoded_column": {
      "latitude": "30.004602203352512",
      "longitude": "-90.07603508815741"
    }
  },
  {
    "service_request": "2024-1103419",
    "request_type": "Trash/Recycling",
    "request_reason": "Dead Animal Pick Up",
    "date_created": "2024-06-13T15:39:58.000",
    "date_modified": "2024-06-13T15:39:59.000",
    "request_status": "Pending",
    "responsible_agency": "Department of Sanitation",
    "final_address": "2926 Republic St",
    "address_councildis": "D",
    "status": "Assigned to Contractor",
    "contractor": "IV Waste",
    "rowid": "1103419",
    "final_x": "3680613.19221",
    "final_y": "543205.788174",
    "longitude": "-90.07046385799438",
    "latitude": "29.987654468554155",
    "geocoded_column": {
      "latitude": "29.987654468554155",
      "longitude": "-90.07046385799438"
    }
  },
  {
    "service_request": "2024-1103418",
    "request_type": "Trash/Recycling",
    "request_reason": "Request a Large Item Pick Up",
    "date_created": "2024-06-13T15:39:48.000",
    "date_modified": "2024-06-13T15:39:48.000",
    "request_status": "Pending",
    "responsible_agency": "Department of Sanitation",
    "final_address": "1701 Shepherd St",
    "address_councildis": "C",
    "status": "Assigned to Contractor",
    "contractor": "Richards Disposal",
    "rowid": "1103418",
    "final_x": "3690380.98102",
    "final_y": "523626.619707",
    "longitude": "-90.04030873647861",
    "latitude": "29.933518953765503",
    "geocoded_column": {
      "latitude": "29.933518953765503",
      "longitude": "-90.04030873647861"
    }
  },
  {
    "service_request": "2024-1103417",
    "request_type": "Trash/Recycling",
    "request_reason": "Repair Trash Cart",
    "date_created": "2024-06-13T15:35:00.000",
    "date_modified": "2024-06-13T15:35:00.000",
    "request_status": "Pending",
    "responsible_agency": "Department of Sanitation",
    "final_address": "3337 Diana St",
    "address_councildis": "C",
    "status": "Assigned to Contractor",
    "contractor": "Richards Disposal",
    "rowid": "1103417",
    "final_x": "3696710.11946",
    "final_y": "527331.439615",
    "longitude": "-90.02019406925015",
    "latitude": "29.94350802614687",
    "geocoded_column": {
      "latitude": "29.94350802614687",
      "longitude": "-90.02019406925015"
    }
  },
  {
    "service_request": "2024-1103416",
    "request_type": "Trash/Recycling",
    "request_reason": "Request a Large Item Pick Up",
    "date_created": "2024-06-13T15:33:59.000",
    "date_modified": "2024-06-13T15:34:00.000",
    "request_status": "Pending",
    "responsible_agency": "Department of Sanitation",
    "final_address": "2320 Burgundy St",
    "address_councildis": "C",
    "status": "Assigned to Contractor",
    "contractor": "IV Waste",
    "rowid": "1103416",
    "final_x": "3685675.50838",
    "final_y": "535497.104326",
    "longitude": "-90.05474546436197",
    "latitude": "29.96630391000886",
    "geocoded_column": {
      "latitude": "29.96630391000886",
      "longitude": "-90.05474546436197"
    }
  },
  {
    "service_request": "2024-1103415",
    "request_type": "Traffic Signals/Signs/Striping/Streetlights",
    "request_reason": "Traffic Sign Missing/Damaged",
    "date_created": "2024-06-13T15:32:46.000",
    "date_modified": "2024-06-13T15:32:47.000",
    "request_status": "Pending",
    "responsible_agency": "Department of Public Works",
    "final_address": "7700 Crowder Blvd",
    "address_councildis": "E",
    "status": "Pending",
    "rowid": "1103415",
    "final_x": "3703201.26622",
    "final_y": "562173.614431",
    "longitude": "-89.99841840785486",
    "latitude": "30.039104895130624",
    "geocoded_column": {
      "latitude": "30.039104895130624",
      "longitude": "-89.99841840785486"
    }
  },
  {
    "service_request": "2024-1103414",
    "request_type": "Traffic Signals/Signs/Striping/Streetlights",
    "request_reason": "Traffic Sign Missing/Damaged",
    "date_created": "2024-06-13T15:32:40.000",
    "date_modified": "2024-06-13T15:32:40.000",
    "request_status": "Pending",
    "responsible_agency": "Department of Public Works",
    "final_address": "1430 Tulane Ave",
    "address_councildis": "B",
    "status": "Pending",
    "rowid": "1103414",
    "final_x": "3678753.76098",
    "final_y": "531400.515715",
    "longitude": "-90.0767460941841",
    "latitude": "29.95525023791637",
    "geocoded_column": {
      "latitude": "29.95525023791637",
      "longitude": "-90.0767460941841"
    }
  },
  {
    "service_request": "2024-1103413",
    "request_type": "Abandoned Vehicles",
    "request_reason": "Abandoned/Junk Vehicles",
    "date_created": "2024-06-13T15:31:17.000",
    "date_modified": "2024-06-13T15:31:17.000",
    "request_status": "Pending",
    "responsible_agency": "Department of Public Works",
    "final_address": "1335 Atlantic Ave",
    "address_councildis": "C",
    "status": "Pending",
    "rowid": "1103413",
    "final_x": "3688596.60015",
    "final_y": "526442.147198",
    "longitude": "-90.04584203931907",
    "latitude": "29.94131594822395",
    "geocoded_column": {
      "latitude": "29.94131594822395",
      "longitude": "-90.04584203931907"
    }
  },
  {
    "service_request": "2024-1103412",
    "request_type": "Roads/Drainage",
    "request_reason": "Pothole",
    "date_created": "2024-06-13T15:31:11.000",
    "date_modified": "2024-06-13T15:31:11.000",
    "request_status": "Pending",
    "responsible_agency": "Department of Public Works",
    "final_address": "1430 Tulane Ave",
    "address_councildis": "B",
    "status": "Pending",
    "rowid": "1103412",
    "final_x": "3678753.76098",
    "final_y": "531400.515715",
    "longitude": "-90.0767460941841",
    "latitude": "29.95525023791637",
    "geocoded_column": {
      "latitude": "29.95525023791637",
      "longitude": "-90.0767460941841"
    }
  },
  {
    "service_request": "2024-1103411",
    "request_type": "Trash/Recycling",
    "request_reason": "Request a Large Item Pick Up",
    "date_created": "2024-06-13T15:28:24.000",
    "date_modified": "2024-06-13T15:28:25.000",
    "request_status": "Pending",
    "responsible_agency": "Department of Sanitation",
    "final_address": "1410 Jackson Ave",
    "address_councildis": "B",
    "status": "Assigned to Contractor",
    "contractor": "IV Waste",
    "rowid": "1103411",
    "final_x": "3678103.46293",
    "final_y": "522922.013179",
    "longitude": "-90.0790925440959",
    "latitude": "29.93195676211378",
    "geocoded_column": {
      "latitude": "29.93195676211378",
      "longitude": "-90.0790925440959"
    }
  },
  {
    "service_request": "2024-1103410",
    "request_type": "Trash/Recycling",
    "request_reason": "Order Recycling Cart",
    "date_created": "2024-06-13T15:25:48.000",
    "date_modified": "2024-06-13T15:25:49.000",
    "request_status": "Pending",
    "responsible_agency": "Department of Sanitation",
    "final_address": "1407 Jourdan Ave",
    "address_councildis": "E",
    "status": "Pending",
    "rowid": "1103410",
    "final_x": "3695418.49949",
    "final_y": "535703.649799",
    "longitude": "-90.02396997474196",
    "latitude": "29.96656930473556",
    "geocoded_column": {
      "latitude": "29.96656930473556",
      "longitude": "-90.02396997474196"
    }
  },
  {
    "service_request": "2024-1103409",
    "request_type": "Trash/Recycling",
    "request_reason": "Repair Trash Cart",
    "date_created": "2024-06-13T15:25:44.000",
    "date_modified": "2024-06-13T15:25:45.000",
    "request_status": "Pending",
    "responsible_agency": "Department of Sanitation",
    "final_address": "5311 Berkley Dr",
    "address_councildis": "C",
    "status": "Assigned to Contractor",
    "contractor": "Richards Disposal",
    "rowid": "1103409",
    "final_x": "3703397.2337",
    "final_y": "518123.762038",
    "longitude": "-89.99941969043344",
    "latitude": "29.917977709655755",
    "geocoded_column": {
      "latitude": "29.917977709655755",
      "longitude": "-89.99941969043344"
    }
  },
  {
    "service_request": "2024-1103408",
    "request_type": "Roads/Drainage",
    "request_reason": "Catch Basin - Clogged",
    "date_created": "2024-06-13T15:25:43.000",
    "date_modified": "2024-06-13T15:25:44.000",
    "request_status": "Pending",
    "responsible_agency": "Department of Public Works",
    "final_address": "2918 General Taylor St",
    "address_councildis": "B",
    "status": "Pending",
    "rowid": "1103408",
    "final_x": "3671492.41473",
    "final_y": "525712.109309",
    "longitude": "-90.09986816292287",
    "latitude": "29.93982594776329",
    "geocoded_column": {
      "latitude": "29.93982594776329",
      "longitude": "-90.09986816292287"
    }
  },
  {
    "service_request": "2024-1103407",
    "request_type": "Trash/Recycling",
    "request_reason": "Order Recycling Cart",
    "date_created": "2024-06-13T15:25:12.000",
    "date_modified": "2024-06-13T15:25:19.000",
    "request_status": "Pending",
    "responsible_agency": "Department of Sanitation",
    "final_address": "1409 Jourdan Ave",
    "address_councildis": "E",
    "status": "Pending",
    "rowid": "1103407",
    "final_x": "3695421.30198",
    "final_y": "535714.790023",
    "longitude": "-90.0239607225342",
    "latitude": "29.96659984833802",
    "geocoded_column": {
      "latitude": "29.96659984833802",
      "longitude": "-90.0239607225342"
    }
  },
  {
    "service_request": "2024-1103406",
    "request_type": "Safety & Permits",
    "request_reason": "Licenses & Permits",
    "date_created": "2024-06-13T15:21:36.000",
    "date_modified": "2024-06-13T15:21:36.000",
    "request_status": "Pending",
    "responsible_agency": "Safety and Permits",
    "final_address": "FOUCHER ST & COLISEUM ST",
    "address_councildis": "B",
    "status": "Pending",
    "rowid": "1103406",
    "final_x": "3673830.2",
    "final_y": "520288.58",
    "longitude": "-90.09267282389722",
    "latitude": "29.92484359563287",
    "geocoded_column": {
      "latitude": "29.92484359563287",
      "longitude": "-90.09267282389722"
    }
  },
  {
    "service_request": "2024-1103405",
    "request_type": "Trash/Recycling",
    "request_reason": "Request a Large Item Pick Up",
    "date_created": "2024-06-13T15:21:16.000",
    "date_modified": "2024-06-13T15:21:17.000",
    "request_status": "Pending",
    "responsible_agency": "Department of Sanitation",
    "final_address": "2101 Dauphine St",
    "address_councildis": "C",
    "status": "Assigned to Contractor",
    "contractor": "IV Waste",
    "rowid": "1103405",
    "final_x": "3684710.86191",
    "final_y": "535220.466118",
    "longitude": "-90.05780152034805",
    "latitude": "29.965572812718555",
    "geocoded_column": {
      "latitude": "29.965572812718555",
      "longitude": "-90.05780152034805"
    }
  },
  {
    "service_request": "2024-1103404",
    "request_type": "Trash/Recycling",
    "request_reason": "Stop Trash Service",
    "date_created": "2024-06-13T15:20:08.000",
    "date_modified": "2024-06-13T15:20:09.000",
    "request_status": "Pending",
    "responsible_agency": "Department of Sanitation",
    "final_address": "7831 Shubert St",
    "address_councildis": "E",
    "status": "Assigned to Contractor",
    "contractor": "Waste Pro",
    "rowid": "1103404",
    "final_x": "3695583.5791",
    "final_y": "559471.741533",
    "longitude": "-90.02259004383252",
    "latitude": "30.031917603313094",
    "geocoded_column": {
      "latitude": "30.031917603313094",
      "longitude": "-90.02259004383252"
    }
  },
  {
    "service_request": "2024-1103403",
    "request_type": "Trash/Recycling",
    "request_reason": "Request a Large Item Pick Up",
    "date_created": "2024-06-13T15:16:25.000",
    "date_modified": "2024-06-13T15:16:26.000",
    "request_status": "Pending",
    "responsible_agency": "Department of Sanitation",
    "final_address": "6017 Music St",
    "address_councildis": "D",
    "status": "Assigned to Contractor",
    "contractor": "IV Waste",
    "rowid": "1103403",
    "final_x": "3685385.60245",
    "final_y": "555256.017753",
    "longitude": "-90.05496482786106",
    "latitude": "30.020642747527685",
    "geocoded_column": {
      "latitude": "30.020642747527685",
      "longitude": "-90.05496482786106"
    }
  },
  {
    "service_request": "2024-1103402",
    "request_type": "Roads/Drainage",
    "request_reason": "Street Subsidence (Sinking)",
    "date_created": "2024-06-13T15:16:08.000",
    "date_modified": "2024-06-13T15:16:08.000",
    "request_status": "Pending",
    "responsible_agency": "Department of Public Works",
    "final_address": "800 BLK Iberville St",
    "address_councildis": "C",
    "status": "Pending",
    "rowid": "1103402",
    "final_x": "3681019.79048",
    "final_y": "531338.261586",
    "longitude": "-90.06959297856659",
    "latitude": "29.955010535268748",
    "geocoded_column": {
      "latitude": "29.955010535268748",
      "longitude": "-90.06959297856659"
    }
  },
  {
    "service_request": "2024-1103400",
    "request_type": "Roads/Drainage",
    "request_reason": "Catch Basin - Broken/Damage",
    "date_created": "2024-06-13T15:13:19.000",
    "date_modified": "2024-06-13T15:13:19.000",
    "request_status": "Pending",
    "responsible_agency": "Department of Public Works",
    "final_address": "10 Brownlee Ct",
    "address_councildis": "E",
    "status": "Pending",
    "rowid": "1103400",
    "final_x": "3712826.43634",
    "final_y": "567064.736548",
    "longitude": "-89.96781621789454",
    "latitude": "30.052241664463132",
    "geocoded_column": {
      "latitude": "30.052241664463132",
      "longitude": "-89.96781621789454"
    }
  },
  {
    "service_request": "2024-1103399",
    "request_type": "Roads/Drainage",
    "request_reason": "Pothole",
    "date_created": "2024-06-13T15:11:49.000",
    "date_modified": "2024-06-13T15:11:49.000",
    "request_status": "Pending",
    "responsible_agency": "Department of Public Works",
    "final_address": "1317 Canal St",
    "address_councildis": "C",
    "status": "Pending",
    "rowid": "1103399",
    "final_x": "3679584.47291",
    "final_y": "532029.234947",
    "longitude": "-90.07410119456044",
    "latitude": "29.956953927872995",
    "geocoded_column": {
      "latitude": "29.956953927872995",
      "longitude": "-90.07410119456044"
    }
  },
  {
    "service_request": "2024-1103398",
    "request_type": "Roads/Drainage",
    "request_reason": "Catch Basin - Broken/Damage",
    "date_created": "2024-06-13T15:11:42.000",
    "date_modified": "2024-06-13T15:11:42.000",
    "request_status": "Pending",
    "responsible_agency": "Department of Public Works",
    "final_address": "12 Brownlee Ct",
    "address_councildis": "E",
    "status": "Pending",
    "rowid": "1103398",
    "final_x": "3712764.27544",
    "final_y": "567015.325412",
    "longitude": "-89.96801454889399",
    "latitude": "30.052107840680485",
    "geocoded_column": {
      "latitude": "30.052107840680485",
      "longitude": "-89.96801454889399"
    }
  },
  {
    "service_request": "2024-1103397",
    "request_type": "Trash/Recycling",
    "request_reason": "Request a Large Item Pick Up",
    "date_created": "2024-06-13T15:10:10.000",
    "date_modified": "2024-06-13T16:57:04.000",
    "case_close_date": "2024-06-13T11:57:04.000",
    "request_status": "Closed",
    "responsible_agency": "Department of Sanitation",
    "final_address": "4906 Burgundy St",
    "address_councildis": "E",
    "status": "Assigned to Contractor",
    "contractor": "Waste Pro",
    "contractor_action": "Completed",
    "rowid": "1103397",
    "final_x": "3695244.3928",
    "final_y": "533588.743813",
    "longitude": "-90.02459608256262",
    "latitude": "29.960759531212037",
    "geocoded_column": {
      "latitude": "29.960759531212037",
      "longitude": "-90.02459608256262"
    }
  },
  {
    "service_request": "2024-1103396",
    "request_type": "Roads/Drainage",
    "request_reason": "Pothole",
    "date_created": "2024-06-13T15:09:39.000",
    "date_modified": "2024-06-13T15:09:39.000",
    "request_status": "Pending",
    "responsible_agency": "Department of Public Works",
    "final_address": "1201 Canal St",
    "address_councildis": "C",
    "status": "Pending",
    "rowid": "1103396",
    "final_x": "3679792.28808",
    "final_y": "531855.811267",
    "longitude": "-90.07345100081632",
    "latitude": "29.956470790064685",
    "geocoded_column": {
      "latitude": "29.956470790064685",
      "longitude": "-90.07345100081632"
    }
  },
  {
    "service_request": "2024-1103395",
    "request_type": "Roads/Drainage",
    "request_reason": "Catch Basin - Broken/Damage",
    "date_created": "2024-06-13T15:07:10.000",
    "date_modified": "2024-06-13T15:07:10.000",
    "request_status": "Pending",
    "responsible_agency": "Department of Public Works",
    "final_address": "7700 BLK Haney Dr",
    "address_councildis": "E",
    "status": "Pending",
    "rowid": "1103395",
    "final_x": "3712309.22758",
    "final_y": "567707.50348",
    "longitude": "-89.96942676239232",
    "latitude": "30.054025949239776",
    "geocoded_column": {
      "latitude": "30.054025949239776",
      "longitude": "-89.96942676239232"
    }
  },
  {
    "service_request": "2024-1103394",
    "request_type": "Trash/Recycling",
    "request_reason": "Request a Large Item Pick Up",
    "date_created": "2024-06-13T15:06:14.000",
    "date_modified": "2024-06-13T15:06:14.000",
    "request_status": "Pending",
    "responsible_agency": "Department of Sanitation",
    "final_address": "961 Filmore Ave",
    "address_councildis": "A",
    "status": "Assigned to Contractor",
    "contractor": "IV Waste",
    "rowid": "1103394",
    "final_x": "3670875.80308",
    "final_y": "551935.720726",
    "longitude": "-90.10092443228943",
    "latitude": "30.01195023990081",
    "geocoded_column": {
      "latitude": "30.01195023990081",
      "longitude": "-90.10092443228943"
    }
  },
  {
    "service_request": "2024-1103393",
    "request_type": "Roads/Drainage",
    "request_reason": "Catch Basin - Broken/Damage",
    "date_created": "2024-06-13T15:02:40.000",
    "date_modified": "2024-06-13T15:02:40.000",
    "request_status": "Pending",
    "responsible_agency": "Department of Public Works",
    "final_address": "7701 Haney Dr",
    "address_councildis": "E",
    "status": "Pending",
    "rowid": "1103393",
    "final_x": "3712498.27787",
    "final_y": "567517.800484",
    "longitude": "-89.96883636620345",
    "latitude": "30.053498154592226",
    "geocoded_column": {
      "latitude": "30.053498154592226",
      "longitude": "-89.96883636620345"
    }
  },
  {
    "service_request": "2024-1103392",
    "request_type": "Trash/Recycling",
    "request_reason": "Replace Recycling Cart",
    "date_created": "2024-06-13T15:01:31.000",
    "date_modified": "2024-06-13T15:01:31.000",
    "request_status": "Pending",
    "responsible_agency": "Department of Sanitation",
    "final_address": "6511 S Claiborne Ave",
    "address_councildis": "A",
    "status": "Pending",
    "rowid": "1103392",
    "final_x": "3666787.61857",
    "final_y": "528985.805568",
    "longitude": "-90.1146120081786",
    "latitude": "29.948965976484548",
    "geocoded_column": {
      "latitude": "29.948965976484548",
      "longitude": "-90.1146120081786"
    }
  },
  {
    "service_request": "2024-1103391",
    "request_type": "Trash/Recycling",
    "request_reason": "Request a Large Item Pick Up",
    "date_created": "2024-06-13T15:01:08.000",
    "date_modified": "2024-06-13T15:01:09.000",
    "request_status": "Pending",
    "responsible_agency": "Department of Sanitation",
    "final_address": "7602 Alabama St",
    "address_councildis": "D",
    "status": "Assigned to Contractor",
    "contractor": "Waste Pro",
    "rowid": "1103391",
    "final_x": "3694889.99894",
    "final_y": "558365.971036",
    "longitude": "-90.02482169172048",
    "latitude": "30.028898953567655",
    "geocoded_column": {
      "latitude": "30.028898953567655",
      "longitude": "-90.02482169172048"
    }
  },
  {
    "service_request": "2024-1103390",
    "request_type": "Trash/Recycling",
    "request_reason": "MIssed Recycling Pick-Up",
    "date_created": "2024-06-13T14:54:47.000",
    "date_modified": "2024-06-13T16:53:14.000",
    "case_close_date": "2024-06-13T11:53:14.000",
    "request_status": "Closed",
    "responsible_agency": "Department of Sanitation",
    "final_address": "6511 S Claiborne Ave",
    "address_councildis": "A",
    "status": "Invalid Request",
    "contractor": "IV Waste",
    "contractor_action": "Invalid",
    "rowid": "1103390",
    "final_x": "3666787.61857",
    "final_y": "528985.805568",
    "longitude": "-90.1146120081786",
    "latitude": "29.948965976484548",
    "geocoded_column": {
      "latitude": "29.948965976484548",
      "longitude": "-90.1146120081786"
    }
  },
  {
    "service_request": "2024-1103389",
    "request_type": "Trash/Recycling",
    "request_reason": "Repair Trash Cart",
    "date_created": "2024-06-13T14:54:34.000",
    "date_modified": "2024-06-13T14:54:34.000",
    "request_status": "Pending",
    "responsible_agency": "Department of Sanitation",
    "final_address": "2369 Rousseau St",
    "address_councildis": "B",
    "status": "Assigned to Contractor",
    "contractor": "IV Waste",
    "rowid": "1103389",
    "final_x": "3679421.37243",
    "final_y": "519724.295672",
    "longitude": "-90.0750428974777",
    "latitude": "29.92312435226266",
    "geocoded_column": {
      "latitude": "29.92312435226266",
      "longitude": "-90.0750428974777"
    }
  },
  {
    "service_request": "2024-1103388",
    "request_type": "Trash/Recycling",
    "request_reason": "Illegal Dumping",
    "date_created": "2024-06-13T14:53:54.000",
    "date_modified": "2024-06-13T14:53:55.000",
    "request_status": "Pending",
    "responsible_agency": "Department of Sanitation",
    "final_address": "8014 Haney Dr",
    "address_councildis": "E",
    "status": "Pending",
    "rowid": "1103388",
    "final_x": "3711830.72472",
    "final_y": "568291.897253",
    "longitude": "-89.97091721733113",
    "latitude": "30.055648446060562",
    "geocoded_column": {
      "latitude": "30.055648446060562",
      "longitude": "-89.97091721733113"
    }
  },
  {
    "service_request": "2024-1103387",
    "request_type": "Trash/Recycling",
    "request_reason": "Request a Large Item Pick Up",
    "date_created": "2024-06-13T14:48:52.000",
    "date_modified": "2024-06-13T14:48:53.000",
    "request_status": "Pending",
    "responsible_agency": "Department of Sanitation",
    "final_address": "4950 Major Dr",
    "address_councildis": "E",
    "status": "Assigned to Contractor",
    "contractor": "Waste Pro",
    "rowid": "1103387",
    "final_x": "3718055.17106",
    "final_y": "558200.423579",
    "longitude": "-89.95162778419986",
    "latitude": "30.027696037188395",
    "geocoded_column": {
      "latitude": "30.027696037188395",
      "longitude": "-89.95162778419986"
    }
  },
  {
    "service_request": "2024-1103386",
    "request_type": "Trash/Recycling",
    "request_reason": "Request a Large Item Pick Up",
    "date_created": "2024-06-13T14:45:01.000",
    "date_modified": "2024-06-13T14:45:01.000",
    "request_status": "Pending",
    "responsible_agency": "Department of Sanitation",
    "final_address": "7000 Neptune Ct",
    "address_councildis": "E",
    "status": "Assigned to Contractor",
    "contractor": "Waste Pro",
    "rowid": "1103386",
    "final_x": "3701925.27306",
    "final_y": "558777.416348",
    "longitude": "-90.0025755350857",
    "latitude": "30.029807485930082",
    "geocoded_column": {
      "latitude": "30.029807485930082",
      "longitude": "-90.0025755350857"
    }
  },
  {
    "service_request": "2024-1103384",
    "request_type": "Trash/Recycling",
    "request_reason": "Request a Large Item Pick Up",
    "date_created": "2024-06-13T14:35:34.000",
    "date_modified": "2024-06-13T14:35:35.000",
    "request_status": "Pending",
    "responsible_agency": "Department of Sanitation",
    "final_address": "8643 Bill St",
    "address_councildis": "E",
    "status": "Assigned to Contractor",
    "contractor": "Waste Pro",
    "rowid": "1103384",
    "final_x": "3703936.3825",
    "final_y": "563355.78736",
    "longitude": "-89.9960516450514",
    "latitude": "30.042331836036247",
    "geocoded_column": {
      "latitude": "30.042331836036247",
      "longitude": "-89.9960516450514"
    }
  },
  {
    "service_request": "2024-1103383",
    "request_type": "Traffic Signals/Signs/Striping/Streetlights",
    "request_reason": "Traffic Signal Malfunctioning/Damaged",
    "date_created": "2024-06-13T14:31:55.000",
    "date_modified": "2024-06-13T14:31:55.000",
    "request_status": "Pending",
    "responsible_agency": "Department of Public Works",
    "final_address": "6401 Willow St",
    "address_councildis": "A",
    "status": "Pending",
    "rowid": "1103383",
    "final_x": "3665791.50714",
    "final_y": "526343.002046",
    "longitude": "-90.11784569302658",
    "latitude": "29.94172821302202",
    "geocoded_column": {
      "latitude": "29.94172821302202",
      "longitude": "-90.11784569302658"
    }
  },
  {
    "service_request": "2024-1103382",
    "request_type": "Traffic Signals/Signs/Striping/Streetlights",
    "request_reason": "Street Light Outage/Malfunction",
    "date_created": "2024-06-13T14:31:30.000",
    "date_modified": "2024-06-13T14:31:31.000",
    "request_status": "Pending",
    "responsible_agency": "Department of Public Works",
    "final_address": "2100 Ursulines Ave",
    "address_councildis": "D",
    "status": "Assigned to Contractor",
    "contractor": "Legacy Professional Services",
    "rowid": "1103382",
    "final_x": "3679336.90088",
    "final_y": "536588.976135",
    "longitude": "-90.07472479691153",
    "latitude": "29.969499143321197",
    "geocoded_column": {
      "latitude": "29.969499143321197",
      "longitude": "-90.07472479691153"
    }
  },
  {
    "service_request": "2024-1103381",
    "request_type": "Trash/Recycling",
    "request_reason": "Order Trash Cart",
    "date_created": "2024-06-13T14:31:16.000",
    "date_modified": "2024-06-13T15:03:38.000",
    "request_status": "Pending",
    "responsible_agency": "Department of Sanitation",
    "final_address": "New Orleans,LA",
    "address_councildis": "D",
    "status": "Assigned to Contractor",
    "contractor": "IV Waste",
    "rowid": "1103381",
    "final_x": "3680921.31323",
    "final_y": "538347.703689",
    "longitude": "-90.0696598399971",
    "latitude": "29.974287088782535",
    "geocoded_column": {
      "latitude": "29.974287088782535",
      "longitude": "-90.0696598399971"
    }
  },
  {
    "service_request": "2024-1103380",
    "request_type": "Traffic Signals/Signs/Striping/Streetlights",
    "request_reason": "Street Name Sign Damaged or Missing",
    "date_created": "2024-06-13T14:26:54.000",
    "date_modified": "2024-06-13T14:26:54.000",
    "request_status": "Pending",
    "responsible_agency": "Department of Public Works",
    "final_address": "5518 Atlanta St",
    "address_councildis": "A",
    "status": "Pending",
    "rowid": "1103380",
    "final_x": "3666718.04237",
    "final_y": "520873.703225",
    "longitude": "-90.11510400713728",
    "latitude": "29.926662328105603",
    "geocoded_column": {
      "latitude": "29.926662328105603",
      "longitude": "-90.11510400713728"
    }
  },
  {
    "service_request": "2024-1103379",
    "request_type": "Roads/Drainage",
    "request_reason": "Damaged Sidewalk",
    "date_created": "2024-06-13T14:24:38.000",
    "date_modified": "2024-06-13T14:24:38.000",
    "request_status": "Pending",
    "responsible_agency": "Department of Public Works",
    "final_address": "1317 Canal St",
    "address_councildis": "C",
    "status": "Pending",
    "rowid": "1103379",
    "final_x": "3679584.47291",
    "final_y": "532029.234947",
    "longitude": "-90.07410119456044",
    "latitude": "29.956953927872995",
    "geocoded_column": {
      "latitude": "29.956953927872995",
      "longitude": "-90.07410119456044"
    }
  },
  {
    "service_request": "2024-1103378",
    "request_type": "Traffic Signals/Signs/Striping/Streetlights",
    "request_reason": "Street Light Outage/Malfunction",
    "date_created": "2024-06-13T14:23:28.000",
    "date_modified": "2024-06-13T14:23:28.000",
    "request_status": "Pending",
    "responsible_agency": "Department of Public Works",
    "final_address": "1300 Canal St",
    "address_councildis": "B",
    "status": "Assigned to Contractor",
    "contractor": "Legacy Professional Services",
    "rowid": "1103378",
    "final_x": "3679515.34165",
    "final_y": "531836.453187",
    "longitude": "-90.07432617801176",
    "latitude": "29.956425931975325",
    "geocoded_column": {
      "latitude": "29.956425931975325",
      "longitude": "-90.07432617801176"
    }
  },
  {
    "service_request": "2024-1103377",
    "request_type": "Trash/Recycling",
    "request_reason": "Missed Trash Pick-Up",
    "date_created": "2024-06-13T14:22:10.000",
    "date_modified": "2024-06-13T14:59:48.000",
    "case_close_date": "2024-06-13T09:59:48.000",
    "request_status": "Closed",
    "responsible_agency": "Department of Sanitation",
    "final_address": "816 Forstall St",
    "address_councildis": "E",
    "status": "Invalid Request",
    "contractor": "Waste Pro",
    "contractor_action": "Invalid",
    "rowid": "1103377",
    "final_x": "3695940.52944",
    "final_y": "533241.90842",
    "longitude": "-90.02241035943628",
    "latitude": "29.959783975460347",
    "geocoded_column": {
      "latitude": "29.959783975460347",
      "longitude": "-90.02241035943628"
    }
  },
  {
    "service_request": "2024-1103376",
    "request_type": "Abandoned Vehicles",
    "request_reason": "Abandoned/Junk Vehicles",
    "date_created": "2024-06-13T14:20:14.000",
    "date_modified": "2024-06-13T14:20:14.000",
    "request_status": "Pending",
    "responsible_agency": "Department of Public Works",
    "final_address": "4801 Laurel St",
    "address_councildis": "B",
    "status": "Pending",
    "rowid": "1103376",
    "final_x": "3669626.92078",
    "final_y": "517945.173622",
    "longitude": "-90.10602046222944",
    "latitude": "29.918524442129325",
    "geocoded_column": {
      "latitude": "29.918524442129325",
      "longitude": "-90.10602046222944"
    }
  },
  {
    "service_request": "2024-1103375",
    "request_type": "Roads/Drainage",
    "request_reason": "Pothole",
    "date_created": "2024-06-13T14:18:00.000",
    "date_modified": "2024-06-13T14:58:23.000",
    "case_close_date": "2024-06-13T09:58:23.000",
    "request_status": "Closed",
    "responsible_agency": "Department of Public Works",
    "final_address": "6302 Peoples Ave",
    "address_councildis": "D",
    "status": "Duplicate Request",
    "rowid": "1103375",
    "final_x": "3687673.4639",
    "final_y": "556527.75049",
    "longitude": "-90.04769079930547",
    "latitude": "30.024069157560543",
    "geocoded_column": {
      "latitude": "30.024069157560543",
      "longitude": "-90.04769079930547"
    }
  },
  {
    "service_request": "2024-1103374",
    "request_type": "Roads/Drainage",
    "request_reason": "Man hole cover issue",
    "date_created": "2024-06-13T14:15:58.000",
    "date_modified": "2024-06-13T14:15:58.000",
    "request_status": "Pending",
    "responsible_agency": "Department of Public Works",
    "final_address": "1532 Tulane Ave",
    "address_councildis": "B",
    "status": "Pending",
    "rowid": "1103374",
    "final_x": "3678292.39464",
    "final_y": "531588.875331",
    "longitude": "-90.0781964047379",
    "latitude": "29.955782067566325",
    "geocoded_column": {
      "latitude": "29.955782067566325",
      "longitude": "-90.0781964047379"
    }
  },
  {
    "service_request": "2024-1103373",
    "request_type": "Roads/Drainage",
    "request_reason": "Pothole",
    "date_created": "2024-06-13T14:15:06.000",
    "date_modified": "2024-06-13T14:49:40.000",
    "case_close_date": "2024-06-13T09:49:40.000",
    "request_status": "Closed",
    "responsible_agency": "Department of Public Works",
    "final_address": "MEXICO ST & PEOPLES AVE",
    "address_councildis": "D",
    "status": "Referred to External Agency",
    "rowid": "1103373",
    "final_x": "3687714.8",
    "final_y": "556490.88",
    "longitude": "-90.04756149268891",
    "latitude": "30.02396650212064",
    "geocoded_column": {
      "latitude": "30.02396650212064",
      "longitude": "-90.04756149268891"
    }
  },