[
  {
    "service_request": "2024-1088991",
    "request_type": "Trash/Recycling",
    "request_reason": "Replace Trash Cart",
    "date_created": "2024-04-29T23:41:51.000",
    "date_modified": "2024-04-29T23:41:52.000",
    "request_status": "Pending",
    "responsible_agency": "Department of Sanitation",
    "final_address": "2840 Chippewa St",
    "address_councildis": "B",
    "status": "Assigned to Contractor",
    "contractor": "IV Waste",
    "rowid": "1088991",
    "final_x": "3677612.87867",
    "final_y": "519347.521847",
    "longitude": "-90.08076462161064",
    "latitude": "29.922142830190133",
    "geocoded_column": {
      "latitude": "29.922142830190133",
      "longitude": "-90.08076462161064"
    }
  },
  {
    "service_request": "2024-1088990",
    "request_type": "Health Related Request",
    "request_reason": "Noise Ordinance Complaint",
    "date_created": "2024-04-29T22:53:57.000",
    "date_modified": "2024-04-29T22:53:57.000",
    "request_status": "Pending",
    "responsible_agency": "Health Department",
    "final_address": "1500 N Claiborne Ave",
    "address_councildis": "C",
    "status": "Pending",
    "rowid": "1088990",
    "final_x": "3681846.67516",
    "final_y": "537148.826504",
    "longitude": "-90.0667791844965",
    "latitude": "29.970962498120493",
    "geocoded_column": {
      "latitude": "29.970962498120493",
      "longitude": "-90.0667791844965"
    }
  },
  {
    "service_request": "2024-1088989",
    "request_type": "Property Maintenance",
    "request_reason": "Property Maintenance",
    "date_created": "2024-04-29T22:33:18.000",
    "date_modified": "2024-04-29T22:33:18.000",
    "request_status": "Pending",
    "responsible_agency": "Department of Code Enforcement",
    "final_address": "2430 Delachaise St",
    "address_councildis": "B",
    "status": "Pending",
    "rowid": "1088989",
    "final_x": "3672566.1426",
    "final_y": "524212.885564",
    "longitude": "-90.09652933270017",
    "latitude": "29.935671744327976",
    "geocoded_column": {
      "latitude": "29.935671744327976",
      "longitude": "-90.09652933270017"
    }
  },
  {
    "service_request": "2024-1088988",
    "request_type": "Roads/Drainage",
    "request_reason": "Street Subsidence (Sinking)",
    "date_created": "2024-04-29T21:59:21.000",
    "date_modified": "2024-04-29T21:59:21.000",
    "request_status": "Pending",
    "responsible_agency": "Department of Public Works",
    "final_address": "4350 General De Gaulle Dr",
    "address_councildis": "C",
    "status": "Pending",
    "rowid": "1088988",
    "final_x": "3699735.21348",
    "final_y": "518581.886519",
    "longitude": "-90.01096192415491",
    "latitude": "29.919354108661576",
    "geocoded_column": {
      "latitude": "29.919354108661576",
      "longitude": "-90.01096192415491"
    }
  },
  {
    "service_request": "2024-1088987",
    "request_type": "Roads/Drainage",
    "request_reason": "Pothole",
    "date_created": "2024-04-29T21:52:01.000",
    "date_modified": "2024-04-29T21:52:01.000",
    "request_status": "Pending",
    "responsible_agency": "Department of Public Works",
    "final_address": "TULANE AVE & S TONTI ST",
    "address_councildis": "B",
    "status": "Pending",
    "rowid": "1088987",
    "final_x": "3675515.6",
    "final_y": "533112.08",
    "longitude": "-90.08691223774244",
    "latitude": "29.96005371333203",
    "geocoded_column": {
      "latitude": "29.96005371333203",
      "longitude": "-90.08691223774244"
    }
  },
  {
    "service_request": "2024-1088986",
    "request_type": "Trash/Recycling",
    "request_reason": "Request a Large Item Pick Up",
    "date_created": "2024-04-29T21:28:42.000",
    "date_modified": "2024-04-29T21:28:43.000",
    "request_status": "Pending",
    "responsible_agency": "Department of Sanitation",
    "final_address": "1231 Seville Dr",
    "address_councildis": "D",
    "status": "Assigned to Contractor",
    "contractor": "IV Waste",
    "rowid": "1088986",
    "final_x": "3677036.87752",
    "final_y": "551182.821973",
    "longitude": "-90.08148494118241",
    "latitude": "30.009696392567847",
    "geocoded_column": {
      "latitude": "30.009696392567847",
      "longitude": "-90.08148494118241"
    }
  },
  {
    "service_request": "2024-1088984",
    "request_type": "Roads/Drainage",
    "request_reason": "Street Flooding / Drainage",
    "date_created": "2024-04-29T21:09:20.000",
    "date_modified": "2024-04-29T21:09:20.000",
    "request_status": "Pending",
    "responsible_agency": "Department of Public Works",
    "final_address": "6823 St Charles Ave",
    "address_councildis": "A",
    "status": "Pending",
    "rowid": "1088984",
    "final_x": "3664251.8256",
    "final_y": "524033.789948",
    "longitude": "-90.1227838277921",
    "latitude": "29.935423435180134",
    "geocoded_column": {
      "latitude": "29.935423435180134",
      "longitude": "-90.1227838277921"
    }
  },
  {
    "service_request": "2024-1088983",
    "request_type": "Trash/Recycling",
    "request_reason": "Request a Large Item Pick Up",
    "date_created": "2024-04-29T20:57:11.000",
    "date_modified": "2024-04-29T20:57:12.000",
    "request_status": "Pending",
    "responsible_agency": "Department of Sanitation",
    "final_address": "5919 Patton St",
    "address_councildis": "A",
    "status": "Assigned to Contractor",
    "contractor": "IV Waste",
    "rowid": "1088983",
    "final_x": "3664910.28807",
    "final_y": "518453.537974",
    "longitude": "-90.1208914584877",
    "latitude": "29.920060356601123",
    "geocoded_column": {
      "latitude": "29.920060356601123",
      "longitude": "-90.1208914584877"
    }
  },
  {
    "service_request": "2024-1088982",
    "request_type": "Health Related Request",
    "request_reason": "Noise Ordinance Complaint",
    "date_created": "2024-04-29T20:40:12.000",
    "date_modified": "2024-04-29T20:40:12.000",
    "request_status": "Pending",
    "responsible_agency": "Health Department",
    "final_address": "2607 Palmyra St",
    "address_councildis": "B",
    "status": "Pending",
    "rowid": "1088982",
    "final_x": "3675287.47054",
    "final_y": "534197.330949",
    "longitude": "-90.08759536453911",
    "latitude": "29.963044609951965",
    "geocoded_column": {
      "latitude": "29.963044609951965",
      "longitude": "-90.08759536453911"
    }
  },
  {
    "service_request": "2024-1088980",
    "request_type": "Health Related Request",
    "request_reason": "Noise Ordinance Complaint",
    "date_created": "2024-04-29T20:22:08.000",
    "date_modified": "2024-04-29T20:22:08.000",
    "request_status": "Pending",
    "responsible_agency": "Health Department",
    "final_address": "600 BLK N Broad St",
    "address_councildis": "A",
    "status": "Pending",
    "rowid": "1088980",
    "final_x": "3676359.9435",
    "final_y": "536531.150807",
    "longitude": "-90.08412827453832",
    "latitude": "29.969429719559482",
    "geocoded_column": {
      "latitude": "29.969429719559482",
      "longitude": "-90.08412827453832"
    }
  },
  {
    "service_request": "2024-1088979",
    "request_type": "Trash/Recycling",
    "request_reason": "Request a Large Item Pick Up",
    "date_created": "2024-04-29T20:12:33.000",
    "date_modified": "2024-04-29T20:12:33.000",
    "request_status": "Pending",
    "responsible_agency": "Department of Sanitation",
    "final_address": "2311 Killdeer St",
    "address_councildis": "D",
    "status": "Assigned to Contractor",
    "contractor": "IV Waste",
    "rowid": "1088979",
    "final_x": "3684197.21506",
    "final_y": "557633.748187",
    "longitude": "-90.05863619491832",
    "latitude": "30.02721702963286",
    "geocoded_column": {
      "latitude": "30.02721702963286",
      "longitude": "-90.05863619491832"
    }
  },
  {
    "service_request": "2024-1088978",
    "request_type": "Trash/Recycling",
    "request_reason": "Missed Trash Pick-Up",
    "date_created": "2024-04-29T19:53:28.000",
    "date_modified": "2024-04-29T19:53:28.000",
    "request_status": "Pending",
    "responsible_agency": "Department of Sanitation",
    "final_address": "3112 Esplanade Ave",
    "address_councildis": "A",
    "status": "Assigned to Contractor",
    "contractor": "IV Waste",
    "rowid": "1088978",
    "final_x": "3676427.73217",
    "final_y": "540230.439819",
    "longitude": "-90.0837867921193",
    "latitude": "29.97959946577619",
    "geocoded_column": {
      "latitude": "29.97959946577619",
      "longitude": "-90.0837867921193"
    }
  },
  {
    "service_request": "2024-1088977",
    "request_type": "Trash/Recycling",
    "request_reason": "Missed Trash Pick-Up",
    "date_created": "2024-04-29T19:52:20.000",
    "date_modified": "2024-04-29T19:52:21.000",
    "request_status": "Pending",
    "responsible_agency": "Department of Sanitation",
    "final_address": "3112 Esplanade Ave",
    "address_councildis": "A",
    "status": "Assigned to Contractor",
    "contractor": "IV Waste",
    "rowid": "1088977",
    "final_x": "3676427.73217",
    "final_y": "540230.439819",
    "longitude": "-90.0837867921193",
    "latitude": "29.97959946577619",
    "geocoded_column": {
      "latitude": "29.97959946577619",
      "longitude": "-90.0837867921193"
    }
  },
  {
    "service_request": "2024-1088976",
    "request_type": "Abandoned Vehicles",
    "request_reason": "Abandoned/Junk Vehicles",
    "date_created": "2024-04-29T19:45:58.000",
    "date_modified": "2024-04-29T19:45:58.000",
    "request_status": "Pending",
    "responsible_agency": "Department of Public Works",
    "final_address": "4632 Bonita Dr",
    "address_councildis": "E",
    "status": "Pending",
    "rowid": "1088976",
    "final_x": "3704500.92196",
    "final_y": "554586.873624",
    "longitude": "-89.99459128032271",
    "latitude": "30.018202614343366",
    "geocoded_column": {
      "latitude": "30.018202614343366",
      "longitude": "-89.99459128032271"
    }
  },
  {
    "service_request": "2024-1088975",
    "request_type": "Abandoned Vehicles",
    "request_reason": "Abandoned/Junk Vehicles",
    "date_created": "2024-04-29T19:39:47.000",
    "date_modified": "2024-04-29T19:39:47.000",
    "request_status": "Pending",
    "responsible_agency": "Department of Public Works",
    "final_address": "8501 Chase St",
    "address_councildis": "E",
    "status": "Pending",
    "rowid": "1088975",
    "final_x": "3703316.9633",
    "final_y": "563325.3736",
    "longitude": "-89.99801035663695",
    "latitude": "30.04226807287689",
    "geocoded_column": {
      "latitude": "30.04226807287689",
      "longitude": "-89.99801035663695"
    }
  },
  {
    "service_request": "2024-1088974",
    "request_type": "Trash/Recycling",
    "request_reason": "Order Recycling Cart",
    "date_created": "2024-04-29T19:34:43.000",
    "date_modified": "2024-04-29T19:34:43.000",
    "request_status": "Pending",
    "responsible_agency": "Department of Sanitation",
    "final_address": "2933 Calhoun St",
    "address_councildis": "A",
    "status": "Pending",
    "rowid": "1088974",
    "final_x": "3666837.93498",
    "final_y": "527424.920447",
    "longitude": "-90.11450556012184",
    "latitude": "29.94467257610216",
    "geocoded_column": {
      "latitude": "29.94467257610216",
      "longitude": "-90.11450556012184"
    }
  },
  {
    "service_request": "2024-1088973",
    "request_type": "Trash/Recycling",
    "request_reason": "Order Trash Cart",
    "date_created": "2024-04-29T19:28:12.000",
    "date_modified": "2024-04-29T19:28:13.000",
    "request_status": "Pending",
    "responsible_agency": "Department of Sanitation",
    "final_address": "316 Arabella St",
    "address_councildis": "A",
    "status": "Assigned to Contractor",
    "contractor": "IV Waste",
    "rowid": "1088973",
    "final_x": "3665403.00903",
    "final_y": "517353.032373",
    "longitude": "-90.11937297185182",
    "latitude": "29.917019964960193",
    "geocoded_column": {
      "latitude": "29.917019964960193",
      "longitude": "-90.11937297185182"
    }
  },
  {
    "service_request": "2024-1088972",
    "request_type": "Abandoned Vehicles",
    "request_reason": "Abandoned/Junk Vehicles",
    "date_created": "2024-04-29T19:26:43.000",
    "date_modified": "2024-04-29T19:26:43.000",
    "request_status": "Pending",
    "responsible_agency": "Department of Public Works",
    "final_address": "2730 Pauger St",
    "address_councildis": "D",
    "status": "Pending",
    "rowid": "1088972",
    "final_x": "3683454.49378",
    "final_y": "539753.079242",
    "longitude": "-90.06161021072167",
    "latitude": "29.978074321584305",
    "geocoded_column": {
      "latitude": "29.978074321584305",
      "longitude": "-90.06161021072167"
    }
  },
  {
    "service_request": "2024-1088971",
    "request_type": "Trash/Recycling",
    "request_reason": "Order Recycling Cart",
    "date_created": "2024-04-29T19:11:51.000",
    "date_modified": "2024-04-29T19:11:51.000",
    "request_status": "Pending",
    "responsible_agency": "Department of Sanitation",
    "final_address": "3720 Rue Mignon",
    "address_councildis": "C",
    "status": "Pending",
    "rowid": "1088971",
    "final_x": "3703367.49169",
    "final_y": "516818.541941",
    "longitude": "-89.99956152459742",
    "latitude": "29.914389754670346",
    "geocoded_column": {
      "latitude": "29.914389754670346",
      "longitude": "-89.99956152459742"
    }
  },
  {
    "service_request": "2024-1088970",
    "request_type": "Trash/Recycling",
    "request_reason": "MIssed Recycling Pick-Up",
    "date_created": "2024-04-29T19:05:59.000",
    "date_modified": "2024-04-29T19:06:00.000",
    "request_status": "Pending",
    "responsible_agency": "Department of Sanitation",
    "final_address": "5603 Rosemary Pl",
    "address_councildis": "A",
    "status": "Assigned to Contractor",
    "contractor": "IV Waste",
    "rowid": "1088970",
    "final_x": "3667206.98695",
    "final_y": "544733.913999",
    "longitude": "-90.11275820816917",
    "latitude": "29.992255754743415",
    "geocoded_column": {
      "latitude": "29.992255754743415",
      "longitude": "-90.11275820816917"
    }
  },
  {
    "service_request": "2024-1088969",
    "request_type": "Roads/Drainage",
    "request_reason": "Catch Basin - Clogged",
    "date_created": "2024-04-29T18:50:05.000",
    "date_modified": "2024-04-29T18:50:05.000",
    "request_status": "Pending",
    "responsible_agency": "Department of Public Works",
    "final_address": "233 Walnut St",
    "address_councildis": "A",
    "status": "Pending",
    "rowid": "1088969",
    "final_x": "3661448.78227",
    "final_y": "521325.549881",
    "longitude": "-90.13172275675723",
    "latitude": "29.92805775464452",
    "geocoded_column": {
      "latitude": "29.92805775464452",
      "longitude": "-90.13172275675723"
    }
  },
  {
    "service_request": "2024-1088968",
    "request_type": "Trash/Recycling",
    "request_reason": "Request a Large Item Pick Up",
    "date_created": "2024-04-29T18:46:02.000",
    "date_modified": "2024-04-29T18:46:02.000",
    "request_status": "Pending",
    "responsible_agency": "Department of Sanitation",
    "final_address": "4614 Wilson Ave",
    "address_councildis": "E",
    "status": "Assigned to Contractor",
    "contractor": "Waste Pro",
    "rowid": "1088968",
    "final_x": "3703021.91876",
    "final_y": "554264.996312",
    "longitude": "-89.99927618213523",
    "latitude": "30.017365005529754",
    "geocoded_column": {
      "latitude": "30.017365005529754",
      "longitude": "-89.99927618213523"
    }
  },
  {
    "service_request": "2024-1088967",
    "request_type": "Trash/Recycling",
    "request_reason": "Request a Large Item Pick Up",
    "date_created": "2024-04-29T18:44:23.000",
    "date_modified": "2024-04-29T18:44:24.000",
    "request_status": "Pending",
    "responsible_agency": "Department of Sanitation",
    "final_address": "4600 Wilson Ave",
    "address_councildis": "E",
    "status": "Assigned to Contractor",
    "contractor": "Waste Pro",
    "rowid": "1088967",
    "final_x": "3703030.08452",
    "final_y": "554116.7574",
    "longitude": "-89.9992558349841",
    "latitude": "30.016957143861113",
    "geocoded_column": {
      "latitude": "30.016957143861113",
      "longitude": "-89.9992558349841"
    }
  },
  {
    "service_request": "2024-1088966",
    "request_type": "Trash/Recycling",
    "request_reason": "Request a Large Item Pick Up",
    "date_created": "2024-04-29T18:40:35.000",
    "date_modified": "2024-04-29T18:40:36.000",
    "request_status": "Pending",
    "responsible_agency": "Department of Sanitation",
    "final_address": "4513 Wilson Ave",
    "address_councildis": "E",
    "status": "Assigned to Contractor",
    "contractor": "Waste Pro",
    "rowid": "1088966",
    "final_x": "3703226.81361",
    "final_y": "553690.523223",
    "longitude": "-89.99864994389557",
    "latitude": "30.01577886355179",
    "geocoded_column": {
      "latitude": "30.01577886355179",
      "longitude": "-89.99864994389557"
    }
  },
  {
    "service_request": "2024-1088965",
    "request_type": "Trash/Recycling",
    "request_reason": "Request a Large Item Pick Up",
    "date_created": "2024-04-29T18:39:08.000",
    "date_modified": "2024-04-29T18:39:09.000",
    "request_status": "Pending",
    "responsible_agency": "Department of Sanitation",
    "final_address": "4415 Wilson Ave",
    "address_councildis": "E",
    "status": "Assigned to Contractor",
    "contractor": "Waste Pro",
    "rowid": "1088965",
    "final_x": "3703301.7553",
    "final_y": "552933.706775",
    "longitude": "-89.99844102091654",
    "latitude": "30.013695507002854",
    "geocoded_column": {
      "latitude": "30.013695507002854",
      "longitude": "-89.99844102091654"
    }
  },
  {
    "service_request": "2024-1088964",
    "request_type": "Trash/Recycling",
    "request_reason": "Replace Recycling Cart",
    "date_created": "2024-04-29T18:38:44.000",
    "date_modified": "2024-04-29T18:38:44.000",
    "request_status": "Pending",
    "responsible_agency": "Department of Sanitation",
    "final_address": "7811 Green St",
    "address_councildis": "A",
    "status": "Pending",
    "rowid": "1088964",
    "final_x": "3663956.104",
    "final_y": "528997.14784",
    "longitude": "-90.12355198894755",
    "latitude": "29.949079669708528",
    "geocoded_column": {
      "latitude": "29.949079669708528",
      "longitude": "-90.12355198894755"
    }
  },
  {
    "service_request": "2024-1088963",
    "request_type": "Trash/Recycling",
    "request_reason": "Request a Large Item Pick Up",
    "date_created": "2024-04-29T18:30:44.000",
    "date_modified": "2024-04-29T18:30:45.000",
    "request_status": "Pending",
    "responsible_agency": "Department of Sanitation",
    "final_address": "6074 Eastover Dr",
    "address_councildis": "E",
    "status": "Assigned to Contractor",
    "contractor": "Waste Pro",
    "rowid": "1088963",
    "final_x": "3718266.70322",
    "final_y": "565555.705762",
    "longitude": "-89.95067891102478",
    "latitude": "30.047913063717903",
    "geocoded_column": {
      "latitude": "30.047913063717903",
      "longitude": "-89.95067891102478"
    }
  },
  {
    "service_request": "2024-1088962",
    "request_type": "Trash/Recycling",
    "request_reason": "Request a Large Item Pick Up",
    "date_created": "2024-04-29T18:16:06.000",
    "date_modified": "2024-04-29T18:16:06.000",
    "request_status": "Pending",
    "responsible_agency": "Department of Sanitation",
    "final_address": "8121 Zimple St",
    "address_councildis": "A",
    "status": "Assigned to Contractor",
    "contractor": "IV Waste",
    "rowid": "1088962",
    "final_x": "3661617.28358",
    "final_y": "528270.96448",
    "longitude": "-90.1309607653579",
    "latitude": "29.947150589155818",
    "geocoded_column": {
      "latitude": "29.947150589155818",
      "longitude": "-90.1309607653579"
    }
  },
  {
    "service_request": "2024-1088961",
    "request_type": "Trash/Recycling",
    "request_reason": "Order Trash Cart",
    "date_created": "2024-04-29T18:15:33.000",
    "date_modified": "2024-04-29T18:15:34.000",
    "request_status": "Pending",
    "responsible_agency": "Department of Sanitation",
    "final_address": "6104 Catina St",
    "address_councildis": "A",
    "status": "Assigned to Contractor",
    "contractor": "IV Waste",
    "rowid": "1088961",
    "final_x": "3666725.97665",
    "final_y": "548146.573906",
    "longitude": "-90.11416293265434",
    "latitude": "30.001653477030878",
    "geocoded_column": {
      "latitude": "30.001653477030878",
      "longitude": "-90.11416293265434"
    }
  },
  {
    "service_request": "2024-1088960",
    "request_type": "Trash/Recycling",
    "request_reason": "Request a Large Item Pick Up",
    "date_created": "2024-04-29T18:13:09.000",
    "date_modified": "2024-04-29T18:13:09.000",
    "request_status": "Pending",
    "responsible_agency": "Department of Sanitation",
    "final_address": "432 14Th St",
    "address_councildis": "A",
    "status": "Assigned to Contractor",
    "contractor": "IV Waste",
    "rowid": "1088960",
    "final_x": "3664494.42266",
    "final_y": "548120.031954",
    "longitude": "-90.12121355506527",
    "latitude": "30.001645593735713",
    "geocoded_column": {
      "latitude": "30.001645593735713",
      "longitude": "-90.12121355506527"
    }
  },
  {
    "service_request": "2024-1088959",
    "request_type": "Trash/Recycling",
    "request_reason": "Missed Trash Pick-Up",
    "date_created": "2024-04-29T17:54:52.000",
    "date_modified": "2024-04-29T17:54:52.000",
    "request_status": "Pending",
    "responsible_agency": "Department of Sanitation",
    "final_address": "1047 Moss St",
    "address_councildis": "A",
    "status": "Assigned to Contractor",
    "contractor": "IV Waste",
    "rowid": "1088959",
    "final_x": "3674915.23521",
    "final_y": "540173.550603",
    "longitude": "-90.08856582477962",
    "latitude": "29.97948830572249",
    "geocoded_column": {
      "latitude": "29.97948830572249",
      "longitude": "-90.08856582477962"
    }
  },
  {
    "service_request": "2024-1088958",
    "request_type": "Trash/Recycling",
    "request_reason": "MIssed Recycling Pick-Up",
    "date_created": "2024-04-29T17:53:02.000",
    "date_modified": "2024-04-29T17:53:03.000",
    "request_status": "Pending",
    "responsible_agency": "Department of Sanitation",
    "final_address": "3011 Sullen Pl",
    "address_councildis": "C",
    "status": "Assigned to Contractor",
    "contractor": "Richards Disposal",
    "rowid": "1088958",
    "final_x": "3707785.08331",
    "final_y": "519617.937592",
    "longitude": "-89.98551429608008",
    "latitude": "29.921944987773887",
    "geocoded_column": {
      "latitude": "29.921944987773887",
      "longitude": "-89.98551429608008"
    }
  },
  {
    "service_request": "2024-1088957",
    "request_type": "Trash/Recycling",
    "request_reason": "Request a Large Item Pick Up",
    "date_created": "2024-04-29T17:47:33.000",
    "date_modified": "2024-04-29T17:47:33.000",
    "request_status": "Pending",
    "responsible_agency": "Department of Sanitation",
    "final_address": "332 Olivier St",
    "address_councildis": "C",
    "status": "Assigned to Contractor",
    "contractor": "Richards Disposal",
    "rowid": "1088957",
    "final_x": "3687280.751",
    "final_y": "530496.033154",
    "longitude": "-90.04985305349499",
    "latitude": "29.95250334210123",
    "geocoded_column": {
      "latitude": "29.95250334210123",
      "longitude": "-90.04985305349499"
    }
  },
  {
    "service_request": "2024-1088956",
    "request_type": "Trash/Recycling",
    "request_reason": "Request a Large Item Pick Up",
    "date_created": "2024-04-29T17:44:03.000",
    "date_modified": "2024-04-29T17:44:04.000",
    "request_status": "Pending",
    "responsible_agency": "Department of Sanitation",
    "final_address": "8927 Willow St",
    "address_councildis": "A",
    "status": "Assigned to Contractor",
    "contractor": "IV Waste",
    "rowid": "1088956",
    "final_x": "3660209.40627",
    "final_y": "530975.683074",
    "longitude": "-90.135316701187",
    "latitude": "29.95462824662377",
    "geocoded_column": {
      "latitude": "29.95462824662377",
      "longitude": "-90.135316701187"
    }
  },
  {
    "service_request": "2024-1088955",
    "request_type": "Trash/Recycling",
    "request_reason": "Request a Large Item Pick Up",
    "date_created": "2024-04-29T17:41:33.000",
    "date_modified": "2024-04-29T17:41:34.000",
    "request_status": "Pending",
    "responsible_agency": "Department of Sanitation",
    "final_address": "New Orleans,LA",
    "status": "Assigned to Contractor",
    "rowid": "1088955",
    "longitude": "0.0",
    "latitude": "0.0",
    "geocoded_column": {
      "latitude": "0.0",
      "longitude": "0.0"
    }
  },
  {
    "service_request": "2024-1088954",
    "request_type": "Trash/Recycling",
    "request_reason": "Replace Trash Cart",
    "date_created": "2024-04-29T17:40:10.000",
    "date_modified": "2024-04-29T17:40:10.000",
    "request_status": "Pending",
    "responsible_agency": "Department of Sanitation",
    "final_address": "5826 Patton St",
    "address_councildis": "A",
    "status": "Assigned to Contractor",
    "contractor": "IV Waste",
    "rowid": "1088954",
    "final_x": "3665106.24525",
    "final_y": "518373.329718",
    "longitude": "-90.12027559363047",
    "latitude": "29.919834106131866",
    "geocoded_column": {
      "latitude": "29.919834106131866",
      "longitude": "-90.12027559363047"
    }
  },
  {
    "service_request": "2024-1088953",
    "request_type": "Trash/Recycling",
    "request_reason": "Request a Large Item Pick Up",
    "date_created": "2024-04-29T17:38:47.000",
    "date_modified": "2024-04-29T17:38:48.000",
    "request_status": "Pending",
    "responsible_agency": "Department of Sanitation",
    "final_address": "3015 Nashville Ave",
    "address_councildis": "A",
    "status": "Assigned to Contractor",
    "contractor": "IV Waste",
    "rowid": "1088953",
    "final_x": "3667779.94356",
    "final_y": "526975.54547",
    "longitude": "-90.1115464771764",
    "latitude": "29.9434093546211",
    "geocoded_column": {
      "latitude": "29.9434093546211",
      "longitude": "-90.1115464771764"
    }
  },
  {
    "service_request": "2024-1088952",
    "request_type": "Trash/Recycling",
    "request_reason": "Order Trash Cart",
    "date_created": "2024-04-29T17:26:36.000",
    "date_modified": "2024-04-29T17:26:37.000",
    "request_status": "Pending",
    "responsible_agency": "Department of Sanitation",
    "final_address": "4574 Hickerson Dr",
    "address_councildis": "E",
    "status": "Assigned to Contractor",
    "contractor": "Waste Pro",
    "rowid": "1088952",
    "final_x": "3710387.02411",
    "final_y": "554778.084184",
    "longitude": "-89.97598642899233",
    "latitude": "30.018537962742638",
    "geocoded_column": {
      "latitude": "30.018537962742638",
      "longitude": "-89.97598642899233"
    }
  },
  {
    "service_request": "2024-1088951",
    "request_type": "Roads/Drainage",
    "request_reason": "Catch Basin - Clogged",
    "date_created": "2024-04-29T17:07:05.000",
    "date_modified": "2024-04-29T17:07:05.000",
    "request_status": "Pending",
    "responsible_agency": "Department of Public Works",
    "final_address": "6898 Milne Blvd",
    "address_councildis": "A",
    "status": "Pending",
    "rowid": "1088951",
    "final_x": "3667531.32589",
    "final_y": "553538.173911",
    "longitude": "-90.11143711239937",
    "latitude": "30.01645490764264",
    "geocoded_column": {
      "latitude": "30.01645490764264",
      "longitude": "-90.11143711239937"
    }
  },
  {
    "service_request": "2024-1088950",
    "request_type": "Trash/Recycling",
    "request_reason": "Order Recycling Cart",
    "date_created": "2024-04-29T17:06:23.000",
    "date_modified": "2024-04-29T17:06:23.000",
    "request_status": "Pending",
    "responsible_agency": "Department of Sanitation",
    "final_address": "4214 Orleans Ave",
    "address_councildis": "A",
    "status": "Pending",
    "rowid": "1088950",
    "final_x": "3671854.86196",
    "final_y": "540628.117451",
    "longitude": "-90.09821625097098",
    "latitude": "29.980829269534325",
    "geocoded_column": {
      "latitude": "29.980829269534325",
      "longitude": "-90.09821625097098"
    }
  },
  {
    "service_request": "2024-1088949",
    "request_type": "Abandoned Vehicles",
    "request_reason": "Abandoned/Junk Vehicles",
    "date_created": "2024-04-29T16:59:15.000",
    "date_modified": "2024-04-29T16:59:15.000",
    "request_status": "Pending",
    "responsible_agency": "Department of Public Works",
    "final_address": "1000 Robert St",
    "address_councildis": "B",
    "status": "Pending",
    "rowid": "1088949",
    "final_x": "3668597.3794",
    "final_y": "519101.753335",
    "longitude": "-90.10923118892634",
    "latitude": "29.921734953297523",
    "geocoded_column": {
      "latitude": "29.921734953297523",
      "longitude": "-90.10923118892634"
    }
  },
  {
    "service_request": "2024-1088948",
    "request_type": "Trash/Recycling",
    "request_reason": "Repair Recycling Cart",
    "date_created": "2024-04-29T16:57:28.000",
    "date_modified": "2024-04-29T16:57:28.000",
    "request_status": "Pending",
    "responsible_agency": "Department of Sanitation",
    "final_address": "1427 N Galvez St",
    "address_councildis": "D",
    "status": "Pending",
    "rowid": "1088948",
    "final_x": "3679950.59055",
    "final_y": "537920.034761",
    "longitude": "-90.07274046871001",
    "latitude": "29.973140547393886",
    "geocoded_column": {
      "latitude": "29.973140547393886",
      "longitude": "-90.07274046871001"
    }
  },
  {
    "service_request": "2024-1088947",
    "request_type": "Trash/Recycling",
    "request_reason": "Missed Trash Pick-Up",
    "date_created": "2024-04-29T16:56:28.000",
    "date_modified": "2024-04-29T16:56:29.000",
    "request_status": "Pending",
    "responsible_agency": "Department of Sanitation",
    "final_address": "4808 Viola St",
    "address_councildis": "E",
    "status": "Assigned to Contractor",
    "contractor": "Waste Pro",
    "rowid": "1088947",
    "final_x": "3703837.3226",
    "final_y": "555628.814553",
    "longitude": "-89.99664958499613",
    "latitude": "30.02108885275217",
    "geocoded_column": {
      "latitude": "30.02108885275217",
      "longitude": "-89.99664958499613"
    }
  },
  {
    "service_request": "2024-1088946",
    "request_type": "Trash/Recycling",
    "request_reason": "Order Trash Cart",
    "date_created": "2024-04-29T16:54:48.000",
    "date_modified": "2024-04-29T16:54:49.000",
    "request_status": "Pending",
    "responsible_agency": "Department of Sanitation",
    "final_address": "3053 Ridgeway Blvd",
    "address_councildis": "E",
    "status": "Assigned to Contractor",
    "contractor": "Waste Pro",
    "rowid": "1088946",
    "final_x": "3744382.60526",
    "final_y": "596838.968767",
    "longitude": "-89.86687424945596",
    "latitude": "30.133035432986222",
    "geocoded_column": {
      "latitude": "30.133035432986222",
      "longitude": "-89.86687424945596"
    }
  },
  {
    "service_request": "2024-1088945",
    "request_type": "Abandoned Vehicles",
    "request_reason": "Abandoned/Junk Vehicles",
    "date_created": "2024-04-29T16:54:34.000",
    "date_modified": "2024-04-29T16:56:03.000",
    "request_status": "Pending",
    "responsible_agency": "Department of Public Works",
    "final_address": "1224 Constantinople St",
    "address_councildis": "B",
    "status": "Pending",
    "rowid": "1088945",
    "final_x": "3672326.33211",
    "final_y": "520156.27724",
    "longitude": "-90.09742455349182",
    "latitude": "29.924524493122814",
    "geocoded_column": {
      "latitude": "29.924524493122814",
      "longitude": "-90.09742455349182"
    }
  },
  {
    "service_request": "2024-1088944",
    "request_type": "Traffic Signals/Signs/Striping/Streetlights",
    "request_reason": "Street Light Outage/Malfunction",
    "date_created": "2024-04-29T16:52:57.000",
    "date_modified": "2024-04-29T16:52:57.000",
    "request_status": "Pending",
    "responsible_agency": "Department of Public Works",
    "final_address": "1000 Baronne St",
    "address_councildis": "B",
    "status": "Assigned to Contractor",
    "contractor": "Legacy Professional Services",
    "rowid": "1088944",
    "final_x": "3679481.72501",
    "final_y": "527227.333759",
    "longitude": "-90.07459220924122",
    "latitude": "29.9437534147776",
    "geocoded_column": {
      "latitude": "29.9437534147776",
      "longitude": "-90.07459220924122"
    }
  },
  {
    "service_request": "2024-1088943",
    "request_type": "Trash/Recycling",
    "request_reason": "Return Trash Cart",
    "date_created": "2024-04-29T16:49:51.000",
    "date_modified": "2024-04-29T16:49:51.000",
    "request_status": "Pending",
    "responsible_agency": "Department of Sanitation",
    "final_address": "819 Verret St",
    "address_councildis": "C",
    "status": "Assigned to Contractor",
    "contractor": "Richards Disposal",
    "rowid": "1088943",
    "final_x": "3687077.07644",
    "final_y": "528546.7776",
    "longitude": "-90.05056506721004",
    "latitude": "29.947149826750845",
    "geocoded_column": {
      "latitude": "29.947149826750845",
      "longitude": "-90.05056506721004"
    }
  },
  {
    "service_request": "2024-1088942",
    "request_type": "Trash/Recycling",
    "request_reason": "Missed Trash Pick-Up",
    "date_created": "2024-04-29T16:38:44.000",
    "date_modified": "2024-04-29T16:38:45.000",
    "request_status": "Pending",
    "responsible_agency": "Department of Sanitation",
    "final_address": "6120 Law St",
    "address_councildis": "E",
    "status": "Assigned to Contractor",
    "contractor": "Waste Pro",
    "rowid": "1088942",
    "final_x": "3701816.47895",
    "final_y": "538559.798473",
    "longitude": "-90.0036606924821",
    "latitude": "29.974220099732527",
    "geocoded_column": {
      "latitude": "29.974220099732527",
      "longitude": "-90.0036606924821"
    }
  },
  {
    "service_request": "2024-1088941",
    "request_type": "Trash/Recycling",
    "request_reason": "Missed Trash Pick-Up",
    "date_created": "2024-04-29T16:37:34.000",
    "date_modified": "2024-04-29T16:37:34.000",
    "request_status": "Pending",
    "responsible_agency": "Department of Sanitation",
    "final_address": "407 S Pierce St",
    "address_councildis": "A",
    "status": "Assigned to Contractor",
    "contractor": "IV Waste",
    "rowid": "1088941",
    "final_x": "3670648.27732",
    "final_y": "537030.489224",
    "longitude": "-90.10214928033112",
    "latitude": "29.970972715041356",
    "geocoded_column": {
      "latitude": "29.970972715041356",
      "longitude": "-90.10214928033112"
    }
  },
  {
    "service_request": "2024-1088940",
    "request_type": "Roads/Drainage",
    "request_reason": "Street Subsidence (Sinking)",
    "date_created": "2024-04-29T16:37:16.000",
    "date_modified": "2024-04-29T16:37:17.000",
    "request_status": "Pending",
    "responsible_agency": "Department of Public Works",
    "final_address": "4900 Chantilly Dr",
    "address_councildis": "E",
    "status": "Pending",
    "rowid": "1088940",
    "final_x": "3700715.95089",
    "final_y": "555084.762137",
    "longitude": "-90.00653207473009",
    "latitude": "30.01969266796388",
    "geocoded_column": {
      "latitude": "30.01969266796388",
      "longitude": "-90.00653207473009"
    }
  },
  {
    "service_request": "2024-1088939",
    "request_type": "Trash/Recycling",
    "request_reason": "Repair Trash Cart",
    "date_created": "2024-04-29T16:33:22.000",
    "date_modified": "2024-04-29T16:33:22.000",
    "request_status": "Pending",
    "responsible_agency": "Department of Sanitation",
    "final_address": "3473 Vespasian St",
    "address_councildis": "C",
    "status": "Assigned to Contractor",
    "contractor": "Richards Disposal",
    "rowid": "1088939",
    "final_x": "3696073.47741",
    "final_y": "522569.576186",
    "longitude": "-90.02237611262355",
    "latitude": "29.93043458845842",
    "geocoded_column": {
      "latitude": "29.93043458845842",
      "longitude": "-90.02237611262355"
    }
  },
  {
    "service_request": "2024-1088938",
    "request_type": "Trash/Recycling",
    "request_reason": "Missed Trash Pick-Up",
    "date_created": "2024-04-29T16:33:02.000",
    "date_modified": "2024-04-29T16:33:02.000",
    "request_status": "Pending",
    "responsible_agency": "Department of Sanitation",
    "final_address": "3473 Vespasian St",
    "address_councildis": "C",
    "status": "Assigned to Contractor",
    "contractor": "Richards Disposal",
    "rowid": "1088938",
    "final_x": "3696073.47741",
    "final_y": "522569.576186",
    "longitude": "-90.02237611262355",
    "latitude": "29.93043458845842",
    "geocoded_column": {
      "latitude": "29.93043458845842",
      "longitude": "-90.02237611262355"
    }
  },
  {
    "service_request": "2024-1088937",
    "request_type": "Trash/Recycling",
    "request_reason": "Request a Large Item Pick Up",
    "date_created": "2024-04-29T16:30:44.000",
    "date_modified": "2024-04-29T16:30:44.000",
    "request_status": "Pending",
    "responsible_agency": "Department of Sanitation",
    "final_address": "10136 Rosewood Pl",
    "address_councildis": "E",
    "status": "Assigned to Contractor",
    "contractor": "Waste Pro",
    "rowid": "1088937",
    "final_x": "3713002.49291",
    "final_y": "557595.788123",
    "longitude": "-89.96761647546153",
    "latitude": "30.02620008874544",
    "geocoded_column": {
      "latitude": "30.02620008874544",
      "longitude": "-89.96761647546153"
    }
  },
  {
    "service_request": "2024-1088936",
    "request_type": "Trash/Recycling",
    "request_reason": "MIssed Recycling Pick-Up",
    "date_created": "2024-04-29T16:29:06.000",
    "date_modified": "2024-04-29T16:29:07.000",
    "request_status": "Pending",
    "responsible_agency": "Department of Sanitation",
    "final_address": "7680 Vincent Rd",
    "address_councildis": "E",
    "status": "Assigned to Contractor",
    "contractor": "Waste Pro",
    "rowid": "1088936",
    "final_x": "3718262.38277",
    "final_y": "571717.571304",
    "longitude": "-89.95045752989452",
    "latitude": "30.0648557845783",
    "geocoded_column": {
      "latitude": "30.0648557845783",
      "longitude": "-89.95045752989452"
    }
  },
  {
    "service_request": "2024-1088935",
    "request_type": "Trash/Recycling",
    "request_reason": "Repair Trash Cart",
    "date_created": "2024-04-29T16:28:58.000",
    "date_modified": "2024-04-29T16:28:58.000",
    "request_status": "Pending",
    "responsible_agency": "Department of Sanitation",
    "final_address": "14 S Park Pl",
    "address_councildis": "A",
    "status": "Assigned to Contractor",
    "contractor": "IV Waste",
    "rowid": "1088935",
    "final_x": "3670276.4473",
    "final_y": "543779.906126",
    "longitude": "-90.10309471513274",
    "latitude": "29.989542299883027",
    "geocoded_column": {
      "latitude": "29.989542299883027",
      "longitude": "-90.10309471513274"
    }
  },
  {
    "service_request": "2024-1088934",
    "request_type": "Trash/Recycling",
    "request_reason": "Order Recycling Cart",
    "date_created": "2024-04-29T16:28:32.000",
    "date_modified": "2024-04-29T16:28:33.000",
    "request_status": "Pending",
    "responsible_agency": "Department of Sanitation",
    "final_address": "4510 Touche Dr",
    "address_councildis": "E",
    "status": "Pending",
    "rowid": "1088934",
    "final_x": "3784800.90584",
    "final_y": "607876.702154",
    "longitude": "-89.73853902482409",
    "latitude": "30.16189911314762",
    "geocoded_column": {
      "latitude": "30.16189911314762",
      "longitude": "-89.73853902482409"
    }
  },
  {
    "service_request": "2024-1088933",
    "request_type": "Trash/Recycling",
    "request_reason": "Order Trash Cart",
    "date_created": "2024-04-29T16:28:06.000",
    "date_modified": "2024-04-29T16:28:06.000",
    "request_status": "Pending",
    "responsible_agency": "Department of Sanitation",
    "final_address": "4510 Touche Dr",
    "address_councildis": "E",
    "status": "Assigned to Contractor",
    "contractor": "Waste Pro",
    "rowid": "1088933",
    "final_x": "3784800.90584",
    "final_y": "607876.702154",
    "longitude": "-89.73853902482409",
    "latitude": "30.16189911314762",
    "geocoded_column": {
      "latitude": "30.16189911314762",
      "longitude": "-89.73853902482409"
    }
  },
  {
    "service_request": "2024-1088932",
    "request_type": "Trash/Recycling",
    "request_reason": "Replace Trash Cart",
    "date_created": "2024-04-29T16:25:48.000",
    "date_modified": "2024-04-29T16:25:48.000",
    "request_status": "Pending",
    "responsible_agency": "Department of Sanitation",
    "final_address": "4743 Evangeline Dr",
    "address_councildis": "E",
    "status": "Assigned to Contractor",
    "contractor": "Waste Pro",
    "rowid": "1088932",
    "final_x": "3709172.80325",
    "final_y": "555801.765721",
    "longitude": "-89.97978468100905",
    "latitude": "30.021392181581376",
    "geocoded_column": {
      "latitude": "30.021392181581376",
      "longitude": "-89.97978468100905"
    }
  },
  {
    "service_request": "2024-1088931",
    "request_type": "Trash/Recycling",
    "request_reason": "Request a Large Item Pick Up",
    "date_created": "2024-04-29T16:18:21.000",
    "date_modified": "2024-04-29T16:18:21.000",
    "request_status": "Pending",
    "responsible_agency": "Department of Sanitation",
    "final_address": "10121 Plainfield Dr",
    "address_councildis": "E",
    "status": "Assigned to Contractor",
    "contractor": "Waste Pro",
    "rowid": "1088931",
    "final_x": "3710113.82373",
    "final_y": "562700.160736",
    "longitude": "-89.97655324672668",
    "latitude": "30.040329443209004",
    "geocoded_column": {
      "latitude": "30.040329443209004",
      "longitude": "-89.97655324672668"
    }
  },
  {
    "service_request": "2024-1088928",
    "request_type": "Abandoned Vehicles",
    "request_reason": "Abandoned/Junk Vehicles",
    "date_created": "2024-04-29T16:11:16.000",
    "date_modified": "2024-04-29T16:11:16.000",
    "request_status": "Pending",
    "responsible_agency": "Department of Public Works",
    "final_address": "8611 Bill St",
    "address_councildis": "E",
    "status": "Pending",
    "rowid": "1088928",
    "final_x": "3703754.94769",
    "final_y": "563267.470496",
    "longitude": "-89.99662830147204",
    "latitude": "30.042094820531442",
    "geocoded_column": {
      "latitude": "30.042094820531442",
      "longitude": "-89.99662830147204"
    }
  },
  {
    "service_request": "2024-1088926",
    "request_type": "Utility Poles",
    "request_reason": "Utility Pole Leaning",
    "date_created": "2024-04-29T16:09:01.000",
    "date_modified": "2024-04-29T16:18:23.000",
    "request_status": "Pending",
    "responsible_agency": "Utility Company Collective",
    "final_address": "1033 Mazant St, New Orleans, Louisiana, 70117",
    "address_councildis": "C",
    "rowid": "1088926",
    "final_x": "3692175.12201",
    "final_y": "535014.53543",
    "longitude": "-90.03423716142653",
    "latitude": "29.964775993053948",
    "geocoded_column": {
      "latitude": "29.964775993053948",
      "longitude": "-90.03423716142653"
    }
  },
  {
    "service_request": "2024-1088925",
    "request_type": "Trash/Recycling",
    "request_reason": "Repair Recycling Cart",
    "date_created": "2024-04-29T16:08:43.000",
    "date_modified": "2024-04-29T16:08:44.000",
    "request_status": "Pending",
    "responsible_agency": "Department of Sanitation",
    "final_address": "11297 Fernley Dr",
    "address_councildis": "E",
    "status": "Pending",
    "rowid": "1088925",
    "final_x": "3717984.4293",
    "final_y": "560330.701469",
    "longitude": "-89.95177015718939",
    "latitude": "30.03355578988373",
    "geocoded_column": {
      "latitude": "30.03355578988373",
      "longitude": "-89.95177015718939"
    }
  },
  {
    "service_request": "2024-1088924",
    "request_type": "Abandoned Vehicles",
    "request_reason": "Abandoned/Junk Vehicles",
    "date_created": "2024-04-29T16:08:23.000",
    "date_modified": "2024-04-29T16:08:23.000",
    "request_status": "Pending",
    "responsible_agency": "Department of Public Works",
    "final_address": "8501 Chase St",
    "address_councildis": "E",
    "status": "Pending",
    "rowid": "1088924",
    "final_x": "3703316.9633",
    "final_y": "563325.3736",
    "longitude": "-89.99801035663695",
    "latitude": "30.04226807287689",
    "geocoded_column": {
      "latitude": "30.04226807287689",
      "longitude": "-89.99801035663695"
    }
  },
  {
    "service_request": "2024-1088923",
    "request_type": "Trash/Recycling",
    "request_reason": "Request a Large Item Pick Up",
    "date_created": "2024-04-29T16:07:57.000",
    "date_modified": "2024-04-29T16:07:57.000",
    "request_status": "Pending",
    "responsible_agency": "Department of Sanitation",
    "final_address": "11297 Fernley Dr",
    "address_councildis": "E",
    "status": "Assigned to Contractor",
    "contractor": "Waste Pro",
    "rowid": "1088923",
    "final_x": "3717984.4293",
    "final_y": "560330.701469",
    "longitude": "-89.95177015718939",
    "latitude": "30.03355578988373",
    "geocoded_column": {
      "latitude": "30.03355578988373",
      "longitude": "-89.95177015718939"
    }
  },
  {
    "service_request": "2024-1088922",
    "request_type": "Trash/Recycling",
    "request_reason": "Repair Trash Cart",
    "date_created": "2024-04-29T16:07:36.000",
    "date_modified": "2024-04-29T16:07:37.000",
    "request_status": "Pending",
    "responsible_agency": "Department of Sanitation",
    "final_address": "3462 Laurel St",
    "address_councildis": "B",
    "status": "Assigned to Contractor",
    "contractor": "IV Waste",
    "rowid": "1088922",
    "final_x": "3674824.37089",
    "final_y": "518700.065399",
    "longitude": "-90.08958897864278",
    "latitude": "29.92044605499402",
    "geocoded_column": {
      "latitude": "29.92044605499402",
      "longitude": "-90.08958897864278"
    }
  },
  {
    "service_request": "2024-1088921",
    "request_type": "Trash/Recycling",
    "request_reason": "Order Recycling Cart",
    "date_created": "2024-04-29T16:05:44.000",
    "date_modified": "2024-04-29T16:06:07.000",
    "request_status": "Pending",
    "responsible_agency": "Department of Sanitation",
    "final_address": "3462 Laurel St",
    "address_councildis": "B",
    "status": "Pending",
    "rowid": "1088921",
    "final_x": "3674824.37089",
    "final_y": "518700.065399",
    "longitude": "-90.08958897864278",
    "latitude": "29.92044605499402",
    "geocoded_column": {
      "latitude": "29.92044605499402",
      "longitude": "-90.08958897864278"
    }
  },
  {
    "service_request": "2024-1088920",
    "request_type": "Abandoned Vehicles",
    "request_reason": "Abandoned/Junk Vehicles",
    "date_created": "2024-04-29T16:05:42.000",
    "date_modified": "2024-04-29T16:05:42.000",
    "request_status": "Pending",
    "responsible_agency": "Department of Public Works",
    "final_address": "8501 Chase St",
    "address_councildis": "E",
    "status": "Pending",
    "rowid": "1088920",
    "final_x": "3703316.9633",
    "final_y": "563325.3736",
    "longitude": "-89.99801035663695",
    "latitude": "30.04226807287689",
    "geocoded_column": {
      "latitude": "30.04226807287689",
      "longitude": "-89.99801035663695"
    }
  },
  {
    "service_request": "2024-1088919",
    "request_type": "Abandoned Vehicles",
    "request_reason": "Abandoned/Junk Vehicles",
    "date_created": "2024-04-29T16:03:44.000",
    "date_modified": "2024-04-29T16:03:44.000",
    "request_status": "Pending",
    "responsible_agency": "Department of Public Works",
    "final_address": "8100 BLK Freret St",
    "address_councildis": "A",
    "status": "Pending",
    "rowid": "1088919",
    "final_x": "3661372.15032",
    "final_y": "527960.146295",
    "longitude": "-90.13174503845798",
    "latitude": "29.946303009031904",
    "geocoded_column": {
      "latitude": "29.946303009031904",
      "longitude": "-90.13174503845798"
    }
  },
  {
    "service_request": "2024-1088918",
    "request_type": "Abandoned Vehicles",
    "request_reason": "Abandoned/Junk Vehicles",
    "date_created": "2024-04-29T16:01:15.000",
    "date_modified": "2024-04-29T16:01:15.000",
    "request_status": "Pending",
    "responsible_agency": "Department of Public Works",
    "final_address": "8100 BLK Freret St",
    "address_councildis": "A",
    "status": "Pending",
    "rowid": "1088918",
    "final_x": "3661372.15032",
    "final_y": "527960.146295",
    "longitude": "-90.13174503845798",
    "latitude": "29.946303009031904",
    "geocoded_column": {
      "latitude": "29.946303009031904",
      "longitude": "-90.13174503845798"
    }
  },
  {
    "service_request": "2024-1088917",
    "request_type": "Traffic Signals/Signs/Striping/Streetlights",
    "request_reason": "Traffic Signal Malfunctioning/Damaged",
    "date_created": "2024-04-29T16:00:50.000",
    "date_modified": "2024-04-29T16:00:50.000",
    "request_status": "Pending",
    "responsible_agency": "Department of Public Works",
    "final_address": "KABEL DR & MACARTHUR BLVD",
    "address_councildis": "C",
    "status": "Pending",
    "rowid": "1088917",
    "final_x": "3700629.8",
    "final_y": "520202.08",
    "longitude": "-90.00807903465346",
    "latitude": "29.92378066696838",
    "geocoded_column": {
      "latitude": "29.92378066696838",
      "longitude": "-90.00807903465346"
    }
  },
  {
    "service_request": "2024-1088916",
    "request_type": "Roads/Drainage",
    "request_reason": "Catch Basin - Clogged",
    "date_created": "2024-04-29T16:00:26.000",
    "date_modified": "2024-04-29T16:00:27.000",
    "request_status": "Pending",
    "responsible_agency": "Department of Public Works",
    "final_address": "207 N Rendon St",
    "address_councildis": "B",
    "status": "Pending",
    "rowid": "1088916",
    "final_x": "3673805.51918",
    "final_y": "536908.299592",
    "longitude": "-90.09218246476787",
    "latitude": "29.97054307786656",
    "geocoded_column": {
      "latitude": "29.97054307786656",
      "longitude": "-90.09218246476787"
    }
  },
  {
    "service_request": "2024-1088915",
    "request_type": "Trash/Recycling",
    "request_reason": "Order Trash Cart",
    "date_created": "2024-04-29T15:58:03.000",
    "date_modified": "2024-04-29T15:58:03.000",
    "request_status": "Pending",
    "responsible_agency": "Department of Sanitation",
    "final_address": "4102 S Miro St",
    "address_councildis": "B",
    "status": "Assigned to Contractor",
    "contractor": "IV Waste",
    "rowid": "1088915",
    "final_x": "3670976.56199",
    "final_y": "527865.841855",
    "longitude": "-90.10142368437923",
    "latitude": "29.94576326988459",
    "geocoded_column": {
      "latitude": "29.94576326988459",
      "longitude": "-90.10142368437923"
    }
  },
  {
    "service_request": "2024-1088914",
    "request_type": "Trash/Recycling",
    "request_reason": "Replace Trash Cart",
    "date_created": "2024-04-29T15:56:41.000",
    "date_modified": "2024-04-29T15:56:42.000",
    "request_status": "Pending",
    "responsible_agency": "Department of Sanitation",
    "final_address": "5328 Lafaye St",
    "address_councildis": "D",
    "status": "Assigned to Contractor",
    "contractor": "IV Waste",
    "rowid": "1088914",
    "final_x": "3687277.70793",
    "final_y": "552848.328279",
    "longitude": "-90.04907161797256",
    "latitude": "30.013964311456395",
    "geocoded_column": {
      "latitude": "30.013964311456395",
      "longitude": "-90.04907161797256"
    }
  },
  {
    "service_request": "2024-1088913",
    "request_type": "Traffic Signals/Signs/Striping/Streetlights",
    "request_reason": "Traffic Signal Malfunctioning/Damaged",
    "date_created": "2024-04-29T15:55:15.000",
    "date_modified": "2024-04-29T15:55:15.000",
    "request_status": "Pending",
    "responsible_agency": "Department of Public Works",
    "final_address": "CROWDER BLVD & I 10 E SERVICE RD",
    "address_councildis": "E",
    "status": "Pending",
    "rowid": "1088913",
    "final_x": "3704930.5",
    "final_y": "558375.78",
    "longitude": "-89.9930939603255",
    "latitude": "30.02860683229059",
    "geocoded_column": {
      "latitude": "30.02860683229059",
      "longitude": "-89.9930939603255"
    }
  },
  {
    "service_request": "2024-1088912",
    "request_type": "Traffic Signals/Signs/Striping/Streetlights",
    "request_reason": "Traffic Signal Malfunctioning/Damaged",
    "date_created": "2024-04-29T15:54:14.000",
    "date_modified": "2024-04-29T15:54:14.000",
    "request_status": "Pending",
    "responsible_agency": "Department of Public Works",
    "final_address": "CROWDER BLVD & I 10 W",
    "address_councildis": "E",
    "status": "Pending",
    "rowid": "1088912",
    "final_x": "3704767.3",
    "final_y": "558908.58",
    "longitude": "-89.9935899755736",
    "latitude": "30.030077072327494",
    "geocoded_column": {
      "latitude": "30.030077072327494",
      "longitude": "-89.9935899755736"
    }
  },
  {
    "service_request": "2024-1088911",
    "request_type": "Traffic Signals/Signs/Striping/Streetlights",
    "request_reason": "Street Light Outage/Malfunction",
    "date_created": "2024-04-29T15:53:36.000",
    "date_modified": "2024-04-29T15:53:37.000",
    "request_status": "Pending",
    "responsible_agency": "Department of Public Works",
    "final_address": "1925 Milan St",
    "address_councildis": "B",
    "status": "Assigned to Contractor",
    "contractor": "Legacy Professional Services",
    "rowid": "1088911",
    "final_x": "3671517.645",
    "final_y": "522216.824314",
    "longitude": "-90.0999072934215",
    "latitude": "29.930214296765996",
    "geocoded_column": {
      "latitude": "29.930214296765996",
      "longitude": "-90.0999072934215"
    }
  },
  {
    "service_request": "2024-1088910",
    "request_type": "Traffic Signals/Signs/Striping/Streetlights",
    "request_reason": "Street Light Outage/Malfunction",
    "date_created": "2024-04-29T15:50:42.000",
    "date_modified": "2024-04-29T15:50:43.000",
    "request_status": "Pending",
    "responsible_agency": "Department of Public Works",
    "final_address": "1927 Milan St",
    "address_councildis": "B",
    "status": "Assigned to Contractor",
    "contractor": "Legacy Professional Services",
    "rowid": "1088910",
    "final_x": "3671518.6978",
    "final_y": "522242.092346",
    "longitude": "-90.09990311124528",
    "latitude": "29.930283744570684",
    "geocoded_column": {
      "latitude": "29.930283744570684",
      "longitude": "-90.09990311124528"
    }
  },
  {
    "service_request": "2024-1088909",
    "request_type": "Trash/Recycling",
    "request_reason": "Request a Large Item Pick Up",
    "date_created": "2024-04-29T15:48:44.000",
    "date_modified": "2024-04-29T15:48:45.000",
    "request_status": "Pending",
    "responsible_agency": "Department of Sanitation",
    "final_address": "4708 Bonita Dr",
    "address_councildis": "E",
    "status": "Assigned to Contractor",
    "contractor": "Waste Pro",
    "rowid": "1088909",
    "final_x": "3704470.64369",
    "final_y": "555042.767897",
    "longitude": "-89.99467011904031",
    "latitude": "30.019457120811442",
    "geocoded_column": {
      "latitude": "30.019457120811442",
      "longitude": "-89.99467011904031"
    }
  },
  {
    "service_request": "2024-1088908",
    "request_type": "Abandoned Vehicles",
    "request_reason": "Abandoned/Junk Vehicles",
    "date_created": "2024-04-29T15:38:22.000",
    "date_modified": "2024-04-29T15:38:22.000",
    "request_status": "Pending",
    "responsible_agency": "Department of Public Works",
    "final_address": "8601 Bill St",
    "address_councildis": "E",
    "status": "Pending",
    "rowid": "1088908",
    "final_x": "3703704.43345",
    "final_y": "563238.8712",
    "longitude": "-89.99678899883781",
    "latitude": "30.042017803963272",
    "geocoded_column": {
      "latitude": "30.042017803963272",
      "longitude": "-89.99678899883781"
    }
  },
  {
    "service_request": "2024-1088907",
    "request_type": "Roads/Drainage",
    "request_reason": "Damaged Sidewalk",
    "date_created": "2024-04-29T15:34:54.000",
    "date_modified": "2024-04-29T16:16:35.000",
    "request_status": "Pending",
    "responsible_agency": "Department of Public Works",
    "final_address": "1231 Saint Roch Ave, New Orleans, Louisiana, 70117",
    "address_councildis": "C",
    "rowid": "1088907",
    "final_x": "3686607.1791",
    "final_y": "537048.569096",
    "longitude": "-90.05174847250896",
    "latitude": "29.970541279099926",
    "geocoded_column": {
      "latitude": "29.970541279099926",
      "longitude": "-90.05174847250896"
    }
  },
  {
    "service_request": "2024-1088906",
    "request_type": "Abandoned Vehicles",
    "request_reason": "Abandoned/Junk Vehicles",
    "date_created": "2024-04-29T15:33:35.000",
    "date_modified": "2024-04-29T15:33:35.000",
    "request_status": "Pending",
    "responsible_agency": "Department of Public Works",
    "final_address": "339 Pelican Ave",
    "address_councildis": "C",
    "status": "Pending",
    "rowid": "1088906",
    "final_x": "3686483.31727",
    "final_y": "530418.519618",
    "longitude": "-90.052373717104",
    "latitude": "29.95231474290083",
    "geocoded_column": {
      "latitude": "29.95231474290083",
      "longitude": "-90.052373717104"
    }
  },
  {
    "service_request": "2024-1088905",
    "request_type": "Roads/Drainage",
    "request_reason": "Street Subsidence (Sinking)",
    "date_created": "2024-04-29T15:33:13.000",
    "date_modified": "2024-04-29T16:09:48.000",
    "request_status": "Pending",
    "responsible_agency": "Department of Public Works",
    "final_address": "1231 Saint Roch Ave, New Orleans, Louisiana, 70117",
    "address_councildis": "C",
    "rowid": "1088905",
    "final_x": "3686607.1791",
    "final_y": "537048.569096",
    "longitude": "-90.05174847250896",
    "latitude": "29.970541279099926",
    "geocoded_column": {
      "latitude": "29.970541279099926",
      "longitude": "-90.05174847250896"
    }
  },
  {
    "service_request": "2024-1088904",
    "request_type": "Property Maintenance",
    "request_reason": "Property Maintenance",
    "date_created": "2024-04-29T15:33:04.000",
    "date_modified": "2024-04-29T15:40:55.000",
    "case_close_date": "2024-04-29T10:40:55.000",
    "request_status": "Closed",
    "responsible_agency": "Department of Code Enforcement",
    "final_address": "3315 Touro St",
    "address_councildis": "D",
    "status": "Referred to Code Enforcement",
    "rowid": "1088904",
    "final_x": "3683579.34236",
    "final_y": "544887.888719",
    "longitude": "-90.06103582179274",
    "latitude": "29.992189426681787",
    "geocoded_column": {
      "latitude": "29.992189426681787",
      "longitude": "-90.06103582179274"
    }
  },
  {
    "service_request": "2024-1088903",
    "request_type": "Trash/Recycling",
    "request_reason": "Order Trash Cart",
    "date_created": "2024-04-29T15:32:14.000",
    "date_modified": "2024-04-29T15:32:14.000",
    "request_status": "Pending",
    "responsible_agency": "Department of Sanitation",
    "final_address": "4422 Painters St",
    "address_councildis": "D",
    "status": "Assigned to Contractor",
    "contractor": "IV Waste",
    "rowid": "1088903",
    "final_x": "3686235.72726",
    "final_y": "549114.040403",
    "longitude": "-90.05249562424653",
    "latitude": "30.003728452413878",
    "geocoded_column": {
      "latitude": "30.003728452413878",
      "longitude": "-90.05249562424653"
    }
  },
  {
    "service_request": "2024-1088902",
    "request_type": "Trash/Recycling",
    "request_reason": "Order Recycling Cart",
    "date_created": "2024-04-29T15:31:18.000",
    "date_modified": "2024-04-29T15:31:18.000",
    "request_status": "Pending",
    "responsible_agency": "Department of Sanitation",
    "final_address": "1123 Marengo St",
    "address_councildis": "B",
    "status": "Pending",
    "rowid": "1088902",
    "final_x": "3672168.01422",
    "final_y": "519847.244856",
    "longitude": "-90.09793482789676",
    "latitude": "29.923679447344355",
    "geocoded_column": {
      "latitude": "29.923679447344355",
      "longitude": "-90.09793482789676"
    }
  },
  {
    "service_request": "2024-1088901",
    "request_type": "Trash/Recycling",
    "request_reason": "Order Trash Cart",
    "date_created": "2024-04-29T15:31:14.000",
    "date_modified": "2024-04-29T15:31:14.000",
    "request_status": "Pending",
    "responsible_agency": "Department of Sanitation",
    "final_address": "138 N Norman C Francis Prkwy HM",
    "address_councildis": "B",
    "status": "Assigned to Contractor",
    "contractor": "IV Waste",
    "rowid": "1088901",
    "final_x": "3673591.55233",
    "final_y": "536946.16948",
    "longitude": "-90.09285690330714",
    "latitude": "29.97065357824042",
    "geocoded_column": {
      "latitude": "29.97065357824042",
      "longitude": "-90.09285690330714"
    }
  },
  {
    "service_request": "2024-1088900",
    "request_type": "Trash/Recycling",
    "request_reason": "Order Trash Cart",
    "date_created": "2024-04-29T15:30:58.000",
    "date_modified": "2024-04-29T15:30:58.000",
    "request_status": "Pending",
    "responsible_agency": "Department of Sanitation",
    "final_address": "138 N Norman C Francis Prkwy",
    "address_councildis": "B",
    "status": "Assigned to Contractor",
    "contractor": "IV Waste",
    "rowid": "1088900",
    "final_x": "3673574.53844",
    "final_y": "536963.877832",
    "longitude": "-90.09291002988296",
    "latitude": "29.970702776666283",
    "geocoded_column": {
      "latitude": "29.970702776666283",
      "longitude": "-90.09291002988296"
    }
  },
  {
    "service_request": "2024-1088899",
    "request_type": "Trash/Recycling",
    "request_reason": "Order Trash Cart",
    "date_created": "2024-04-29T15:30:40.000",
    "date_modified": "2024-04-29T15:30:40.000",
    "request_status": "Pending",
    "responsible_agency": "Department of Sanitation",
    "final_address": "136 N Norman C Francis Prkwy",
    "address_councildis": "B",
    "status": "Assigned to Contractor",
    "contractor": "IV Waste",
    "rowid": "1088899",
    "final_x": "3673570.00526",
    "final_y": "536958.67924",
    "longitude": "-90.09292452396664",
    "latitude": "29.97068861723277",
    "geocoded_column": {
      "latitude": "29.97068861723277",
      "longitude": "-90.09292452396664"
    }
  },
  {
    "service_request": "2024-1088898",
    "request_type": "Trash/Recycling",
    "request_reason": "Order Trash Cart",
    "date_created": "2024-04-29T15:30:28.000",
    "date_modified": "2024-04-29T15:30:28.000",
    "request_status": "Pending",
    "responsible_agency": "Department of Sanitation",
    "final_address": "134 N Norman C Francis Prkwy",
    "address_councildis": "B",
    "status": "Assigned to Contractor",
    "contractor": "IV Waste",
    "rowid": "1088898",
    "final_x": "3673563.66542",
    "final_y": "536948.972488",
    "longitude": "-90.09294487782643",
    "latitude": "29.970662115659422",
    "geocoded_column": {
      "latitude": "29.970662115659422",
      "longitude": "-90.09294487782643"
    }
  },
  {
    "service_request": "2024-1088897",
    "request_type": "Trash/Recycling",
    "request_reason": "Order Recycling Cart",
    "date_created": "2024-04-29T15:27:57.000",
    "date_modified": "2024-04-29T15:27:57.000",
    "request_status": "Pending",
    "responsible_agency": "Department of Sanitation",
    "final_address": "2336 Esplanade Ave",
    "address_councildis": "D",
    "status": "Pending",
    "rowid": "1088897",
    "final_x": "3679018.56155",
    "final_y": "538228.078793",
    "longitude": "-90.07567332324639",
    "latitude": "29.974015723686342",
    "geocoded_column": {
      "latitude": "29.974015723686342",
      "longitude": "-90.07567332324639"
    }
  },
  {
    "service_request": "2024-1088896",
    "request_type": "Trash/Recycling",
    "request_reason": "Order Recycling Cart",
    "date_created": "2024-04-29T15:26:55.000",
    "date_modified": "2024-04-29T15:29:11.000",
    "request_status": "Pending",
    "responsible_agency": "Department of Sanitation",
    "final_address": "2336 Esplanade Ave",
    "address_councildis": "D",
    "status": "Pending",
    "rowid": "1088896",
    "final_x": "3679018.56155",
    "final_y": "538228.078793",
    "longitude": "-90.07567332324639",
    "latitude": "29.974015723686342",
    "geocoded_column": {
      "latitude": "29.974015723686342",
      "longitude": "-90.07567332324639"
    }
  },
  {
    "service_request": "2024-1088895",
    "request_type": "Trash/Recycling",
    "request_reason": "Request a Large Item Pick Up",
    "date_created": "2024-04-29T15:26:46.000",
    "date_modified": "2024-04-29T15:26:47.000",
    "request_status": "Pending",
    "responsible_agency": "Department of Sanitation",
    "final_address": "30 Cypress Grove Ct Unit 18",
    "address_councildis": "C",
    "status": "Assigned to Contractor",
    "contractor": "Richards Disposal",
    "rowid": "1088895",
    "final_x": "3704874.27927",
    "final_y": "512022.767344",
    "longitude": "-89.99498243099798",
    "latitude": "29.901154701038404",
    "geocoded_column": {
      "latitude": "29.901154701038404",
      "longitude": "-89.99498243099798"
    }
  },
  {
    "service_request": "2024-1088894",
    "request_type": "Trash/Recycling",
    "request_reason": "Order Recycling Cart",
    "date_created": "2024-04-29T15:26:37.000",
    "date_modified": "2024-04-29T15:26:37.000",
    "request_status": "Pending",
    "responsible_agency": "Department of Sanitation",
    "final_address": "2317 Esplanade Ave",
    "address_councildis": "D",
    "status": "Pending",
    "rowid": "1088894",
    "final_x": "3679215.38811",
    "final_y": "538225.937865",
    "longitude": "-90.07505177473833",
    "latitude": "29.97400389520315",
    "geocoded_column": {
      "latitude": "29.97400389520315",
      "longitude": "-90.07505177473833"
    }
  },
  {
    "service_request": "2024-1088893",
    "request_type": "Trash/Recycling",
    "request_reason": "Order Trash Cart",
    "date_created": "2024-04-29T15:26:25.000",
    "date_modified": "2024-04-29T15:26:26.000",
    "request_status": "Pending",
    "responsible_agency": "Department of Sanitation",
    "final_address": "180 Cypress Grove Ct",
    "address_councildis": "C",
    "status": "Assigned to Contractor",
    "contractor": "Richards Disposal",
    "rowid": "1088893",
    "final_x": "3704933.29649",
    "final_y": "511877.946096",
    "longitude": "-89.9948015178069",
    "latitude": "29.90075459623228",
    "geocoded_column": {
      "latitude": "29.90075459623228",
      "longitude": "-89.9948015178069"
    }
  },
  {
    "service_request": "2024-1088892",
    "request_type": "Trash/Recycling",
    "request_reason": "Order Recycling Cart",
    "date_created": "2024-04-29T15:24:22.000",
    "date_modified": "2024-04-29T15:24:22.000",
    "request_status": "Pending",
    "responsible_agency": "Department of Sanitation",
    "final_address": "2317 Esplanade Ave",
    "address_councildis": "D",
    "status": "Pending",
    "rowid": "1088892",
    "final_x": "3679215.38811",
    "final_y": "538225.937865",
    "longitude": "-90.07505177473833",
    "latitude": "29.97400389520315",
    "geocoded_column": {
      "latitude": "29.97400389520315",
      "longitude": "-90.07505177473833"
    }
  },
  {
    "service_request": "2024-1088891",
    "request_type": "Trash/Recycling",
    "request_reason": "Illegal Dumping",
    "date_created": "2024-04-29T15:24:06.000",
    "date_modified": "2024-04-29T15:24:07.000",
    "request_status": "Pending",
    "responsible_agency": "Department of Sanitation",
    "final_address": "3406 Constance St",
    "address_councildis": "B",
    "status": "Pending",
    "rowid": "1088891",
    "final_x": "3675089.48885",
    "final_y": "519217.417975",
    "longitude": "-90.0887343865755",
    "latitude": "29.921860693039555",
    "geocoded_column": {
      "latitude": "29.921860693039555",
      "longitude": "-90.0887343865755"
    }
  },
  {
    "service_request": "2024-1088890",
    "request_type": "Trash/Recycling",
    "request_reason": "Order Recycling Cart",
    "date_created": "2024-04-29T15:24:01.000",
    "date_modified": "2024-04-29T15:24:01.000",
    "request_status": "Pending",
    "responsible_agency": "Department of Sanitation",
    "final_address": "2313 Esplanade Ave",
    "address_councildis": "D",
    "status": "Pending",
    "rowid": "1088890",
    "final_x": "3679241.71215",
    "final_y": "538210.704329",
    "longitude": "-90.0749691658367",
    "latitude": "29.97396121335089",
    "geocoded_column": {
      "latitude": "29.97396121335089",
      "longitude": "-90.0749691658367"
    }
  },
  {
    "service_request": "2024-1088889",
    "request_type": "Trash/Recycling",
    "request_reason": "Order Recycling Cart",
    "date_created": "2024-04-29T15:23:46.000",
    "date_modified": "2024-04-29T15:23:46.000",
    "request_status": "Pending",
    "responsible_agency": "Department of Sanitation",
    "final_address": "2301 Esplanade Ave",
    "address_councildis": "D",
    "status": "Pending",
    "rowid": "1088889",
    "final_x": "3679282.86901",
    "final_y": "538169.305545",
    "longitude": "-90.07484061925399",
    "latitude": "29.973846138085356",
    "geocoded_column": {
      "latitude": "29.973846138085356",
      "longitude": "-90.07484061925399"
    }
  },
  {
    "service_request": "2024-1088888",
    "request_type": "Roads/Drainage",
    "request_reason": "Street Flooding / Drainage",
    "date_created": "2024-04-29T15:23:10.000",
    "date_modified": "2024-04-29T15:23:10.000",
    "request_status": "Pending",
    "responsible_agency": "Department of Public Works",
    "final_address": "411 Amethyst St",
    "address_councildis": "D",
    "status": "Pending",
    "rowid": "1088888",
    "final_x": "3667596.76026",
    "final_y": "556520.990426",
    "longitude": "-90.11112984214672",
    "latitude": "30.024654677298454",
    "geocoded_column": {
      "latitude": "30.024654677298454",
      "longitude": "-90.11112984214672"
    }
  },
  {
    "service_request": "2024-1088887",
    "request_type": "Abandoned Vehicles",
    "request_reason": "Abandoned/Junk Vehicles",
    "date_created": "2024-04-29T15:19:32.000",
    "date_modified": "2024-04-29T15:19:32.000",
    "request_status": "Pending",
    "responsible_agency": "Department of Public Works",
    "final_address": "339 Pelican Ave",
    "address_councildis": "C",
    "status": "Pending",
    "rowid": "1088887",
    "final_x": "3686483.31727",
    "final_y": "530418.519618",
    "longitude": "-90.052373717104",
    "latitude": "29.95231474290083",
    "geocoded_column": {
      "latitude": "29.95231474290083",
      "longitude": "-90.052373717104"
    }
  },
  {
    "service_request": "2024-1088886",
    "request_type": "Roads/Drainage",
    "request_reason": "Pothole",
    "date_created": "2024-04-29T15:15:11.000",
    "date_modified": "2024-04-29T15:15:11.000",
    "request_status": "Pending",
    "responsible_agency": "Department of Public Works",
    "final_address": "COPERNICUS ST & CASA CALVO ST",
    "address_councildis": "C",
    "status": "Pending",
    "rowid": "1088886",
    "final_x": "3691951.3",
    "final_y": "523899.68",
    "longitude": "-90.03534158072613",
    "latitude": "29.93422095849826",
    "geocoded_column": {
      "latitude": "29.93422095849826",
      "longitude": "-90.03534158072613"
    }
  },
  {
    "service_request": "2024-1088885",
    "request_type": "Roads/Drainage",
    "request_reason": "Pothole",
    "date_created": "2024-04-29T15:13:46.000",
    "date_modified": "2024-04-29T15:13:46.000",
    "request_status": "Pending",
    "responsible_agency": "Department of Public Works",
    "final_address": "1312 Milan St",
    "address_councildis": "B",
    "status": "Pending",
    "rowid": "1088885",
    "final_x": "3671625.82823",
    "final_y": "520286.919608",
    "longitude": "-90.09963137110304",
    "latitude": "29.92490447494246",
    "geocoded_column": {
      "latitude": "29.92490447494246",
      "longitude": "-90.09963137110304"
    }
  },
  {
    "service_request": "2024-1088884",
    "request_type": "Trash/Recycling",
    "request_reason": "Request a Large Item Pick Up",
    "date_created": "2024-04-29T15:12:54.000",
    "date_modified": "2024-04-29T15:12:54.000",
    "request_status": "Pending",
    "responsible_agency": "Department of Sanitation",
    "final_address": "7341 Beauvoir Ct",
    "address_councildis": "E",
    "status": "Assigned to Contractor",
    "contractor": "Waste Pro",
    "rowid": "1088884",
    "final_x": "3716018.36242",
    "final_y": "568014.423205",
    "longitude": "-89.95769156545336",
    "latitude": "30.054747934532376",
    "geocoded_column": {
      "latitude": "30.054747934532376",
      "longitude": "-89.95769156545336"
    }
  },
  {
    "service_request": "2024-1088883",
    "request_type": "Trash/Recycling",
    "request_reason": "Request a Large Item Pick Up",
    "date_created": "2024-04-29T15:11:34.000",
    "date_modified": "2024-04-29T15:11:35.000",
    "request_status": "Pending",
    "responsible_agency": "Department of Sanitation",
    "final_address": "2229 Milan St",
    "address_councildis": "B",
    "status": "Assigned to Contractor",
    "contractor": "IV Waste",
    "rowid": "1088883",
    "final_x": "3671397.78375",
    "final_y": "523315.159867",
    "longitude": "-90.10024836440246",
    "latitude": "29.93323791319115",
    "geocoded_column": {
      "latitude": "29.93323791319115",
      "longitude": "-90.10024836440246"
    }
  },
  {
    "service_request": "2024-1088882",
    "request_type": "Trash/Recycling",
    "request_reason": "Repair Trash Cart",
    "date_created": "2024-04-29T15:07:18.000",
    "date_modified": "2024-04-29T15:07:19.000",
    "request_status": "Pending",
    "responsible_agency": "Department of Sanitation",
    "final_address": "467 Aurora Oaks Dr",
    "address_councildis": "C",
    "status": "Assigned to Contractor",
    "contractor": "Richards Disposal",
    "rowid": "1088882",
    "final_x": "3701267.6833",
    "final_y": "521698.028153",
    "longitude": "-90.00601078197307",
    "latitude": "29.927873706841073",
    "geocoded_column": {
      "latitude": "29.927873706841073",
      "longitude": "-90.00601078197307"
    }
  },
  {
    "service_request": "2024-1088881",
    "request_type": "Traffic Signals/Signs/Striping/Streetlights",
    "request_reason": "Additional signage",
    "date_created": "2024-04-29T15:06:04.000",
    "date_modified": "2024-04-29T15:06:04.000",
    "request_status": "Pending",
    "responsible_agency": "Department of Public Works",
    "final_address": "CHARTRES ST & BARTHOLOMEW ST",
    "address_councildis": "C",
    "status": "Pending",
    "rowid": "1088881",
    "final_x": "3691341.0",
    "final_y": "533445.18",
    "longitude": "-90.03692732481771",
    "latitude": "29.96048679191151",
    "geocoded_column": {
      "latitude": "29.96048679191151",
      "longitude": "-90.03692732481771"
    }
  },
  {
    "service_request": "2024-1088880",
    "request_type": "Traffic Signals/Signs/Striping/Streetlights",
    "request_reason": "Street Light Outage/Malfunction",
    "date_created": "2024-04-29T15:04:47.000",
    "date_modified": "2024-04-29T15:04:48.000",
    "request_status": "Pending",
    "responsible_agency": "Department of Public Works",
    "final_address": "3507 Pauger St",
    "address_councildis": "D",
    "status": "Assigned to Contractor",
    "contractor": "Legacy Professional Services",
    "rowid": "1088880",
    "final_x": "3683405.86114",
    "final_y": "542549.067469",
    "longitude": "-90.06166580526693",
    "latitude": "29.985763791575337",
    "geocoded_column": {
      "latitude": "29.985763791575337",
      "longitude": "-90.06166580526693"
    }
  },
  {
    "service_request": "2024-1088879",
    "request_type": "Trash/Recycling",
    "request_reason": "Request a Large Item Pick Up",
    "date_created": "2024-04-29T15:02:09.000",
    "date_modified": "2024-04-29T15:02:09.000",
    "request_status": "Pending",
    "responsible_agency": "Department of Sanitation",
    "final_address": "7928 Lucerne St",
    "address_councildis": "E",
    "status": "Assigned to Contractor",
    "contractor": "Waste Pro",
    "rowid": "1088879",
    "final_x": "3710080.88389",
    "final_y": "566931.587428",
    "longitude": "-89.97649899563598",
    "latitude": "30.05196523756915",
    "geocoded_column": {
      "latitude": "30.05196523756915",
      "longitude": "-89.97649899563598"
    }
  },
  {
    "service_request": "2024-1088878",
    "request_type": "Trash/Recycling",
    "request_reason": "Return Recycling Cart",
    "date_created": "2024-04-29T15:01:55.000",
    "date_modified": "2024-04-29T15:01:56.000",
    "request_status": "Pending",
    "responsible_agency": "Department of Sanitation",
    "final_address": "500 Harrison Ave",
    "address_councildis": "A",
    "status": "Pending",
    "rowid": "1088878",
    "final_x": "3667967.64865",
    "final_y": "549211.744851",
    "longitude": "-90.11020443257325",
    "latitude": "30.004545942387523",
    "geocoded_column": {
      "latitude": "30.004545942387523",
      "longitude": "-90.11020443257325"
    }
  },
  {
    "service_request": "2024-1088877",
    "request_type": "Trash/Recycling",
    "request_reason": "Request a Large Item Pick Up",
    "date_created": "2024-04-29T15:00:52.000",
    "date_modified": "2024-04-29T15:00:52.000",
    "request_status": "Pending",
    "responsible_agency": "Department of Sanitation",
    "final_address": "7940 Vanderkloot Ave",
    "address_councildis": "E",
    "status": "Assigned to Contractor",
    "contractor": "Waste Pro",
    "rowid": "1088877",
    "final_x": "3705263.06942",
    "final_y": "564133.761441",
    "longitude": "-89.99183004591627",
    "latitude": "30.04442831600162",
    "geocoded_column": {
      "latitude": "30.04442831600162",
      "longitude": "-89.99183004591627"
    }
  },
  {
    "service_request": "2024-1088876",
    "request_type": "Trash/Recycling",
    "request_reason": "Order Recycling Cart",
    "date_created": "2024-04-29T15:00:35.000",
    "date_modified": "2024-04-29T15:00:35.000",
    "request_status": "Pending",
    "responsible_agency": "Department of Sanitation",
    "final_address": "500 Harrison Ave",
    "address_councildis": "A",
    "status": "Pending",
    "rowid": "1088876",
    "final_x": "3667967.64865",
    "final_y": "549211.744851",
    "longitude": "-90.11020443257325",
    "latitude": "30.004545942387523",
    "geocoded_column": {
      "latitude": "30.004545942387523",
      "longitude": "-90.11020443257325"
    }
  },
  {
    "service_request": "2024-1088875",
    "request_type": "Traffic Signals/Signs/Striping/Streetlights",
    "request_reason": "Traffic Sign Missing/Damaged",
    "date_created": "2024-04-29T15:00:24.000",
    "date_modified": "2024-04-29T15:00:24.000",
    "request_status": "Pending",
    "responsible_agency": "Department of Public Works",
    "final_address": "URQUHART ST & FELICIANA ST",
    "address_councildis": "C",
    "status": "Pending",
    "rowid": "1088875",
    "final_x": "3688912.6",
    "final_y": "536798.68",
    "longitude": "-90.0444765842223",
    "latitude": "29.96978306953775",
    "geocoded_column": {
      "latitude": "29.96978306953775",
      "longitude": "-90.0444765842223"
    }
  },
  {
    "service_request": "2024-1088874",
    "request_type": "Trash/Recycling",
    "request_reason": "Request a Large Item Pick Up",
    "date_created": "2024-04-29T14:57:19.000",
    "date_modified": "2024-04-29T15:07:03.000",
    "request_status": "Pending",
    "responsible_agency": "Department of Sanitation",
    "final_address": "2514 Governor Nicholls St",
    "address_councildis": "D",
    "contractor": "IV Waste",
    "rowid": "1088874",
    "final_x": "3678503.35515",
    "final_y": "537837.183561",
    "longitude": "-90.07731399427448",
    "latitude": "29.972956434922025",
    "geocoded_column": {
      "latitude": "29.972956434922025",
      "longitude": "-90.07731399427448"
    }
  },
  {
    "service_request": "2024-1088873",
    "request_type": "Trash/Recycling",
    "request_reason": "Request a Large Item Pick Up",
    "date_created": "2024-04-29T14:53:56.000",
    "date_modified": "2024-04-29T14:53:57.000",
    "request_status": "Pending",
    "responsible_agency": "Department of Sanitation",
    "final_address": "4574 Cerise Ave",
    "address_councildis": "E",
    "status": "Assigned to Contractor",
    "contractor": "Waste Pro",
    "rowid": "1088873",
    "final_x": "3708638.84843",
    "final_y": "554650.257624",
    "longitude": "-89.98151474142911",
    "latitude": "30.018243314579646",
    "geocoded_column": {
      "latitude": "30.018243314579646",
      "longitude": "-89.98151474142911"
    }
  },
  {
    "service_request": "2024-1088872",
    "request_type": "Trash/Recycling",
    "request_reason": "Repair Recycling Cart",
    "date_created": "2024-04-29T14:51:59.000",
    "date_modified": "2024-04-29T14:52:00.000",
    "request_status": "Pending",
    "responsible_agency": "Department of Sanitation",
    "final_address": "1115 N White St",
    "address_councildis": "A",
    "status": "Pending",
    "rowid": "1088872",
    "final_x": "3677192.98574",
    "final_y": "538917.637322",
    "longitude": "-90.08141511380337",
    "latitude": "29.975966742389016",
    "geocoded_column": {
      "latitude": "29.975966742389016",
      "longitude": "-90.08141511380337"
    }
  },
  {
    "service_request": "2024-1088871",
    "request_type": "Trash/Recycling",
    "request_reason": "Request a Large Item Pick Up",
    "date_created": "2024-04-29T14:50:49.000",
    "date_modified": "2024-04-29T14:50:50.000",
    "request_status": "Pending",
    "responsible_agency": "Department of Sanitation",
    "final_address": "1448 N Miro St",
    "address_councildis": "D",
    "status": "Assigned to Contractor",
    "contractor": "IV Waste",
    "rowid": "1088871",
    "final_x": "3679880.22363",
    "final_y": "538193.004425",
    "longitude": "-90.07295321867072",
    "latitude": "29.97389324828717",
    "geocoded_column": {
      "latitude": "29.97389324828717",
      "longitude": "-90.07295321867072"
    }
  },
  {
    "service_request": "2024-1088870",
    "request_type": "Trash/Recycling",
    "request_reason": "Request a Large Item Pick Up",
    "date_created": "2024-04-29T14:50:36.000",
    "date_modified": "2024-04-29T14:50:37.000",
    "request_status": "Pending",
    "responsible_agency": "Department of Sanitation",
    "final_address": "7649 Shorewood Blvd",
    "address_councildis": "E",
    "status": "Assigned to Contractor",
    "contractor": "Waste Pro",
    "rowid": "1088870",
    "final_x": "3719705.24159",
    "final_y": "572884.529321",
    "longitude": "-89.94585189412176",
    "latitude": "30.06801646976862",
    "geocoded_column": {
      "latitude": "30.06801646976862",
      "longitude": "-89.94585189412176"
    }
  },
  {
    "service_request": "2024-1088869",
    "request_type": "Trash/Recycling",
    "request_reason": "Repair Trash Cart",
    "date_created": "2024-04-29T14:48:46.000",
    "date_modified": "2024-04-29T14:48:46.000",
    "request_status": "Pending",
    "responsible_agency": "Department of Sanitation",
    "final_address": "620 Olivier St",
    "address_councildis": "C",
    "status": "Assigned to Contractor",
    "contractor": "Richards Disposal",
    "rowid": "1088869",
    "final_x": "3687342.23625",
    "final_y": "529308.242625",
    "longitude": "-90.04970092663805",
    "latitude": "29.94923543079633",
    "geocoded_column": {
      "latitude": "29.94923543079633",
      "longitude": "-90.04970092663805"
    }
  },
  {
    "service_request": "2024-1088868",
    "request_type": "Trash/Recycling",
    "request_reason": "Request a Large Item Pick Up",
    "date_created": "2024-04-29T14:46:49.000",
    "date_modified": "2024-04-29T14:46:50.000",
    "request_status": "Pending",
    "responsible_agency": "Department of Sanitation",
    "final_address": "4512 S Miro St",
    "address_councildis": "B",
    "status": "Assigned to Contractor",
    "contractor": "IV Waste",
    "rowid": "1088868",
    "final_x": "3669626.14554",
    "final_y": "527725.079359",
    "longitude": "-90.10569217126428",
    "latitude": "29.94541607089053",
    "geocoded_column": {
      "latitude": "29.94541607089053",
      "longitude": "-90.10569217126428"
    }
  },
  {
    "service_request": "2024-1088867",
    "request_type": "Trash/Recycling",
    "request_reason": "Repair Trash Cart",
    "date_created": "2024-04-29T14:46:15.000",
    "date_modified": "2024-04-29T14:46:16.000",
    "request_status": "Pending",
    "responsible_agency": "Department of Sanitation",
    "final_address": "617 Olivier St",
    "address_councildis": "C",
    "status": "Assigned to Contractor",
    "contractor": "Richards Disposal",
    "rowid": "1088867",
    "final_x": "3687244.2685",
    "final_y": "529343.038273",
    "longitude": "-90.05000902287688",
    "latitude": "29.94933412430116",
    "geocoded_column": {
      "latitude": "29.94933412430116",
      "longitude": "-90.05000902287688"
    }
  },
  {
    "service_request": "2024-1088866",
    "request_type": "Trash/Recycling",
    "request_reason": "Replace Recycling Cart",
    "date_created": "2024-04-29T14:45:42.000",
    "date_modified": "2024-04-29T14:45:42.000",
    "request_status": "Pending",
    "responsible_agency": "Department of Sanitation",
    "final_address": "1115 N White St",
    "address_councildis": "A",
    "status": "Pending",
    "rowid": "1088866",
    "final_x": "3677192.98574",
    "final_y": "538917.637322",
    "longitude": "-90.08141511380337",
    "latitude": "29.975966742389016",
    "geocoded_column": {
      "latitude": "29.975966742389016",
      "longitude": "-90.08141511380337"
    }
  },
  {
    "service_request": "2024-1088865",
    "request_type": "Parks & Parkways",
    "request_reason": "Request Tree Service (Right of Way/Public Property)",
    "date_created": "2024-04-29T14:44:59.000",
    "date_modified": "2024-04-29T14:45:00.000",
    "request_status": "Pending",
    "responsible_agency": "Department of Parks & Parkway",
    "final_address": "3500 BLK Havana St",
    "address_councildis": "D",
    "status": "Pending",
    "rowid": "1088865",
    "final_x": "3680840.32988",
    "final_y": "545419.413542",
    "longitude": "-90.06966929758524",
    "latitude": "29.993734272603163",
    "geocoded_column": {
      "latitude": "29.993734272603163",
      "longitude": "-90.06966929758524"
    }
  },
  {
    "service_request": "2024-1088864",
    "request_type": "Trash/Recycling",
    "request_reason": "Request a Large Item Pick Up",
    "date_created": "2024-04-29T14:44:03.000",
    "date_modified": "2024-04-29T14:44:04.000",
    "request_status": "Pending",
    "responsible_agency": "Department of Sanitation",
    "final_address": "5316 Pasteur Blvd",
    "address_councildis": "D",
    "status": "Assigned to Contractor",
    "contractor": "IV Waste",
    "rowid": "1088864",
    "final_x": "3682857.47522",
    "final_y": "552421.807126",
    "longitude": "-90.06305222739854",
    "latitude": "30.01292701565436",
    "geocoded_column": {
      "latitude": "30.01292701565436",
      "longitude": "-90.06305222739854"
    }
  },
  {
    "service_request": "2024-1088863",
    "request_type": "Property Maintenance",
    "request_reason": "Property Maintenance",
    "date_created": "2024-04-29T14:39:49.000",
    "date_modified": "2024-04-29T14:54:02.000",
    "case_close_date": "2024-04-29T09:54:02.000",
    "request_status": "Closed",
    "responsible_agency": "Department of Code Enforcement",
    "final_address": "4028 Hollygrove St",
    "address_councildis": "A",
    "status": "Referred to Code Enforcement",
    "rowid": "1088863",
    "final_x": "3666432.76333",
    "final_y": "538054.137033",
    "longitude": "-90.11542810947606",
    "latitude": "29.97391127748906",
    "geocoded_column": {
      "latitude": "29.97391127748906",
      "longitude": "-90.11542810947606"
    }
  },
  {
    "service_request": "2024-1088862",
    "request_type": "Abandoned Vehicles",
    "request_reason": "Abandoned/Junk Vehicles",
    "date_created": "2024-04-29T14:39:08.000",
    "date_modified": "2024-04-29T14:39:09.000",
    "request_status": "Pending",
    "responsible_agency": "Department of Public Works",
    "final_address": "2900 BLK Republic St",
    "address_councildis": "D",
    "status": "Pending",
    "rowid": "1088862",
    "final_x": "3680648.56386",
    "final_y": "543181.099777",
    "longitude": "-90.0703529906496",
    "latitude": "29.98758551215202",
    "geocoded_column": {
      "latitude": "29.98758551215202",
      "longitude": "-90.0703529906496"
    }
  },
  {
    "service_request": "2024-1088861",
    "request_type": "Property Maintenance",
    "request_reason": "Property Maintenance",
    "date_created": "2024-04-29T14:37:47.000",
    "date_modified": "2024-04-29T14:59:40.000",
    "case_close_date": "2024-04-29T09:59:40.000",
    "request_status": "Closed",
    "responsible_agency": "Department of Code Enforcement",
    "final_address": "4027 Hollygrove St",
    "address_councildis": "A",
    "status": "Referred to Code Enforcement",
    "rowid": "1088861",
    "final_x": "3666464.67937",
    "final_y": "537988.645961",
    "longitude": "-90.11532950975014",
    "latitude": "29.97373026609402",
    "geocoded_column": {
      "latitude": "29.97373026609402",
      "longitude": "-90.11532950975014"
    }
  },
  {
    "service_request": "2024-1088860",
    "request_type": "Utility Poles",
    "request_reason": "Utility Pole Leaning",
    "date_created": "2024-04-29T14:36:17.000",
    "date_modified": "2024-04-29T14:36:22.000",
    "request_status": "Pending",
    "responsible_agency": "Utility Company Collective",
    "final_address": "1039 Mazant St",
    "address_councildis": "C",
    "status": "Pending",
    "rowid": "1088860",
    "final_x": "3692102.15581",
    "final_y": "535065.859846",
    "longitude": "-90.03446574567955",
    "latitude": "29.964919391609374",
    "geocoded_column": {
      "latitude": "29.964919391609374",
      "longitude": "-90.03446574567955"
    }
  },
  {
    "service_request": "2024-1088859",
    "request_type": "Parks & Parkways",
    "request_reason": "Request Tree Service (Right of Way/Public Property)",
    "date_created": "2024-04-29T14:35:37.000",
    "date_modified": "2024-04-29T14:35:38.000",
    "request_status": "Pending",
    "responsible_agency": "Department of Parks & Parkway",
    "final_address": "7670 Wave Dr",
    "address_councildis": "E",
    "status": "Pending",
    "rowid": "1088859",
    "final_x": "3714751.31736",
    "final_y": "568938.468069",
    "longitude": "-89.96166141218586",
    "latitude": "30.057330443136838",
    "geocoded_column": {
      "latitude": "30.057330443136838",
      "longitude": "-89.96166141218586"
    }
  },
  {
    "service_request": "2024-1088858",
    "request_type": "Property Maintenance",
    "request_reason": "Property Maintenance",
    "date_created": "2024-04-29T14:34:44.000",
    "date_modified": "2024-04-29T15:06:32.000",
    "case_close_date": "2024-04-29T10:06:32.000",
    "request_status": "Closed",
    "responsible_agency": "Department of Code Enforcement",
    "final_address": "4013 Hollygrove St",
    "address_councildis": "A",
    "status": "Referred to Code Enforcement",
    "rowid": "1088858",
    "final_x": "3666422.10279",
    "final_y": "537932.844105",
    "longitude": "-90.1154658494658",
    "latitude": "29.973578073988246",
    "geocoded_column": {
      "latitude": "29.973578073988246",
      "longitude": "-90.1154658494658"
    }
  },
  {
    "service_request": "2024-1088857",
    "request_type": "Trash/Recycling",
    "request_reason": "Request a Large Item Pick Up",
    "date_created": "2024-04-29T14:34:02.000",
    "date_modified": "2024-04-29T14:34:03.000",
    "request_status": "Pending",
    "responsible_agency": "Department of Sanitation",
    "final_address": "4939 Chestnut St",
    "address_councildis": "B",
    "status": "Assigned to Contractor",
    "contractor": "IV Waste",
    "rowid": "1088857",
    "final_x": "3668705.56052",
    "final_y": "519382.335159",
    "longitude": "-90.10888024194556",
    "latitude": "29.922503286339914",
    "geocoded_column": {
      "latitude": "29.922503286339914",
      "longitude": "-90.10888024194556"
    }
  },
  {
    "service_request": "2024-1088856",
    "request_type": "Trash/Recycling",
    "request_reason": "Illegal Dumping",
    "date_created": "2024-04-29T14:30:36.000",
    "date_modified": "2024-04-29T14:30:36.000",
    "request_status": "Pending",
    "responsible_agency": "Department of Sanitation",
    "final_address": "4121 Hollygrove St",
    "address_councildis": "A",
    "status": "Pending",
    "rowid": "1088856",
    "final_x": "3666703.62586",
    "final_y": "538240.451401",
    "longitude": "-90.11456640337053",
    "latitude": "29.974415660743603",
    "geocoded_column": {
      "latitude": "29.974415660743603",
      "longitude": "-90.11456640337053"
    }
  },
  {
    "service_request": "2024-1088855",
    "request_type": "Trash/Recycling",
    "request_reason": "Return Trash Cart",
    "date_created": "2024-04-29T14:28:41.000",
    "date_modified": "2024-04-29T14:28:41.000",
    "request_status": "Pending",
    "responsible_agency": "Department of Sanitation",
    "final_address": "13535 N Lemans St",
    "address_councildis": "E",
    "status": "Assigned to Contractor",
    "contractor": "Waste Pro",
    "rowid": "1088855",
    "final_x": "3725703.75488",
    "final_y": "563176.068512",
    "longitude": "-89.92726625273671",
    "latitude": "30.04112120027843",
    "geocoded_column": {
      "latitude": "30.04112120027843",
      "longitude": "-89.92726625273671"
    }
  },
  {
    "service_request": "2024-1088853",
    "request_type": "Traffic Signals/Signs/Striping/Streetlights",
    "request_reason": "Traffic Signal Malfunctioning/Damaged",
    "date_created": "2024-04-29T14:26:24.000",
    "date_modified": "2024-04-29T14:26:25.000",
    "request_status": "Pending",
    "responsible_agency": "Department of Public Works",
    "final_address": "CITY PARK AVE & N CARROLLTON AVE",
    "address_councildis": "A",
    "status": "Pending",
    "rowid": "1088853",
    "final_x": "3673886.2",
    "final_y": "541432.38",
    "longitude": "-90.09177285377343",
    "latitude": "29.982980352541237",
    "geocoded_column": {
      "latitude": "29.982980352541237",
      "longitude": "-90.09177285377343"
    }
  },
  {
    "service_request": "2024-1088851",
    "request_type": "Trash/Recycling",
    "request_reason": "Repair Recycling Cart",
    "date_created": "2024-04-29T14:25:32.000",
    "date_modified": "2024-04-29T14:25:32.000",
    "request_status": "Pending",
    "responsible_agency": "Department of Sanitation",
    "final_address": "6228 Caldwell Dr",
    "address_councildis": "D",
    "status": "Pending",
    "rowid": "1088851",
    "final_x": "3679363.63675",
    "final_y": "556101.026522",
    "longitude": "-90.07396310238109",
    "latitude": "30.0231495720445",
    "geocoded_column": {
      "latitude": "30.0231495720445",
      "longitude": "-90.07396310238109"
    }
  },
  {
    "service_request": "2024-1088850",
    "request_type": "Property Maintenance",
    "request_reason": "Property Maintenance",
    "date_created": "2024-04-29T14:24:57.000",
    "date_modified": "2024-04-29T15:34:30.000",
    "case_close_date": "2024-04-29T10:34:30.000",
    "request_status": "Closed",
    "responsible_agency": "Department of Code Enforcement",
    "final_address": "4115 N Claiborne Ave",
    "address_councildis": "D",
    "status": "Referred to Code Enforcement",
    "rowid": "1088850",
    "final_x": "3692712.00777",
    "final_y": "537098.887048",
    "longitude": "-90.03246699117517",
    "latitude": "29.97049047567443",
    "geocoded_column": {
      "latitude": "29.97049047567443",
      "longitude": "-90.03246699117517"
    }
  },
  {
    "service_request": "2024-1088849",
    "request_type": "Roads/Drainage",
    "request_reason": "Pothole",
    "date_created": "2024-04-29T14:24:39.000",
    "date_modified": "2024-04-29T14:24:39.000",
    "request_status": "Pending",
    "responsible_agency": "Department of Public Works",
    "final_address": "6070 Camp St",
    "address_councildis": "A",
    "status": "Pending",
    "rowid": "1088849",
    "final_x": "3664259.41274",
    "final_y": "519655.875384",
    "longitude": "-90.12290587670496",
    "latitude": "29.923385329925917",
    "geocoded_column": {
      "latitude": "29.923385329925917",
      "longitude": "-90.12290587670496"
    }
  },
  {
    "service_request": "2024-1088848",
    "request_type": "Trash/Recycling",
    "request_reason": "Request a Large Item Pick Up",
    "date_created": "2024-04-29T14:24:36.000",
    "date_modified": "2024-04-29T14:24:37.000",
    "request_status": "Pending",
    "responsible_agency": "Department of Sanitation",
    "final_address": "8932 Birch St",
    "address_councildis": "A",
    "status": "Assigned to Contractor",
    "contractor": "IV Waste",
    "rowid": "1088848",
    "final_x": "3660568.35814",
    "final_y": "531488.899715",
    "longitude": "-90.13416630444088",
    "latitude": "29.95602910285263",
    "geocoded_column": {
      "latitude": "29.95602910285263",
      "longitude": "-90.13416630444088"
    }
  },
  {
    "service_request": "2024-1088847",
    "request_type": "Roads/Drainage",
    "request_reason": "Pothole",
    "date_created": "2024-04-29T14:23:22.000",
    "date_modified": "2024-04-29T14:23:22.000",
    "request_status": "Pending",
    "responsible_agency": "Department of Public Works",
    "final_address": "6030 Camp St",
    "address_councildis": "A",
    "status": "Pending",
    "rowid": "1088847",
    "final_x": "3664533.87975",
    "final_y": "519586.217464",
    "longitude": "-90.12204180816082",
    "latitude": "29.923185817259107",
    "geocoded_column": {
      "latitude": "29.923185817259107",
      "longitude": "-90.12204180816082"
    }
  },
  {
    "service_request": "2024-1088846",
    "request_type": "Trash/Recycling",
    "request_reason": "Illegal Dumping",
    "date_created": "2024-04-29T14:22:24.000",
    "date_modified": "2024-04-29T14:22:24.000",
    "request_status": "Pending",
    "responsible_agency": "Department of Sanitation",
    "final_address": "35 Pinewood Ct",
    "address_councildis": "C",
    "status": "Pending",
    "rowid": "1088846",
    "final_x": "3695791.35446",
    "final_y": "522915.209147",
    "longitude": "-90.02325425206837",
    "latitude": "29.931393833149336",
    "geocoded_column": {
      "latitude": "29.931393833149336",
      "longitude": "-90.02325425206837"
    }
  },