[
  {
    "service_request": "2024-1105151",
    "request_type": "Roads/Drainage",
    "request_reason": "Pothole",
    "date_created": "2024-06-19T23:46:55.000",
    "date_modified": "2024-06-19T23:46:55.000",
    "request_status": "Pending",
    "responsible_agency": "Department of Public Works",
    "final_address": "1112 Constantinople St",
    "address_councildis": "B",
    "status": "Pending",
    "rowid": "1105151",
    "final_x": "3672348.95259",
    "final_y": "519796.384952",
    "longitude": "-90.09736540233975",
    "latitude": "29.923534233550217",
    "geocoded_column": {
      "latitude": "29.923534233550217",
      "longitude": "-90.09736540233975"
    }
  },
  {
    "service_request": "2024-1105150",
    "request_type": "Traffic Signals/Signs/Striping/Streetlights",
    "request_reason": "Street Light Outage/Malfunction",
    "date_created": "2024-06-19T22:59:48.000",
    "date_modified": "2024-06-19T22:59:49.000",
    "request_status": "Pending",
    "responsible_agency": "Department of Public Works",
    "final_address": "6644 Vicksburg St",
    "address_councildis": "A",
    "status": "Assigned to Contractor",
    "contractor": "Legacy Professional Services",
    "rowid": "1105150",
    "final_x": "3669181.26414",
    "final_y": "551689.324821",
    "longitude": "-90.10628655718742",
    "latitude": "30.011322742914817",
    "geocoded_column": {
      "latitude": "30.011322742914817",
      "longitude": "-90.10628655718742"
    }
  },
  {
    "service_request": "2024-1105149",
    "request_type": "Traffic Signals/Signs/Striping/Streetlights",
    "request_reason": "Street Light Outage/Malfunction",
    "date_created": "2024-06-19T22:56:07.000",
    "date_modified": "2024-06-19T22:56:08.000",
    "request_status": "Pending",
    "responsible_agency": "Department of Public Works",
    "final_address": "6838 Vicksburg St",
    "address_councildis": "A",
    "status": "Assigned to Contractor",
    "contractor": "Legacy Professional Services",
    "rowid": "1105149",
    "final_x": "3669299.65134",
    "final_y": "552953.450007",
    "longitude": "-90.10586973876921",
    "latitude": "30.014795155152694",
    "geocoded_column": {
      "latitude": "30.014795155152694",
      "longitude": "-90.10586973876921"
    }
  },
  {
    "service_request": "2024-1105148",
    "request_type": "Traffic Signals/Signs/Striping/Streetlights",
    "request_reason": "Street Light Outage/Malfunction",
    "date_created": "2024-06-19T22:55:03.000",
    "date_modified": "2024-06-19T22:55:04.000",
    "request_status": "Pending",
    "responsible_agency": "Department of Public Works",
    "final_address": "6864 Vicksburg St",
    "address_councildis": "A",
    "status": "Assigned to Contractor",
    "contractor": "Legacy Professional Services",
    "rowid": "1105148",
    "final_x": "3669317.16238",
    "final_y": "553157.401367",
    "longitude": "-90.10580750891057",
    "latitude": "30.015355433523936",
    "geocoded_column": {
      "latitude": "30.015355433523936",
      "longitude": "-90.10580750891057"
    }
  },
  {
    "service_request": "2024-1105147",
    "request_type": "Traffic Signals/Signs/Striping/Streetlights",
    "request_reason": "Street Light Outage/Malfunction",
    "date_created": "2024-06-19T22:51:27.000",
    "date_modified": "2024-06-19T22:51:27.000",
    "request_status": "Pending",
    "responsible_agency": "Department of Public Works",
    "final_address": "7039 Vicksburg St",
    "address_councildis": "A",
    "status": "Assigned to Contractor",
    "contractor": "Legacy Professional Services",
    "rowid": "1105147",
    "final_x": "3669561.07252",
    "final_y": "554387.292824",
    "longitude": "-90.1049952074123",
    "latitude": "30.01873001213007",
    "geocoded_column": {
      "latitude": "30.01873001213007",
      "longitude": "-90.1049952074123"
    }
  },
  {
    "service_request": "2024-1105146",
    "request_type": "Traffic Signals/Signs/Striping/Streetlights",
    "request_reason": "Street Light Outage/Malfunction",
    "date_created": "2024-06-19T22:47:07.000",
    "date_modified": "2024-06-19T22:47:08.000",
    "request_status": "Pending",
    "responsible_agency": "Department of Public Works",
    "final_address": "6971 Vicksburg St",
    "address_councildis": "A",
    "status": "Assigned to Contractor",
    "contractor": "Legacy Professional Services",
    "rowid": "1105146",
    "final_x": "3669531.7801",
    "final_y": "553844.255319",
    "longitude": "-90.10510615297497",
    "latitude": "30.01723771505147",
    "geocoded_column": {
      "latitude": "30.01723771505147",
      "longitude": "-90.10510615297497"
    }
  },
  {
    "service_request": "2024-1105145",
    "request_type": "Traffic Signals/Signs/Striping/Streetlights",
    "request_reason": "Street Light Outage/Malfunction",
    "date_created": "2024-06-19T22:46:08.000",
    "date_modified": "2024-06-19T22:46:09.000",
    "request_status": "Pending",
    "responsible_agency": "Department of Public Works",
    "final_address": "6949 Vicksburg St",
    "address_councildis": "A",
    "status": "Assigned to Contractor",
    "contractor": "Legacy Professional Services",
    "rowid": "1105145",
    "final_x": "3669542.96948",
    "final_y": "553696.465623",
    "longitude": "-90.10507580439528",
    "latitude": "30.01683101596882",
    "geocoded_column": {
      "latitude": "30.01683101596882",
      "longitude": "-90.10507580439528"
    }
  },
  {
    "service_request": "2024-1105144",
    "request_type": "Traffic Signals/Signs/Striping/Streetlights",
    "request_reason": "Street Light Outage/Malfunction",
    "date_created": "2024-06-19T22:44:46.000",
    "date_modified": "2024-06-19T22:44:47.000",
    "request_status": "Pending",
    "responsible_agency": "Department of Public Works",
    "final_address": "6929 Vicksburg St",
    "address_councildis": "A",
    "status": "Assigned to Contractor",
    "contractor": "Legacy Professional Services",
    "rowid": "1105144",
    "final_x": "3669496.98362",
    "final_y": "553537.614231",
    "longitude": "-90.10522648029527",
    "latitude": "30.01639558621508",
    "geocoded_column": {
      "latitude": "30.01639558621508",
      "longitude": "-90.10522648029527"
    }
  },
  {
    "service_request": "2024-1105143",
    "request_type": "Trash/Recycling",
    "request_reason": "Request a Large Item Pick Up",
    "date_created": "2024-06-19T22:34:51.000",
    "date_modified": "2024-06-19T22:34:51.000",
    "request_status": "Pending",
    "responsible_agency": "Department of Sanitation",
    "final_address": "1517 Mandeville St",
    "address_councildis": "C",
    "status": "Assigned to Contractor",
    "contractor": "IV Waste",
    "rowid": "1105143",
    "final_x": "3685680.10774",
    "final_y": "537998.512329",
    "longitude": "-90.05464278708244",
    "latitude": "29.973181770044363",
    "geocoded_column": {
      "latitude": "29.973181770044363",
      "longitude": "-90.05464278708244"
    }
  },
  {
    "service_request": "2024-1105142",
    "request_type": "Traffic Signals/Signs/Striping/Streetlights",
    "request_reason": "Street Light Outage/Malfunction",
    "date_created": "2024-06-19T22:34:19.000",
    "date_modified": "2024-06-19T22:34:19.000",
    "request_status": "Pending",
    "responsible_agency": "Department of Public Works",
    "final_address": "6448 Vicksburg St",
    "address_councildis": "A",
    "status": "Assigned to Contractor",
    "contractor": "Legacy Professional Services",
    "rowid": "1105142",
    "final_x": "3669066.0601",
    "final_y": "550426.42626",
    "longitude": "-90.10669324851517",
    "latitude": "30.00785360657787",
    "geocoded_column": {
      "latitude": "30.00785360657787",
      "longitude": "-90.10669324851517"
    }
  },
  {
    "service_request": "2024-1105141",
    "request_type": "Mosquito, Termite & Rodent Control",
    "request_reason": "Non-Rodent Complaint (Mice, Possums, Snakes)",
    "date_created": "2024-06-19T22:31:35.000",
    "date_modified": "2024-06-19T22:31:35.000",
    "request_status": "Pending",
    "responsible_agency": "Mosquito, Termite & Rodent Control Board",
    "final_address": "3443 Esplanade Ave",
    "address_councildis": "A",
    "status": "Pending",
    "rowid": "1105141",
    "final_x": "3674984.858",
    "final_y": "541532.608716",
    "longitude": "-90.08829928752895",
    "latitude": "29.98322316835311",
    "geocoded_column": {
      "latitude": "29.98322316835311",
      "longitude": "-90.08829928752895"
    }
  },
  {
    "service_request": "2024-1105140",
    "request_type": "Traffic Signals/Signs/Striping/Streetlights",
    "request_reason": "Street Light Outage/Malfunction",
    "date_created": "2024-06-19T22:31:28.000",
    "date_modified": "2024-06-19T22:31:28.000",
    "request_status": "Pending",
    "responsible_agency": "Department of Public Works",
    "final_address": "6403 Vicksburg St",
    "address_councildis": "A",
    "status": "Assigned to Contractor",
    "contractor": "Legacy Professional Services",
    "rowid": "1105140",
    "final_x": "3669184.85294",
    "final_y": "550056.18914",
    "longitude": "-90.10633047089601",
    "latitude": "30.006832086806543",
    "geocoded_column": {
      "latitude": "30.006832086806543",
      "longitude": "-90.10633047089601"
    }
  },
  {
    "service_request": "2024-1105139",
    "request_type": "Trash/Recycling",
    "request_reason": "Request a Large Item Pick Up",
    "date_created": "2024-06-19T22:30:27.000",
    "date_modified": "2024-06-19T22:30:28.000",
    "request_status": "Pending",
    "responsible_agency": "Department of Sanitation",
    "final_address": "9026 Green St",
    "address_councildis": "A",
    "status": "Assigned to Contractor",
    "contractor": "IV Waste",
    "rowid": "1105139",
    "final_x": "3660585.59443",
    "final_y": "531945.871811",
    "longitude": "-90.13409677579662",
    "latitude": "29.957285132742253",
    "geocoded_column": {
      "latitude": "29.957285132742253",
      "longitude": "-90.13409677579662"
    }
  },
  {
    "service_request": "2024-1105138",
    "request_type": "Traffic Signals/Signs/Striping/Streetlights",
    "request_reason": "Street Light Outage/Malfunction",
    "date_created": "2024-06-19T22:30:17.000",
    "date_modified": "2024-06-19T22:30:17.000",
    "request_status": "Pending",
    "responsible_agency": "Department of Public Works",
    "final_address": "6350 Vicksburg St",
    "address_councildis": "A",
    "status": "Assigned to Contractor",
    "contractor": "Legacy Professional Services",
    "rowid": "1105138",
    "final_x": "3669000.229",
    "final_y": "549707.900372",
    "longitude": "-90.1069255257",
    "latitude": "30.005879849161886",
    "geocoded_column": {
      "latitude": "30.005879849161886",
      "longitude": "-90.1069255257"
    }
  },
  {
    "service_request": "2024-1105137",
    "request_type": "Traffic Signals/Signs/Striping/Streetlights",
    "request_reason": "Street Light Outage/Malfunction",
    "date_created": "2024-06-19T22:25:44.000",
    "date_modified": "2024-06-19T22:25:45.000",
    "request_status": "Pending",
    "responsible_agency": "Department of Public Works",
    "final_address": "729 Harrison Ave",
    "address_councildis": "A",
    "status": "Assigned to Contractor",
    "contractor": "Legacy Professional Services",
    "rowid": "1105137",
    "final_x": "3668951.66817",
    "final_y": "549383.324627",
    "longitude": "-90.10708991488733",
    "latitude": "30.004988808161826",
    "geocoded_column": {
      "latitude": "30.004988808161826",
      "longitude": "-90.10708991488733"
    }
  },
  {
    "service_request": "2024-1105136",
    "request_type": "Traffic Signals/Signs/Striping/Streetlights",
    "request_reason": "Street Light Outage/Malfunction",
    "date_created": "2024-06-19T22:24:56.000",
    "date_modified": "2024-06-19T22:24:56.000",
    "request_status": "Pending",
    "responsible_agency": "Department of Public Works",
    "final_address": "729 Harrison Ave",
    "address_councildis": "A",
    "status": "Assigned to Contractor",
    "contractor": "Legacy Professional Services",
    "rowid": "1105136",
    "final_x": "3668951.66817",
    "final_y": "549383.324627",
    "longitude": "-90.10708991488733",
    "latitude": "30.004988808161826",
    "geocoded_column": {
      "latitude": "30.004988808161826",
      "longitude": "-90.10708991488733"
    }
  },
  {
    "service_request": "2024-1105135",
    "request_type": "Traffic Signals/Signs/Striping/Streetlights",
    "request_reason": "Street Light Outage/Malfunction",
    "date_created": "2024-06-19T22:23:47.000",
    "date_modified": "2024-06-19T22:23:47.000",
    "request_status": "Pending",
    "responsible_agency": "Department of Public Works",
    "final_address": "760 Harrison Ave",
    "address_councildis": "A",
    "status": "Assigned to Contractor",
    "contractor": "Legacy Professional Services",
    "rowid": "1105135",
    "final_x": "3669127.11316",
    "final_y": "549118.469139",
    "longitude": "-90.10654460468272",
    "latitude": "30.004255384142354",
    "geocoded_column": {
      "latitude": "30.004255384142354",
      "longitude": "-90.10654460468272"
    }
  },
  {
    "service_request": "2024-1105134",
    "request_type": "Traffic Signals/Signs/Striping/Streetlights",
    "request_reason": "Street Light Outage/Malfunction",
    "date_created": "2024-06-19T22:21:02.000",
    "date_modified": "2024-06-19T22:21:03.000",
    "request_status": "Pending",
    "responsible_agency": "Department of Public Works",
    "final_address": "775 Harrison Ave",
    "address_councildis": "A",
    "status": "Assigned to Contractor",
    "contractor": "Legacy Professional Services",
    "rowid": "1105134",
    "final_x": "3669142.44615",
    "final_y": "549354.159059",
    "longitude": "-90.10648819254023",
    "latitude": "30.004902997837632",
    "geocoded_column": {
      "latitude": "30.004902997837632",
      "longitude": "-90.10648819254023"
    }
  },
  {
    "service_request": "2024-1105133",
    "request_type": "Traffic Signals/Signs/Striping/Streetlights",
    "request_reason": "Street Light Outage/Malfunction",
    "date_created": "2024-06-19T22:20:10.000",
    "date_modified": "2024-06-19T22:20:11.000",
    "request_status": "Pending",
    "responsible_agency": "Department of Public Works",
    "final_address": "775 Harrison Ave",
    "address_councildis": "A",
    "status": "Assigned to Contractor",
    "contractor": "Legacy Professional Services",
    "rowid": "1105133",
    "final_x": "3669142.44615",
    "final_y": "549354.159059",
    "longitude": "-90.10648819254023",
    "latitude": "30.004902997837632",
    "geocoded_column": {
      "latitude": "30.004902997837632",
      "longitude": "-90.10648819254023"
    }
  },
  {
    "service_request": "2024-1105132",
    "request_type": "Traffic Signals/Signs/Striping/Streetlights",
    "request_reason": "Street Light Outage/Malfunction",
    "date_created": "2024-06-19T22:18:44.000",
    "date_modified": "2024-06-19T22:18:44.000",
    "request_status": "Pending",
    "responsible_agency": "Department of Public Works",
    "final_address": "778 Harrison Ave",
    "address_councildis": "A",
    "status": "Assigned to Contractor",
    "contractor": "Legacy Professional Services",
    "rowid": "1105132",
    "final_x": "3669310.58234",
    "final_y": "549131.517267",
    "longitude": "-90.10596454862177",
    "latitude": "30.004285859527208",
    "geocoded_column": {
      "latitude": "30.004285859527208",
      "longitude": "-90.10596454862177"
    }
  },
  {
    "service_request": "2024-1105131",
    "request_type": "Traffic Signals/Signs/Striping/Streetlights",
    "request_reason": "Street Light Outage/Malfunction",
    "date_created": "2024-06-19T22:17:09.000",
    "date_modified": "2024-06-19T22:17:09.000",
    "request_status": "Pending",
    "responsible_agency": "Department of Public Works",
    "final_address": "800 Harrison Ave",
    "address_councildis": "A",
    "status": "Assigned to Contractor",
    "contractor": "Legacy Professional Services",
    "rowid": "1105131",
    "final_x": "3669440.34254",
    "final_y": "549079.068371",
    "longitude": "-90.10555638646417",
    "latitude": "30.004137820908213",
    "geocoded_column": {
      "latitude": "30.004137820908213",
      "longitude": "-90.10555638646417"
    }
  },
  {
    "service_request": "2024-1105130",
    "request_type": "Health Related Request",
    "request_reason": "Noise Ordinance Complaint",
    "date_created": "2024-06-19T22:16:21.000",
    "date_modified": "2024-06-19T22:16:21.000",
    "request_status": "Pending",
    "responsible_agency": "Health Department",
    "final_address": "600 BLK N Broad St",
    "address_councildis": "A",
    "status": "Pending",
    "rowid": "1105130",
    "final_x": "3676359.9435",
    "final_y": "536531.150807",
    "longitude": "-90.08412827453832",
    "latitude": "29.969429719559482",
    "geocoded_column": {
      "latitude": "29.969429719559482",
      "longitude": "-90.08412827453832"
    }
  },
  {
    "service_request": "2024-1105129",
    "request_type": "Traffic Signals/Signs/Striping/Streetlights",
    "request_reason": "Street Light Outage/Malfunction",
    "date_created": "2024-06-19T22:15:32.000",
    "date_modified": "2024-06-19T22:15:32.000",
    "request_status": "Pending",
    "responsible_agency": "Department of Public Works",
    "final_address": "826 Harrison Ave Ste A",
    "address_councildis": "A",
    "status": "Assigned to Contractor",
    "contractor": "Legacy Professional Services",
    "rowid": "1105129",
    "final_x": "3669619.3778",
    "final_y": "549094.351827",
    "longitude": "-90.10499026267702",
    "latitude": "30.00417456900778",
    "geocoded_column": {
      "latitude": "30.00417456900778",
      "longitude": "-90.10499026267702"
    }
  },
  {
    "service_request": "2024-1105128",
    "request_type": "Traffic Signals/Signs/Striping/Streetlights",
    "request_reason": "Street Light Outage/Malfunction",
    "date_created": "2024-06-19T22:14:14.000",
    "date_modified": "2024-06-19T22:14:14.000",
    "request_status": "Pending",
    "responsible_agency": "Department of Public Works",
    "final_address": "848 Harrison Ave",
    "address_councildis": "A",
    "status": "Assigned to Contractor",
    "contractor": "Legacy Professional Services",
    "rowid": "1105128",
    "final_x": "3669766.08046",
    "final_y": "549034.592147",
    "longitude": "-90.10452882573644",
    "latitude": "30.00400592568403",
    "geocoded_column": {
      "latitude": "30.00400592568403",
      "longitude": "-90.10452882573644"
    }
  },
  {
    "service_request": "2024-1105127",
    "request_type": "Traffic Signals/Signs/Striping/Streetlights",
    "request_reason": "Street Light Outage/Malfunction",
    "date_created": "2024-06-19T22:12:57.000",
    "date_modified": "2024-06-19T22:12:58.000",
    "request_status": "Pending",
    "responsible_agency": "Department of Public Works",
    "final_address": "875 Harrison Ave",
    "address_councildis": "A",
    "status": "Assigned to Contractor",
    "contractor": "Legacy Professional Services",
    "rowid": "1105127",
    "final_x": "3669950.89473",
    "final_y": "549304.567827",
    "longitude": "-90.10393581242522",
    "latitude": "30.00474281353229",
    "geocoded_column": {
      "latitude": "30.00474281353229",
      "longitude": "-90.10393581242522"
    }
  },
  {
    "service_request": "2024-1105126",
    "request_type": "Traffic Signals/Signs/Striping/Streetlights",
    "request_reason": "Street Light Outage/Malfunction",
    "date_created": "2024-06-19T22:12:02.000",
    "date_modified": "2024-06-19T22:12:03.000",
    "request_status": "Pending",
    "responsible_agency": "Department of Public Works",
    "final_address": "911 Harrison Ave",
    "address_councildis": "A",
    "status": "Assigned to Contractor",
    "contractor": "Legacy Professional Services",
    "rowid": "1105126",
    "final_x": "3670141.17114",
    "final_y": "549280.044435",
    "longitude": "-90.10333552141181",
    "latitude": "30.004669767955036",
    "geocoded_column": {
      "latitude": "30.004669767955036",
      "longitude": "-90.10333552141181"
    }
  },
  {
    "service_request": "2024-1105125",
    "request_type": "Traffic Signals/Signs/Striping/Streetlights",
    "request_reason": "Street Light Outage/Malfunction",
    "date_created": "2024-06-19T22:11:05.000",
    "date_modified": "2024-06-19T22:11:06.000",
    "request_status": "Pending",
    "responsible_agency": "Department of Public Works",
    "final_address": "911 Harrison Ave",
    "address_councildis": "A",
    "status": "Assigned to Contractor",
    "contractor": "Legacy Professional Services",
    "rowid": "1105125",
    "final_x": "3670141.17114",
    "final_y": "549280.044435",
    "longitude": "-90.10333552141181",
    "latitude": "30.004669767955036",
    "geocoded_column": {
      "latitude": "30.004669767955036",
      "longitude": "-90.10333552141181"
    }
  },
  {
    "service_request": "2024-1105124",
    "request_type": "Traffic Signals/Signs/Striping/Streetlights",
    "request_reason": "Street Light Outage/Malfunction",
    "date_created": "2024-06-19T22:09:39.000",
    "date_modified": "2024-06-19T22:09:39.000",
    "request_status": "Pending",
    "responsible_agency": "Department of Public Works",
    "final_address": "6300 Argonne Blvd",
    "address_councildis": "A",
    "status": "Assigned to Contractor",
    "contractor": "Legacy Professional Services",
    "rowid": "1105124",
    "final_x": "3670263.31745",
    "final_y": "549349.481619",
    "longitude": "-90.10294728065384",
    "latitude": "30.00485709009762",
    "geocoded_column": {
      "latitude": "30.00485709009762",
      "longitude": "-90.10294728065384"
    }
  },
  {
    "service_request": "2024-1105123",
    "request_type": "Trash/Recycling",
    "request_reason": "Request a Large Item Pick Up",
    "date_created": "2024-06-19T21:28:26.000",
    "date_modified": "2024-06-19T21:28:26.000",
    "request_status": "Pending",
    "responsible_agency": "Department of Sanitation",
    "final_address": "5910 Kensington Blvd",
    "address_councildis": "E",
    "status": "Assigned to Contractor",
    "contractor": "Waste Pro",
    "rowid": "1105123",
    "final_x": "3712999.69438",
    "final_y": "561356.262878",
    "longitude": "-89.9674836769525",
    "latitude": "30.036539989284595",
    "geocoded_column": {
      "latitude": "30.036539989284595",
      "longitude": "-89.9674836769525"
    }
  },
  {
    "service_request": "2024-1105122",
    "request_type": "Trash/Recycling",
    "request_reason": "Request a Large Item Pick Up",
    "date_created": "2024-06-19T21:27:04.000",
    "date_modified": "2024-06-19T21:27:05.000",
    "request_status": "Pending",
    "responsible_agency": "Department of Sanitation",
    "final_address": "1200 Austerlitz St",
    "address_councildis": "B",
    "status": "Assigned to Contractor",
    "contractor": "IV Waste",
    "rowid": "1105122",
    "final_x": "3672725.97684",
    "final_y": "520048.818168",
    "longitude": "-90.09616667088859",
    "latitude": "29.92421715632867",
    "geocoded_column": {
      "latitude": "29.92421715632867",
      "longitude": "-90.09616667088859"
    }
  },
  {
    "service_request": "2024-1105121",
    "request_type": "Traffic Signals/Signs/Striping/Streetlights",
    "request_reason": "Street Light Outage/Malfunction",
    "date_created": "2024-06-19T21:25:46.000",
    "date_modified": "2024-06-19T21:25:47.000",
    "request_status": "Pending",
    "responsible_agency": "Department of Public Works",
    "final_address": "7151 Neptune Ct",
    "address_councildis": "E",
    "status": "Assigned to Contractor",
    "contractor": "Legacy Professional Services",
    "rowid": "1105121",
    "final_x": "3701695.5425",
    "final_y": "559604.498461",
    "longitude": "-90.00327113932906",
    "latitude": "30.03208897517481",
    "geocoded_column": {
      "latitude": "30.03208897517481",
      "longitude": "-90.00327113932906"
    }
  },
  {
    "service_request": "2024-1105120",
    "request_type": "Safety & Permits",
    "request_reason": "Construction permit",
    "date_created": "2024-06-19T20:59:52.000",
    "date_modified": "2024-06-19T20:59:52.000",
    "request_status": "Pending",
    "responsible_agency": "Safety and Permits",
    "final_address": "1100 BLK Valence St",
    "address_councildis": "B",
    "status": "Pending",
    "rowid": "1105120",
    "final_x": "3669860.37186",
    "final_y": "519561.478053",
    "longitude": "-90.10522889772398",
    "latitude": "29.92296188982667",
    "geocoded_column": {
      "latitude": "29.92296188982667",
      "longitude": "-90.10522889772398"
    }
  },
  {
    "service_request": "2024-1105119",
    "request_type": "Roads/Drainage",
    "request_reason": "Catch Basin - Broken/Damage",
    "date_created": "2024-06-19T20:55:36.000",
    "date_modified": "2024-06-19T20:55:36.000",
    "request_status": "Pending",
    "responsible_agency": "Department of Public Works",
    "final_address": "6220 Curie St",
    "address_councildis": "D",
    "status": "Pending",
    "rowid": "1105119",
    "final_x": "3682433.29557",
    "final_y": "555954.665689",
    "longitude": "-90.06426878119898",
    "latitude": "30.022654009132733",
    "geocoded_column": {
      "latitude": "30.022654009132733",
      "longitude": "-90.06426878119898"
    }
  },
  {
    "service_request": "2024-1105118",
    "request_type": "Property Maintenance",
    "request_reason": "Property Maintenance",
    "date_created": "2024-06-19T20:29:32.000",
    "date_modified": "2024-06-19T20:29:32.000",
    "request_status": "Pending",
    "responsible_agency": "Department of Code Enforcement",
    "final_address": "216 Fairfax Pl",
    "address_councildis": "C",
    "status": "Pending",
    "rowid": "1105118",
    "final_x": "3706712.74129",
    "final_y": "517507.355382",
    "longitude": "-89.98897736311484",
    "latitude": "29.91617625975911",
    "geocoded_column": {
      "latitude": "29.91617625975911",
      "longitude": "-89.98897736311484"
    }
  },
  {
    "service_request": "2024-1105117",
    "request_type": "Property Maintenance",
    "request_reason": "Property Maintenance",
    "date_created": "2024-06-19T20:25:05.000",
    "date_modified": "2024-06-19T20:25:05.000",
    "request_status": "Pending",
    "responsible_agency": "Department of Code Enforcement",
    "final_address": "1235 Bartholomew St",
    "address_councildis": "D",
    "status": "Pending",
    "rowid": "1105117",
    "final_x": "3691983.06019",
    "final_y": "535919.063559",
    "longitude": "-90.03481130699097",
    "latitude": "29.967269112945285",
    "geocoded_column": {
      "latitude": "29.967269112945285",
      "longitude": "-90.03481130699097"
    }
  },
  {
    "service_request": "2024-1105116",
    "request_type": "Property Maintenance",
    "request_reason": "Property Maintenance",
    "date_created": "2024-06-19T20:18:29.000",
    "date_modified": "2024-06-19T20:18:29.000",
    "request_status": "Pending",
    "responsible_agency": "Department of Code Enforcement",
    "final_address": "4754 Tulip St, New Orleans, Louisiana, 70126",
    "address_councildis": "E",
    "status": "Pending",
    "rowid": "1105116",
    "final_x": "3701997.62935",
    "final_y": "554348.247448",
    "longitude": "-90.00250944763184",
    "latitude": "30.017626665021382",
    "geocoded_column": {
      "latitude": "30.017626665021382",
      "longitude": "-90.00250944763184"
    }
  },
  {
    "service_request": "2024-1105115",
    "request_type": "Roads/Drainage",
    "request_reason": "Accessibility Ramps, Curbs and Sidewalk Repair",
    "date_created": "2024-06-19T20:17:34.000",
    "date_modified": "2024-06-19T20:17:34.000",
    "request_status": "Pending",
    "responsible_agency": "Department of Public Works",
    "final_address": "732 Cherokee St",
    "address_councildis": "A",
    "status": "Pending",
    "rowid": "1105115",
    "final_x": "3662506.58669",
    "final_y": "525870.963517",
    "longitude": "-90.12823258346445",
    "latitude": "29.940525663183635",
    "geocoded_column": {
      "latitude": "29.940525663183635",
      "longitude": "-90.12823258346445"
    }
  },
  {
    "service_request": "2024-1105114",
    "request_type": "Roads/Drainage",
    "request_reason": "Accessibility Ramps, Curbs and Sidewalk Repair",
    "date_created": "2024-06-19T20:15:33.000",
    "date_modified": "2024-06-19T20:15:33.000",
    "request_status": "Pending",
    "responsible_agency": "Department of Public Works",
    "final_address": "7100 BLK Maple St",
    "address_councildis": "A",
    "status": "Pending",
    "rowid": "1105114",
    "final_x": "3663511.1503",
    "final_y": "525229.789879",
    "longitude": "-90.12508233984019",
    "latitude": "29.938733550824093",
    "geocoded_column": {
      "latitude": "29.938733550824093",
      "longitude": "-90.12508233984019"
    }
  },
  {
    "service_request": "2024-1105113",
    "request_type": "Trash/Recycling",
    "request_reason": "Order Recycling Cart",
    "date_created": "2024-06-19T20:11:37.000",
    "date_modified": "2024-06-19T20:11:37.000",
    "request_status": "Pending",
    "responsible_agency": "Department of Sanitation",
    "final_address": "8420 Cohn St",
    "address_councildis": "A",
    "status": "Pending",
    "rowid": "1105113",
    "final_x": "3662633.03251",
    "final_y": "531030.993858",
    "longitude": "-90.12766195350726",
    "latitude": "29.95471043462836",
    "geocoded_column": {
      "latitude": "29.95471043462836",
      "longitude": "-90.12766195350726"
    }
  },
  {
    "service_request": "2024-1105112",
    "request_type": "Trash/Recycling",
    "request_reason": "Request a Large Item Pick Up",
    "date_created": "2024-06-19T20:03:49.000",
    "date_modified": "2024-06-19T20:03:49.000",
    "request_status": "Pending",
    "responsible_agency": "Department of Sanitation",
    "final_address": "3911 Coliseum St",
    "address_councildis": "B",
    "status": "Assigned to Contractor",
    "contractor": "IV Waste",
    "rowid": "1105112",
    "final_x": "3672721.56385",
    "final_y": "520032.334264",
    "longitude": "-90.09618116298817",
    "latitude": "29.924171961884948",
    "geocoded_column": {
      "latitude": "29.924171961884948",
      "longitude": "-90.09618116298817"
    }
  },
  {
    "service_request": "2024-1105111",
    "request_type": "Roads/Drainage",
    "request_reason": "Pothole",
    "date_created": "2024-06-19T20:00:40.000",
    "date_modified": "2024-06-19T20:00:40.000",
    "request_status": "Pending",
    "responsible_agency": "Department of Public Works",
    "final_address": "1443 Calhoun St",
    "address_councildis": "A",
    "status": "Pending",
    "rowid": "1105111",
    "final_x": "3664448.56986",
    "final_y": "521930.606842",
    "longitude": "-90.12223288176175",
    "latitude": "29.9296346305856",
    "geocoded_column": {
      "latitude": "29.9296346305856",
      "longitude": "-90.12223288176175"
    }
  },
  {
    "service_request": "2024-1105110",
    "request_type": "Traffic Signals/Signs/Striping/Streetlights",
    "request_reason": "Traffic Sign Missing/Damaged",
    "date_created": "2024-06-19T19:53:03.000",
    "date_modified": "2024-06-19T19:53:03.000",
    "request_status": "Pending",
    "responsible_agency": "Department of Public Works",
    "final_address": "PAULINE ST & N CLAIBORNE AVE",
    "address_councildis": "D",
    "status": "Pending",
    "rowid": "1105110",
    "final_x": "3691681.7",
    "final_y": "537320.38",
    "longitude": "-90.03571288696347",
    "latitude": "29.97113162549922",
    "geocoded_column": {
      "latitude": "29.97113162549922",
      "longitude": "-90.03571288696347"
    }
  },
  {
    "service_request": "2024-1105109",
    "request_type": "Property Maintenance",
    "request_reason": "Property Maintenance",
    "date_created": "2024-06-19T19:28:35.000",
    "date_modified": "2024-06-19T19:28:35.000",
    "request_status": "Pending",
    "responsible_agency": "Department of Code Enforcement",
    "final_address": "1825 Second St",
    "address_councildis": "B",
    "status": "Pending",
    "rowid": "1105109",
    "final_x": "3676177.95944",
    "final_y": "523885.334332",
    "longitude": "-90.08513803491786",
    "latitude": "29.934663394254432",
    "geocoded_column": {
      "latitude": "29.934663394254432",
      "longitude": "-90.08513803491786"
    }
  },
  {
    "service_request": "2024-1105108",
    "request_type": "Traffic Signals/Signs/Striping/Streetlights",
    "request_reason": "Additional signage",
    "date_created": "2024-06-19T19:23:21.000",
    "date_modified": "2024-06-19T19:23:21.000",
    "request_status": "Pending",
    "responsible_agency": "Department of Public Works",
    "final_address": "CANAL ST & S OLYMPIA ST",
    "address_councildis": "A",
    "status": "Pending",
    "rowid": "1105108",
    "final_x": "3669394.3",
    "final_y": "539598.08",
    "longitude": "-90.10602266157234",
    "latitude": "29.978069714183036",
    "geocoded_column": {
      "latitude": "29.978069714183036",
      "longitude": "-90.10602266157234"
    }
  },
  {
    "service_request": "2024-1105107",
    "request_type": "Trash/Recycling",
    "request_reason": "Replace Trash Cart",
    "date_created": "2024-06-19T19:21:17.000",
    "date_modified": "2024-06-19T19:21:18.000",
    "request_status": "Pending",
    "responsible_agency": "Department of Sanitation",
    "final_address": "609 Lesseps St",
    "address_councildis": "C",
    "status": "Assigned to Contractor",
    "contractor": "IV Waste",
    "rowid": "1105107",
    "final_x": "3692297.00317",
    "final_y": "533308.426116",
    "longitude": "-90.0339133694437",
    "latitude": "29.960080991030235",
    "geocoded_column": {
      "latitude": "29.960080991030235",
      "longitude": "-90.0339133694437"
    }
  },
  {
    "service_request": "2024-1105105",
    "request_type": "Abandoned Vehicles",
    "request_reason": "Abandoned/Junk Vehicles",
    "date_created": "2024-06-19T19:05:29.000",
    "date_modified": "2024-06-19T19:11:22.000",
    "request_status": "Pending",
    "responsible_agency": "Department of Public Works",
    "final_address": "2531 Dryades St",
    "address_councildis": "B",
    "status": "Pending",
    "rowid": "1105105",
    "final_x": "3675852.82395",
    "final_y": "523833.138299",
    "longitude": "-90.08616627601656",
    "latitude": "29.934529606962773",
    "geocoded_column": {
      "latitude": "29.934529606962773",
      "longitude": "-90.08616627601656"
    }
  },
  {
    "service_request": "2024-1105104",
    "request_type": "Trash/Recycling",
    "request_reason": "Order Recycling Cart",
    "date_created": "2024-06-19T18:56:14.000",
    "date_modified": "2024-06-19T18:56:14.000",
    "request_status": "Pending",
    "responsible_agency": "Department of Sanitation",
    "final_address": "1230 Louisiana Ave",
    "address_councildis": "B",
    "status": "Pending",
    "rowid": "1105104",
    "final_x": "3674706.27073",
    "final_y": "520179.470648",
    "longitude": "-90.08991109121042",
    "latitude": "29.924517468470533",
    "geocoded_column": {
      "latitude": "29.924517468470533",
      "longitude": "-90.08991109121042"
    }
  },
  {
    "service_request": "2024-1105103",
    "request_type": "Trash/Recycling",
    "request_reason": "Illegal Dumping",
    "date_created": "2024-06-19T18:42:29.000",
    "date_modified": "2024-06-19T18:42:29.000",
    "request_status": "Pending",
    "responsible_agency": "Department of Sanitation",
    "final_address": "3404 Feliciana St",
    "address_councildis": "D",
    "status": "Pending",
    "rowid": "1105103",
    "final_x": "3690992.5199",
    "final_y": "545197.055375",
    "longitude": "-90.03760810774033",
    "latitude": "29.99281110842221",
    "geocoded_column": {
      "latitude": "29.99281110842221",
      "longitude": "-90.03760810774033"
    }
  },
  {
    "service_request": "2024-1105102",
    "request_type": "Parks & Parkways",
    "request_reason": "Request Tree Service (Right of Way/Public Property)",
    "date_created": "2024-06-19T18:37:53.000",
    "date_modified": "2024-06-19T18:37:53.000",
    "request_status": "Pending",
    "responsible_agency": "Department of Parks & Parkway",
    "final_address": "1900 Valentine Ct",
    "address_councildis": "C",
    "status": "Pending",
    "rowid": "1105102",
    "final_x": "3699591.62327",
    "final_y": "524208.133884",
    "longitude": "-90.01121024962458",
    "latitude": "29.934828909150337",
    "geocoded_column": {
      "latitude": "29.934828909150337",
      "longitude": "-90.01121024962458"
    }
  },
  {
    "service_request": "2024-1105101",
    "request_type": "Roads/Drainage",
    "request_reason": "Pothole",
    "date_created": "2024-06-19T18:34:19.000",
    "date_modified": "2024-06-19T18:34:19.000",
    "request_status": "Pending",
    "responsible_agency": "Department of Public Works",
    "final_address": "6030 Chestnut St",
    "address_councildis": "A",
    "status": "Pending",
    "rowid": "1105101",
    "final_x": "3664661.37773",
    "final_y": "519852.51884",
    "longitude": "-90.1216304547064",
    "latitude": "29.923914355909606",
    "geocoded_column": {
      "latitude": "29.923914355909606",
      "longitude": "-90.1216304547064"
    }
  },
  {
    "service_request": "2024-1105100",
    "request_type": "Roads/Drainage",
    "request_reason": "Pothole",
    "date_created": "2024-06-19T18:31:24.000",
    "date_modified": "2024-06-19T18:31:24.000",
    "request_status": "Pending",
    "responsible_agency": "Department of Public Works",
    "final_address": "5923 Pitt St",
    "address_councildis": "A",
    "status": "Pending",
    "rowid": "1105100",
    "final_x": "3665490.05639",
    "final_y": "521140.942649",
    "longitude": "-90.11897149996602",
    "latitude": "29.92743299392239",
    "geocoded_column": {
      "latitude": "29.92743299392239",
      "longitude": "-90.11897149996602"
    }
  },
  {
    "service_request": "2024-1105098",
    "request_type": "Property Maintenance",
    "request_reason": "Property Maintenance",
    "date_created": "2024-06-19T18:20:32.000",
    "date_modified": "2024-06-19T18:20:32.000",
    "request_status": "Pending",
    "responsible_agency": "Department of Code Enforcement",
    "final_address": "4200 BLK dHemecourt St",
    "address_councildis": "A",
    "status": "Pending",
    "rowid": "1105098",
    "final_x": "3669240.76581",
    "final_y": "537264.207411",
    "longitude": "-90.10658649515037",
    "latitude": "29.97165687098222",
    "geocoded_column": {
      "latitude": "29.97165687098222",
      "longitude": "-90.10658649515037"
    }
  },
  {
    "service_request": "2024-1105097",
    "request_type": "Utility Poles",
    "request_reason": "Utility Pole Leaning",
    "date_created": "2024-06-19T18:16:39.000",
    "date_modified": "2024-06-19T18:16:43.000",
    "request_status": "Pending",
    "responsible_agency": "Utility Company Collective",
    "final_address": "1711 Frenchmen St",
    "address_councildis": "D",
    "status": "Pending",
    "rowid": "1105097",
    "final_x": "3684440.80341",
    "final_y": "538593.068617",
    "longitude": "-90.0585358607564",
    "latitude": "29.974854561718004",
    "geocoded_column": {
      "latitude": "29.974854561718004",
      "longitude": "-90.0585358607564"
    }
  },
  {
    "service_request": "2024-1105096",
    "request_type": "Property Maintenance",
    "request_reason": "Property Maintenance",
    "date_created": "2024-06-19T18:15:26.000",
    "date_modified": "2024-06-19T18:15:26.000",
    "request_status": "Pending",
    "responsible_agency": "Department of Code Enforcement",
    "final_address": "830 Flood St",
    "address_councildis": "E",
    "status": "Pending",
    "rowid": "1105096",
    "final_x": "3697404.71696",
    "final_y": "532927.669828",
    "longitude": "-90.0177982023389",
    "latitude": "29.958873788940576",
    "geocoded_column": {
      "latitude": "29.958873788940576",
      "longitude": "-90.0177982023389"
    }
  },
  {
    "service_request": "2024-1105095",
    "request_type": "Trash/Recycling",
    "request_reason": "Replace Trash Cart",
    "date_created": "2024-06-19T18:15:16.000",
    "date_modified": "2024-06-19T18:15:16.000",
    "request_status": "Pending",
    "responsible_agency": "Department of Sanitation",
    "final_address": "2457 Jasmine St",
    "address_councildis": "D",
    "status": "Assigned to Contractor",
    "contractor": "IV Waste",
    "rowid": "1105095",
    "final_x": "3686029.22844",
    "final_y": "548054.25845",
    "longitude": "-90.053185391683",
    "latitude": "30.0008207807275",
    "geocoded_column": {
      "latitude": "30.0008207807275",
      "longitude": "-90.053185391683"
    }
  },
  {
    "service_request": "2024-1105094",
    "request_type": "Property Maintenance",
    "request_reason": "Property Maintenance",
    "date_created": "2024-06-19T18:13:19.000",
    "date_modified": "2024-06-19T18:13:19.000",
    "request_status": "Pending",
    "responsible_agency": "Department of Code Enforcement",
    "final_address": "840 Flood St",
    "address_councildis": "E",
    "status": "Pending",
    "rowid": "1105094",
    "final_x": "3697452.02615",
    "final_y": "533027.061828",
    "longitude": "-90.01764520897265",
    "latitude": "29.959145588176554",
    "geocoded_column": {
      "latitude": "29.959145588176554",
      "longitude": "-90.01764520897265"
    }
  },
  {
    "service_request": "2024-1105093",
    "request_type": "Mosquito, Termite & Rodent Control",
    "request_reason": "Non-Rodent Complaint (Mice, Possums, Snakes)",
    "date_created": "2024-06-19T18:11:22.000",
    "date_modified": "2024-06-19T18:11:22.000",
    "request_status": "Pending",
    "responsible_agency": "Mosquito, Termite & Rodent Control Board",
    "final_address": "4437 S Liberty St",
    "address_councildis": "B",
    "status": "Pending",
    "rowid": "1105093",
    "final_x": "3670254.30375",
    "final_y": "523351.815483",
    "longitude": "-90.10385702535233",
    "latitude": "29.933372490783984",
    "geocoded_column": {
      "latitude": "29.933372490783984",
      "longitude": "-90.10385702535233"
    }
  },
  {
    "service_request": "2024-1105092",
    "request_type": "Trash/Recycling",
    "request_reason": "Request a Large Item Pick Up",
    "date_created": "2024-06-19T18:00:54.000",
    "date_modified": "2024-06-19T18:00:55.000",
    "request_status": "Pending",
    "responsible_agency": "Department of Sanitation",
    "final_address": "424 Fern St",
    "address_councildis": "A",
    "status": "Assigned to Contractor",
    "contractor": "IV Waste",
    "rowid": "1105092",
    "final_x": "3660764.7849",
    "final_y": "525972.910141",
    "longitude": "-90.13372840169654",
    "latitude": "29.94085624001353",
    "geocoded_column": {
      "latitude": "29.94085624001353",
      "longitude": "-90.13372840169654"
    }
  },
  {
    "service_request": "2024-1105091",
    "request_type": "Parks & Parkways",
    "request_reason": "Request Grass Cutting Service (City Owned Property)",
    "date_created": "2024-06-19T17:55:23.000",
    "date_modified": "2024-06-19T17:55:23.000",
    "request_status": "Pending",
    "responsible_agency": "Department of Parks & Parkway",
    "final_address": "4835 Bright Dr",
    "address_councildis": "E",
    "status": "Pending",
    "rowid": "1105091",
    "final_x": "3715859.89215",
    "final_y": "557310.766107",
    "longitude": "-89.95859835086843",
    "latitude": "30.025322437963084",
    "geocoded_column": {
      "latitude": "30.025322437963084",
      "longitude": "-89.95859835086843"
    }
  },
  {
    "service_request": "2024-1105090",
    "request_type": "Trash/Recycling",
    "request_reason": "Illegal Dumping",
    "date_created": "2024-06-19T17:45:14.000",
    "date_modified": "2024-06-19T17:45:14.000",
    "request_status": "Pending",
    "responsible_agency": "Department of Sanitation",
    "final_address": "2412 Valentine Ct",
    "address_councildis": "C",
    "status": "Pending",
    "rowid": "1105090",
    "final_x": "3699332.43991",
    "final_y": "522363.176122",
    "longitude": "-90.01209564345763",
    "latitude": "29.929764133581187",
    "geocoded_column": {
      "latitude": "29.929764133581187",
      "longitude": "-90.01209564345763"
    }
  },
  {
    "service_request": "2024-1105089",
    "request_type": "Trash/Recycling",
    "request_reason": "MIssed Recycling Pick-Up",
    "date_created": "2024-06-19T17:37:41.000",
    "date_modified": "2024-06-19T17:37:41.000",
    "request_status": "Pending",
    "responsible_agency": "Department of Sanitation",
    "final_address": "1813 Fern St",
    "address_councildis": "A",
    "status": "Assigned to Contractor",
    "contractor": "IV Waste",
    "rowid": "1105089",
    "final_x": "3664066.29735",
    "final_y": "529474.224449",
    "longitude": "-90.12318815005868",
    "latitude": "29.950388276977932",
    "geocoded_column": {
      "latitude": "29.950388276977932",
      "longitude": "-90.12318815005868"
    }
  },
  {
    "service_request": "2024-1105088",
    "request_type": "Trash/Recycling",
    "request_reason": "Repair Trash Cart",
    "date_created": "2024-06-19T17:33:49.000",
    "date_modified": "2024-06-19T17:33:50.000",
    "request_status": "Pending",
    "responsible_agency": "Department of Sanitation",
    "final_address": "2528 Upperline St",
    "address_councildis": "B",
    "status": "Assigned to Contractor",
    "contractor": "IV Waste",
    "rowid": "1105088",
    "final_x": "3669134.17844",
    "final_y": "524151.996348",
    "longitude": "-90.10736617670433",
    "latitude": "29.935605731640305",
    "geocoded_column": {
      "latitude": "29.935605731640305",
      "longitude": "-90.10736617670433"
    }
  },
  {
    "service_request": "2024-1105087",
    "request_type": "Trash/Recycling",
    "request_reason": "Request a Large Item Pick Up",
    "date_created": "2024-06-19T17:33:39.000",
    "date_modified": "2024-06-19T18:09:20.000",
    "case_close_date": "2024-06-19T13:09:20.000",
    "request_status": "Closed",
    "responsible_agency": "Department of Sanitation",
    "final_address": "7231 Queensway Dr",
    "address_councildis": "E",
    "status": "Duplicate Request",
    "contractor": "Waste Pro",
    "contractor_action": "Duplicate",
    "rowid": "1105087",
    "final_x": "3718634.65765",
    "final_y": "570269.282663",
    "longitude": "-89.9493360422512",
    "latitude": "30.06086123686576",
    "geocoded_column": {
      "latitude": "30.06086123686576",
      "longitude": "-89.9493360422512"
    }
  },
  {
    "service_request": "2024-1105086",
    "request_type": "Trash/Recycling",
    "request_reason": "Request a Large Item Pick Up",
    "date_created": "2024-06-19T17:32:54.000",
    "date_modified": "2024-06-19T17:32:54.000",
    "request_status": "Pending",
    "responsible_agency": "Department of Sanitation",
    "final_address": "7231 Queensway Dr",
    "address_councildis": "E",
    "status": "Assigned to Contractor",
    "contractor": "Waste Pro",
    "rowid": "1105086",
    "final_x": "3718634.65765",
    "final_y": "570269.282663",
    "longitude": "-89.9493360422512",
    "latitude": "30.06086123686576",
    "geocoded_column": {
      "latitude": "30.06086123686576",
      "longitude": "-89.9493360422512"
    }
  },
  {
    "service_request": "2024-1105085",
    "request_type": "Trash/Recycling",
    "request_reason": "Request a Large Item Pick Up",
    "date_created": "2024-06-19T17:21:38.000",
    "date_modified": "2024-06-19T17:21:38.000",
    "request_status": "Pending",
    "responsible_agency": "Department of Sanitation",
    "final_address": "2215 General Taylor St",
    "address_councildis": "B",
    "status": "Assigned to Contractor",
    "contractor": "IV Waste",
    "rowid": "1105085",
    "final_x": "3672149.23681",
    "final_y": "523295.765307",
    "longitude": "-90.0978767304784",
    "latitude": "29.933162327276804",
    "geocoded_column": {
      "latitude": "29.933162327276804",
      "longitude": "-90.0978767304784"
    }
  },
  {
    "service_request": "2024-1105084",
    "request_type": "Trash/Recycling",
    "request_reason": "Replace Trash Cart",
    "date_created": "2024-06-19T17:12:55.000",
    "date_modified": "2024-06-19T17:12:55.000",
    "request_status": "Pending",
    "responsible_agency": "Department of Sanitation",
    "final_address": "1642 Jo Ann Pl",
    "address_councildis": "C",
    "status": "Assigned to Contractor",
    "contractor": "Richards Disposal",
    "rowid": "1105084",
    "final_x": "3694997.01795",
    "final_y": "525070.082173",
    "longitude": "-90.02568422998213",
    "latitude": "29.937343943956822",
    "geocoded_column": {
      "latitude": "29.937343943956822",
      "longitude": "-90.02568422998213"
    }
  },
  {
    "service_request": "2024-1105083",
    "request_type": "Roads/Drainage",
    "request_reason": "Street Flooding / Drainage",
    "date_created": "2024-06-19T17:10:35.000",
    "date_modified": "2024-06-19T17:10:35.000",
    "request_status": "Pending",
    "responsible_agency": "Department of Public Works",
    "final_address": "OLD GENTILLY RD & ELAINE ST",
    "address_councildis": "E",
    "status": "Pending",
    "rowid": "1105083",
    "final_x": "3704870.7",
    "final_y": "552128.68",
    "longitude": "-89.99351374780667",
    "latitude": "30.01143164005284",
    "geocoded_column": {
      "latitude": "30.01143164005284",
      "longitude": "-89.99351374780667"
    }
  },
  {
    "service_request": "2024-1105082",
    "request_type": "Property Maintenance",
    "request_reason": "Property Maintenance",
    "date_created": "2024-06-19T17:09:04.000",
    "date_modified": "2024-06-19T17:09:04.000",
    "request_status": "Pending",
    "responsible_agency": "Department of Code Enforcement",
    "final_address": "3517 Annunciation St",
    "address_councildis": "B",
    "status": "Pending",
    "rowid": "1105082",
    "final_x": "3674648.03067",
    "final_y": "518358.25663",
    "longitude": "-90.09015730865002",
    "latitude": "29.919511452270495",
    "geocoded_column": {
      "latitude": "29.919511452270495",
      "longitude": "-90.09015730865002"
    }
  },
  {
    "service_request": "2024-1105081",
    "request_type": "Roads/Drainage",
    "request_reason": "Street Flooding / Drainage",
    "date_created": "2024-06-19T17:08:55.000",
    "date_modified": "2024-06-19T17:08:55.000",
    "request_status": "Pending",
    "responsible_agency": "Department of Public Works",
    "final_address": "OLD GENTILLY RD & ELAINE ST",
    "address_councildis": "E",
    "status": "Pending",
    "rowid": "1105081",
    "final_x": "3704870.7",
    "final_y": "552128.68",
    "longitude": "-89.99351374780667",
    "latitude": "30.01143164005284",
    "geocoded_column": {
      "latitude": "30.01143164005284",
      "longitude": "-89.99351374780667"
    }
  },
  {
    "service_request": "2024-1105080",
    "request_type": "Trash/Recycling",
    "request_reason": "Illegal Dumping",
    "date_created": "2024-06-19T16:59:55.000",
    "date_modified": "2024-06-19T16:59:55.000",
    "request_status": "Pending",
    "responsible_agency": "Department of Sanitation",
    "final_address": "2027 N Tonti St",
    "address_councildis": "D",
    "status": "Pending",
    "rowid": "1105080",
    "final_x": "3683056.40578",
    "final_y": "540624.964939",
    "longitude": "-90.06283697925876",
    "latitude": "29.980483844886205",
    "geocoded_column": {
      "latitude": "29.980483844886205",
      "longitude": "-90.06283697925876"
    }
  },
  {
    "service_request": "2024-1105079",
    "request_type": "Property Maintenance",
    "request_reason": "Property Maintenance",
    "date_created": "2024-06-19T16:57:26.000",
    "date_modified": "2024-06-19T16:57:26.000",
    "request_status": "Pending",
    "responsible_agency": "Department of Code Enforcement",
    "final_address": "1130 Leboeuf St",
    "address_councildis": "C",
    "status": "Pending",
    "rowid": "1105079",
    "final_x": "3689785.19318",
    "final_y": "527139.067967",
    "longitude": "-90.04206464022408",
    "latitude": "29.943195466539876",
    "geocoded_column": {
      "latitude": "29.943195466539876",
      "longitude": "-90.04206464022408"
    }
  },
  {
    "service_request": "2024-1105078",
    "request_type": "Abandoned Vehicles",
    "request_reason": "Vehicle Blocking Your Driveway",
    "date_created": "2024-06-19T16:41:55.000",
    "date_modified": "2024-06-19T16:41:55.000",
    "request_status": "Pending",
    "responsible_agency": "Department of Public Works",
    "final_address": "124 Stafford Place, 70124",
    "status": "Pending",
    "rowid": "1105078",
    "longitude": "0.0",
    "latitude": "0.0",
    "geocoded_column": {
      "latitude": "0.0",
      "longitude": "0.0"
    }
  },
  {
    "service_request": "2024-1105077",
    "request_type": "Property Maintenance",
    "request_reason": "Property Maintenance",
    "date_created": "2024-06-19T16:39:56.000",
    "date_modified": "2024-06-19T16:39:56.000",
    "request_status": "Pending",
    "responsible_agency": "Department of Code Enforcement",
    "final_address": "1535 N Roman St",
    "address_councildis": "D",
    "status": "Pending",
    "rowid": "1105077",
    "final_x": "3681308.63944",
    "final_y": "537876.534153",
    "longitude": "-90.06845300030612",
    "latitude": "29.972979784556436",
    "geocoded_column": {
      "latitude": "29.972979784556436",
      "longitude": "-90.06845300030612"
    }
  },
  {
    "service_request": "2024-1105076",
    "request_type": "Trash/Recycling",
    "request_reason": "Request a Large Item Pick Up",
    "date_created": "2024-06-19T16:29:29.000",
    "date_modified": "2024-06-19T16:29:30.000",
    "request_status": "Pending",
    "responsible_agency": "Department of Sanitation",
    "final_address": "1341 Coliseum St",
    "address_councildis": "B",
    "status": "Assigned to Contractor",
    "contractor": "IV Waste",
    "rowid": "1105076",
    "final_x": "3679952.65499",
    "final_y": "524972.509373",
    "longitude": "-90.0731836500807",
    "latitude": "29.937539163461206",
    "geocoded_column": {
      "latitude": "29.937539163461206",
      "longitude": "-90.0731836500807"
    }
  },
  {
    "service_request": "2024-1105075",
    "request_type": "Trash/Recycling",
    "request_reason": "Replace Recycling Cart",
    "date_created": "2024-06-19T16:20:23.000",
    "date_modified": "2024-06-19T16:20:23.000",
    "request_status": "Pending",
    "responsible_agency": "Department of Sanitation",
    "final_address": "3814 Dumaine St",
    "address_councildis": "A",
    "status": "Pending",
    "rowid": "1105075",
    "final_x": "3673671.65089",
    "final_y": "540114.235595",
    "longitude": "-90.09249559580684",
    "latitude": "29.97936229759645",
    "geocoded_column": {
      "latitude": "29.97936229759645",
      "longitude": "-90.09249559580684"
    }
  },
  {
    "service_request": "2024-1105073",
    "request_type": "Trash/Recycling",
    "request_reason": "Replace Trash Cart",
    "date_created": "2024-06-19T16:18:57.000",
    "date_modified": "2024-06-19T16:18:57.000",
    "request_status": "Pending",
    "responsible_agency": "Department of Sanitation",
    "final_address": "108 Kingston Ct",
    "address_councildis": "C",
    "status": "Assigned to Contractor",
    "contractor": "Richards Disposal",
    "rowid": "1105073",
    "final_x": "3705933.97278",
    "final_y": "517846.075126",
    "longitude": "-89.99142292386703",
    "latitude": "29.917132722360662",
    "geocoded_column": {
      "latitude": "29.917132722360662",
      "longitude": "-89.99142292386703"
    }
  },
  {
    "service_request": "2024-1105072",
    "request_type": "Trash/Recycling",
    "request_reason": "Repair Trash Cart",
    "date_created": "2024-06-19T16:15:48.000",
    "date_modified": "2024-06-19T16:15:49.000",
    "request_status": "Pending",
    "responsible_agency": "Department of Sanitation",
    "final_address": "5333 Coliseum St",
    "address_councildis": "B",
    "status": "Assigned to Contractor",
    "contractor": "IV Waste",
    "rowid": "1105072",
    "final_x": "3667383.56705",
    "final_y": "519801.768312",
    "longitude": "-90.1130391562591",
    "latitude": "29.923695373444726",
    "geocoded_column": {
      "latitude": "29.923695373444726",
      "longitude": "-90.1130391562591"
    }
  },
  {
    "service_request": "2024-1105071",
    "request_type": "Parks & Parkways",
    "request_reason": "Request Tree Service (Right of Way/Public Property)",
    "date_created": "2024-06-19T16:11:24.000",
    "date_modified": "2024-06-19T16:11:24.000",
    "request_status": "Pending",
    "responsible_agency": "Department of Parks & Parkway",
    "final_address": "5300 BLK Lacour Monique St",
    "address_councildis": "C",
    "status": "Pending",
    "rowid": "1105071",
    "final_x": "3703699.99348",
    "final_y": "517886.193018",
    "longitude": "-89.99847278638099",
    "latitude": "29.91731478185852",
    "geocoded_column": {
      "latitude": "29.91731478185852",
      "longitude": "-89.99847278638099"
    }
  },
  {
    "service_request": "2024-1105070",
    "request_type": "Trash/Recycling",
    "request_reason": "Order Recycling Cart",
    "date_created": "2024-06-19T16:09:13.000",
    "date_modified": "2024-06-19T16:09:13.000",
    "request_status": "Pending",
    "responsible_agency": "Department of Sanitation",
    "final_address": "5431 Seminary Pl",
    "address_councildis": "D",
    "status": "Pending",
    "rowid": "1105070",
    "final_x": "3688754.58908",
    "final_y": "553301.108823",
    "longitude": "-90.04438934676699",
    "latitude": "30.015163693502696",
    "geocoded_column": {
      "latitude": "30.015163693502696",
      "longitude": "-90.04438934676699"
    }
  },
  {
    "service_request": "2024-1105069",
    "request_type": "Property Maintenance",
    "request_reason": "Property Maintenance",
    "date_created": "2024-06-19T16:04:31.000",
    "date_modified": "2024-06-19T16:04:31.000",
    "request_status": "Pending",
    "responsible_agency": "Department of Code Enforcement",
    "final_address": "3701 Octavia St",
    "address_councildis": "A",
    "status": "Pending",
    "rowid": "1105069",
    "final_x": "3668741.66382",
    "final_y": "529048.55424",
    "longitude": "-90.1084401034067",
    "latitude": "29.949081222983942",
    "geocoded_column": {
      "latitude": "29.949081222983942",
      "longitude": "-90.1084401034067"
    }
  },
  {
    "service_request": "2024-1105068",
    "request_type": "Roads/Drainage",
    "request_reason": "Pothole",
    "date_created": "2024-06-19T15:54:05.000",
    "date_modified": "2024-06-19T15:54:05.000",
    "request_status": "Pending",
    "responsible_agency": "Department of Public Works",
    "final_address": "1314 Webster St",
    "address_councildis": "A",
    "status": "Pending",
    "rowid": "1105068",
    "final_x": "3664719.14957",
    "final_y": "521176.679929",
    "longitude": "-90.12140387903943",
    "latitude": "29.927553702734272",
    "geocoded_column": {
      "latitude": "29.927553702734272",
      "longitude": "-90.12140387903943"
    }
  },
  {
    "service_request": "2024-1105067",
    "request_type": "Trash/Recycling",
    "request_reason": "Request a Large Item Pick Up",
    "date_created": "2024-06-19T15:51:12.000",
    "date_modified": "2024-06-19T15:51:12.000",
    "request_status": "Pending",
    "responsible_agency": "Department of Sanitation",
    "final_address": "2600 Cleveland Ave",
    "address_councildis": "B",
    "status": "Assigned to Contractor",
    "contractor": "IV Waste",
    "rowid": "1105067",
    "final_x": "3675466.87208",
    "final_y": "534390.471621",
    "longitude": "-90.08702220164393",
    "latitude": "29.96357031747418",
    "geocoded_column": {
      "latitude": "29.96357031747418",
      "longitude": "-90.08702220164393"
    }
  },
  {
    "service_request": "2024-1105066",
    "request_type": "Roads/Drainage",
    "request_reason": "Street Subsidence (Sinking)",
    "date_created": "2024-06-19T15:46:08.000",
    "date_modified": "2024-06-19T15:46:08.000",
    "request_status": "Pending",
    "responsible_agency": "Department of Public Works",
    "final_address": "5800 Catina St",
    "address_councildis": "A",
    "status": "Pending",
    "rowid": "1105066",
    "final_x": "3666650.33172",
    "final_y": "546197.099728",
    "longitude": "-90.11446741439539",
    "latitude": "29.996295307176837",
    "geocoded_column": {
      "latitude": "29.996295307176837",
      "longitude": "-90.11446741439539"
    }
  },
  {
    "service_request": "2024-1105065",
    "request_type": "Roads/Drainage",
    "request_reason": "Pothole",
    "date_created": "2024-06-19T15:34:39.000",
    "date_modified": "2024-06-19T15:34:39.000",
    "request_status": "Pending",
    "responsible_agency": "Department of Public Works",
    "final_address": "1112 Constantinople St",
    "address_councildis": "B",
    "status": "Pending",
    "rowid": "1105065",
    "final_x": "3672348.95259",
    "final_y": "519796.384952",
    "longitude": "-90.09736540233975",
    "latitude": "29.923534233550217",
    "geocoded_column": {
      "latitude": "29.923534233550217",
      "longitude": "-90.09736540233975"
    }
  },
  {
    "service_request": "2024-1105064",
    "request_type": "Trash/Recycling",
    "request_reason": "Request a Large Item Pick Up",
    "date_created": "2024-06-19T15:29:59.000",
    "date_modified": "2024-06-19T15:30:00.000",
    "request_status": "Pending",
    "responsible_agency": "Department of Sanitation",
    "final_address": "7452 St Charles Ave",
    "address_councildis": "A",
    "status": "Assigned to Contractor",
    "contractor": "IV Waste",
    "rowid": "1105064",
    "final_x": "3662148.11783",
    "final_y": "525313.758653",
    "longitude": "-90.12938281905494",
    "latitude": "29.939003888264164",
    "geocoded_column": {
      "latitude": "29.939003888264164",
      "longitude": "-90.12938281905494"
    }
  },
  {
    "service_request": "2024-1105063",
    "request_type": "Roads/Drainage",
    "request_reason": "Pothole",
    "date_created": "2024-06-19T15:19:46.000",
    "date_modified": "2024-06-19T15:19:46.000",
    "request_status": "Pending",
    "responsible_agency": "Department of Public Works",
    "final_address": "1312 Milan St",
    "address_councildis": "B",
    "status": "Pending",
    "rowid": "1105063",
    "final_x": "3671625.82823",
    "final_y": "520286.919608",
    "longitude": "-90.09963137110304",
    "latitude": "29.92490447494246",
    "geocoded_column": {
      "latitude": "29.92490447494246",
      "longitude": "-90.09963137110304"
    }
  },
  {
    "service_request": "2024-1105062",
    "request_type": "Parks & Parkways",
    "request_reason": "Request Tree Service (Right of Way/Public Property)",
    "date_created": "2024-06-19T15:18:20.000",
    "date_modified": "2024-06-19T15:18:20.000",
    "request_status": "Pending",
    "responsible_agency": "Department of Parks & Parkway",
    "final_address": "118 Central Park Pl",
    "address_councildis": "A",
    "status": "Pending",
    "rowid": "1105062",
    "final_x": "3670504.54887",
    "final_y": "544149.479758",
    "longitude": "-90.1023616637127",
    "latitude": "29.99055176439077",
    "geocoded_column": {
      "latitude": "29.99055176439077",
      "longitude": "-90.1023616637127"
    }
  },
  {
    "service_request": "2024-1105061",
    "request_type": "Property Maintenance",
    "request_reason": "Property Maintenance",
    "date_created": "2024-06-19T15:16:15.000",
    "date_modified": "2024-06-19T15:16:15.000",
    "request_status": "Pending",
    "responsible_agency": "Department of Code Enforcement",
    "final_address": "5470 Stillwater Dr",
    "address_councildis": "E",
    "status": "Pending",
    "rowid": "1105061",
    "final_x": "3716601.62776",
    "final_y": "560582.610014",
    "longitude": "-89.956130344825",
    "latitude": "30.034294208137506",
    "geocoded_column": {
      "latitude": "30.034294208137506",
      "longitude": "-89.956130344825"
    }
  },
  {
    "service_request": "2024-1105060",
    "request_type": "Property Maintenance",
    "request_reason": "Property Maintenance",
    "date_created": "2024-06-19T15:13:04.000",
    "date_modified": "2024-06-19T15:13:04.000",
    "request_status": "Pending",
    "responsible_agency": "Department of Code Enforcement",
    "final_address": "8221 Panola St",
    "address_councildis": "A",
    "status": "Pending",
    "rowid": "1105060",
    "final_x": "3663713.79802",
    "final_y": "531105.793538",
    "longitude": "-90.12424680411986",
    "latitude": "29.954884796063393",
    "geocoded_column": {
      "latitude": "29.954884796063393",
      "longitude": "-90.12424680411986"
    }
  },
  {
    "service_request": "2024-1105059",
    "request_type": "Trash/Recycling",
    "request_reason": "Illegal Dumping",
    "date_created": "2024-06-19T15:10:03.000",
    "date_modified": "2024-06-19T15:10:03.000",
    "request_status": "Pending",
    "responsible_agency": "Department of Sanitation",
    "final_address": "809 Dauphine St",
    "address_councildis": "C",
    "status": "Pending",
    "rowid": "1105059",
    "final_x": "3682244.73852",
    "final_y": "533284.014916",
    "longitude": "-90.06565708379965",
    "latitude": "29.960323489886715",
    "geocoded_column": {
      "latitude": "29.960323489886715",
      "longitude": "-90.06565708379965"
    }
  },
  {
    "service_request": "2024-1105058",
    "request_type": "Property Maintenance",
    "request_reason": "Property Maintenance",
    "date_created": "2024-06-19T15:06:20.000",
    "date_modified": "2024-06-19T15:06:20.000",
    "request_status": "Pending",
    "responsible_agency": "Department of Code Enforcement",
    "final_address": "5470 Stillwater Dr",
    "address_councildis": "E",
    "status": "Pending",
    "rowid": "1105058",
    "final_x": "3716601.62776",
    "final_y": "560582.610014",
    "longitude": "-89.956130344825",
    "latitude": "30.034294208137506",
    "geocoded_column": {
      "latitude": "30.034294208137506",
      "longitude": "-89.956130344825"
    }
  },
  {
    "service_request": "2024-1105057",
    "request_type": "Traffic Signals/Signs/Striping/Streetlights",
    "request_reason": "Street Light Outage/Malfunction",
    "date_created": "2024-06-19T15:03:26.000",
    "date_modified": "2024-06-19T15:03:26.000",
    "request_status": "Pending",
    "responsible_agency": "Department of Public Works",
    "final_address": "6800 BLK Colbert St",
    "address_councildis": "A",
    "status": "Assigned to Contractor",
    "contractor": "Legacy Professional Services",
    "rowid": "1105057",
    "final_x": "3667937.04335",
    "final_y": "553100.191487",
    "longitude": "-90.11016998761592",
    "latitude": "30.015238707911337",
    "geocoded_column": {
      "latitude": "30.015238707911337",
      "longitude": "-90.11016998761592"
    }
  },
  {
    "service_request": "2024-1105056",
    "request_type": "Roads/Drainage",
    "request_reason": "Street Subsidence (Sinking)",
    "date_created": "2024-06-19T15:02:13.000",
    "date_modified": "2024-06-19T15:02:13.000",
    "request_status": "Pending",
    "responsible_agency": "Department of Public Works",
    "final_address": "FRERET ST & JEFFERSON AVE",
    "address_councildis": "B",
    "status": "Pending",
    "rowid": "1105056",
    "final_x": "3667939.2",
    "final_y": "523991.58",
    "longitude": "-90.11114415089764",
    "latitude": "29.93519973969662",
    "geocoded_column": {
      "latitude": "29.93519973969662",
      "longitude": "-90.11114415089764"
    }
  },
  {
    "service_request": "2024-1105055",
    "request_type": "Trash/Recycling",
    "request_reason": "MIssed Recycling Pick-Up",
    "date_created": "2024-06-19T14:50:54.000",
    "date_modified": "2024-06-19T14:50:54.000",
    "request_status": "Pending",
    "responsible_agency": "Department of Sanitation",
    "final_address": "3011 Sullen Pl",
    "address_councildis": "C",
    "status": "Assigned to Contractor",
    "contractor": "Richards Disposal",
    "rowid": "1105055",
    "final_x": "3707785.08331",
    "final_y": "519617.937592",
    "longitude": "-89.98551429608008",
    "latitude": "29.921944987773887",
    "geocoded_column": {
      "latitude": "29.921944987773887",
      "longitude": "-89.98551429608008"
    }
  },
  {
    "service_request": "2024-1105054",
    "request_type": "Tax and Revenue",
    "request_reason": "Occupational License Tax",
    "date_created": "2024-06-19T14:48:23.000",
    "date_modified": "2024-06-19T14:48:23.000",
    "request_status": "Pending",
    "responsible_agency": "Bureau of Revenue",
    "final_address": "1441 St Peter St",
    "address_councildis": "C",
    "status": "Pending",
    "rowid": "1105054",
    "final_x": "3680387.48309",
    "final_y": "534106.211141",
    "longitude": "-90.07149331761268",
    "latitude": "29.962640617114108",
    "geocoded_column": {
      "latitude": "29.962640617114108",
      "longitude": "-90.07149331761268"
    }
  },
  {
    "service_request": "2024-1105053",
    "request_type": "Trash/Recycling",
    "request_reason": "Order Recycling Cart",
    "date_created": "2024-06-19T14:45:32.000",
    "date_modified": "2024-06-19T14:45:32.000",
    "request_status": "Pending",
    "responsible_agency": "Department of Sanitation",
    "final_address": "3501 Encampment St",
    "address_councildis": "D",
    "status": "Pending",
    "rowid": "1105053",
    "final_x": "3676737.99861",
    "final_y": "545314.730127",
    "longitude": "-90.08263156696134",
    "latitude": "29.993570190579966",
    "geocoded_column": {
      "latitude": "29.993570190579966",
      "longitude": "-90.08263156696134"
    }
  },
  {
    "service_request": "2024-1105052",
    "request_type": "Roads/Drainage",
    "request_reason": "Pothole",
    "date_created": "2024-06-19T14:41:57.000",
    "date_modified": "2024-06-19T14:41:57.000",
    "request_status": "Pending",
    "responsible_agency": "Department of Public Works",
    "final_address": "FRANCE RD & HAYNE BLVD",
    "address_councildis": "D",
    "status": "Pending",
    "rowid": "1105052",
    "final_x": "3690868.34",
    "final_y": "558794.79",
    "longitude": "-90.03751462024054",
    "latitude": "30.03020370998618",
    "geocoded_column": {
      "latitude": "30.03020370998618",
      "longitude": "-90.03751462024054"
    }
  },
  {
    "service_request": "2024-1105051",
    "request_type": "Abandoned Vehicles",
    "request_reason": "Abandoned/Junk Vehicles",
    "date_created": "2024-06-19T14:37:29.000",
    "date_modified": "2024-06-19T14:37:29.000",
    "request_status": "Pending",
    "responsible_agency": "Department of Public Works",
    "final_address": "4737 Dryades St",
    "address_councildis": "B",
    "status": "Pending",
    "rowid": "1105051",
    "final_x": "3669330.94561",
    "final_y": "521854.108474",
    "longitude": "-90.10682263078138",
    "latitude": "29.92928148607439",
    "geocoded_column": {
      "latitude": "29.92928148607439",
      "longitude": "-90.10682263078138"
    }
  },
  {
    "service_request": "2024-1105050",
    "request_type": "Trash/Recycling",
    "request_reason": "Request a Large Item Pick Up",
    "date_created": "2024-06-19T14:32:40.000",
    "date_modified": "2024-06-19T14:32:40.000",
    "request_status": "Pending",
    "responsible_agency": "Department of Sanitation",
    "final_address": "6601 Dorian St",
    "address_councildis": "D",
    "status": "Assigned to Contractor",
    "contractor": "Waste Pro",
    "rowid": "1105050",
    "final_x": "3696525.33507",
    "final_y": "555381.504089",
    "longitude": "-90.01976222869723",
    "latitude": "30.02064135427605",
    "geocoded_column": {
      "latitude": "30.02064135427605",
      "longitude": "-90.01976222869723"
    }
  },
  {
    "service_request": "2024-1105049",
    "request_type": "Trash/Recycling",
    "request_reason": "Illegal Dumping",
    "date_created": "2024-06-19T14:31:37.000",
    "date_modified": "2024-06-19T14:31:37.000",
    "request_status": "Pending",
    "responsible_agency": "Department of Sanitation",
    "final_address": "FRANCE RD & HAYNE BLVD",
    "address_councildis": "D",
    "status": "Pending",
    "rowid": "1105049",
    "final_x": "3690868.34",
    "final_y": "558794.79",
    "longitude": "-90.03751462024054",
    "latitude": "30.03020370998618",
    "geocoded_column": {
      "latitude": "30.03020370998618",
      "longitude": "-90.03751462024054"
    }
  },
  {
    "service_request": "2024-1105048",
    "request_type": "Trash/Recycling",
    "request_reason": "Order Trash Cart",
    "date_created": "2024-06-19T14:08:55.000",
    "date_modified": "2024-06-19T14:08:55.000",
    "request_status": "Pending",
    "responsible_agency": "Department of Sanitation",
    "final_address": "4801 Coronado Dr",
    "address_councildis": "E",
    "status": "Assigned to Contractor",
    "contractor": "Waste Pro",
    "rowid": "1105048",
    "final_x": "3714182.00376",
    "final_y": "556601.501274",
    "longitude": "-89.96392695367543",
    "latitude": "30.0234274855252",
    "geocoded_column": {
      "latitude": "30.0234274855252",
      "longitude": "-89.96392695367543"
    }
  },
  {
    "service_request": "2024-1105047",
    "request_type": "Trash/Recycling",
    "request_reason": "MIssed Recycling Pick-Up",
    "date_created": "2024-06-19T14:08:04.000",
    "date_modified": "2024-06-19T14:08:05.000",
    "request_status": "Pending",
    "responsible_agency": "Department of Sanitation",
    "final_address": "205 Germain St",
    "address_councildis": "A",
    "status": "Assigned to Contractor",
    "contractor": "IV Waste",
    "rowid": "1105047",
    "final_x": "3666951.77095",
    "final_y": "548087.39797",
    "longitude": "-90.11345161326166",
    "latitude": "30.001484155855557",
    "geocoded_column": {
      "latitude": "30.001484155855557",
      "longitude": "-90.11345161326166"
    }
  },
  {
    "service_request": "2024-1105046",
    "request_type": "Property Maintenance",
    "request_reason": "Property Maintenance",
    "date_created": "2024-06-19T14:04:33.000",
    "date_modified": "2024-06-19T14:04:33.000",
    "request_status": "Pending",
    "responsible_agency": "Department of Code Enforcement",
    "final_address": "1825 Leonidas St",
    "address_councildis": "A",
    "status": "Pending",
    "rowid": "1105046",
    "final_x": "3662225.68711",
    "final_y": "531240.596418",
    "longitude": "-90.12894124329024",
    "latitude": "29.95529855314243",
    "geocoded_column": {
      "latitude": "29.95529855314243",
      "longitude": "-90.12894124329024"
    }
  },
  {
    "service_request": "2024-1105045",
    "request_type": "Trash/Recycling",
    "request_reason": "Request a Large Item Pick Up",
    "date_created": "2024-06-19T14:01:53.000",
    "date_modified": "2024-06-19T14:01:53.000",
    "request_status": "Pending",
    "responsible_agency": "Department of Sanitation",
    "final_address": "New Orleans,LA",
    "status": "Assigned to Contractor",
    "rowid": "1105045",
    "longitude": "0.0",
    "latitude": "0.0",
    "geocoded_column": {
      "latitude": "0.0",
      "longitude": "0.0"
    }
  },
  {
    "service_request": "2024-1105044",
    "request_type": "Trash/Recycling",
    "request_reason": "Order Trash Cart",
    "date_created": "2024-06-19T13:59:03.000",
    "date_modified": "2024-06-19T13:59:03.000",
    "request_status": "Pending",
    "responsible_agency": "Department of Sanitation",
    "final_address": "2233 Joseph St",
    "address_councildis": "A",
    "status": "Assigned to Contractor",
    "contractor": "IV Waste",
    "rowid": "1105044",
    "final_x": "3667412.79693",
    "final_y": "524379.416764",
    "longitude": "-90.11279296786665",
    "latitude": "29.936281594964264",
    "geocoded_column": {
      "latitude": "29.936281594964264",
      "longitude": "-90.11279296786665"
    }
  },
  {
    "service_request": "2024-1105043",
    "request_type": "Property Maintenance",
    "request_reason": "Property Maintenance",
    "date_created": "2024-06-19T13:58:13.000",
    "date_modified": "2024-06-19T13:58:13.000",
    "request_status": "Pending",
    "responsible_agency": "Department of Code Enforcement",
    "final_address": "5713 Wickfield Dr",
    "address_councildis": "D",
    "status": "Pending",
    "rowid": "1105043",
    "final_x": "3681094.42459",
    "final_y": "553839.151127",
    "longitude": "-90.06857308098793",
    "latitude": "30.016877821603234",
    "geocoded_column": {
      "latitude": "30.016877821603234",
      "longitude": "-90.06857308098793"
    }
  },
  {
    "service_request": "2024-1105042",
    "request_type": "Abandoned Vehicles",
    "request_reason": "Abandoned/Junk Vehicles",
    "date_created": "2024-06-19T13:53:40.000",
    "date_modified": "2024-06-19T13:53:40.000",
    "request_status": "Pending",
    "responsible_agency": "Department of Public Works",
    "final_address": "4100 BLK Gibson St",
    "address_councildis": "D",
    "status": "Inspected",
    "rowid": "1105042",
    "final_x": "3678742.5726",
    "final_y": "547474.010483",
    "longitude": "-90.07622459564092",
    "latitude": "29.999447133706962",
    "geocoded_column": {
      "latitude": "29.999447133706962",
      "longitude": "-90.07622459564092"
    }
  },
  {
    "service_request": "2024-1105041",
    "request_type": "Property Maintenance",
    "request_reason": "Property Maintenance",
    "date_created": "2024-06-19T13:47:40.000",
    "date_modified": "2024-06-19T13:47:40.000",
    "request_status": "Pending",
    "responsible_agency": "Department of Code Enforcement",
    "final_address": "4788 Donna Dr",
    "address_councildis": "E",
    "status": "Pending",
    "rowid": "1105041",
    "final_x": "3710904.33195",
    "final_y": "556155.86153",
    "longitude": "-89.97430030871489",
    "latitude": "30.022309451603167",
    "geocoded_column": {
      "latitude": "30.022309451603167",
      "longitude": "-89.97430030871489"
    }
  },
  {
    "service_request": "2024-1105039",
    "request_type": "Traffic Signals/Signs/Striping/Streetlights",
    "request_reason": "Street Light Outage/Malfunction",
    "date_created": "2024-06-19T13:43:49.000",
    "date_modified": "2024-06-19T13:43:49.000",
    "request_status": "Pending",
    "responsible_agency": "Department of Public Works",
    "final_address": "7300 BLK Cameo St",
    "address_councildis": "D",
    "status": "Assigned to Contractor",
    "contractor": "Legacy Professional Services",
    "rowid": "1105039",
    "final_x": "3667804.64631",
    "final_y": "555648.460997",
    "longitude": "-90.1105023783662",
    "latitude": "30.022249433109963",
    "geocoded_column": {
      "latitude": "30.022249433109963",
      "longitude": "-90.1105023783662"
    }
  },
  {
    "service_request": "2024-1105038",
    "request_type": "Property Maintenance",
    "request_reason": "Property Maintenance",
    "date_created": "2024-06-19T13:43:34.000",
    "date_modified": "2024-06-19T13:43:34.000",
    "request_status": "Pending",
    "responsible_agency": "Department of Code Enforcement",
    "final_address": "4778 Donna Dr",
    "address_councildis": "E",
    "status": "Pending",
    "rowid": "1105038",
    "final_x": "3710925.95633",
    "final_y": "556079.702746",
    "longitude": "-89.97423483594117",
    "latitude": "30.022099339572133",
    "geocoded_column": {
      "latitude": "30.022099339572133",
      "longitude": "-89.97423483594117"
    }
  },
  {
    "service_request": "2024-1105037",
    "request_type": "Trash/Recycling",
    "request_reason": "Request a Large Item Pick Up",
    "date_created": "2024-06-19T13:43:03.000",
    "date_modified": "2024-06-19T13:43:04.000",
    "request_status": "Pending",
    "responsible_agency": "Department of Sanitation",
    "final_address": "1735 Duels St",
    "address_councildis": "D",
    "status": "Assigned to Contractor",
    "contractor": "IV Waste",
    "rowid": "1105037",
    "final_x": "3681023.3037",
    "final_y": "542316.607629",
    "longitude": "-90.06919944256464",
    "latitude": "29.98519709937293",
    "geocoded_column": {
      "latitude": "29.98519709937293",
      "longitude": "-90.06919944256464"
    }
  },
  {
    "service_request": "2024-1105036",
    "request_type": "Trash/Recycling",
    "request_reason": "Replace Recycling Cart",
    "date_created": "2024-06-19T13:40:58.000",
    "date_modified": "2024-06-19T13:40:58.000",
    "request_status": "Pending",
    "responsible_agency": "Department of Sanitation",
    "final_address": "7820 Newcastle St, New Orleans, Louisiana, 70126",
    "address_councildis": "E",
    "status": "Pending",
    "rowid": "1105036",
    "final_x": "3696940.6353",
    "final_y": "559904.389981",
    "longitude": "-90.01828599773117",
    "latitude": "30.033064466478933",
    "geocoded_column": {
      "latitude": "30.033064466478933",
      "longitude": "-90.01828599773117"
    }
  },
  {
    "service_request": "2024-1105034",
    "request_type": "Trash/Recycling",
    "request_reason": "Order Trash Cart",
    "date_created": "2024-06-19T13:38:57.000",
    "date_modified": "2024-06-19T13:38:57.000",
    "request_status": "Pending",
    "responsible_agency": "Department of Sanitation",
    "final_address": "5500 Holley Ln",
    "address_councildis": "E",
    "status": "Assigned to Contractor",
    "contractor": "Waste Pro",
    "rowid": "1105034",
    "final_x": "3703482.8321",
    "final_y": "556229.822938",
    "longitude": "-89.99774753128108",
    "latitude": "30.022752760060722",
    "geocoded_column": {
      "latitude": "30.022752760060722",
      "longitude": "-89.99774753128108"
    }
  },
  {
    "service_request": "2024-1105035",
    "request_type": "Trash/Recycling",
    "request_reason": "Request a Large Item Pick Up",
    "date_created": "2024-06-19T13:38:57.000",
    "date_modified": "2024-06-19T14:15:49.000",
    "case_close_date": "2024-06-19T09:15:49.000",
    "request_status": "Closed",
    "responsible_agency": "Department of Sanitation",
    "final_address": "2519 Milan St",
    "address_councildis": "B",
    "status": "Duplicate Request",
    "contractor": "IV Waste",
    "contractor_action": "Invalid Request",
    "rowid": "1105035",
    "final_x": "3671314.59073",
    "final_y": "524283.613948",
    "longitude": "-90.10047810480661",
    "latitude": "29.9359033107097",
    "geocoded_column": {
      "latitude": "29.9359033107097",
      "longitude": "-90.10047810480661"
    }
  },
  {
    "service_request": "2024-1105033",
    "request_type": "Trash/Recycling",
    "request_reason": "Request a Large Item Pick Up",
    "date_created": "2024-06-19T13:38:13.000",
    "date_modified": "2024-06-19T13:38:14.000",
    "request_status": "Pending",
    "responsible_agency": "Department of Sanitation",
    "final_address": "2519 Milan St",
    "address_councildis": "B",
    "status": "Assigned to Contractor",
    "contractor": "IV Waste",
    "rowid": "1105033",
    "final_x": "3671314.59073",
    "final_y": "524283.613948",
    "longitude": "-90.10047810480661",
    "latitude": "29.9359033107097",
    "geocoded_column": {
      "latitude": "29.9359033107097",
      "longitude": "-90.10047810480661"
    }
  },
  {
    "service_request": "2024-1105032",
    "request_type": "Trash/Recycling",
    "request_reason": "Order Recycling Cart",
    "date_created": "2024-06-19T13:37:43.000",
    "date_modified": "2024-06-19T13:37:43.000",
    "request_status": "Pending",
    "responsible_agency": "Department of Sanitation",
    "final_address": "5729 Wickfield Dr",
    "address_councildis": "D",
    "status": "Pending",
    "rowid": "1105032",
    "final_x": "3681078.69275",
    "final_y": "554020.709336",
    "longitude": "-90.06861645539931",
    "latitude": "30.017377518053223",
    "geocoded_column": {
      "latitude": "30.017377518053223",
      "longitude": "-90.06861645539931"
    }
  },
  {
    "service_request": "2024-1105031",
    "request_type": "Traffic Signals/Signs/Striping/Streetlights",
    "request_reason": "Street Light Outage/Malfunction",
    "date_created": "2024-06-19T13:34:09.000",
    "date_modified": "2024-06-19T13:34:09.000",
    "request_status": "Pending",
    "responsible_agency": "Department of Public Works",
    "final_address": "5961 General Diaz St",
    "address_councildis": "A",
    "status": "Assigned to Contractor",
    "contractor": "Legacy Professional Services",
    "rowid": "1105031",
    "final_x": "3669573.68135",
    "final_y": "546987.167633",
    "longitude": "-90.10520597689062",
    "latitude": "29.998381891961117",
    "geocoded_column": {
      "latitude": "29.998381891961117",
      "longitude": "-90.10520597689062"
    }
  },
  {
    "service_request": "2024-1105030",
    "request_type": "Traffic Signals/Signs/Striping/Streetlights",
    "request_reason": "Street Light Outage/Malfunction",
    "date_created": "2024-06-19T13:32:38.000",
    "date_modified": "2024-06-19T13:32:39.000",
    "request_status": "Pending",
    "responsible_agency": "Department of Public Works",
    "final_address": "5900 BLK General Diaz St",
    "address_councildis": "A",
    "status": "Assigned to Contractor",
    "contractor": "Legacy Professional Services",
    "rowid": "1105030",
    "final_x": "3669472.17086",
    "final_y": "546854.508113",
    "longitude": "-90.10553113968012",
    "latitude": "29.99802011545594",
    "geocoded_column": {
      "latitude": "29.99802011545594",
      "longitude": "-90.10553113968012"
    }
  },
  {
    "service_request": "2024-1105029",
    "request_type": "Trash/Recycling",
    "request_reason": "Replace Trash Cart",
    "date_created": "2024-06-19T13:31:54.000",
    "date_modified": "2024-06-19T13:31:54.000",
    "request_status": "Pending",
    "responsible_agency": "Department of Sanitation",
    "final_address": "3810 Perrier St",
    "address_councildis": "B",
    "status": "Assigned to Contractor",
    "contractor": "IV Waste",
    "rowid": "1105029",
    "final_x": "3672989.666",
    "final_y": "520261.094072",
    "longitude": "-90.09532705501827",
    "latitude": "29.924793015895194",
    "geocoded_column": {
      "latitude": "29.924793015895194",
      "longitude": "-90.09532705501827"
    }
  },
  {
    "service_request": "2024-1105028",
    "request_type": "Trash/Recycling",
    "request_reason": "Order Recycling Cart",
    "date_created": "2024-06-19T13:27:13.000",
    "date_modified": "2024-06-19T13:27:13.000",
    "request_status": "Pending",
    "responsible_agency": "Department of Sanitation",
    "final_address": "5941 Doral Ct",
    "address_councildis": "E",
    "status": "Pending",
    "rowid": "1105028",
    "final_x": "3719566.50009",
    "final_y": "565007.959586",
    "longitude": "-89.946591820402",
    "latitude": "30.046363797146043",
    "geocoded_column": {
      "latitude": "30.046363797146043",
      "longitude": "-89.946591820402"
    }
  },
  {
    "service_request": "2024-1105027",
    "request_type": "Trash/Recycling",
    "request_reason": "Request a Large Item Pick Up",
    "date_created": "2024-06-19T13:23:40.000",
    "date_modified": "2024-06-19T13:23:41.000",
    "request_status": "Pending",
    "responsible_agency": "Department of Sanitation",
    "final_address": "New Orleans,LA",
    "status": "Assigned to Contractor",
    "rowid": "1105027",
    "longitude": "0.0",
    "latitude": "0.0",
    "geocoded_column": {
      "latitude": "0.0",
      "longitude": "0.0"
    }
  },
  {
    "service_request": "2024-1105025",
    "request_type": "Trash/Recycling",
    "request_reason": "Request a Large Item Pick Up",
    "date_created": "2024-06-19T13:20:34.000",
    "date_modified": "2024-06-19T13:20:34.000",
    "request_status": "Pending",
    "responsible_agency": "Department of Sanitation",
    "final_address": "4401 Lancelot Dr",
    "address_councildis": "E",
    "status": "Assigned to Contractor",
    "contractor": "Waste Pro",
    "rowid": "1105025",
    "final_x": "3707712.73028",
    "final_y": "553584.121687",
    "longitude": "-89.98448055681503",
    "latitude": "30.015341863070322",
    "geocoded_column": {
      "latitude": "30.015341863070322",
      "longitude": "-89.98448055681503"
    }
  },
  {
    "service_request": "2024-1105024",
    "request_type": "Trash/Recycling",
    "request_reason": "Illegal Dumping",
    "date_created": "2024-06-19T13:19:56.000",
    "date_modified": "2024-06-19T13:19:56.000",
    "request_status": "Pending",
    "responsible_agency": "Department of Sanitation",
    "final_address": "809 Dauphine St",
    "address_councildis": "C",
    "status": "Pending",
    "rowid": "1105024",
    "final_x": "3682244.73852",
    "final_y": "533284.014916",
    "longitude": "-90.06565708379965",
    "latitude": "29.960323489886715",
    "geocoded_column": {
      "latitude": "29.960323489886715",
      "longitude": "-90.06565708379965"
    }
  },
  {
    "service_request": "2024-1105023",
    "request_type": "Trash/Recycling",
    "request_reason": "Replace Trash Cart",
    "date_created": "2024-06-19T13:11:26.000",
    "date_modified": "2024-06-19T13:11:26.000",
    "request_status": "Pending",
    "responsible_agency": "Department of Sanitation",
    "final_address": "4401 Lancelot Dr",
    "address_councildis": "E",
    "status": "Assigned to Contractor",
    "contractor": "Waste Pro",
    "rowid": "1105023",
    "final_x": "3707712.73028",
    "final_y": "553584.121687",
    "longitude": "-89.98448055681503",
    "latitude": "30.015341863070322",
    "geocoded_column": {
      "latitude": "30.015341863070322",
      "longitude": "-89.98448055681503"
    }
  },
  {
    "service_request": "2024-1105022",
    "request_type": "Property Maintenance",
    "request_reason": "Property Maintenance",
    "date_created": "2024-06-19T13:11:20.000",
    "date_modified": "2024-06-19T13:11:20.000",
    "request_status": "Pending",
    "responsible_agency": "Department of Code Enforcement",
    "final_address": "2600 BLK Piety St",
    "address_councildis": "D",
    "status": "Pending",
    "rowid": "1105022",
    "final_x": "3691314.2466",
    "final_y": "541698.70412",
    "longitude": "-90.03671688201653",
    "latitude": "29.9831818954967",
    "geocoded_column": {
      "latitude": "29.9831818954967",
      "longitude": "-90.03671688201653"
    }
  },
  {
    "service_request": "2024-1105021",
    "request_type": "Trash/Recycling",
    "request_reason": "Replace Trash Cart",
    "date_created": "2024-06-19T13:09:07.000",
    "date_modified": "2024-06-19T13:09:07.000",
    "request_status": "Pending",
    "responsible_agency": "Department of Sanitation",
    "final_address": "5419 Press Dr",
    "address_councildis": "D",
    "status": "Assigned to Contractor",
    "contractor": "IV Waste",
    "rowid": "1105021",
    "final_x": "3689407.23171",
    "final_y": "553273.450967",
    "longitude": "-90.04232829446875",
    "latitude": "30.015067442012434",
    "geocoded_column": {
      "latitude": "30.015067442012434",
      "longitude": "-90.04232829446875"
    }
  },
  {
    "service_request": "2024-1105020",
    "request_type": "Trash/Recycling",
    "request_reason": "Request a Large Item Pick Up",
    "date_created": "2024-06-19T13:02:36.000",
    "date_modified": "2024-06-19T13:02:37.000",
    "request_status": "Pending",
    "responsible_agency": "Department of Sanitation",
    "final_address": "6306 Berkley Dr",
    "address_councildis": "C",
    "status": "Assigned to Contractor",
    "contractor": "Richards Disposal",
    "rowid": "1105020",
    "final_x": "3707413.66097",
    "final_y": "518149.350454",
    "longitude": "-89.98674118830101",
    "latitude": "29.917918892623444",
    "geocoded_column": {
      "latitude": "29.917918892623444",
      "longitude": "-89.98674118830101"
    }
  },
  {
    "service_request": "2024-1105019",
    "request_type": "Trash/Recycling",
    "request_reason": "Order Trash Cart",
    "date_created": "2024-06-19T13:02:25.000",
    "date_modified": "2024-06-19T13:02:26.000",
    "request_status": "Pending",
    "responsible_agency": "Department of Sanitation",
    "final_address": "1887 Crete St",
    "address_councildis": "A",
    "status": "Assigned to Contractor",
    "contractor": "IV Waste",
    "rowid": "1105019",
    "final_x": "3678647.87989",
    "final_y": "543003.861133",
    "longitude": "-90.07667860309999",
    "latitude": "29.987158651795294",
    "geocoded_column": {
      "latitude": "29.987158651795294",
      "longitude": "-90.07667860309999"
    }
  },
  {
    "service_request": "2024-1105018",
    "request_type": "Parks & Parkways",
    "request_reason": "Request Tree Service (Right of Way/Public Property)",
    "date_created": "2024-06-19T12:57:53.000",
    "date_modified": "2024-06-19T12:57:53.000",
    "request_status": "Pending",
    "responsible_agency": "Department of Parks & Parkway",
    "final_address": "1635 Fern St",
    "address_councildis": "A",
    "status": "Pending",
    "rowid": "1105018",
    "final_x": "3663710.17191",
    "final_y": "529074.34176",
    "longitude": "-90.12432593585635",
    "latitude": "29.9492990655053",
    "geocoded_column": {
      "latitude": "29.9492990655053",
      "longitude": "-90.12432593585635"
    }
  },
  {
    "service_request": "2024-1105017",
    "request_type": "Roads/Drainage",
    "request_reason": "Pothole",
    "date_created": "2024-06-19T12:56:20.000",
    "date_modified": "2024-06-19T12:56:20.000",
    "request_status": "Pending",
    "responsible_agency": "Department of Public Works",
    "final_address": "1241 Eleonore St",
    "address_councildis": "A",
    "status": "Pending",
    "rowid": "1105017",
    "final_x": "3665601.32096",
    "final_y": "520595.412792",
    "longitude": "-90.11863851974041",
    "latitude": "29.925929716012785",
    "geocoded_column": {
      "latitude": "29.925929716012785",
      "longitude": "-90.11863851974041"
    }
  },
  {
    "service_request": "2024-1105016",
    "request_type": "Property Maintenance",
    "request_reason": "Property Maintenance",
    "date_created": "2024-06-19T12:55:34.000",
    "date_modified": "2024-06-19T12:55:34.000",
    "request_status": "Pending",
    "responsible_agency": "Department of Code Enforcement",
    "final_address": "3200 BLK Milan St",
    "address_councildis": "B",
    "status": "Pending",
    "rowid": "1105016",
    "final_x": "3671008.98898",
    "final_y": "526807.364152",
    "longitude": "-90.10135723327627",
    "latitude": "29.942851842811134",
    "geocoded_column": {
      "latitude": "29.942851842811134",
      "longitude": "-90.10135723327627"
    }
  },
  {
    "service_request": "2024-1105015",
    "request_type": "Trash/Recycling",
    "request_reason": "Order Recycling Cart",
    "date_created": "2024-06-19T12:29:19.000",
    "date_modified": "2024-06-19T12:29:19.000",
    "request_status": "Pending",
    "responsible_agency": "Department of Sanitation",
    "final_address": "2120 Fern St",
    "address_councildis": "A",
    "status": "Pending",
    "rowid": "1105015",
    "final_x": "3664761.50509",
    "final_y": "530352.027842",
    "longitude": "-90.12096371153841",
    "latitude": "29.952781745004145",
    "geocoded_column": {
      "latitude": "29.952781745004145",
      "longitude": "-90.12096371153841"
    }
  },
  {
    "service_request": "2024-1105014",
    "request_type": "Trash/Recycling",
    "request_reason": "Order Trash Cart",
    "date_created": "2024-06-19T12:28:46.000",
    "date_modified": "2024-06-19T12:28:47.000",
    "request_status": "Pending",
    "responsible_agency": "Department of Sanitation",
    "final_address": "2120 Fern St",
    "address_councildis": "A",
    "status": "Assigned to Contractor",
    "contractor": "IV Waste",
    "rowid": "1105014",
    "final_x": "3664761.50509",
    "final_y": "530352.027842",
    "longitude": "-90.12096371153841",
    "latitude": "29.952781745004145",
    "geocoded_column": {
      "latitude": "29.952781745004145",
      "longitude": "-90.12096371153841"
    }
  },
  {
    "service_request": "2024-1105013",
    "request_type": "Trash/Recycling",
    "request_reason": "Request a Large Item Pick Up",
    "date_created": "2024-06-19T12:24:36.000",
    "date_modified": "2024-06-19T12:24:37.000",
    "request_status": "Pending",
    "responsible_agency": "Department of Sanitation",
    "final_address": "BURGUNDY ST & JOURDAN AVE",
    "address_councildis": "E",
    "status": "Assigned to Contractor",
    "contractor": "Waste Pro",
    "rowid": "1105013",
    "final_x": "3694796.1",
    "final_y": "533725.08",
    "longitude": "-90.02600678568213",
    "latitude": "29.961148478945777",
    "geocoded_column": {
      "latitude": "29.961148478945777",
      "longitude": "-90.02600678568213"
    }
  },
  {
    "service_request": "2024-1105012",
    "request_type": "Abandoned Vehicles",
    "request_reason": "Abandoned/Junk Vehicles",
    "date_created": "2024-06-19T12:23:01.000",
    "date_modified": "2024-06-19T12:23:01.000",
    "request_status": "Pending",
    "responsible_agency": "Department of Public Works",
    "final_address": "1819 Ursulines Ave",
    "address_councildis": "D",
    "status": "Pending",
    "rowid": "1105012",
    "final_x": "3680281.49211",
    "final_y": "536163.485511",
    "longitude": "-90.07175649492206",
    "latitude": "29.968300627193972",
    "geocoded_column": {
      "latitude": "29.968300627193972",
      "longitude": "-90.07175649492206"
    }
  },
  {
    "service_request": "2024-1105011",
    "request_type": "Traffic Signals/Signs/Striping/Streetlights",
    "request_reason": "Street Light Outage/Malfunction",
    "date_created": "2024-06-19T12:16:57.000",
    "date_modified": "2024-06-19T12:16:57.000",
    "request_status": "Pending",
    "responsible_agency": "Department of Public Works",
    "final_address": "3209 Belfort St",
    "address_councildis": "A",
    "status": "Assigned to Contractor",
    "contractor": "Legacy Professional Services",
    "rowid": "1105011",
    "final_x": "3678371.00693",
    "final_y": "542577.353805",
    "longitude": "-90.07756791015004",
    "latitude": "29.985994251796097",
    "geocoded_column": {
      "latitude": "29.985994251796097",
      "longitude": "-90.07756791015004"
    }
  },
  {
    "service_request": "2024-1105010",
    "request_type": "Traffic Signals/Signs/Striping/Streetlights",
    "request_reason": "Street Light Outage/Malfunction",
    "date_created": "2024-06-19T12:09:27.000",
    "date_modified": "2024-06-19T12:09:27.000",
    "request_status": "Pending",
    "responsible_agency": "Department of Public Works",
    "final_address": "2400 BLK Ursulines Ave",
    "address_councildis": "D",
    "status": "Assigned to Contractor",
    "contractor": "Legacy Professional Services",
    "rowid": "1105010",
    "final_x": "3678580.61295",
    "final_y": "537428.212005",
    "longitude": "-90.07708415988107",
    "latitude": "29.971829574703698",
    "geocoded_column": {
      "latitude": "29.971829574703698",
      "longitude": "-90.07708415988107"
    }
  },