[
  {
    "service_request": "2024-1093618",
    "request_type": "Roads/Drainage",
    "request_reason": "Pothole",
    "date_created": "2024-05-15T23:03:30.000",
    "date_modified": "2024-05-15T23:03:30.000",
    "request_status": "Pending",
    "responsible_agency": "Department of Public Works",
    "final_address": "1200 BLK Amelia St",
    "address_councildis": "B",
    "status": "Pending",
    "rowid": "1093618",
    "final_x": "3673521.46558",
    "final_y": "519660.816109",
    "longitude": "-90.09366883741032",
    "latitude": "29.923126634409968",
    "geocoded_column": {
      "latitude": "29.923126634409968",
      "longitude": "-90.09366883741032"
    }
  },
  {
    "service_request": "2024-1093617",
    "request_type": "Property Maintenance",
    "request_reason": "Property Maintenance",
    "date_created": "2024-05-15T21:49:56.000",
    "date_modified": "2024-05-15T21:49:56.000",
    "request_status": "Pending",
    "responsible_agency": "Department of Code Enforcement",
    "final_address": "217 Norland Ave",
    "address_councildis": "C",
    "status": "Pending",
    "rowid": "1093617",
    "final_x": "3706789.97911",
    "final_y": "520320.257784",
    "longitude": "-89.98862937691645",
    "latitude": "29.923908270973175",
    "geocoded_column": {
      "latitude": "29.923908270973175",
      "longitude": "-89.98862937691645"
    }
  },
  {
    "service_request": "2024-1093616",
    "request_type": "Healthy Homes",
    "request_reason": "Healthy Homes",
    "date_created": "2024-05-15T21:44:58.000",
    "date_modified": "2024-05-15T21:44:58.000",
    "request_status": "Pending",
    "responsible_agency": "Department of Code Enforcement",
    "final_address": "3935 Tchoupitoulas St A",
    "address_councildis": "B",
    "status": "Pending",
    "rowid": "1093616",
    "final_x": "3673130.46984",
    "final_y": "517700.940598",
    "longitude": "-90.09496992433752",
    "latitude": "29.917749228079384",
    "geocoded_column": {
      "latitude": "29.917749228079384",
      "longitude": "-90.09496992433752"
    }
  },
  {
    "service_request": "2024-1093614",
    "request_type": "Roads/Drainage",
    "request_reason": "Pothole",
    "date_created": "2024-05-15T21:35:06.000",
    "date_modified": "2024-05-15T21:35:06.000",
    "request_status": "Pending",
    "responsible_agency": "Department of Public Works",
    "final_address": "1422 General Pershing St",
    "address_councildis": "B",
    "status": "Pending",
    "rowid": "1093614",
    "final_x": "3671239.44116",
    "final_y": "520532.324984",
    "longitude": "-90.10084273889387",
    "latitude": "29.925590694745555",
    "geocoded_column": {
      "latitude": "29.925590694745555",
      "longitude": "-90.10084273889387"
    }
  },
  {
    "service_request": "2024-1093613",
    "request_type": "Property Maintenance",
    "request_reason": "Property Maintenance",
    "date_created": "2024-05-15T21:32:53.000",
    "date_modified": "2024-05-15T21:32:53.000",
    "request_status": "Pending",
    "responsible_agency": "Department of Code Enforcement",
    "final_address": "7651 Pineridge St",
    "address_councildis": "E",
    "status": "Pending",
    "rowid": "1093613",
    "final_x": "3718901.22476",
    "final_y": "572184.744489",
    "longitude": "-89.9484202604737",
    "latitude": "30.06611910018317",
    "geocoded_column": {
      "latitude": "30.06611910018317",
      "longitude": "-89.9484202604737"
    }
  },
  {
    "service_request": "2024-1093612",
    "request_type": "Abandoned Vehicles",
    "request_reason": "Abandoned/Junk Vehicles",
    "date_created": "2024-05-15T21:29:23.000",
    "date_modified": "2024-05-15T21:29:23.000",
    "request_status": "Pending",
    "responsible_agency": "Department of Public Works",
    "final_address": "7651 Pineridge St",
    "address_councildis": "E",
    "status": "Pending",
    "rowid": "1093612",
    "final_x": "3718901.22476",
    "final_y": "572184.744489",
    "longitude": "-89.9484202604737",
    "latitude": "30.06611910018317",
    "geocoded_column": {
      "latitude": "30.06611910018317",
      "longitude": "-89.9484202604737"
    }
  },
  {
    "service_request": "2024-1093611",
    "request_type": "Abandoned Vehicles",
    "request_reason": "Abandoned/Junk Vehicles",
    "date_created": "2024-05-15T21:28:18.000",
    "date_modified": "2024-05-15T21:28:18.000",
    "request_status": "Pending",
    "responsible_agency": "Department of Public Works",
    "final_address": "7651 Pineridge St",
    "address_councildis": "E",
    "status": "Pending",
    "rowid": "1093611",
    "final_x": "3718901.22476",
    "final_y": "572184.744489",
    "longitude": "-89.9484202604737",
    "latitude": "30.06611910018317",
    "geocoded_column": {
      "latitude": "30.06611910018317",
      "longitude": "-89.9484202604737"
    }
  },
  {
    "service_request": "2024-1093610",
    "request_type": "Trash/Recycling",
    "request_reason": "Replace Trash Cart",
    "date_created": "2024-05-15T21:27:54.000",
    "date_modified": "2024-05-15T21:27:54.000",
    "request_status": "Pending",
    "responsible_agency": "Department of Sanitation",
    "final_address": "1500 Cadiz St",
    "address_councildis": "B",
    "status": "Assigned to Contractor",
    "contractor": "IV Waste",
    "rowid": "1093610",
    "final_x": "3670086.12718",
    "final_y": "520535.261496",
    "longitude": "-90.10448330868064",
    "latitude": "29.925632829375907",
    "geocoded_column": {
      "latitude": "29.925632829375907",
      "longitude": "-90.10448330868064"
    }
  },
  {
    "service_request": "2024-1093609",
    "request_type": "Trash/Recycling",
    "request_reason": "Order Trash Cart",
    "date_created": "2024-05-15T20:59:35.000",
    "date_modified": "2024-05-15T20:59:35.000",
    "request_status": "Pending",
    "responsible_agency": "Department of Sanitation",
    "final_address": "3214 Second St",
    "address_councildis": "B",
    "status": "Assigned to Contractor",
    "contractor": "IV Waste",
    "rowid": "1093609",
    "final_x": "3673431.46657",
    "final_y": "527930.323967",
    "longitude": "-90.09367051956043",
    "latitude": "29.945867774098463",
    "geocoded_column": {
      "latitude": "29.945867774098463",
      "longitude": "-90.09367051956043"
    }
  },
  {
    "service_request": "2024-1093608",
    "request_type": "Trash/Recycling",
    "request_reason": "Order Trash Cart",
    "date_created": "2024-05-15T20:57:09.000",
    "date_modified": "2024-05-15T20:57:10.000",
    "request_status": "Pending",
    "responsible_agency": "Department of Sanitation",
    "final_address": "3214 Second St",
    "address_councildis": "B",
    "status": "Assigned to Contractor",
    "contractor": "IV Waste",
    "rowid": "1093608",
    "final_x": "3673431.46657",
    "final_y": "527930.323967",
    "longitude": "-90.09367051956043",
    "latitude": "29.945867774098463",
    "geocoded_column": {
      "latitude": "29.945867774098463",
      "longitude": "-90.09367051956043"
    }
  },
  {
    "service_request": "2024-1093607",
    "request_type": "Trash/Recycling",
    "request_reason": "Order Recycling Cart",
    "date_created": "2024-05-15T20:56:41.000",
    "date_modified": "2024-05-15T20:56:41.000",
    "request_status": "Pending",
    "responsible_agency": "Department of Sanitation",
    "final_address": "714 Soraparu St",
    "address_councildis": "B",
    "status": "Pending",
    "rowid": "1093607",
    "final_x": "3679031.87925",
    "final_y": "520551.76076",
    "longitude": "-90.07624372206739",
    "latitude": "29.92541136702356",
    "geocoded_column": {
      "latitude": "29.92541136702356",
      "longitude": "-90.07624372206739"
    }
  },
  {
    "service_request": "2024-1093606",
    "request_type": "Trash/Recycling",
    "request_reason": "Order Trash Cart",
    "date_created": "2024-05-15T20:55:47.000",
    "date_modified": "2024-05-15T20:55:48.000",
    "request_status": "Pending",
    "responsible_agency": "Department of Sanitation",
    "final_address": "3214 Second St",
    "address_councildis": "B",
    "status": "Assigned to Contractor",
    "contractor": "IV Waste",
    "rowid": "1093606",
    "final_x": "3673431.46657",
    "final_y": "527930.323967",
    "longitude": "-90.09367051956043",
    "latitude": "29.945867774098463",
    "geocoded_column": {
      "latitude": "29.945867774098463",
      "longitude": "-90.09367051956043"
    }
  },
  {
    "service_request": "2024-1093605",
    "request_type": "Trash/Recycling",
    "request_reason": "Request a Large Item Pick Up",
    "date_created": "2024-05-15T20:31:18.000",
    "date_modified": "2024-05-15T20:31:19.000",
    "request_status": "Pending",
    "responsible_agency": "Department of Sanitation",
    "final_address": "4601 Murano Rd",
    "address_councildis": "E",
    "status": "Assigned to Contractor",
    "contractor": "Waste Pro",
    "rowid": "1093605",
    "final_x": "3761457.84086",
    "final_y": "573989.479402",
    "longitude": "-89.81382068365772",
    "latitude": "30.06959832373683",
    "geocoded_column": {
      "latitude": "30.06959832373683",
      "longitude": "-89.81382068365772"
    }
  },
  {
    "service_request": "2024-1093604",
    "request_type": "Property Maintenance",
    "request_reason": "Property Maintenance",
    "date_created": "2024-05-15T20:22:09.000",
    "date_modified": "2024-05-15T20:22:09.000",
    "request_status": "Pending",
    "responsible_agency": "Department of Code Enforcement",
    "final_address": "7600 Burke Ave",
    "address_councildis": "E",
    "status": "Pending",
    "rowid": "1093604",
    "final_x": "3705484.36708",
    "final_y": "562766.60688",
    "longitude": "-89.99118126094355",
    "latitude": "30.040662057072037",
    "geocoded_column": {
      "latitude": "30.040662057072037",
      "longitude": "-89.99118126094355"
    }
  },
  {
    "service_request": "2024-1093603",
    "request_type": "Property Maintenance",
    "request_reason": "Property Maintenance",
    "date_created": "2024-05-15T20:20:45.000",
    "date_modified": "2024-05-15T20:20:45.000",
    "request_status": "Pending",
    "responsible_agency": "Department of Code Enforcement",
    "final_address": "7600 Burke Ave",
    "address_councildis": "E",
    "status": "Pending",
    "rowid": "1093603",
    "final_x": "3705484.36708",
    "final_y": "562766.60688",
    "longitude": "-89.99118126094355",
    "latitude": "30.040662057072037",
    "geocoded_column": {
      "latitude": "30.040662057072037",
      "longitude": "-89.99118126094355"
    }
  },
  {
    "service_request": "2024-1093602",
    "request_type": "Property Maintenance",
    "request_reason": "Property Maintenance",
    "date_created": "2024-05-15T20:17:34.000",
    "date_modified": "2024-05-15T20:17:34.000",
    "request_status": "Pending",
    "responsible_agency": "Department of Code Enforcement",
    "final_address": "3214 Baudin St",
    "address_councildis": "B",
    "status": "Pending",
    "rowid": "1093602",
    "final_x": "3672739.57025",
    "final_y": "535006.919302",
    "longitude": "-90.09561372455828",
    "latitude": "29.965346627099727",
    "geocoded_column": {
      "latitude": "29.965346627099727",
      "longitude": "-90.09561372455828"
    }
  },
  {
    "service_request": "2024-1093601",
    "request_type": "Trash/Recycling",
    "request_reason": "Illegal Dumping",
    "date_created": "2024-05-15T20:11:51.000",
    "date_modified": "2024-05-15T20:11:51.000",
    "request_status": "Pending",
    "responsible_agency": "Department of Sanitation",
    "final_address": "Banks Street & South Norman C Francis Parkway",
    "address_councildis": "B",
    "status": "Pending",
    "rowid": "1093601",
    "final_x": "3672544.29383",
    "final_y": "535699.245255",
    "longitude": "-90.09620679415076",
    "latitude": "29.967256089487584",
    "geocoded_column": {
      "latitude": "29.967256089487584",
      "longitude": "-90.09620679415076"
    }
  },
  {
    "service_request": "2024-1093600",
    "request_type": "Property Maintenance",
    "request_reason": "Property Maintenance",
    "date_created": "2024-05-15T20:09:18.000",
    "date_modified": "2024-05-15T20:09:18.000",
    "request_status": "Pending",
    "responsible_agency": "Department of Code Enforcement",
    "final_address": "7600 Burke Ave",
    "address_councildis": "E",
    "status": "Pending",
    "rowid": "1093600",
    "final_x": "3705484.36708",
    "final_y": "562766.60688",
    "longitude": "-89.99118126094355",
    "latitude": "30.040662057072037",
    "geocoded_column": {
      "latitude": "30.040662057072037",
      "longitude": "-89.99118126094355"
    }
  },
  {
    "service_request": "2024-1093599",
    "request_type": "Trash/Recycling",
    "request_reason": "Request a Large Item Pick Up",
    "date_created": "2024-05-15T20:07:41.000",
    "date_modified": "2024-05-15T20:07:41.000",
    "request_status": "Pending",
    "responsible_agency": "Department of Sanitation",
    "final_address": "7703 Berg Rd",
    "address_councildis": "E",
    "status": "Assigned to Contractor",
    "contractor": "Waste Pro",
    "rowid": "1093599",
    "final_x": "3711766.37208",
    "final_y": "567061.684196",
    "longitude": "-89.97116684755179",
    "latitude": "30.05226796486996",
    "geocoded_column": {
      "latitude": "30.05226796486996",
      "longitude": "-89.97116684755179"
    }
  },
  {
    "service_request": "2024-1093598",
    "request_type": "Trash/Recycling",
    "request_reason": "Illegal Dumping",
    "date_created": "2024-05-15T20:01:57.000",
    "date_modified": "2024-05-15T20:01:57.000",
    "request_status": "Pending",
    "responsible_agency": "Department of Sanitation",
    "final_address": "3101 Tulane Ave",
    "address_councildis": "B",
    "status": "Pending",
    "rowid": "1093598",
    "final_x": "3672852.48462",
    "final_y": "534577.695045",
    "longitude": "-90.09527179139019",
    "latitude": "29.964163050199858",
    "geocoded_column": {
      "latitude": "29.964163050199858",
      "longitude": "-90.09527179139019"
    }
  },
  {
    "service_request": "2024-1093597",
    "request_type": "Roads/Drainage",
    "request_reason": "Pothole",
    "date_created": "2024-05-15T20:00:50.000",
    "date_modified": "2024-05-15T20:00:50.000",
    "request_status": "Pending",
    "responsible_agency": "Department of Public Works",
    "final_address": "1000 BLK Dufossat St",
    "address_councildis": "B",
    "status": "Pending",
    "rowid": "1093597",
    "final_x": "3668061.04672",
    "final_y": "519161.825965",
    "longitude": "-90.11092214433779",
    "latitude": "29.921915877857582",
    "geocoded_column": {
      "latitude": "29.921915877857582",
      "longitude": "-90.11092214433779"
    }
  },
  {
    "service_request": "2024-1093596",
    "request_type": "Roads/Drainage",
    "request_reason": "Pothole",
    "date_created": "2024-05-15T19:41:53.000",
    "date_modified": "2024-05-15T19:41:53.000",
    "request_status": "Pending",
    "responsible_agency": "Department of Public Works",
    "final_address": "4216 Chestnut St",
    "address_councildis": "B",
    "status": "Pending",
    "rowid": "1093596",
    "final_x": "3671574.31393",
    "final_y": "519539.203703",
    "longitude": "-90.09981939416457",
    "latitude": "29.922850019854593",
    "geocoded_column": {
      "latitude": "29.922850019854593",
      "longitude": "-90.09981939416457"
    }
  },
  {
    "service_request": "2024-1093595",
    "request_type": "Trash/Recycling",
    "request_reason": "Repair Trash Cart",
    "date_created": "2024-05-15T19:26:36.000",
    "date_modified": "2024-05-15T19:26:36.000",
    "request_status": "Pending",
    "responsible_agency": "Department of Sanitation",
    "final_address": "2120 Jena St",
    "address_councildis": "B",
    "status": "Assigned to Contractor",
    "contractor": "IV Waste",
    "rowid": "1093595",
    "final_x": "3670171.16212",
    "final_y": "522776.829754",
    "longitude": "-90.10413897163542",
    "latitude": "29.931793917430884",
    "geocoded_column": {
      "latitude": "29.931793917430884",
      "longitude": "-90.10413897163542"
    }
  },
  {
    "service_request": "2024-1093594",
    "request_type": "Trash/Recycling",
    "request_reason": "Request a Large Item Pick Up",
    "date_created": "2024-05-15T19:09:14.000",
    "date_modified": "2024-05-15T19:09:15.000",
    "request_status": "Pending",
    "responsible_agency": "Department of Sanitation",
    "final_address": "2016 Foucher St",
    "address_councildis": "B",
    "status": "Assigned to Contractor",
    "contractor": "IV Waste",
    "rowid": "1093594",
    "final_x": "3672932.01339",
    "final_y": "522777.443642",
    "longitude": "-90.09542323015846",
    "latitude": "29.93171387992932",
    "geocoded_column": {
      "latitude": "29.93171387992932",
      "longitude": "-90.09542323015846"
    }
  },
  {
    "service_request": "2024-1093593",
    "request_type": "Abandoned Vehicles",
    "request_reason": "Abandoned/Junk Vehicles",
    "date_created": "2024-05-15T19:03:49.000",
    "date_modified": "2024-05-15T19:03:49.000",
    "request_status": "Pending",
    "responsible_agency": "Department of Public Works",
    "final_address": "1933 Ursulines Ave",
    "address_councildis": "D",
    "status": "Pending",
    "rowid": "1093593",
    "final_x": "3679960.69314",
    "final_y": "536429.849863",
    "longitude": "-90.0727603381234",
    "latitude": "29.96904274575226",
    "geocoded_column": {
      "latitude": "29.96904274575226",
      "longitude": "-90.0727603381234"
    }
  },
  {
    "service_request": "2024-1093592",
    "request_type": "Trash/Recycling",
    "request_reason": "Request a Large Item Pick Up",
    "date_created": "2024-05-15T19:03:42.000",
    "date_modified": "2024-05-15T19:03:43.000",
    "request_status": "Pending",
    "responsible_agency": "Department of Sanitation",
    "final_address": "322 Alix St",
    "address_councildis": "C",
    "status": "Assigned to Contractor",
    "contractor": "Richards Disposal",
    "rowid": "1093592",
    "final_x": "3686540.80905",
    "final_y": "530085.101249",
    "longitude": "-90.05220395578007",
    "latitude": "29.951396189025203",
    "geocoded_column": {
      "latitude": "29.951396189025203",
      "longitude": "-90.05220395578007"
    }
  },
  {
    "service_request": "2024-1093591",
    "request_type": "Trash/Recycling",
    "request_reason": "Request a Large Item Pick Up",
    "date_created": "2024-05-15T18:59:16.000",
    "date_modified": "2024-05-15T18:59:16.000",
    "request_status": "Pending",
    "responsible_agency": "Department of Sanitation",
    "final_address": "320 Alix St",
    "address_councildis": "C",
    "status": "Assigned to Contractor",
    "contractor": "Richards Disposal",
    "rowid": "1093591",
    "final_x": "3686532.61436",
    "final_y": "530078.590081",
    "longitude": "-90.05223006039935",
    "latitude": "29.95137853746635",
    "geocoded_column": {
      "latitude": "29.95137853746635",
      "longitude": "-90.05223006039935"
    }
  },
  {
    "service_request": "2024-1093590",
    "request_type": "Trash/Recycling",
    "request_reason": "Replace Recycling Cart",
    "date_created": "2024-05-15T18:54:37.000",
    "date_modified": "2024-05-15T18:54:37.000",
    "request_status": "Pending",
    "responsible_agency": "Department of Sanitation",
    "final_address": "4975 St Roch Ave",
    "address_councildis": "D",
    "status": "Pending",
    "rowid": "1093590",
    "final_x": "3685315.14409",
    "final_y": "551416.236181",
    "longitude": "-90.05532277515235",
    "latitude": "30.01008691767716",
    "geocoded_column": {
      "latitude": "30.01008691767716",
      "longitude": "-90.05532277515235"
    }
  },
  {
    "service_request": "2024-1093589",
    "request_type": "Trash/Recycling",
    "request_reason": "Repair Trash Cart",
    "date_created": "2024-05-15T18:52:27.000",
    "date_modified": "2024-05-15T18:52:28.000",
    "request_status": "Pending",
    "responsible_agency": "Department of Sanitation",
    "final_address": "2409 Peniston St",
    "address_councildis": "B",
    "status": "Assigned to Contractor",
    "contractor": "IV Waste",
    "rowid": "1093589",
    "final_x": "3672234.75726",
    "final_y": "523986.897148",
    "longitude": "-90.0975832169427",
    "latitude": "29.935060180592025",
    "geocoded_column": {
      "latitude": "29.935060180592025",
      "longitude": "-90.0975832169427"
    }
  },
  {
    "service_request": "2024-1093588",
    "request_type": "Parks & Parkways",
    "request_reason": "Request Tree Service (Right of Way/Public Property)",
    "date_created": "2024-05-15T18:50:31.000",
    "date_modified": "2024-05-15T18:50:31.000",
    "request_status": "Pending",
    "responsible_agency": "Department of Parks & Parkway",
    "final_address": "4612 Prytania St",
    "address_councildis": "B",
    "status": "Pending",
    "rowid": "1093588",
    "final_x": "3670032.88398",
    "final_y": "520173.543864",
    "longitude": "-90.1046636254298",
    "latitude": "29.924639791020127",
    "geocoded_column": {
      "latitude": "29.924639791020127",
      "longitude": "-90.1046636254298"
    }
  },
  {
    "service_request": "2024-1093587",
    "request_type": "Trash/Recycling",
    "request_reason": "Request a Large Item Pick Up",
    "date_created": "2024-05-15T18:41:59.000",
    "date_modified": "2024-05-15T18:41:59.000",
    "request_status": "Pending",
    "responsible_agency": "Department of Sanitation",
    "final_address": "5309 Dauphine St",
    "address_councildis": "E",
    "status": "Assigned to Contractor",
    "contractor": "Waste Pro",
    "rowid": "1093587",
    "final_x": "3696565.22755",
    "final_y": "532948.17914",
    "longitude": "-90.02044834105651",
    "latitude": "29.958956657194236",
    "geocoded_column": {
      "latitude": "29.958956657194236",
      "longitude": "-90.02044834105651"
    }
  },
  {
    "service_request": "2024-1093586",
    "request_type": "Abandoned Vehicles",
    "request_reason": "Abandoned/Junk Vehicles",
    "date_created": "2024-05-15T18:17:47.000",
    "date_modified": "2024-05-15T18:17:47.000",
    "request_status": "Pending",
    "responsible_agency": "Department of Public Works",
    "final_address": "1200 BLK Franklin Ave",
    "address_councildis": "C",
    "status": "Pending",
    "rowid": "1093586",
    "final_x": "3687163.19847",
    "final_y": "536941.270721",
    "longitude": "-90.04999629831718",
    "latitude": "29.970229134559762",
    "geocoded_column": {
      "latitude": "29.970229134559762",
      "longitude": "-90.04999629831718"
    }
  },
  {
    "service_request": "2024-1093585",
    "request_type": "Abandoned Vehicles",
    "request_reason": "Abandoned/Junk Vehicles",
    "date_created": "2024-05-15T18:17:12.000",
    "date_modified": "2024-05-15T18:17:12.000",
    "request_status": "Pending",
    "responsible_agency": "Department of Public Works",
    "final_address": "1200 BLK Franklin Ave",
    "address_councildis": "C",
    "status": "Pending",
    "rowid": "1093585",
    "final_x": "3687163.19847",
    "final_y": "536941.270721",
    "longitude": "-90.04999629831718",
    "latitude": "29.970229134559762",
    "geocoded_column": {
      "latitude": "29.970229134559762",
      "longitude": "-90.04999629831718"
    }
  },
  {
    "service_request": "2024-1093584",
    "request_type": "Abandoned Vehicles",
    "request_reason": "Abandoned/Junk Vehicles",
    "date_created": "2024-05-15T18:10:29.000",
    "date_modified": "2024-05-15T18:10:29.000",
    "request_status": "Pending",
    "responsible_agency": "Department of Public Works",
    "final_address": "1215 Frenchmen St",
    "address_councildis": "C",
    "status": "Pending",
    "rowid": "1093584",
    "final_x": "3684579.52143",
    "final_y": "536768.65172",
    "longitude": "-90.05816187812246",
    "latitude": "29.969833806330552",
    "geocoded_column": {
      "latitude": "29.969833806330552",
      "longitude": "-90.05816187812246"
    }
  },
  {
    "service_request": "2024-1093583",
    "request_type": "Roads/Drainage",
    "request_reason": "Catch Basin - Clogged",
    "date_created": "2024-05-15T18:07:10.000",
    "date_modified": "2024-05-15T18:07:10.000",
    "request_status": "Pending",
    "responsible_agency": "Department of Public Works",
    "final_address": "2726 Prytania St",
    "address_councildis": "B",
    "status": "Pending",
    "rowid": "1093583",
    "final_x": "3676306.64277",
    "final_y": "522107.487226",
    "longitude": "-90.08479294057153",
    "latitude": "29.92977103935137",
    "geocoded_column": {
      "latitude": "29.92977103935137",
      "longitude": "-90.08479294057153"
    }
  },
  {
    "service_request": "2024-1093582",
    "request_type": "Traffic Signals/Signs/Striping/Streetlights",
    "request_reason": "Request for Traffic Calming due to Speeding",
    "date_created": "2024-05-15T17:36:22.000",
    "date_modified": "2024-05-15T17:36:22.000",
    "request_status": "Pending",
    "responsible_agency": "Department of Public Works",
    "final_address": "CASTIGLIONE ST & GENTILLY BLVD",
    "address_councildis": "A",
    "status": "Pending",
    "rowid": "1093582",
    "final_x": "3678782.0",
    "final_y": "542732.08",
    "longitude": "-90.07626438353645",
    "latitude": "29.986407303423068",
    "geocoded_column": {
      "latitude": "29.986407303423068",
      "longitude": "-90.07626438353645"
    }
  },
  {
    "service_request": "2024-1093581",
    "request_type": "Utility Poles",
    "request_reason": "Utility Pole Leaning",
    "date_created": "2024-05-15T17:29:33.000",
    "date_modified": "2024-05-15T17:29:37.000",
    "request_status": "Pending",
    "responsible_agency": "Utility Company Collective",
    "final_address": "3108 Dumaine St",
    "address_councildis": "A",
    "status": "Pending",
    "rowid": "1093581",
    "final_x": "3675607.90651",
    "final_y": "538661.464457",
    "longitude": "-90.08643005984479",
    "latitude": "29.9753098785231",
    "geocoded_column": {
      "latitude": "29.9753098785231",
      "longitude": "-90.08643005984479"
    }
  },
  {
    "service_request": "2024-1093580",
    "request_type": "Trash/Recycling",
    "request_reason": "Return Trash Cart",
    "date_created": "2024-05-15T17:28:47.000",
    "date_modified": "2024-05-15T17:28:48.000",
    "request_status": "Pending",
    "responsible_agency": "Department of Sanitation",
    "final_address": "4521 LaSalle St",
    "address_councildis": "B",
    "status": "Assigned to Contractor",
    "contractor": "IV Waste",
    "rowid": "1093580",
    "final_x": "3669978.90036",
    "final_y": "523691.613435",
    "longitude": "-90.10471495755797",
    "latitude": "29.934314948470597",
    "geocoded_column": {
      "latitude": "29.934314948470597",
      "longitude": "-90.10471495755797"
    }
  },
  {
    "service_request": "2024-1093579",
    "request_type": "Property Maintenance",
    "request_reason": "Property Maintenance",
    "date_created": "2024-05-15T17:24:51.000",
    "date_modified": "2024-05-15T17:24:51.000",
    "request_status": "Pending",
    "responsible_agency": "Department of Code Enforcement",
    "final_address": "5042 Toulon St",
    "address_councildis": "E",
    "status": "Pending",
    "rowid": "1093579",
    "final_x": "3723591.50022",
    "final_y": "561562.215583",
    "longitude": "-89.93400391160907",
    "latitude": "30.036754867934103",
    "geocoded_column": {
      "latitude": "30.036754867934103",
      "longitude": "-89.93400391160907"
    }
  },
  {
    "service_request": "2024-1093578",
    "request_type": "Trash/Recycling",
    "request_reason": "Request a Large Item Pick Up",
    "date_created": "2024-05-15T17:18:01.000",
    "date_modified": "2024-05-15T17:18:02.000",
    "request_status": "Pending",
    "responsible_agency": "Department of Sanitation",
    "final_address": "755 Jewel St",
    "address_councildis": "D",
    "status": "Assigned to Contractor",
    "contractor": "IV Waste",
    "rowid": "1093578",
    "final_x": "3669855.89735",
    "final_y": "555970.782361",
    "longitude": "-90.10400998600407",
    "latitude": "30.023075350535507",
    "geocoded_column": {
      "latitude": "30.023075350535507",
      "longitude": "-90.10400998600407"
    }
  },
  {
    "service_request": "2024-1093577",
    "request_type": "Trash/Recycling",
    "request_reason": "Replace Trash Cart",
    "date_created": "2024-05-15T17:12:08.000",
    "date_modified": "2024-05-15T17:12:09.000",
    "request_status": "Pending",
    "responsible_agency": "Department of Sanitation",
    "final_address": "6524 Vicksburg St",
    "address_councildis": "A",
    "status": "Assigned to Contractor",
    "contractor": "IV Waste",
    "rowid": "1093577",
    "final_x": "3669106.19745",
    "final_y": "550880.881557",
    "longitude": "-90.10655107047884",
    "latitude": "30.00910201790902",
    "geocoded_column": {
      "latitude": "30.00910201790902",
      "longitude": "-90.10655107047884"
    }
  },
  {
    "service_request": "2024-1093576",
    "request_type": "Roads/Drainage",
    "request_reason": "Pothole",
    "date_created": "2024-05-15T17:11:06.000",
    "date_modified": "2024-05-15T17:11:06.000",
    "request_status": "Pending",
    "responsible_agency": "Department of Public Works",
    "final_address": "6466 Memphis St",
    "address_councildis": "A",
    "status": "Pending",
    "rowid": "1093576",
    "final_x": "3669393.52993",
    "final_y": "550494.024148",
    "longitude": "-90.1056563827353",
    "latitude": "30.00802983382561",
    "geocoded_column": {
      "latitude": "30.00802983382561",
      "longitude": "-90.1056563827353"
    }
  },
  {
    "service_request": "2024-1093575",
    "request_type": "Trash/Recycling",
    "request_reason": "Request a Large Item Pick Up",
    "date_created": "2024-05-15T17:00:22.000",
    "date_modified": "2024-05-15T17:00:23.000",
    "request_status": "Pending",
    "responsible_agency": "Department of Sanitation",
    "final_address": "8524 Huntington Park Dr",
    "address_councildis": "E",
    "status": "Assigned to Contractor",
    "contractor": "Waste Pro",
    "rowid": "1093575",
    "final_x": "3705275.10027",
    "final_y": "560077.547869",
    "longitude": "-89.99194209562998",
    "latitude": "30.033274941454422",
    "geocoded_column": {
      "latitude": "30.033274941454422",
      "longitude": "-89.99194209562998"
    }
  },
  {
    "service_request": "2024-1093574",
    "request_type": "Property Maintenance",
    "request_reason": "Property Maintenance",
    "date_created": "2024-05-15T16:51:11.000",
    "date_modified": "2024-05-15T16:51:57.000",
    "request_status": "Pending",
    "responsible_agency": "Department of Code Enforcement",
    "final_address": "2628 Almonaster Ave",
    "address_councildis": "D",
    "status": "Pending",
    "rowid": "1093574",
    "final_x": "3688460.57846",
    "final_y": "542375.304717",
    "longitude": "-90.0457061985007",
    "latitude": "29.985130788273224",
    "geocoded_column": {
      "latitude": "29.985130788273224",
      "longitude": "-90.0457061985007"
    }
  },
  {
    "service_request": "2024-1093573",
    "request_type": "Traffic Signals/Signs/Striping/Streetlights",
    "request_reason": "Traffic Sign Missing/Damaged",
    "date_created": "2024-05-15T16:50:30.000",
    "date_modified": "2024-05-15T16:50:31.000",
    "request_status": "Pending",
    "responsible_agency": "Department of Public Works",
    "final_address": "I 10 W & PONTCHARTRAIN BLVD",
    "address_councildis": "A",
    "status": "Pending",
    "rowid": "1093573",
    "final_x": "3666016.1",
    "final_y": "544801.78",
    "longitude": "-90.11651772422064",
    "latitude": "29.99247719031937",
    "geocoded_column": {
      "latitude": "29.99247719031937",
      "longitude": "-90.11651772422064"
    }
  },
  {
    "service_request": "2024-1093572",
    "request_type": "Traffic Signals/Signs/Striping/Streetlights",
    "request_reason": "Traffic Signal Malfunctioning/Damaged",
    "date_created": "2024-05-15T16:46:05.000",
    "date_modified": "2024-05-15T16:46:06.000",
    "request_status": "Pending",
    "responsible_agency": "Department of Public Works",
    "final_address": "S CLAIBORNE AVE & GRAVIER ST & S CLAIBORNE AV OVERPASS",
    "address_councildis": "B",
    "status": "Pending",
    "rowid": "1093572",
    "final_x": "3677541.3",
    "final_y": "531544.08",
    "longitude": "-90.08056964561153",
    "latitude": "29.955681496604203",
    "geocoded_column": {
      "latitude": "29.955681496604203",
      "longitude": "-90.08056964561153"
    }
  },
  {
    "service_request": "2024-1093571",
    "request_type": "Trash/Recycling",
    "request_reason": "Request a Large Item Pick Up",
    "date_created": "2024-05-15T16:41:38.000",
    "date_modified": "2024-05-15T16:42:13.000",
    "request_status": "Pending",
    "responsible_agency": "Department of Sanitation",
    "final_address": "11251 S Parkwood Ct",
    "address_councildis": "E",
    "status": "Assigned to Contractor",
    "contractor": "Waste Pro",
    "rowid": "1093571",
    "final_x": "3716809.82904",
    "final_y": "559174.723612",
    "longitude": "-89.95552590628999",
    "latitude": "30.03041620408868",
    "geocoded_column": {
      "latitude": "30.03041620408868",
      "longitude": "-89.95552590628999"
    }
  },
  {
    "service_request": "2024-1093570",
    "request_type": "Abandoned Vehicles",
    "request_reason": "Abandoned/Junk Vehicles",
    "date_created": "2024-05-15T16:41:29.000",
    "date_modified": "2024-05-15T16:41:29.000",
    "request_status": "Pending",
    "responsible_agency": "Department of Public Works",
    "final_address": "2747 Bay St",
    "address_councildis": "D",
    "status": "Pending",
    "rowid": "1093570",
    "final_x": "3688359.35075",
    "final_y": "545314.395151",
    "longitude": "-90.04592163005296",
    "latitude": "29.993215361443266",
    "geocoded_column": {
      "latitude": "29.993215361443266",
      "longitude": "-90.04592163005296"
    }
  },
  {
    "service_request": "2024-1093569",
    "request_type": "Trash/Recycling",
    "request_reason": "Request a Large Item Pick Up",
    "date_created": "2024-05-15T16:38:45.000",
    "date_modified": "2024-05-15T16:38:46.000",
    "request_status": "Pending",
    "responsible_agency": "Department of Sanitation",
    "final_address": "634 Flood St",
    "address_councildis": "E",
    "status": "Assigned to Contractor",
    "contractor": "Waste Pro",
    "rowid": "1093569",
    "final_x": "3697238.05021",
    "final_y": "532287.478339",
    "longitude": "-90.0183476905453",
    "latitude": "29.957118749036045",
    "geocoded_column": {
      "latitude": "29.957118749036045",
      "longitude": "-90.0183476905453"
    }
  },
  {
    "service_request": "2024-1093568",
    "request_type": "Parks & Parkways",
    "request_reason": "Request Tree Service (Right of Way/Public Property)",
    "date_created": "2024-05-15T16:37:26.000",
    "date_modified": "2024-05-15T16:37:26.000",
    "request_status": "Pending",
    "responsible_agency": "Department of Parks & Parkway",
    "final_address": "2122 Franklin Ave",
    "address_councildis": "D",
    "status": "Pending",
    "rowid": "1093568",
    "final_x": "3687520.75254",
    "final_y": "540418.263051",
    "longitude": "-90.04874400403799",
    "latitude": "29.979778624182334",
    "geocoded_column": {
      "latitude": "29.979778624182334",
      "longitude": "-90.04874400403799"
    }
  },
  {
    "service_request": "2024-1093567",
    "request_type": "Trash/Recycling",
    "request_reason": "Replace Trash Cart",
    "date_created": "2024-05-15T16:35:06.000",
    "date_modified": "2024-05-15T16:35:07.000",
    "request_status": "Pending",
    "responsible_agency": "Department of Sanitation",
    "final_address": "1526 Short St",
    "address_councildis": "A",
    "status": "Assigned to Contractor",
    "contractor": "IV Waste",
    "rowid": "1093567",
    "final_x": "3663123.7209",
    "final_y": "529037.102208",
    "longitude": "-90.12617886955402",
    "latitude": "29.949213670102655",
    "geocoded_column": {
      "latitude": "29.949213670102655",
      "longitude": "-90.12617886955402"
    }
  },
  {
    "service_request": "2024-1093566",
    "request_type": "Trash/Recycling",
    "request_reason": "Request a Large Item Pick Up",
    "date_created": "2024-05-15T16:33:18.000",
    "date_modified": "2024-05-15T16:33:19.000",
    "request_status": "Pending",
    "responsible_agency": "Department of Sanitation",
    "final_address": "5518 Canal Blvd",
    "address_councildis": "A",
    "status": "Assigned to Contractor",
    "contractor": "IV Waste",
    "rowid": "1093566",
    "final_x": "3668049.61985",
    "final_y": "544047.714446",
    "longitude": "-90.11011962695547",
    "latitude": "29.99034423328341",
    "geocoded_column": {
      "latitude": "29.99034423328341",
      "longitude": "-90.11011962695547"
    }
  },
  {
    "service_request": "2024-1093565",
    "request_type": "Trash/Recycling",
    "request_reason": "Request a Large Item Pick Up",
    "date_created": "2024-05-15T16:30:46.000",
    "date_modified": "2024-05-15T16:30:47.000",
    "request_status": "Pending",
    "responsible_agency": "Department of Sanitation",
    "final_address": "37 Fontainebleau Dr",
    "address_councildis": "A",
    "status": "Assigned to Contractor",
    "contractor": "IV Waste",
    "rowid": "1093565",
    "final_x": "3666151.24161",
    "final_y": "531464.473987",
    "longitude": "-90.11653822508082",
    "latitude": "29.955800104211438",
    "geocoded_column": {
      "latitude": "29.955800104211438",
      "longitude": "-90.11653822508082"
    }
  },
  {
    "service_request": "2024-1093564",
    "request_type": "Trash/Recycling",
    "request_reason": "Request a Large Item Pick Up",
    "date_created": "2024-05-15T16:28:27.000",
    "date_modified": "2024-05-15T16:28:28.000",
    "request_status": "Pending",
    "responsible_agency": "Department of Sanitation",
    "final_address": "1926 Burdette St",
    "address_councildis": "A",
    "status": "Assigned to Contractor",
    "contractor": "IV Waste",
    "rowid": "1093564",
    "final_x": "3664566.11629",
    "final_y": "529625.166145",
    "longitude": "-90.1216049357288",
    "latitude": "29.950788793727185",
    "geocoded_column": {
      "latitude": "29.950788793727185",
      "longitude": "-90.1216049357288"
    }
  },
  {
    "service_request": "2024-1093563",
    "request_type": "Trash/Recycling",
    "request_reason": "Repair Recycling Cart",
    "date_created": "2024-05-15T16:21:32.000",
    "date_modified": "2024-05-15T16:21:33.000",
    "request_status": "Pending",
    "responsible_agency": "Department of Sanitation",
    "final_address": "5846 Providence Pl",
    "address_councildis": "D",
    "status": "Pending",
    "rowid": "1093563",
    "final_x": "3688146.29385",
    "final_y": "554940.537944",
    "longitude": "-90.04625308491613",
    "latitude": "30.019690317684056",
    "geocoded_column": {
      "latitude": "30.019690317684056",
      "longitude": "-90.04625308491613"
    }
  },
  {
    "service_request": "2024-1093562",
    "request_type": "Trash/Recycling",
    "request_reason": "Request a Large Item Pick Up",
    "date_created": "2024-05-15T16:18:53.000",
    "date_modified": "2024-05-15T16:18:54.000",
    "request_status": "Pending",
    "responsible_agency": "Department of Sanitation",
    "final_address": "630 N Rampart St",
    "address_councildis": "C",
    "status": "Assigned to Contractor",
    "contractor": "Empire Services",
    "rowid": "1093562",
    "final_x": "3681338.20034",
    "final_y": "533211.538308",
    "longitude": "-90.06852226785222",
    "latitude": "29.96015174992283",
    "geocoded_column": {
      "latitude": "29.96015174992283",
      "longitude": "-90.06852226785222"
    }
  },
  {
    "service_request": "2024-1093561",
    "request_type": "Trash/Recycling",
    "request_reason": "Missed Trash Pick-Up",
    "date_created": "2024-05-15T16:15:23.000",
    "date_modified": "2024-05-15T16:15:24.000",
    "request_status": "Pending",
    "responsible_agency": "Department of Sanitation",
    "final_address": "6760 General Haig St",
    "address_councildis": "A",
    "status": "Assigned to Contractor",
    "contractor": "IV Waste",
    "rowid": "1093561",
    "final_x": "3670903.34075",
    "final_y": "552322.489558",
    "longitude": "-90.10082428485133",
    "latitude": "30.013012903033637",
    "geocoded_column": {
      "latitude": "30.013012903033637",
      "longitude": "-90.10082428485133"
    }
  },
  {
    "service_request": "2024-1093560",
    "request_type": "Trash/Recycling",
    "request_reason": "Request a Large Item Pick Up",
    "date_created": "2024-05-15T16:15:08.000",
    "date_modified": "2024-05-15T16:15:09.000",
    "request_status": "Pending",
    "responsible_agency": "Department of Sanitation",
    "final_address": "4216 S Miro St",
    "address_councildis": "B",
    "status": "Assigned to Contractor",
    "contractor": "IV Waste",
    "rowid": "1093560",
    "final_x": "3670801.95931",
    "final_y": "527844.643583",
    "longitude": "-90.10197568364458",
    "latitude": "29.94571014202351",
    "geocoded_column": {
      "latitude": "29.94571014202351",
      "longitude": "-90.10197568364458"
    }
  },
  {
    "service_request": "2024-1093559",
    "request_type": "Traffic Signals/Signs/Striping/Streetlights",
    "request_reason": "Crosswalks and Signage",
    "date_created": "2024-05-15T16:12:51.000",
    "date_modified": "2024-05-15T16:12:51.000",
    "request_status": "Pending",
    "responsible_agency": "Department of Public Works",
    "final_address": "LA SALLE ST & ROBERT ST",
    "address_councildis": "B",
    "status": "Pending",
    "rowid": "1093559",
    "final_x": "3668801.1",
    "final_y": "523561.28",
    "longitude": "-90.1084376478183",
    "latitude": "29.933991246040012",
    "geocoded_column": {
      "latitude": "29.933991246040012",
      "longitude": "-90.1084376478183"
    }
  },
  {
    "service_request": "2024-1093558",
    "request_type": "Roads/Drainage",
    "request_reason": "Damaged Sidewalk",
    "date_created": "2024-05-15T16:12:22.000",
    "date_modified": "2024-05-15T16:12:22.000",
    "request_status": "Pending",
    "responsible_agency": "Department of Public Works",
    "final_address": "N BROAD ST & BAYOU RD",
    "address_councildis": "D",
    "status": "Pending",
    "rowid": "1093558",
    "final_x": "3678555.4",
    "final_y": "539480.98",
    "longitude": "-90.07709271046242",
    "latitude": "29.977474740332134",
    "geocoded_column": {
      "latitude": "29.977474740332134",
      "longitude": "-90.07709271046242"
    }
  },
  {
    "service_request": "2024-1093557",
    "request_type": "Traffic Signals/Signs/Striping/Streetlights",
    "request_reason": "Street Light Outage/Malfunction",
    "date_created": "2024-05-15T16:10:24.000",
    "date_modified": "2024-05-15T16:10:25.000",
    "request_status": "Pending",
    "responsible_agency": "Department of Public Works",
    "final_address": "4701 W Adams Ct",
    "address_councildis": "E",
    "status": "Assigned to Contractor",
    "contractor": "Legacy Professional Services",
    "rowid": "1093557",
    "final_x": "3718631.79557",
    "final_y": "556719.973786",
    "longitude": "-89.94986219882499",
    "latitude": "30.023606262050237",
    "geocoded_column": {
      "latitude": "30.023606262050237",
      "longitude": "-89.94986219882499"
    }
  },
  {
    "service_request": "2024-1093556",
    "request_type": "Roads/Drainage",
    "request_reason": "Damaged Sidewalk",
    "date_created": "2024-05-15T16:10:18.000",
    "date_modified": "2024-05-15T16:10:18.000",
    "request_status": "Pending",
    "responsible_agency": "Department of Public Works",
    "final_address": "1800 BLK Gentilly Blvd",
    "address_councildis": "A",
    "status": "Pending",
    "rowid": "1093556",
    "final_x": "3678928.9341",
    "final_y": "543011.78253",
    "longitude": "-90.07579057877304",
    "latitude": "29.98717195449063",
    "geocoded_column": {
      "latitude": "29.98717195449063",
      "longitude": "-90.07579057877304"
    }
  },
  {
    "service_request": "2024-1093555",
    "request_type": "Trash/Recycling",
    "request_reason": "MIssed Recycling Pick-Up",
    "date_created": "2024-05-15T16:08:01.000",
    "date_modified": "2024-05-15T16:08:02.000",
    "request_status": "Pending",
    "responsible_agency": "Department of Sanitation",
    "final_address": "6316 Story St, New Orleans, Louisiana, 70118",
    "address_councildis": "A",
    "status": "Assigned to Contractor",
    "contractor": "IV Waste",
    "rowid": "1093555",
    "final_x": "3666276.49396",
    "final_y": "526644.957054",
    "longitude": "-90.11630435900773",
    "latitude": "29.942544337178976",
    "geocoded_column": {
      "latitude": "29.942544337178976",
      "longitude": "-90.11630435900773"
    }
  },
  {
    "service_request": "2024-1093554",
    "request_type": "Property Maintenance",
    "request_reason": "Property Maintenance",
    "date_created": "2024-05-15T16:07:36.000",
    "date_modified": "2024-05-15T16:07:37.000",
    "request_status": "Pending",
    "responsible_agency": "Department of Code Enforcement",
    "final_address": "4725 W Adams Ct",
    "address_councildis": "E",
    "status": "Pending",
    "rowid": "1093554",
    "final_x": "3718615.3237",
    "final_y": "556935.38921",
    "longitude": "-89.94990602792639",
    "latitude": "30.024199115173523",
    "geocoded_column": {
      "latitude": "30.024199115173523",
      "longitude": "-89.94990602792639"
    }
  },
  {
    "service_request": "2024-1093553",
    "request_type": "Roads/Drainage",
    "request_reason": "Catch Basin - Broken/Damage",
    "date_created": "2024-05-15T16:01:20.000",
    "date_modified": "2024-05-15T16:01:21.000",
    "request_status": "Pending",
    "responsible_agency": "Department of Public Works",
    "final_address": "JEFFERSON AVE & CAMP ST",
    "address_councildis": "B",
    "status": "Pending",
    "rowid": "1093553",
    "final_x": "3666870.0",
    "final_y": "519152.18",
    "longitude": "-90.11468211356055",
    "latitude": "29.921924239228343",
    "geocoded_column": {
      "latitude": "29.921924239228343",
      "longitude": "-90.11468211356055"
    }
  },
  {
    "service_request": "2024-1093552",
    "request_type": "Trash/Recycling",
    "request_reason": "Request a Large Item Pick Up",
    "date_created": "2024-05-15T15:52:43.000",
    "date_modified": "2024-05-15T15:52:44.000",
    "request_status": "Pending",
    "responsible_agency": "Department of Sanitation",
    "final_address": "4667 Bundy Rd",
    "address_councildis": "E",
    "status": "Assigned to Contractor",
    "contractor": "Waste Pro",
    "rowid": "1093552",
    "final_x": "3709508.98161",
    "final_y": "555355.745433",
    "longitude": "-89.97873912000657",
    "latitude": "30.020154876269977",
    "geocoded_column": {
      "latitude": "30.020154876269977",
      "longitude": "-89.97873912000657"
    }
  },
  {
    "service_request": "2024-1093551",
    "request_type": "Mosquito, Termite & Rodent Control",
    "request_reason": "Non-Rodent Complaint (Mice, Possums, Snakes)",
    "date_created": "2024-05-15T15:49:52.000",
    "date_modified": "2024-05-15T18:09:32.000",
    "request_status": "Pending",
    "responsible_agency": "Mosquito, Termite & Rodent Control Board",
    "final_address": "13626 Dwyer Blvd",
    "address_councildis": "E",
    "status": "Pending",
    "rowid": "1093551",
    "final_x": "3726612.3767",
    "final_y": "562112.468767",
    "longitude": "-89.92443606219479",
    "latitude": "30.038166052770492",
    "geocoded_column": {
      "latitude": "30.038166052770492",
      "longitude": "-89.92443606219479"
    }
  },
  {
    "service_request": "2024-1093550",
    "request_type": "Abandoned Vehicles",
    "request_reason": "Abandoned/Junk Vehicles",
    "date_created": "2024-05-15T15:46:30.000",
    "date_modified": "2024-05-15T15:48:25.000",
    "request_status": "Pending",
    "responsible_agency": "Department of Public Works",
    "final_address": "2700 BLK S Liberty St",
    "address_councildis": "B",
    "status": "Pending",
    "rowid": "1093550",
    "final_x": "3674681.2966",
    "final_y": "524694.588194",
    "longitude": "-90.08983525190477",
    "latitude": "29.93693332309678",
    "geocoded_column": {
      "latitude": "29.93693332309678",
      "longitude": "-90.08983525190477"
    }
  },
  {
    "service_request": "2024-1093549",
    "request_type": "Trash/Recycling",
    "request_reason": "Replace Trash Cart",
    "date_created": "2024-05-15T15:46:23.000",
    "date_modified": "2024-05-15T15:46:24.000",
    "request_status": "Pending",
    "responsible_agency": "Department of Sanitation",
    "final_address": "3250 Gentilly Blvd",
    "address_councildis": "D",
    "status": "Assigned to Contractor",
    "contractor": "IV Waste",
    "rowid": "1093549",
    "final_x": "3684528.0182",
    "final_y": "547847.451346",
    "longitude": "-90.05793509115279",
    "latitude": "30.000298166405653",
    "geocoded_column": {
      "latitude": "30.000298166405653",
      "longitude": "-90.05793509115279"
    }
  },
  {
    "service_request": "2024-1093548",
    "request_type": "Abandoned Vehicles",
    "request_reason": "Abandoned/Junk Vehicles",
    "date_created": "2024-05-15T15:46:16.000",
    "date_modified": "2024-05-15T15:46:16.000",
    "request_status": "Pending",
    "responsible_agency": "Department of Public Works",
    "final_address": "3405 Coliseum St",
    "address_councildis": "B",
    "status": "Pending",
    "rowid": "1093548",
    "final_x": "3674488.45704",
    "final_y": "520571.029496",
    "longitude": "-90.09058525042185",
    "latitude": "29.925600626643256",
    "geocoded_column": {
      "latitude": "29.925600626643256",
      "longitude": "-90.09058525042185"
    }
  },
  {
    "service_request": "2024-1093547",
    "request_type": "Traffic Signals/Signs/Striping/Streetlights",
    "request_reason": "Traffic Signal Malfunctioning/Damaged",
    "date_created": "2024-05-15T15:45:59.000",
    "date_modified": "2024-05-15T15:46:00.000",
    "request_status": "Pending",
    "responsible_agency": "Department of Public Works",
    "final_address": "EARHART BLVD & BROAD ONRAMP",
    "address_councildis": "B",
    "status": "Pending",
    "rowid": "1093547",
    "final_x": "3673156.69",
    "final_y": "530918.63",
    "longitude": "-90.09443606950188",
    "latitude": "29.95409280054951",
    "geocoded_column": {
      "latitude": "29.95409280054951",
      "longitude": "-90.09443606950188"
    }
  },
  {
    "service_request": "2024-1093546",
    "request_type": "Trash/Recycling",
    "request_reason": "Illegal Dumping",
    "date_created": "2024-05-15T15:45:46.000",
    "date_modified": "2024-05-15T15:45:46.000",
    "request_status": "Pending",
    "responsible_agency": "Department of Sanitation",
    "final_address": "822 Philip St",
    "address_councildis": "B",
    "status": "Pending",
    "rowid": "1093546",
    "final_x": "3679063.61397",
    "final_y": "521101.689977",
    "longitude": "-90.076124498656",
    "latitude": "29.926922535638944",
    "geocoded_column": {
      "latitude": "29.926922535638944",
      "longitude": "-90.076124498656"
    }
  },
  {
    "service_request": "2024-1093545",
    "request_type": "Trash/Recycling",
    "request_reason": "Replace Trash Cart",
    "date_created": "2024-05-15T15:42:40.000",
    "date_modified": "2024-05-15T15:42:41.000",
    "request_status": "Pending",
    "responsible_agency": "Department of Sanitation",
    "final_address": "2423 Columbus St",
    "address_councildis": "D",
    "status": "Assigned to Contractor",
    "contractor": "IV Waste",
    "rowid": "1093545",
    "final_x": "3679345.90677",
    "final_y": "539080.929418",
    "longitude": "-90.0746099046485",
    "latitude": "29.97635088538317",
    "geocoded_column": {
      "latitude": "29.97635088538317",
      "longitude": "-90.0746099046485"
    }
  },
  {
    "service_request": "2024-1093544",
    "request_type": "Trash/Recycling",
    "request_reason": "Illegal Dumping",
    "date_created": "2024-05-15T15:37:21.000",
    "date_modified": "2024-05-15T15:37:22.000",
    "request_status": "Pending",
    "responsible_agency": "Department of Sanitation",
    "final_address": "2716 DAbadie St",
    "address_councildis": "D",
    "status": "Pending",
    "rowid": "1093544",
    "final_x": "3679128.24789",
    "final_y": "541025.866827",
    "longitude": "-90.0752298914597",
    "latitude": "29.981705362292065",
    "geocoded_column": {
      "latitude": "29.981705362292065",
      "longitude": "-90.0752298914597"
    }
  },
  {
    "service_request": "2024-1093543",
    "request_type": "Traffic Signals/Signs/Striping/Streetlights",
    "request_reason": "Street Light Outage/Malfunction",
    "date_created": "2024-05-15T15:35:49.000",
    "date_modified": "2024-05-15T15:35:50.000",
    "request_status": "Pending",
    "responsible_agency": "Department of Public Works",
    "final_address": "5100 BLK Saint Anthony Ave",
    "address_councildis": "D",
    "status": "Assigned to Contractor",
    "contractor": "Legacy Professional Services",
    "rowid": "1093543",
    "final_x": "3682240.76278",
    "final_y": "551668.751765",
    "longitude": "-90.06502703811555",
    "latitude": "30.010875171066786",
    "geocoded_column": {
      "latitude": "30.010875171066786",
      "longitude": "-90.06502703811555"
    }
  },
  {
    "service_request": "2024-1093542",
    "request_type": "Trash/Recycling",
    "request_reason": "Replace Trash Cart",
    "date_created": "2024-05-15T15:33:20.000",
    "date_modified": "2024-05-15T15:33:21.000",
    "request_status": "Pending",
    "responsible_agency": "Department of Sanitation",
    "final_address": "1138 Teche St",
    "address_councildis": "C",
    "status": "Assigned to Contractor",
    "contractor": "Richards Disposal",
    "rowid": "1093542",
    "final_x": "3686660.61071",
    "final_y": "527232.636927",
    "longitude": "-90.05192640442226",
    "latitude": "29.9435491994403",
    "geocoded_column": {
      "latitude": "29.9435491994403",
      "longitude": "-90.05192640442226"
    }
  },
  {
    "service_request": "2024-1093541",
    "request_type": "Trash/Recycling",
    "request_reason": "Replace Trash Cart",
    "date_created": "2024-05-15T15:33:09.000",
    "date_modified": "2024-05-15T15:33:10.000",
    "request_status": "Pending",
    "responsible_agency": "Department of Sanitation",
    "final_address": "1138 Teche St",
    "address_councildis": "C",
    "status": "Assigned to Contractor",
    "contractor": "Richards Disposal",
    "rowid": "1093541",
    "final_x": "3686660.61071",
    "final_y": "527232.636927",
    "longitude": "-90.05192640442226",
    "latitude": "29.9435491994403",
    "geocoded_column": {
      "latitude": "29.9435491994403",
      "longitude": "-90.05192640442226"
    }
  },
  {
    "service_request": "2024-1093540",
    "request_type": "Trash/Recycling",
    "request_reason": "Replace Trash Cart",
    "date_created": "2024-05-15T15:32:54.000",
    "date_modified": "2024-05-15T15:32:55.000",
    "request_status": "Pending",
    "responsible_agency": "Department of Sanitation",
    "final_address": "1140 Teche St",
    "address_councildis": "C",
    "status": "Assigned to Contractor",
    "contractor": "Richards Disposal",
    "rowid": "1093540",
    "final_x": "3686659.42966",
    "final_y": "527252.489215",
    "longitude": "-90.05192943235495",
    "latitude": "29.94360382282104",
    "geocoded_column": {
      "latitude": "29.94360382282104",
      "longitude": "-90.05192943235495"
    }
  },
  {
    "service_request": "2024-1093539",
    "request_type": "Trash/Recycling",
    "request_reason": "Order Trash Cart",
    "date_created": "2024-05-15T15:32:51.000",
    "date_modified": "2024-05-15T15:32:52.000",
    "request_status": "Pending",
    "responsible_agency": "Department of Sanitation",
    "final_address": "4626 Marigny St",
    "address_councildis": "D",
    "status": "Assigned to Contractor",
    "contractor": "IV Waste",
    "rowid": "1093539",
    "final_x": "3684379.48668",
    "final_y": "549654.663508",
    "longitude": "-90.0583407843333",
    "latitude": "30.005271893258648",
    "geocoded_column": {
      "latitude": "30.005271893258648",
      "longitude": "-90.0583407843333"
    }
  },
  {
    "service_request": "2024-1093538",
    "request_type": "Trash/Recycling",
    "request_reason": "Replace Trash Cart",
    "date_created": "2024-05-15T15:32:31.000",
    "date_modified": "2024-05-15T15:32:32.000",
    "request_status": "Pending",
    "responsible_agency": "Department of Sanitation",
    "final_address": "1140 Teche St",
    "address_councildis": "C",
    "status": "Assigned to Contractor",
    "contractor": "Richards Disposal",
    "rowid": "1093538",
    "final_x": "3686659.42966",
    "final_y": "527252.489215",
    "longitude": "-90.05192943235495",
    "latitude": "29.94360382282104",
    "geocoded_column": {
      "latitude": "29.94360382282104",
      "longitude": "-90.05192943235495"
    }
  },
  {
    "service_request": "2024-1093537",
    "request_type": "Trash/Recycling",
    "request_reason": "Repair Trash Cart",
    "date_created": "2024-05-15T15:32:21.000",
    "date_modified": "2024-05-15T15:32:22.000",
    "request_status": "Pending",
    "responsible_agency": "Department of Sanitation",
    "final_address": "731 S Dupre St",
    "address_councildis": "B",
    "status": "Assigned to Contractor",
    "contractor": "IV Waste",
    "rowid": "1093537",
    "final_x": "3672974.49",
    "final_y": "533570.296069",
    "longitude": "-90.09492089110886",
    "latitude": "29.961389415028737",
    "geocoded_column": {
      "latitude": "29.961389415028737",
      "longitude": "-90.09492089110886"
    }
  },
  {
    "service_request": "2024-1093536",
    "request_type": "Traffic Signals/Signs/Striping/Streetlights",
    "request_reason": "Street Light Outage/Malfunction",
    "date_created": "2024-05-15T15:31:16.000",
    "date_modified": "2024-05-15T15:31:17.000",
    "request_status": "Pending",
    "responsible_agency": "Department of Public Works",
    "final_address": "5100 BLK Saint Anthony Ave",
    "address_councildis": "D",
    "status": "Assigned to Contractor",
    "contractor": "Legacy Professional Services",
    "rowid": "1093536",
    "final_x": "3682301.39914",
    "final_y": "551674.469601",
    "longitude": "-90.0648352642089",
    "latitude": "30.010889047426925",
    "geocoded_column": {
      "latitude": "30.010889047426925",
      "longitude": "-90.0648352642089"
    }
  },
  {
    "service_request": "2024-1093535",
    "request_type": "Trash/Recycling",
    "request_reason": "Request a Large Item Pick Up",
    "date_created": "2024-05-15T15:28:13.000",
    "date_modified": "2024-05-15T15:28:14.000",
    "request_status": "Pending",
    "responsible_agency": "Department of Sanitation",
    "final_address": "2435 Burgundy St",
    "address_councildis": "C",
    "status": "Assigned to Contractor",
    "contractor": "IV Waste",
    "rowid": "1093535",
    "final_x": "3686126.95561",
    "final_y": "535697.803463",
    "longitude": "-90.05331272494924",
    "latitude": "29.966841903872748",
    "geocoded_column": {
      "latitude": "29.966841903872748",
      "longitude": "-90.05331272494924"
    }
  },
  {
    "service_request": "2024-1093534",
    "request_type": "Trash/Recycling",
    "request_reason": "Order Recycling Cart",
    "date_created": "2024-05-15T15:26:57.000",
    "date_modified": "2024-05-15T15:26:57.000",
    "request_status": "Pending",
    "responsible_agency": "Department of Sanitation",
    "final_address": "1321 S Telemachus St",
    "address_councildis": "B",
    "status": "Pending",
    "rowid": "1093534",
    "final_x": "3669056.96769",
    "final_y": "532378.604739",
    "longitude": "-90.1073320482601",
    "latitude": "29.95822849745614",
    "geocoded_column": {
      "latitude": "29.95822849745614",
      "longitude": "-90.1073320482601"
    }
  },
  {
    "service_request": "2024-1093533",
    "request_type": "Trash/Recycling",
    "request_reason": "Request a Large Item Pick Up",
    "date_created": "2024-05-15T15:21:48.000",
    "date_modified": "2024-05-15T15:21:49.000",
    "request_status": "Pending",
    "responsible_agency": "Department of Sanitation",
    "final_address": "201 16Th St",
    "address_councildis": "A",
    "status": "Assigned to Contractor",
    "contractor": "IV Waste",
    "rowid": "1093533",
    "final_x": "3665664.22554",
    "final_y": "548451.630418",
    "longitude": "-90.11750689956494",
    "latitude": "30.002523297269494",
    "geocoded_column": {
      "latitude": "30.002523297269494",
      "longitude": "-90.11750689956494"
    }
  },
  {
    "service_request": "2024-1093532",
    "request_type": "Trash/Recycling",
    "request_reason": "Missed Trash Pick-Up",
    "date_created": "2024-05-15T15:15:44.000",
    "date_modified": "2024-05-15T15:29:37.000",
    "case_close_date": "2024-05-15T10:29:37.000",
    "request_status": "Closed",
    "responsible_agency": "Department of Sanitation",
    "final_address": "2105 Rousseau St, New Orleans, Louisiana, 70130",
    "address_councildis": "B",
    "status": "Assigned to Contractor",
    "contractor": "IV Waste",
    "contractor_action": "Completed",
    "rowid": "1093532",
    "final_x": "3680460.66869",
    "final_y": "520517.322296",
    "longitude": "-90.07173467782835",
    "latitude": "29.925273493778985",
    "geocoded_column": {
      "latitude": "29.925273493778985",
      "longitude": "-90.07173467782835"
    }
  },
  {
    "service_request": "2024-1093531",
    "request_type": "Trash/Recycling",
    "request_reason": "Missed Trash Pick-Up",
    "date_created": "2024-05-15T15:14:35.000",
    "date_modified": "2024-05-15T15:40:13.000",
    "case_close_date": "2024-05-15T10:40:13.000",
    "request_status": "Closed",
    "responsible_agency": "Department of Sanitation",
    "final_address": "2105 Rousseau",
    "address_councildis": "B",
    "status": "Invalid Request",
    "contractor": "IV Waste",
    "contractor_action": "Invalid",
    "rowid": "1093531",
    "final_x": "3680460.66869",
    "final_y": "520517.322296",
    "longitude": "-90.07173467782835",
    "latitude": "29.925273493778985",
    "geocoded_column": {
      "latitude": "29.925273493778985",
      "longitude": "-90.07173467782835"
    }
  },
  {
    "service_request": "2024-1093530",
    "request_type": "Abandoned Vehicles",
    "request_reason": "Abandoned/Junk Vehicles",
    "date_created": "2024-05-15T15:11:34.000",
    "date_modified": "2024-05-15T15:11:34.000",
    "request_status": "Pending",
    "responsible_agency": "Department of Public Works",
    "final_address": "1700 Abundance St",
    "address_councildis": "D",
    "status": "Pending",
    "rowid": "1093530",
    "final_x": "3680677.25685",
    "final_y": "543326.94971",
    "longitude": "-90.07025728117016",
    "latitude": "29.98798567860092",
    "geocoded_column": {
      "latitude": "29.98798567860092",
      "longitude": "-90.07025728117016"
    }
  },
  {
    "service_request": "2024-1093529",
    "request_type": "Trash/Recycling",
    "request_reason": "Illegal Dumping",
    "date_created": "2024-05-15T15:11:14.000",
    "date_modified": "2024-05-15T15:11:16.000",
    "request_status": "Pending",
    "responsible_agency": "Department of Sanitation",
    "final_address": "FIG ST & MONTICELLO AVE",
    "address_councildis": "A",
    "status": "Pending",
    "rowid": "1093529",
    "final_x": "3662763.2",
    "final_y": "536354.08",
    "longitude": "-90.12707398702521",
    "latitude": "29.9693434179169",
    "geocoded_column": {
      "latitude": "29.9693434179169",
      "longitude": "-90.12707398702521"
    }
  },
  {
    "service_request": "2024-1093528",
    "request_type": "Roads/Drainage",
    "request_reason": "Debris in Roadway",
    "date_created": "2024-05-15T15:09:40.000",
    "date_modified": "2024-05-15T15:09:41.000",
    "request_status": "Pending",
    "responsible_agency": "Department of Public Works",
    "final_address": "3311 Magellan St",
    "address_councildis": "C",
    "status": "Pending",
    "rowid": "1093528",
    "final_x": "3696398.06339",
    "final_y": "524662.37798",
    "longitude": "-90.0212757996357",
    "latitude": "29.936178859432054",
    "geocoded_column": {
      "latitude": "29.936178859432054",
      "longitude": "-90.0212757996357"
    }
  },
  {
    "service_request": "2024-1093527",
    "request_type": "Trash/Recycling",
    "request_reason": "Missed Trash Pick-Up",
    "date_created": "2024-05-15T15:06:44.000",
    "date_modified": "2024-05-15T15:59:35.000",
    "case_close_date": "2024-05-15T10:59:35.000",
    "request_status": "Closed",
    "responsible_agency": "Department of Sanitation",
    "final_address": "4780 De Montluzin St",
    "address_councildis": "D",
    "status": "Invalid Request",
    "contractor": "IV Waste",
    "contractor_action": "Invalid",
    "rowid": "1093527",
    "final_x": "3687054.16354",
    "final_y": "550911.954709",
    "longitude": "-90.04984643158691",
    "latitude": "30.0086468810593",
    "geocoded_column": {
      "latitude": "30.0086468810593",
      "longitude": "-90.04984643158691"
    }
  },
  {
    "service_request": "2024-1093526",
    "request_type": "Roads/Drainage",
    "request_reason": "Pothole",
    "date_created": "2024-05-15T15:05:00.000",
    "date_modified": "2024-05-15T15:05:50.000",
    "request_status": "Pending",
    "responsible_agency": "Department of Public Works",
    "final_address": "0 BLK English Turn Ct",
    "address_councildis": "C",
    "status": "Pending",
    "rowid": "1093526",
    "final_x": "3718192.33064",
    "final_y": "515237.824627",
    "longitude": "-89.95282998262913",
    "latitude": "29.909560529683482",
    "geocoded_column": {
      "latitude": "29.909560529683482",
      "longitude": "-89.95282998262913"
    }
  },
  {
    "service_request": "2024-1093525",
    "request_type": "Trash/Recycling",
    "request_reason": "Order Trash Cart",
    "date_created": "2024-05-15T15:03:28.000",
    "date_modified": "2024-05-15T15:03:29.000",
    "request_status": "Pending",
    "responsible_agency": "Department of Sanitation",
    "final_address": "2207 Dumaine St A",
    "address_councildis": "D",
    "status": "Assigned to Contractor",
    "contractor": "IV Waste",
    "rowid": "1093525",
    "final_x": "3678756.42133",
    "final_y": "536348.404423",
    "longitude": "-90.0765663327384",
    "latitude": "29.96885517267231",
    "geocoded_column": {
      "latitude": "29.96885517267231",
      "longitude": "-90.0765663327384"
    }
  },
  {
    "service_request": "2024-1093524",
    "request_type": "Trash/Recycling",
    "request_reason": "Repair Recycling Cart",
    "date_created": "2024-05-15T15:01:36.000",
    "date_modified": "2024-05-15T15:01:37.000",
    "request_status": "Pending",
    "responsible_agency": "Department of Sanitation",
    "final_address": "2836 Laurel St",
    "address_councildis": "B",
    "status": "Pending",
    "rowid": "1093524",
    "final_x": "3677239.39976",
    "final_y": "520019.70668",
    "longitude": "-90.08192036718147",
    "latitude": "29.924002341705965",
    "geocoded_column": {
      "latitude": "29.924002341705965",
      "longitude": "-90.08192036718147"
    }
  },
  {
    "service_request": "2024-1093523",
    "request_type": "Trash/Recycling",
    "request_reason": "Repair Recycling Cart",
    "date_created": "2024-05-15T15:01:29.000",
    "date_modified": "2024-05-15T15:01:29.000",
    "request_status": "Pending",
    "responsible_agency": "Department of Sanitation",
    "final_address": "27 Forest Oaks Dr",
    "address_councildis": "C",
    "status": "Pending",
    "rowid": "1093523",
    "final_x": "3722208.71507",
    "final_y": "510096.049263",
    "longitude": "-89.94035098072085",
    "latitude": "29.895288811069005",
    "geocoded_column": {
      "latitude": "29.895288811069005",
      "longitude": "-89.94035098072085"
    }
  },
  {
    "service_request": "2024-1093522",
    "request_type": "Trash/Recycling",
    "request_reason": "Illegal Dumping",
    "date_created": "2024-05-15T14:58:00.000",
    "date_modified": "2024-05-15T14:58:01.000",
    "request_status": "Pending",
    "responsible_agency": "Department of Sanitation",
    "final_address": "1347 Moss St",
    "address_councildis": "A",
    "status": "Pending",
    "rowid": "1093522",
    "final_x": "3674775.9876",
    "final_y": "540519.565323",
    "longitude": "-90.08899375693768",
    "latitude": "29.98044388613289",
    "geocoded_column": {
      "latitude": "29.98044388613289",
      "longitude": "-90.08899375693768"
    }
  },
  {
    "service_request": "2024-1093521",
    "request_type": "Trash/Recycling",
    "request_reason": "Request a Large Item Pick Up",
    "date_created": "2024-05-15T14:57:49.000",
    "date_modified": "2024-05-15T14:57:50.000",
    "request_status": "Pending",
    "responsible_agency": "Department of Sanitation",
    "final_address": "2955 Seine St",
    "address_councildis": "C",
    "status": "Assigned to Contractor",
    "contractor": "Richards Disposal",
    "rowid": "1093521",
    "final_x": "3694291.12451",
    "final_y": "520479.946168",
    "longitude": "-90.0280778460513",
    "latitude": "29.92474476620032",
    "geocoded_column": {
      "latitude": "29.92474476620032",
      "longitude": "-90.0280778460513"
    }
  },
  {
    "service_request": "2024-1093520",
    "request_type": "Trash/Recycling",
    "request_reason": "Request a Large Item Pick Up",
    "date_created": "2024-05-15T14:57:47.000",
    "date_modified": "2024-05-15T14:57:48.000",
    "request_status": "Pending",
    "responsible_agency": "Department of Sanitation",
    "final_address": "2210 Camp St",
    "address_councildis": "B",
    "status": "Assigned to Contractor",
    "contractor": "IV Waste",
    "rowid": "1093520",
    "final_x": "3678533.16104",
    "final_y": "522255.30393",
    "longitude": "-90.07775909483505",
    "latitude": "29.93011058996835",
    "geocoded_column": {
      "latitude": "29.93011058996835",
      "longitude": "-90.07775909483505"
    }
  },
  {
    "service_request": "2024-1093519",
    "request_type": "Trash/Recycling",
    "request_reason": "Request a Large Item Pick Up",
    "date_created": "2024-05-15T14:57:31.000",
    "date_modified": "2024-05-15T14:57:32.000",
    "request_status": "Pending",
    "responsible_agency": "Department of Sanitation",
    "final_address": "6211 Magnolia St",
    "address_councildis": "A",
    "status": "Assigned to Contractor",
    "contractor": "IV Waste",
    "rowid": "1093519",
    "final_x": "3666104.71514",
    "final_y": "525352.494717",
    "longitude": "-90.11689002679084",
    "latitude": "29.93899549618871",
    "geocoded_column": {
      "latitude": "29.93899549618871",
      "longitude": "-90.11689002679084"
    }
  },
  {
    "service_request": "2024-1093518",
    "request_type": "Trash/Recycling",
    "request_reason": "Request a Large Item Pick Up",
    "date_created": "2024-05-15T14:54:15.000",
    "date_modified": "2024-05-15T14:54:16.000",
    "request_status": "Pending",
    "responsible_agency": "Department of Sanitation",
    "final_address": "2210 Camp St",
    "address_councildis": "B",
    "status": "Assigned to Contractor",
    "contractor": "IV Waste",
    "rowid": "1093518",
    "final_x": "3678533.16104",
    "final_y": "522255.30393",
    "longitude": "-90.07775909483505",
    "latitude": "29.93011058996835",
    "geocoded_column": {
      "latitude": "29.93011058996835",
      "longitude": "-90.07775909483505"
    }
  },
  {
    "service_request": "2024-1093517",
    "request_type": "Trash/Recycling",
    "request_reason": "Repair Recycling Cart",
    "date_created": "2024-05-15T14:51:37.000",
    "date_modified": "2024-05-15T14:51:38.000",
    "request_status": "Pending",
    "responsible_agency": "Department of Sanitation",
    "final_address": "4931 Montegut Dr",
    "address_councildis": "D",
    "status": "Pending",
    "rowid": "1093517",
    "final_x": "3689845.90332",
    "final_y": "551610.313301",
    "longitude": "-90.041001569822",
    "latitude": "30.01048083065592",
    "geocoded_column": {
      "latitude": "30.01048083065592",
      "longitude": "-90.041001569822"
    }
  },
  {
    "service_request": "2024-1093516",
    "request_type": "Trash/Recycling",
    "request_reason": "Replace Trash Cart",
    "date_created": "2024-05-15T14:48:30.000",
    "date_modified": "2024-05-15T14:49:21.000",
    "request_status": "Pending",
    "responsible_agency": "Department of Sanitation",
    "final_address": "1940 Bartholomew St",
    "address_councildis": "D",
    "status": "Assigned to Contractor",
    "contractor": "IV Waste",
    "rowid": "1093516",
    "final_x": "3692578.49629",
    "final_y": "538662.263433",
    "longitude": "-90.03283259666054",
    "latitude": "29.9747933725615",
    "geocoded_column": {
      "latitude": "29.9747933725615",
      "longitude": "-90.03283259666054"
    }
  },
  {
    "service_request": "2024-1093515",
    "request_type": "Trash/Recycling",
    "request_reason": "Repair Recycling Cart",
    "date_created": "2024-05-15T14:46:08.000",
    "date_modified": "2024-05-15T14:46:08.000",
    "request_status": "Pending",
    "responsible_agency": "Department of Sanitation",
    "final_address": "84 Oriole St",
    "address_councildis": "D",
    "status": "Pending",
    "rowid": "1093515",
    "final_x": "3675345.80193",
    "final_y": "556886.19145",
    "longitude": "-90.08663160598446",
    "latitude": "30.0254293008286",
    "geocoded_column": {
      "latitude": "30.0254293008286",
      "longitude": "-90.08663160598446"
    }
  },
  {
    "service_request": "2024-1093514",
    "request_type": "Trash/Recycling",
    "request_reason": "Request a Large Item Pick Up",
    "date_created": "2024-05-15T14:40:02.000",
    "date_modified": "2024-05-15T14:40:03.000",
    "request_status": "Pending",
    "responsible_agency": "Department of Sanitation",
    "final_address": "11040 Roger Dr Apt B",
    "address_councildis": "E",
    "status": "Assigned to Contractor",
    "contractor": "Waste Pro",
    "rowid": "1093514",
    "final_x": "3712429.80683",
    "final_y": "563538.89456",
    "longitude": "-89.96920250457774",
    "latitude": "30.04256001686242",
    "geocoded_column": {
      "latitude": "30.04256001686242",
      "longitude": "-89.96920250457774"
    }
  },
  {
    "service_request": "2024-1093513",
    "request_type": "Parks & Parkways",
    "request_reason": "Request Tree Service (Right of Way/Public Property)",
    "date_created": "2024-05-15T14:36:39.000",
    "date_modified": "2024-05-15T14:36:40.000",
    "request_status": "Pending",
    "responsible_agency": "Department of Parks & Parkway",
    "final_address": "2 Westpark Ct",
    "address_councildis": "C",
    "status": "Pending",
    "rowid": "1093513",
    "final_x": "3696111.53507",
    "final_y": "521705.524281",
    "longitude": "-90.02228718050897",
    "latitude": "29.928057543703442",
    "geocoded_column": {
      "latitude": "29.928057543703442",
      "longitude": "-90.02228718050897"
    }
  },
  {
    "service_request": "2024-1093512",
    "request_type": "Roads/Drainage",
    "request_reason": "Pothole",
    "date_created": "2024-05-15T14:34:07.000",
    "date_modified": "2024-05-15T14:34:07.000",
    "request_status": "Pending",
    "responsible_agency": "Department of Public Works",
    "final_address": "5506 Cameron Blvd",
    "address_councildis": "D",
    "status": "Pending",
    "rowid": "1093512",
    "final_x": "3682427.43599",
    "final_y": "553005.759575",
    "longitude": "-90.06439048515433",
    "latitude": "30.014545774240172",
    "geocoded_column": {
      "latitude": "30.014545774240172",
      "longitude": "-90.06439048515433"
    }
  },
  {
    "service_request": "2024-1093511",
    "request_type": "Trash/Recycling",
    "request_reason": "Repair Recycling Cart",
    "date_created": "2024-05-15T14:32:13.000",
    "date_modified": "2024-05-15T14:33:21.000",
    "request_status": "Pending",
    "responsible_agency": "Department of Sanitation",
    "final_address": "1420 Octavia St",
    "address_councildis": "A",
    "status": "Pending",
    "rowid": "1093511",
    "final_x": "3666862.78042",
    "final_y": "521083.311929",
    "longitude": "-90.11464006934482",
    "latitude": "29.927234453658546",
    "geocoded_column": {
      "latitude": "29.927234453658546",
      "longitude": "-90.11464006934482"
    }
  },
  {
    "service_request": "2024-1093510",
    "request_type": "Trash/Recycling",
    "request_reason": "Request a Large Item Pick Up",
    "date_created": "2024-05-15T14:31:37.000",
    "date_modified": "2024-05-15T14:31:39.000",
    "request_status": "Pending",
    "responsible_agency": "Department of Sanitation",
    "final_address": "2182 N Broad St, New Orleans, Louisiana, 70119",
    "address_councildis": "D",
    "status": "Assigned to Contractor",
    "contractor": "IV Waste",
    "rowid": "1093510",
    "final_x": "3681300.29967",
    "final_y": "542890.623501",
    "longitude": "-90.06830451252442",
    "latitude": "29.98676703592109",
    "geocoded_column": {
      "latitude": "29.98676703592109",
      "longitude": "-90.06830451252442"
    }
  },
  {
    "service_request": "2024-1093509",
    "request_type": "Property Maintenance",
    "request_reason": "Property Maintenance",
    "date_created": "2024-05-15T14:28:34.000",
    "date_modified": "2024-05-15T15:10:18.000",
    "case_close_date": "2024-05-15T10:10:18.000",
    "request_status": "Closed",
    "responsible_agency": "Department of Code Enforcement",
    "final_address": "5765 Warrington Dr",
    "address_councildis": "D",
    "status": "Referred to Code Enforcement",
    "rowid": "1093509",
    "final_x": "3680833.26101",
    "final_y": "554418.622552",
    "longitude": "-90.06937805248083",
    "latitude": "30.01847908084724",
    "geocoded_column": {
      "latitude": "30.01847908084724",
      "longitude": "-90.06937805248083"
    }
  },
  {
    "service_request": "2024-1093507",
    "request_type": "Property Maintenance",
    "request_reason": "Property Maintenance",
    "date_created": "2024-05-15T14:27:52.000",
    "date_modified": "2024-05-15T14:27:52.000",
    "request_status": "Pending",
    "responsible_agency": "Department of Code Enforcement",
    "final_address": "5761 Warrington Dr",
    "address_councildis": "D",
    "status": "Pending",
    "rowid": "1093507",
    "final_x": "3680836.9421",
    "final_y": "554373.069848",
    "longitude": "-90.0693680092654",
    "latitude": "30.018353715855703",
    "geocoded_column": {
      "latitude": "30.018353715855703",
      "longitude": "-90.0693680092654"
    }
  },
  {
    "service_request": "2024-1093506",
    "request_type": "Trash/Recycling",
    "request_reason": "Return Trash Cart",
    "date_created": "2024-05-15T14:24:21.000",
    "date_modified": "2024-05-15T14:24:22.000",
    "request_status": "Pending",
    "responsible_agency": "Department of Sanitation",
    "final_address": "2472 Gladiolus St",
    "address_councildis": "D",
    "status": "Assigned to Contractor",
    "contractor": "IV Waste",
    "rowid": "1093506",
    "final_x": "3686217.24322",
    "final_y": "547389.980817",
    "longitude": "-90.0526148953985",
    "latitude": "29.998988479941755",
    "geocoded_column": {
      "latitude": "29.998988479941755",
      "longitude": "-90.0526148953985"
    }
  },
  {
    "service_request": "2024-1093505",
    "request_type": "Trash/Recycling",
    "request_reason": "Repair Trash Cart",
    "date_created": "2024-05-15T14:23:11.000",
    "date_modified": "2024-05-15T14:23:12.000",
    "request_status": "Pending",
    "responsible_agency": "Department of Sanitation",
    "final_address": "2720 Octavia St",
    "address_councildis": "A",
    "status": "Assigned to Contractor",
    "contractor": "IV Waste",
    "rowid": "1093505",
    "final_x": "3667868.31188",
    "final_y": "525544.564797",
    "longitude": "-90.11131565810533",
    "latitude": "29.93947202817648",
    "geocoded_column": {
      "latitude": "29.93947202817648",
      "longitude": "-90.11131565810533"
    }
  },
  {
    "service_request": "2024-1093504",
    "request_type": "Trash/Recycling",
    "request_reason": "Order Recycling Cart",
    "date_created": "2024-05-15T14:22:56.000",
    "date_modified": "2024-05-15T14:22:56.000",
    "request_status": "Pending",
    "responsible_agency": "Department of Sanitation",
    "final_address": "2225 Jena St",
    "address_councildis": "B",
    "status": "Pending",
    "rowid": "1093504",
    "final_x": "3670270.12967",
    "final_y": "523194.272699",
    "longitude": "-90.10381240048979",
    "latitude": "29.932938831839646",
    "geocoded_column": {
      "latitude": "29.932938831839646",
      "longitude": "-90.10381240048979"
    }
  },
  {
    "service_request": "2024-1093503",
    "request_type": "Property Maintenance",
    "request_reason": "Property Maintenance",
    "date_created": "2024-05-15T14:22:53.000",
    "date_modified": "2024-05-15T14:22:54.000",
    "request_status": "Pending",
    "responsible_agency": "Department of Code Enforcement",
    "final_address": "5760 Wickfield Dr",
    "address_councildis": "D",
    "status": "Pending",
    "rowid": "1093503",
    "final_x": "3680970.63407",
    "final_y": "554384.687256",
    "longitude": "-90.06894518728085",
    "latitude": "30.018381603809413",
    "geocoded_column": {
      "latitude": "30.018381603809413",
      "longitude": "-90.06894518728085"
    }
  },
  {
    "service_request": "2024-1093502",
    "request_type": "Health Related Request",
    "request_reason": "Noise Ordinance Complaint",
    "date_created": "2024-05-15T14:22:47.000",
    "date_modified": "2024-05-15T14:22:47.000",
    "request_status": "Pending",
    "responsible_agency": "Health Department",
    "final_address": "214 N Salcedo St",
    "address_councildis": "B",
    "status": "Pending",
    "rowid": "1093502",
    "final_x": "3674464.95835",
    "final_y": "536518.667463",
    "longitude": "-90.09011322713076",
    "latitude": "29.969452064513483",
    "geocoded_column": {
      "latitude": "29.969452064513483",
      "longitude": "-90.09011322713076"
    }
  },
  {
    "service_request": "2024-1093501",
    "request_type": "Traffic Signals/Signs/Striping/Streetlights",
    "request_reason": "Street Light Outage/Malfunction",
    "date_created": "2024-05-15T14:22:01.000",
    "date_modified": "2024-05-15T14:22:02.000",
    "request_status": "Pending",
    "responsible_agency": "Department of Public Works",
    "final_address": "3900 Cambronne St",
    "address_councildis": "A",
    "status": "Assigned to Contractor",
    "contractor": "Legacy Professional Services",
    "rowid": "1093501",
    "final_x": "3667633.32589",
    "final_y": "536271.449479",
    "longitude": "-90.11169647802981",
    "latitude": "29.96897433977061",
    "geocoded_column": {
      "latitude": "29.96897433977061",
      "longitude": "-90.11169647802981"
    }
  },
  {
    "service_request": "2024-1093500",
    "request_type": "Trash/Recycling",
    "request_reason": "Request a Large Item Pick Up",
    "date_created": "2024-05-15T14:19:44.000",
    "date_modified": "2024-05-15T14:19:45.000",
    "request_status": "Pending",
    "responsible_agency": "Department of Sanitation",
    "final_address": "10925 Dreux Ave",
    "address_councildis": "E",
    "status": "Assigned to Contractor",
    "contractor": "Waste Pro",
    "rowid": "1093500",
    "final_x": "3715849.88677",
    "final_y": "556292.908122",
    "longitude": "-89.95866855156618",
    "latitude": "30.02252406295485",
    "geocoded_column": {
      "latitude": "30.02252406295485",
      "longitude": "-89.95866855156618"
    }
  },
  {
    "service_request": "2024-1093499",
    "request_type": "Abandoned Vehicles",
    "request_reason": "Abandoned/Junk Vehicles",
    "date_created": "2024-05-15T14:19:19.000",
    "date_modified": "2024-05-15T14:19:19.000",
    "request_status": "Pending",
    "responsible_agency": "Department of Public Works",
    "final_address": "3405 Coliseum St",
    "address_councildis": "B",
    "status": "Pending",
    "rowid": "1093499",
    "final_x": "3674488.45704",
    "final_y": "520571.029496",
    "longitude": "-90.09058525042185",
    "latitude": "29.925600626643256",
    "geocoded_column": {
      "latitude": "29.925600626643256",
      "longitude": "-90.09058525042185"
    }
  },
  {
    "service_request": "2024-1093498",
    "request_type": "Trash/Recycling",
    "request_reason": "Repair Trash Cart",
    "date_created": "2024-05-15T14:18:35.000",
    "date_modified": "2024-05-15T15:46:34.000",
    "case_close_date": "2024-05-15T10:46:33.000",
    "request_status": "Closed",
    "responsible_agency": "Department of Sanitation",
    "final_address": "2720 Octavia St",
    "address_councildis": "A",
    "status": "Duplicate Request",
    "contractor": "IV Waste",
    "contractor_action": "Duplicate",
    "rowid": "1093498",
    "final_x": "3667868.31188",
    "final_y": "525544.564797",
    "longitude": "-90.11131565810533",
    "latitude": "29.93947202817648",
    "geocoded_column": {
      "latitude": "29.93947202817648",
      "longitude": "-90.11131565810533"
    }
  },
  {
    "service_request": "2024-1093497",
    "request_type": "Trash/Recycling",
    "request_reason": "Repair Recycling Cart",
    "date_created": "2024-05-15T14:16:38.000",
    "date_modified": "2024-05-15T14:16:38.000",
    "request_status": "Pending",
    "responsible_agency": "Department of Sanitation",
    "final_address": "5919 Pratt Dr",
    "address_councildis": "D",
    "status": "Pending",
    "rowid": "1093497",
    "final_x": "3680324.22248",
    "final_y": "554371.248152",
    "longitude": "-90.0709880764515",
    "latitude": "30.018364248173476",
    "geocoded_column": {
      "latitude": "30.018364248173476",
      "longitude": "-90.0709880764515"
    }
  },
  {
    "service_request": "2024-1093496",
    "request_type": "Property Maintenance",
    "request_reason": "Property Maintenance",
    "date_created": "2024-05-15T14:15:12.000",
    "date_modified": "2024-05-15T14:44:03.000",
    "case_close_date": "2024-05-15T09:44:03.000",
    "request_status": "Closed",
    "responsible_agency": "Department of Code Enforcement",
    "final_address": "2516 Deslonde St",
    "address_councildis": "E",
    "status": "Referred to Code Enforcement",
    "rowid": "1093496",
    "final_x": "3696843.46013",
    "final_y": "539781.707338",
    "longitude": "-90.01932230182996",
    "latitude": "29.977737650293093",
    "geocoded_column": {
      "latitude": "29.977737650293093",
      "longitude": "-90.01932230182996"
    }
  },
  {
    "service_request": "2024-1093495",
    "request_type": "Parks & Parkways",
    "request_reason": "Request Tree Service (Right of Way/Public Property)",
    "date_created": "2024-05-15T14:13:44.000",
    "date_modified": "2024-05-15T14:13:45.000",
    "request_status": "Pending",
    "responsible_agency": "Department of Parks & Parkway",
    "final_address": "2516 Deslonde St",
    "address_councildis": "E",
    "status": "Pending",
    "rowid": "1093495",
    "final_x": "3696843.46013",
    "final_y": "539781.707338",
    "longitude": "-90.01932230182996",
    "latitude": "29.977737650293093",
    "geocoded_column": {
      "latitude": "29.977737650293093",
      "longitude": "-90.01932230182996"
    }
  },
  {
    "service_request": "2024-1093494",
    "request_type": "Roads/Drainage",
    "request_reason": "Damaged Sidewalk",
    "date_created": "2024-05-15T14:12:56.000",
    "date_modified": "2024-05-15T15:50:03.000",
    "request_status": "Pending",
    "responsible_agency": "Department of Public Works",
    "final_address": "7305 Sheffield St",
    "address_councildis": "E",
    "status": "Inspected",
    "rowid": "1093494",
    "final_x": "3699676.4328",
    "final_y": "559250.049116",
    "longitude": "-90.00966455629998",
    "latitude": "30.031178665630776",
    "geocoded_column": {
      "latitude": "30.031178665630776",
      "longitude": "-90.00966455629998"
    }
  },
  {
    "service_request": "2024-1093493",
    "request_type": "Parks & Parkways",
    "request_reason": "Request Tree Service (Right of Way/Public Property)",
    "date_created": "2024-05-15T14:10:31.000",
    "date_modified": "2024-05-15T14:15:23.000",
    "request_status": "Pending",
    "responsible_agency": "Department of Parks & Parkway",
    "final_address": "7305 Sheffield St",
    "address_councildis": "E",
    "status": "Pending",
    "rowid": "1093493",
    "final_x": "3699676.4328",
    "final_y": "559250.049116",
    "longitude": "-90.00966455629998",
    "latitude": "30.031178665630776",
    "geocoded_column": {
      "latitude": "30.031178665630776",
      "longitude": "-90.00966455629998"
    }
  },
  {
    "service_request": "2024-1093492",
    "request_type": "Trash/Recycling",
    "request_reason": "Missed Trash Pick-Up",
    "date_created": "2024-05-15T14:10:27.000",
    "date_modified": "2024-05-15T15:30:06.000",
    "case_close_date": "2024-05-15T10:30:06.000",
    "request_status": "Closed",
    "responsible_agency": "Department of Sanitation",
    "final_address": "4836 Pitt St",
    "address_councildis": "B",
    "status": "Invalid Request",
    "contractor": "IV Waste",
    "contractor_action": "Invalid",
    "rowid": "1093492",
    "final_x": "3669102.61146",
    "final_y": "520365.186616",
    "longitude": "-90.10759372060228",
    "latitude": "29.925194143503003",
    "geocoded_column": {
      "latitude": "29.925194143503003",
      "longitude": "-90.10759372060228"
    }
  },
  {
    "service_request": "2024-1093491",
    "request_type": "Parks & Parkways",
    "request_reason": "Request Tree Service (Right of Way/Public Property)",
    "date_created": "2024-05-15T14:09:24.000",
    "date_modified": "2024-05-15T14:09:25.000",
    "request_status": "Pending",
    "responsible_agency": "Department of Parks & Parkway",
    "final_address": "1120 N Gayoso St",
    "address_councildis": "A",
    "status": "Pending",
    "rowid": "1093491",
    "final_x": "3676664.67272",
    "final_y": "539135.784842",
    "longitude": "-90.08307616206028",
    "latitude": "29.97658243424772",
    "geocoded_column": {
      "latitude": "29.97658243424772",
      "longitude": "-90.08307616206028"
    }
  },
  {
    "service_request": "2024-1093490",
    "request_type": "Abandoned Vehicles",
    "request_reason": "Abandoned/Junk Vehicles",
    "date_created": "2024-05-15T14:09:19.000",
    "date_modified": "2024-05-15T14:09:19.000",
    "request_status": "Pending",
    "responsible_agency": "Department of Public Works",
    "final_address": "1300 BLK Harrison Ave",
    "address_councildis": "D",
    "status": "Pending",
    "rowid": "1093490",
    "final_x": "3677807.94028",
    "final_y": "547585.593593",
    "longitude": "-90.07917327136946",
    "latitude": "29.999782109295076",
    "geocoded_column": {
      "latitude": "29.999782109295076",
      "longitude": "-90.07917327136946"
    }
  },
  {
    "service_request": "2024-1093489",
    "request_type": "Trash/Recycling",
    "request_reason": "Order Trash Cart",
    "date_created": "2024-05-15T14:08:11.000",
    "date_modified": "2024-05-15T14:08:12.000",
    "request_status": "Pending",
    "responsible_agency": "Department of Sanitation",
    "final_address": "4718 E Adams Ct",
    "address_councildis": "E",
    "status": "Assigned to Contractor",
    "contractor": "Waste Pro",
    "rowid": "1093489",
    "final_x": "3718711.08101",
    "final_y": "556930.600026",
    "longitude": "-89.94960363906442",
    "latitude": "30.0241827675825",
    "geocoded_column": {
      "latitude": "30.0241827675825",
      "longitude": "-89.94960363906442"
    }
  },
  {
    "service_request": "2024-1093488",
    "request_type": "Roads/Drainage",
    "request_reason": "Debris in Roadway",
    "date_created": "2024-05-15T14:07:20.000",
    "date_modified": "2024-05-15T15:14:01.000",
    "case_close_date": "2024-05-15T10:14:01.000",
    "request_status": "Closed",
    "responsible_agency": "Department of Public Works",
    "final_address": "OLD GENTILLY RD & LOUISA ST",
    "address_councildis": "D",
    "status": "Resolved",
    "rowid": "1093488",
    "final_x": "3691562.7",
    "final_y": "549283.78",
    "longitude": "-90.03566081991953",
    "latitude": "30.004030369093243",
    "geocoded_column": {
      "latitude": "30.004030369093243",
      "longitude": "-90.03566081991953"
    }
  },
  {
    "service_request": "2024-1093487",
    "request_type": "Health Related Request",
    "request_reason": "Noise Ordinance Complaint",
    "date_created": "2024-05-15T14:03:19.000",
    "date_modified": "2024-05-15T14:04:08.000",
    "request_status": "Pending",
    "responsible_agency": "Health Department",
    "final_address": "SERVICE RD & PROVIDENCE PL & NEW YORK ST",
    "address_councildis": "D",
    "status": "Pending",
    "rowid": "1093487",
    "final_x": "3688082.5",
    "final_y": "556891.08",
    "longitude": "-90.04638543168073",
    "latitude": "30.025055552590924",
    "geocoded_column": {
      "latitude": "30.025055552590924",
      "longitude": "-90.04638543168073"
    }
  },
  {
    "service_request": "2024-1093486",
    "request_type": "Trash/Recycling",
    "request_reason": "Change Size of Trash Cart",
    "date_created": "2024-05-15T14:02:04.000",
    "date_modified": "2024-05-15T14:02:05.000",
    "request_status": "Pending",
    "responsible_agency": "Department of Sanitation",
    "final_address": "6127 Constance St",
    "address_councildis": "A",
    "status": "Assigned to Contractor",
    "contractor": "IV Waste",
    "rowid": "1093486",
    "final_x": "3663858.42138",
    "final_y": "519212.397559",
    "longitude": "-90.12418643388357",
    "latitude": "29.922177545903832",
    "geocoded_column": {
      "latitude": "29.922177545903832",
      "longitude": "-90.12418643388357"
    }
  },
  {
    "service_request": "2024-1093485",
    "request_type": "Trash/Recycling",
    "request_reason": "Request a Large Item Pick Up",
    "date_created": "2024-05-15T13:58:45.000",
    "date_modified": "2024-05-15T13:58:46.000",
    "request_status": "Pending",
    "responsible_agency": "Department of Sanitation",
    "final_address": "6700 Plaza Dr",
    "address_councildis": "E",
    "status": "Assigned to Contractor",
    "contractor": "Waste Pro",
    "rowid": "1093485",
    "final_x": "3708600.87569",
    "final_y": "559744.969757",
    "longitude": "-89.98144479994687",
    "latitude": "30.032253010900185",
    "geocoded_column": {
      "latitude": "30.032253010900185",
      "longitude": "-89.98144479994687"
    }
  },
  {
    "service_request": "2024-1093484",
    "request_type": "Trash/Recycling",
    "request_reason": "Return Recycling Cart",
    "date_created": "2024-05-15T13:55:26.000",
    "date_modified": "2024-05-15T13:55:26.000",
    "request_status": "Pending",
    "responsible_agency": "Department of Sanitation",
    "final_address": "1457 N Roman St",
    "address_councildis": "D",
    "status": "Pending",
    "rowid": "1093484",
    "final_x": "3681005.06063",
    "final_y": "537477.627912",
    "longitude": "-90.06942565666895",
    "latitude": "29.971892141205515",
    "geocoded_column": {
      "latitude": "29.971892141205515",
      "longitude": "-90.06942565666895"
    }
  },
  {
    "service_request": "2024-1093483",
    "request_type": "Trash/Recycling",
    "request_reason": "Order Recycling Cart",
    "date_created": "2024-05-15T13:54:38.000",
    "date_modified": "2024-05-15T13:54:38.000",
    "request_status": "Pending",
    "responsible_agency": "Department of Sanitation",
    "final_address": "1457 N Roman St",
    "address_councildis": "D",
    "status": "Pending",
    "rowid": "1093483",
    "final_x": "3681005.06063",
    "final_y": "537477.627912",
    "longitude": "-90.06942565666895",
    "latitude": "29.971892141205515",
    "geocoded_column": {
      "latitude": "29.971892141205515",
      "longitude": "-90.06942565666895"
    }
  },
  {
    "service_request": "2024-1093482",
    "request_type": "Property Maintenance",
    "request_reason": "Property Maintenance",
    "date_created": "2024-05-15T13:47:25.000",
    "date_modified": "2024-05-15T13:47:26.000",
    "request_status": "Pending",
    "responsible_agency": "Department of Code Enforcement",
    "final_address": "2135 Third St",
    "address_councildis": "B",
    "status": "Pending",
    "rowid": "1093482",
    "final_x": "3675323.51848",
    "final_y": "524622.868092",
    "longitude": "-90.08781018245006",
    "latitude": "29.936716936613802",
    "geocoded_column": {
      "latitude": "29.936716936613802",
      "longitude": "-90.08781018245006"
    }
  },
  {
    "service_request": "2024-1093481",
    "request_type": "Trash/Recycling",
    "request_reason": "Order Trash Cart",
    "date_created": "2024-05-15T13:47:05.000",
    "date_modified": "2024-05-15T13:47:06.000",
    "request_status": "Pending",
    "responsible_agency": "Department of Sanitation",
    "final_address": "2316 Mandeville St",
    "address_councildis": "D",
    "status": "Assigned to Contractor",
    "contractor": "IV Waste",
    "rowid": "1093481",
    "final_x": "3685375.14588",
    "final_y": "540923.505931",
    "longitude": "-90.0555028976433",
    "latitude": "29.98123383025839",
    "geocoded_column": {
      "latitude": "29.98123383025839",
      "longitude": "-90.0555028976433"
    }
  },
  {
    "service_request": "2024-1093480",
    "request_type": "Trash/Recycling",
    "request_reason": "Missed Trash Pick-Up",
    "date_created": "2024-05-15T13:45:29.000",
    "date_modified": "2024-05-15T13:45:30.000",
    "request_status": "Pending",
    "responsible_agency": "Department of Sanitation",
    "final_address": "5582 Tullis Dr",
    "address_councildis": "C",
    "status": "Assigned to Contractor",
    "contractor": "Richards Disposal",
    "rowid": "1093480",
    "final_x": "3704650.66743",
    "final_y": "512353.252721",
    "longitude": "-89.99567595098128",
    "latitude": "29.90207060332377",
    "geocoded_column": {
      "latitude": "29.90207060332377",
      "longitude": "-89.99567595098128"
    }
  },
  {
    "service_request": "2024-1093479",
    "request_type": "Trash/Recycling",
    "request_reason": "Order Recycling Cart",
    "date_created": "2024-05-15T13:41:51.000",
    "date_modified": "2024-05-15T13:42:16.000",
    "request_status": "Pending",
    "responsible_agency": "Department of Sanitation",
    "final_address": "9523 Palm St",
    "address_councildis": "A",
    "status": "Pending",
    "rowid": "1093479",
    "final_x": "3663959.19245",
    "final_y": "538178.321545",
    "longitude": "-90.12323609057182",
    "latitude": "29.97432480420421",
    "geocoded_column": {
      "latitude": "29.97432480420421",
      "longitude": "-90.12323609057182"
    }
  },