[
  {
    "service_request": "2022-899925",
    "request_type": "Traffic Signals/Signs/Striping/Streetlights",
    "request_reason": "Traffic Signal Malfunctioning/Damaged",
    "date_created": "2022-07-14T00:20:12.000",
    "date_modified": "2022-07-14T00:20:13.000",
    "request_status": "Pending",
    "responsible_agency": "Department of Public Works",
    "final_address": "S CLAIBORNE AVE & TULANE AVE",
    "address_councildis": "B",
    "status": "Pending",
    "rowid": "899925",
    "final_x": "3677861.38",
    "final_y": "531973.19",
    "longitude": "-90.07954411965169",
    "latitude": "29.95685177850218",
    "geocoded_column": {
      "latitude": "29.95685177850218",
      "longitude": "-90.07954411965169"
    }
  },
  {
    "service_request": "2022-899924",
    "request_type": "Trash/Recycling",
    "request_reason": "MIssed Recycling Pick-Up",
    "date_created": "2022-07-14T00:03:36.000",
    "date_modified": "2022-07-14T00:03:37.000",
    "request_status": "Pending",
    "responsible_agency": "Department of Sanitation",
    "final_address": "1224 Esplanade Ave",
    "address_councildis": "C",
    "status": "Assigned to Contractor",
    "contractor": "Richards Disposal",
    "rowid": "899924",
    "final_x": "3682329.84847",
    "final_y": "535669.855111",
    "longitude": "-90.06530495067202",
    "latitude": "29.966881142946736",
    "geocoded_column": {
      "latitude": "29.966881142946736",
      "longitude": "-90.06530495067202"
    }
  },
  {
    "service_request": "2022-899923",
    "request_type": "Traffic Signals/Signs/Striping/Streetlights",
    "request_reason": "Street Light Outage/Malfunction",
    "date_created": "2022-07-13T23:53:15.000",
    "date_modified": "2022-07-13T23:53:16.000",
    "request_status": "Pending",
    "responsible_agency": "Department of Public Works",
    "final_address": "2401 Orleans Ave Apt A",
    "address_councildis": "D",
    "status": "Pending",
    "contractor": "Royal Engineering",
    "rowid": "899923",
    "final_x": "3677881.68718",
    "final_y": "536282.793991",
    "longitude": "-90.07933106671439",
    "latitude": "29.96870111802159",
    "geocoded_column": {
      "latitude": "29.96870111802159",
      "longitude": "-90.07933106671439"
    }
  },
  {
    "service_request": "2022-899922",
    "request_type": "Traffic Signals/Signs/Striping/Streetlights",
    "request_reason": "Street Light Outage/Malfunction",
    "date_created": "2022-07-13T23:26:49.000",
    "date_modified": "2022-07-13T23:26:50.000",
    "request_status": "Pending",
    "responsible_agency": "Department of Public Works",
    "final_address": "3756 Silver Maple Ct",
    "address_councildis": "C",
    "status": "Pending",
    "contractor": "Royal Engineering",
    "rowid": "899922",
    "final_x": "3703557.16772",
    "final_y": "512685.254193",
    "longitude": "-89.99911475528921",
    "latitude": "29.90301855067364",
    "geocoded_column": {
      "latitude": "29.90301855067364",
      "longitude": "-89.99911475528921"
    }
  },
  {
    "service_request": "2022-899921",
    "request_type": "Traffic Signals/Signs/Striping/Streetlights",
    "request_reason": "Street Light Outage/Malfunction",
    "date_created": "2022-07-13T23:22:56.000",
    "date_modified": "2022-07-13T23:22:56.000",
    "request_status": "Pending",
    "responsible_agency": "Department of Public Works",
    "final_address": "3772 Silver Maple Ct",
    "address_councildis": "C",
    "status": "Pending",
    "contractor": "Royal Engineering",
    "rowid": "899921",
    "final_x": "3703629.24273",
    "final_y": "512674.552113",
    "longitude": "-89.99888768305408",
    "latitude": "29.902986815742096",
    "geocoded_column": {
      "latitude": "29.902986815742096",
      "longitude": "-89.99888768305408"
    }
  },
  {
    "service_request": "2022-899920",
    "request_type": "Traffic Signals/Signs/Striping/Streetlights",
    "request_reason": "Street Light Outage/Malfunction",
    "date_created": "2022-07-13T23:20:43.000",
    "date_modified": "2022-07-13T23:20:43.000",
    "request_status": "Pending",
    "responsible_agency": "Department of Public Works",
    "final_address": "3772 Silver Maple Ct",
    "address_councildis": "C",
    "status": "Pending",
    "contractor": "Royal Engineering",
    "rowid": "899920",
    "final_x": "3703629.24273",
    "final_y": "512674.552113",
    "longitude": "-89.99888768305408",
    "latitude": "29.902986815742096",
    "geocoded_column": {
      "latitude": "29.902986815742096",
      "longitude": "-89.99888768305408"
    }
  },
  {
    "service_request": "2022-899919",
    "request_type": "Traffic Signals/Signs/Striping/Streetlights",
    "request_reason": "Street Light Outage/Malfunction",
    "date_created": "2022-07-13T23:15:17.000",
    "date_modified": "2022-07-13T23:15:18.000",
    "request_status": "Pending",
    "responsible_agency": "Department of Public Works",
    "final_address": "3501 Silver Maple Ct",
    "address_councildis": "C",
    "status": "Pending",
    "contractor": "Royal Engineering",
    "rowid": "899919",
    "final_x": "3703509.25694",
    "final_y": "512422.170737",
    "longitude": "-89.9992756263009",
    "latitude": "29.902296694216",
    "geocoded_column": {
      "latitude": "29.902296694216",
      "longitude": "-89.9992756263009"
    }
  },
  {
    "service_request": "2022-899918",
    "request_type": "Trash/Recycling",
    "request_reason": "Replace Trash Cart",
    "date_created": "2022-07-13T23:07:22.000",
    "date_modified": "2022-07-13T23:07:23.000",
    "request_status": "Pending",
    "responsible_agency": "Department of Sanitation",
    "final_address": "3525 Palmyra St",
    "address_councildis": "B",
    "status": "Assigned to Contractor",
    "contractor": "Richards Disposal",
    "rowid": "899918",
    "final_x": "3672208.55585",
    "final_y": "536549.845191",
    "longitude": "-90.09723808304186",
    "latitude": "29.969604915992807",
    "geocoded_column": {
      "latitude": "29.969604915992807",
      "longitude": "-90.09723808304186"
    }
  },
  {
    "service_request": "2022-899917",
    "request_type": "Traffic Signals/Signs/Striping/Streetlights",
    "request_reason": "Street Light Outage/Malfunction",
    "date_created": "2022-07-13T22:58:28.000",
    "date_modified": "2022-07-13T22:58:29.000",
    "request_status": "Pending",
    "responsible_agency": "Department of Public Works",
    "final_address": "810 Union St",
    "address_councildis": "B",
    "status": "Pending",
    "contractor": "Royal Engineering",
    "rowid": "899917",
    "final_x": "3680368.51701",
    "final_y": "530027.407425",
    "longitude": "-90.07169502982795",
    "latitude": "29.951425862794252",
    "geocoded_column": {
      "latitude": "29.951425862794252",
      "longitude": "-90.07169502982795"
    }
  },
  {
    "service_request": "2022-899916",
    "request_type": "Roads/Drainage",
    "request_reason": "Pothole",
    "date_created": "2022-07-13T22:58:06.000",
    "date_modified": "2022-07-13T22:58:06.000",
    "request_status": "Pending",
    "responsible_agency": "Department of Public Works",
    "final_address": "4350 Stemway Dr",
    "address_councildis": "D",
    "status": "Pending",
    "rowid": "899916",
    "final_x": "3697127.85027",
    "final_y": "552177.451286",
    "longitude": "-90.01797468622043",
    "latitude": "30.01181241199822",
    "geocoded_column": {
      "latitude": "30.01181241199822",
      "longitude": "-90.01797468622043"
    }
  },
  {
    "service_request": "2022-899914",
    "request_type": "Traffic Signals/Signs/Striping/Streetlights",
    "request_reason": "Street Light Outage/Malfunction",
    "date_created": "2022-07-13T22:54:32.000",
    "date_modified": "2022-07-13T22:54:33.000",
    "request_status": "Pending",
    "responsible_agency": "Department of Public Works",
    "final_address": "4522 Shalimar Dr",
    "address_councildis": "D",
    "status": "Pending",
    "contractor": "Royal Engineering",
    "rowid": "899914",
    "final_x": "3697208.50979",
    "final_y": "553106.226455",
    "longitude": "-90.0176861576435",
    "latitude": "30.014363648323393",
    "geocoded_column": {
      "latitude": "30.014363648323393",
      "longitude": "-90.0176861576435"
    }
  },
  {
    "service_request": "2022-899913",
    "request_type": "Traffic Signals/Signs/Striping/Streetlights",
    "request_reason": "Street Light Outage/Malfunction",
    "date_created": "2022-07-13T22:50:14.000",
    "date_modified": "2022-07-13T22:50:14.000",
    "request_status": "Pending",
    "responsible_agency": "Department of Public Works",
    "final_address": "1509 Pine St",
    "address_councildis": "A",
    "status": "Pending",
    "contractor": "Royal Engineering",
    "rowid": "899913",
    "final_x": "3664629.29428",
    "final_y": "527619.960319",
    "longitude": "-90.12147241322484",
    "latitude": "29.945273287010295",
    "geocoded_column": {
      "latitude": "29.945273287010295",
      "longitude": "-90.12147241322484"
    }
  },
  {
    "service_request": "2022-899912",
    "request_type": "Trash/Recycling",
    "request_reason": "MIssed Recycling Pick-Up",
    "date_created": "2022-07-13T22:35:37.000",
    "date_modified": "2022-07-13T22:35:38.000",
    "request_status": "Pending",
    "responsible_agency": "Department of Sanitation",
    "final_address": "2836 Chippewa St",
    "address_councildis": "B",
    "status": "Assigned to Contractor",
    "contractor": "Richards Disposal",
    "rowid": "899912",
    "final_x": "3677643.69474",
    "final_y": "519367.486583",
    "longitude": "-90.08066665906492",
    "latitude": "29.922196800451434",
    "geocoded_column": {
      "latitude": "29.922196800451434",
      "longitude": "-90.08066665906492"
    }
  },
  {
    "service_request": "2022-899911",
    "request_type": "Mosquito, Termite & Rodent Control",
    "request_reason": "Mosquito Complaint",
    "date_created": "2022-07-13T22:28:47.000",
    "date_modified": "2022-07-13T22:28:47.000",
    "request_status": "Pending",
    "responsible_agency": "Mosquito, Termite & Rodent Control Board",
    "final_address": "5438 N Prieur St",
    "address_councildis": "E",
    "status": "Pending",
    "rowid": "899911",
    "final_x": "3698340.99421",
    "final_y": "536837.69332",
    "longitude": "-90.01469960594203",
    "latitude": "29.96959536797665",
    "geocoded_column": {
      "latitude": "29.96959536797665",
      "longitude": "-90.01469960594203"
    }
  },
  {
    "service_request": "2022-899908",
    "request_type": "Roads/Drainage",
    "request_reason": "Ditch Issue",
    "date_created": "2022-07-13T21:55:37.000",
    "date_modified": "2022-07-13T21:55:37.000",
    "request_status": "Pending",
    "responsible_agency": "Department of Public Works",
    "final_address": "3200 Iowa St",
    "address_councildis": "C",
    "status": "Pending",
    "rowid": "899908",
    "final_x": "3694305.84355",
    "final_y": "520797.420537",
    "longitude": "-90.02801996680303",
    "latitude": "29.925617252136263",
    "geocoded_column": {
      "latitude": "29.925617252136263",
      "longitude": "-90.02801996680303"
    }
  },
  {
    "service_request": "2022-899907",
    "request_type": "Trash/Recycling",
    "request_reason": "Missed Trash Pick-Up",
    "date_created": "2022-07-13T21:53:53.000",
    "date_modified": "2022-07-13T21:53:54.000",
    "request_status": "Pending",
    "responsible_agency": "Department of Sanitation",
    "final_address": "7560 Parry St",
    "address_councildis": "E",
    "status": "Assigned to Contractor",
    "contractor": "Metro Disposal",
    "rowid": "899907",
    "final_x": "3714551.61547",
    "final_y": "568113.265061",
    "longitude": "-89.96232384503374",
    "latitude": "30.05506804558295",
    "geocoded_column": {
      "latitude": "30.05506804558295",
      "longitude": "-89.96232384503374"
    }
  },
  {
    "service_request": "2022-899906",
    "request_type": "Abandoned Vehicles",
    "request_reason": "Abandoned/Junk Vehicles",
    "date_created": "2022-07-13T21:52:59.000",
    "date_modified": "2022-07-13T21:52:59.000",
    "request_status": "Pending",
    "responsible_agency": "Department of Public Works",
    "final_address": "1105 Shirley Dr",
    "address_councildis": "C",
    "status": "Pending",
    "rowid": "899906",
    "final_x": "3693055.6927",
    "final_y": "527359.102399",
    "longitude": "-90.03173100576107",
    "latitude": "29.943698739041345",
    "geocoded_column": {
      "latitude": "29.943698739041345",
      "longitude": "-90.03173100576107"
    }
  },
  {
    "service_request": "2022-899904",
    "request_type": "Roads/Drainage",
    "request_reason": "Accessibility Ramps, Curbs and Sidewalk Repair",
    "date_created": "2022-07-13T21:37:25.000",
    "date_modified": "2022-07-13T21:37:25.000",
    "request_status": "Pending",
    "responsible_agency": "Department of Public Works",
    "final_address": "3007 Republic St",
    "address_councildis": "D",
    "status": "Pending",
    "rowid": "899904",
    "final_x": "3680673.26139",
    "final_y": "543452.349902",
    "longitude": "-90.07026553528672",
    "latitude": "29.988330606169644",
    "geocoded_column": {
      "latitude": "29.988330606169644",
      "longitude": "-90.07026553528672"
    }
  },
  {
    "service_request": "2022-899903",
    "request_type": "Abandoned Vehicles",
    "request_reason": "Abandoned/Junk Vehicles",
    "date_created": "2022-07-13T21:33:29.000",
    "date_modified": "2022-07-13T21:33:29.000",
    "request_status": "Pending",
    "responsible_agency": "Department of Public Works",
    "final_address": "6600 Almonaster Ave",
    "address_councildis": "E",
    "status": "Pending",
    "rowid": "899903",
    "final_x": "3699437.84567",
    "final_y": "549395.011091",
    "longitude": "-90.0107779462199",
    "latitude": "30.004088631325295",
    "geocoded_column": {
      "latitude": "30.004088631325295",
      "longitude": "-90.0107779462199"
    }
  },
  {
    "service_request": "2022-899902",
    "request_type": "Trash/Recycling",
    "request_reason": "Missed Trash Pick-Up",
    "date_created": "2022-07-13T21:25:34.000",
    "date_modified": "2022-07-13T21:25:34.000",
    "request_status": "Pending",
    "responsible_agency": "Department of Sanitation",
    "final_address": "7656 Anne Marie Ct, New Orleans, Louisiana, 70128",
    "address_councildis": "E",
    "status": "Assigned to Contractor",
    "contractor": "Metro Disposal",
    "rowid": "899902",
    "final_x": "3717737.04057",
    "final_y": "571303.543272",
    "longitude": "-89.95213394696222",
    "latitude": "30.063734802869117",
    "geocoded_column": {
      "latitude": "30.063734802869117",
      "longitude": "-89.95213394696222"
    }
  },
  {
    "service_request": "2022-899901",
    "request_type": "Trash/Recycling",
    "request_reason": "Replace Trash Cart",
    "date_created": "2022-07-13T21:10:46.000",
    "date_modified": "2022-07-13T21:10:47.000",
    "request_status": "Pending",
    "responsible_agency": "Department of Sanitation",
    "final_address": "1409 Music St",
    "address_councildis": "C",
    "status": "Assigned to Contractor",
    "contractor": "Metro Disposal",
    "rowid": "899901",
    "final_x": "3686788.62959",
    "final_y": "537656.283656",
    "longitude": "-90.05115395620412",
    "latitude": "29.97220670003207",
    "geocoded_column": {
      "latitude": "29.97220670003207",
      "longitude": "-90.05115395620412"
    }
  },
  {
    "service_request": "2022-899900",
    "request_type": "Roads/Drainage",
    "request_reason": "Pothole",
    "date_created": "2022-07-13T20:58:13.000",
    "date_modified": "2022-07-13T20:58:13.000",
    "request_status": "Pending",
    "responsible_agency": "Department of Public Works",
    "final_address": "2304 Joliet St",
    "address_councildis": "A",
    "status": "Pending",
    "rowid": "899900",
    "final_x": "3663514.15603",
    "final_y": "532255.172803",
    "longitude": "-90.12483892312723",
    "latitude": "29.958051006768624",
    "geocoded_column": {
      "latitude": "29.958051006768624",
      "longitude": "-90.12483892312723"
    }
  },
  {
    "service_request": "2022-899899",
    "request_type": "Roads/Drainage",
    "request_reason": "Catch Basin - Broken/Damage",
    "date_created": "2022-07-13T20:58:11.000",
    "date_modified": "2022-07-13T20:58:11.000",
    "request_status": "Pending",
    "responsible_agency": "Department of Public Works",
    "final_address": "4620 Magazine St",
    "address_councildis": "B",
    "status": "Pending",
    "rowid": "899899",
    "final_x": "3670117.3995",
    "final_y": "518650.250487",
    "longitude": "-90.1044484078757",
    "latitude": "29.92044872575792",
    "geocoded_column": {
      "latitude": "29.92044872575792",
      "longitude": "-90.1044484078757"
    }
  },
  {
    "service_request": "2022-899898",
    "request_type": "Roads/Drainage",
    "request_reason": "Pothole",
    "date_created": "2022-07-13T20:50:34.000",
    "date_modified": "2022-07-13T20:50:34.000",
    "request_status": "Pending",
    "responsible_agency": "Department of Public Works",
    "final_address": "2310 Joliet St",
    "address_councildis": "A",
    "status": "Pending",
    "rowid": "899898",
    "final_x": "3663553.91891",
    "final_y": "532298.707843",
    "longitude": "-90.12471191243446",
    "latitude": "29.958169560772188",
    "geocoded_column": {
      "latitude": "29.958169560772188",
      "longitude": "-90.12471191243446"
    }
  },
  {
    "service_request": "2022-899897",
    "request_type": "Property Maintenance",
    "request_reason": "Property Maintenance",
    "date_created": "2022-07-13T20:44:26.000",
    "date_modified": "2022-07-13T20:44:26.000",
    "request_status": "Pending",
    "responsible_agency": "Department of Code Enforcement",
    "final_address": "3003 Banks St",
    "address_councildis": "B",
    "status": "Pending",
    "rowid": "899897",
    "final_x": "3673617.8916",
    "final_y": "534982.759558",
    "longitude": "-90.09284084954122",
    "latitude": "29.96525407930724",
    "geocoded_column": {
      "latitude": "29.96525407930724",
      "longitude": "-90.09284084954122"
    }
  },
  {
    "service_request": "2022-899896",
    "request_type": "Trash/Recycling",
    "request_reason": "Missed Trash Pick-Up",
    "date_created": "2022-07-13T20:39:47.000",
    "date_modified": "2022-07-13T20:39:47.000",
    "request_status": "Pending",
    "responsible_agency": "Department of Sanitation",
    "final_address": "6931 Camberley Ct",
    "address_councildis": "E",
    "status": "Assigned to Contractor",
    "contractor": "Metro Disposal",
    "rowid": "899896",
    "final_x": "3713549.83109",
    "final_y": "564277.919201",
    "longitude": "-89.9656349433286",
    "latitude": "30.044555325180863",
    "geocoded_column": {
      "latitude": "30.044555325180863",
      "longitude": "-89.9656349433286"
    }
  },
  {
    "service_request": "2022-899895",
    "request_type": "Roads/Drainage",
    "request_reason": "Alley Way",
    "date_created": "2022-07-13T20:35:47.000",
    "date_modified": "2022-07-13T20:35:47.000",
    "request_status": "Pending",
    "responsible_agency": "Department of Public Works",
    "final_address": "5564 Woodlawn Pl",
    "address_councildis": "A",
    "status": "Pending",
    "rowid": "899895",
    "final_x": "3667384.57901",
    "final_y": "544336.210831",
    "longitude": "-90.11221061582651",
    "latitude": "29.99115700415472",
    "geocoded_column": {
      "latitude": "29.99115700415472",
      "longitude": "-90.11221061582651"
    }
  },
  {
    "service_request": "2022-899894",
    "request_type": "Trash/Recycling",
    "request_reason": "Missed Trash Pick-Up",
    "date_created": "2022-07-13T20:34:51.000",
    "date_modified": "2022-07-13T20:34:52.000",
    "request_status": "Pending",
    "responsible_agency": "Department of Sanitation",
    "final_address": "7800 BLK Star St",
    "address_councildis": "E",
    "status": "Assigned to Contractor",
    "contractor": "Metro Disposal",
    "rowid": "899894",
    "final_x": "3720821.09966",
    "final_y": "574314.900042",
    "longitude": "-89.94226959207461",
    "latitude": "30.07191218492557",
    "geocoded_column": {
      "latitude": "30.07191218492557",
      "longitude": "-89.94226959207461"
    }
  },
  {
    "service_request": "2022-899893",
    "request_type": "Trash/Recycling",
    "request_reason": "MIssed Recycling Pick-Up",
    "date_created": "2022-07-13T20:13:23.000",
    "date_modified": "2022-07-13T20:13:24.000",
    "request_status": "Pending",
    "responsible_agency": "Department of Sanitation",
    "final_address": "3419 Cherry St",
    "address_councildis": "A",
    "status": "Assigned to Contractor",
    "contractor": "Richards Disposal",
    "rowid": "899893",
    "final_x": "3664254.88045",
    "final_y": "537114.446216",
    "longitude": "-90.12233774429816",
    "latitude": "29.9713909103089",
    "geocoded_column": {
      "latitude": "29.9713909103089",
      "longitude": "-90.12233774429816"
    }
  },
  {
    "service_request": "2022-899892",
    "request_type": "Trash/Recycling",
    "request_reason": "Order Trash Cart",
    "date_created": "2022-07-13T20:10:37.000",
    "date_modified": "2022-07-13T20:10:38.000",
    "request_status": "Pending",
    "responsible_agency": "Department of Sanitation",
    "final_address": "2420 S Robertson St",
    "address_councildis": "B",
    "status": "Assigned to Contractor",
    "contractor": "Richards Disposal",
    "rowid": "899892",
    "final_x": "3674806.25",
    "final_y": "526088.946238",
    "longitude": "-90.089392977503",
    "latitude": "29.94076362216719",
    "geocoded_column": {
      "latitude": "29.94076362216719",
      "longitude": "-90.089392977503"
    }
  },
  {
    "service_request": "2022-899891",
    "request_type": "Trash/Recycling",
    "request_reason": "Missed Trash Pick-Up",
    "date_created": "2022-07-13T20:04:02.000",
    "date_modified": "2022-07-13T20:04:03.000",
    "request_status": "Pending",
    "responsible_agency": "Department of Sanitation",
    "final_address": "11400 BLK Curran Rd",
    "address_councildis": "E",
    "status": "Assigned to Contractor",
    "contractor": "Metro Disposal",
    "rowid": "899891",
    "final_x": "3711453.78014",
    "final_y": "566740.860072",
    "longitude": "-89.97216689419868",
    "latitude": "30.05139604281692",
    "geocoded_column": {
      "latitude": "30.05139604281692",
      "longitude": "-89.97216689419868"
    }
  },
  {
    "service_request": "2022-899890",
    "request_type": "Trash/Recycling",
    "request_reason": "Missed Trash Pick-Up",
    "date_created": "2022-07-13T20:01:46.000",
    "date_modified": "2022-07-13T20:01:47.000",
    "request_status": "Pending",
    "responsible_agency": "Department of Sanitation",
    "final_address": "8036 Sandpiper Dr",
    "address_councildis": "E",
    "status": "Assigned to Contractor",
    "contractor": "Metro Disposal",
    "rowid": "899890",
    "final_x": "3715016.14789",
    "final_y": "570783.957287",
    "longitude": "-89.96075445187027",
    "latitude": "30.062396056784475",
    "geocoded_column": {
      "latitude": "30.062396056784475",
      "longitude": "-89.96075445187027"
    }
  },
  {
    "service_request": "2022-899889",
    "request_type": "Roads/Drainage",
    "request_reason": "Street Subsidence (Sinking)",
    "date_created": "2022-07-13T19:51:02.000",
    "date_modified": "2022-07-13T19:51:02.000",
    "request_status": "Pending",
    "responsible_agency": "Department of Public Works",
    "final_address": "4007 Toulouse St",
    "address_councildis": "A",
    "status": "Pending",
    "rowid": "899889",
    "final_x": "3672518.30574",
    "final_y": "539560.91297",
    "longitude": "-90.09615719212934",
    "latitude": "29.977875140727498",
    "geocoded_column": {
      "latitude": "29.977875140727498",
      "longitude": "-90.09615719212934"
    }
  },
  {
    "service_request": "2022-899888",
    "request_type": "Trash/Recycling",
    "request_reason": "Missed Trash Pick-Up",
    "date_created": "2022-07-13T19:49:12.000",
    "date_modified": "2022-07-13T19:49:12.000",
    "request_status": "Pending",
    "responsible_agency": "Department of Sanitation",
    "final_address": "4133 Vincennes Pl",
    "address_councildis": "B",
    "status": "Assigned to Contractor",
    "contractor": "Richards Disposal",
    "rowid": "899888",
    "final_x": "3668690.06023",
    "final_y": "530771.10797",
    "longitude": "-90.10854490304123",
    "latitude": "29.953819199199952",
    "geocoded_column": {
      "latitude": "29.953819199199952",
      "longitude": "-90.10854490304123"
    }
  },
  {
    "service_request": "2022-899887",
    "request_type": "Trash/Recycling",
    "request_reason": "Missed Trash Pick-Up",
    "date_created": "2022-07-13T19:42:29.000",
    "date_modified": "2022-07-13T19:42:30.000",
    "request_status": "Pending",
    "responsible_agency": "Department of Sanitation",
    "final_address": "7131 Queensway Dr",
    "address_councildis": "E",
    "status": "Assigned to Contractor",
    "contractor": "Metro Disposal",
    "rowid": "899887",
    "final_x": "3718943.30821",
    "final_y": "569910.122534",
    "longitude": "-89.94837413926567",
    "latitude": "30.059863441996015",
    "geocoded_column": {
      "latitude": "30.059863441996015",
      "longitude": "-89.94837413926567"
    }
  },
  {
    "service_request": "2022-899886",
    "request_type": "Parks & Parkways",
    "request_reason": "Request Tree Service (Right of Way/Public Property)",
    "date_created": "2022-07-13T19:37:18.000",
    "date_modified": "2022-07-13T19:37:18.000",
    "request_status": "Pending",
    "responsible_agency": "Department of Parks & Parkway",
    "final_address": "6601 Bellaire Dr",
    "address_councildis": "A",
    "status": "Pending",
    "rowid": "899886",
    "final_x": "3664591.7138",
    "final_y": "551988.84367",
    "longitude": "-90.12077686518003",
    "latitude": "30.012280656851015",
    "geocoded_column": {
      "latitude": "30.012280656851015",
      "longitude": "-90.12077686518003"
    }
  },
  {
    "service_request": "2022-899885",
    "request_type": "Trash/Recycling",
    "request_reason": "Missed Trash Pick-Up",
    "date_created": "2022-07-13T19:37:03.000",
    "date_modified": "2022-07-13T19:37:04.000",
    "request_status": "Pending",
    "responsible_agency": "Department of Sanitation",
    "final_address": "1913 First St",
    "address_councildis": "B",
    "status": "Assigned to Contractor",
    "contractor": "Richards Disposal",
    "rowid": "899885",
    "final_x": "3676304.79317",
    "final_y": "524246.704188",
    "longitude": "-90.08472519133689",
    "latitude": "29.935653243488645",
    "geocoded_column": {
      "latitude": "29.935653243488645",
      "longitude": "-90.08472519133689"
    }
  },
  {
    "service_request": "2022-899884",
    "request_type": "Trash/Recycling",
    "request_reason": "MIssed Recycling Pick-Up",
    "date_created": "2022-07-13T19:32:36.000",
    "date_modified": "2022-07-13T19:32:37.000",
    "request_status": "Pending",
    "responsible_agency": "Department of Sanitation",
    "final_address": "1301 General Taylor St",
    "address_councildis": "B",
    "status": "Assigned to Contractor",
    "contractor": "Richards Disposal",
    "rowid": "899884",
    "final_x": "3672844.37032",
    "final_y": "520291.135864",
    "longitude": "-90.09578468200387",
    "latitude": "29.924879936904606",
    "geocoded_column": {
      "latitude": "29.924879936904606",
      "longitude": "-90.09578468200387"
    }
  },
  {
    "service_request": "2022-899883",
    "request_type": "Trash/Recycling",
    "request_reason": "Missed Trash Pick-Up",
    "date_created": "2022-07-13T19:17:56.000",
    "date_modified": "2022-07-13T19:17:56.000",
    "request_status": "Pending",
    "responsible_agency": "Department of Sanitation",
    "final_address": "7733 Gannon Rd",
    "address_councildis": "E",
    "status": "Assigned to Contractor",
    "contractor": "Metro Disposal",
    "rowid": "899883",
    "final_x": "3716124.3285",
    "final_y": "570390.443047",
    "longitude": "-89.95726644351016",
    "latitude": "30.061277509188713",
    "geocoded_column": {
      "latitude": "30.061277509188713",
      "longitude": "-89.95726644351016"
    }
  },
  {
    "service_request": "2022-899880",
    "request_type": "Trash/Recycling",
    "request_reason": "Request a Large Item Pick Up",
    "date_created": "2022-07-13T19:09:00.000",
    "date_modified": "2022-07-13T19:09:01.000",
    "request_status": "Pending",
    "responsible_agency": "Department of Sanitation",
    "final_address": "22 Newcomb Blvd, New Orleans, Louisiana, 70118",
    "address_councildis": "A",
    "status": "Assigned to Contractor",
    "contractor": "Richards Disposal",
    "rowid": "899880",
    "final_x": "3663827.28327",
    "final_y": "525245.184381",
    "longitude": "-90.12408375592933",
    "latitude": "29.938766710933066",
    "geocoded_column": {
      "latitude": "29.938766710933066",
      "longitude": "-90.12408375592933"
    }
  },
  {
    "service_request": "2022-899879",
    "request_type": "Trash/Recycling",
    "request_reason": "Request a Large Item Pick Up",
    "date_created": "2022-07-13T19:07:48.000",
    "date_modified": "2022-07-13T19:07:49.000",
    "request_status": "Pending",
    "responsible_agency": "Department of Sanitation",
    "final_address": "6473 Memphis St",
    "address_councildis": "A",
    "status": "Assigned to Contractor",
    "contractor": "Metro Disposal",
    "rowid": "899879",
    "final_x": "3669580.28852",
    "final_y": "550541.730324",
    "longitude": "-90.10506473845201",
    "latitude": "30.008155505808126",
    "geocoded_column": {
      "latitude": "30.008155505808126",
      "longitude": "-90.10506473845201"
    }
  },
  {
    "service_request": "2022-899878",
    "request_type": "Trash/Recycling",
    "request_reason": "Missed Trash Pick-Up",
    "date_created": "2022-07-13T19:06:20.000",
    "date_modified": "2022-07-13T19:06:21.000",
    "request_status": "Pending",
    "responsible_agency": "Department of Sanitation",
    "final_address": "7520 W Sandy Cove Dr",
    "address_councildis": "E",
    "status": "Assigned to Contractor",
    "contractor": "Metro Disposal",
    "rowid": "899878",
    "final_x": "3715488.68344",
    "final_y": "569174.300518",
    "longitude": "-89.95932178538352",
    "latitude": "30.057954593928958",
    "geocoded_column": {
      "latitude": "30.057954593928958",
      "longitude": "-89.95932178538352"
    }
  },
  {
    "service_request": "2022-899877",
    "request_type": "Parks & Parkways",
    "request_reason": "Request Tree Service (Right of Way/Public Property)",
    "date_created": "2022-07-13T19:04:46.000",
    "date_modified": "2022-07-13T19:04:46.000",
    "request_status": "Pending",
    "responsible_agency": "Department of Parks & Parkway",
    "final_address": "6501 Memphis St",
    "address_councildis": "A",
    "status": "Pending",
    "rowid": "899877",
    "final_x": "3669591.56679",
    "final_y": "550687.182356",
    "longitude": "-90.10502418081875",
    "latitude": "30.00855511546219",
    "geocoded_column": {
      "latitude": "30.00855511546219",
      "longitude": "-90.10502418081875"
    }
  },
  {
    "service_request": "2022-899876",
    "request_type": "Property Maintenance",
    "request_reason": "Property Maintenance",
    "date_created": "2022-07-13T18:44:45.000",
    "date_modified": "2022-07-13T18:44:45.000",
    "request_status": "Pending",
    "responsible_agency": "Department of Code Enforcement",
    "final_address": "6131 Providence Pl",
    "address_councildis": "D",
    "status": "Pending",
    "rowid": "899876",
    "final_x": "3688382.06851",
    "final_y": "555843.987993",
    "longitude": "-90.04547603225951",
    "latitude": "30.022167185284534",
    "geocoded_column": {
      "latitude": "30.022167185284534",
      "longitude": "-90.04547603225951"
    }
  },
  {
    "service_request": "2022-899875",
    "request_type": "Trash/Recycling",
    "request_reason": "Request a Large Item Pick Up",
    "date_created": "2022-07-13T18:39:47.000",
    "date_modified": "2022-07-13T18:39:47.000",
    "request_status": "Pending",
    "responsible_agency": "Department of Sanitation",
    "final_address": "5821 S Johnson St",
    "address_councildis": "A",
    "status": "Assigned to Contractor",
    "contractor": "Richards Disposal",
    "rowid": "899875",
    "final_x": "3667593.43098",
    "final_y": "527266.196863",
    "longitude": "-90.11212556724753",
    "latitude": "29.944214019084324",
    "geocoded_column": {
      "latitude": "29.944214019084324",
      "longitude": "-90.11212556724753"
    }
  },
  {
    "service_request": "2022-899874",
    "request_type": "Trash/Recycling",
    "request_reason": "Replace Trash Cart",
    "date_created": "2022-07-13T18:38:01.000",
    "date_modified": "2022-07-13T18:38:02.000",
    "request_status": "Pending",
    "responsible_agency": "Department of Sanitation",
    "final_address": "141 S St Patrick St",
    "address_councildis": "A",
    "status": "Assigned to Contractor",
    "contractor": "Richards Disposal",
    "rowid": "899874",
    "final_x": "3668843.18657",
    "final_y": "539574.203018",
    "longitude": "-90.10776408504313",
    "latitude": "29.978020280201793",
    "geocoded_column": {
      "latitude": "29.978020280201793",
      "longitude": "-90.10776408504313"
    }
  },
  {
    "service_request": "2022-899873",
    "request_type": "Abandoned Vehicles",
    "request_reason": "Abandoned/Junk Vehicles",
    "date_created": "2022-07-13T18:28:32.000",
    "date_modified": "2022-07-13T18:28:32.000",
    "request_status": "Pending",
    "responsible_agency": "Department of Public Works",
    "final_address": "8060 Morrison Rd",
    "address_councildis": "E",
    "status": "Pending",
    "rowid": "899873",
    "final_x": "3702228.30231",
    "final_y": "560060.135645",
    "longitude": "-90.00157086098568",
    "latitude": "30.033324785365796",
    "geocoded_column": {
      "latitude": "30.033324785365796",
      "longitude": "-90.00157086098568"
    }
  },
  {
    "service_request": "2022-899872",
    "request_type": "Roads/Drainage",
    "request_reason": "Pothole",
    "date_created": "2022-07-13T18:25:33.000",
    "date_modified": "2022-07-13T18:25:33.000",
    "request_status": "Pending",
    "responsible_agency": "Department of Public Works",
    "final_address": "FORUM RD & MORRISON RD",
    "address_councildis": "E",
    "status": "Pending",
    "rowid": "899872",
    "final_x": "3720826.1",
    "final_y": "572645.48",
    "longitude": "-89.94231785255731",
    "latitude": "30.06732181889421",
    "geocoded_column": {
      "latitude": "30.06732181889421",
      "longitude": "-89.94231785255731"
    }
  },
  {
    "service_request": "2022-899871",
    "request_type": "Parks & Parkways",
    "request_reason": "Request Grass Cutting Service (City Owned Property)",
    "date_created": "2022-07-13T18:19:08.000",
    "date_modified": "2022-07-13T18:19:08.000",
    "request_status": "Pending",
    "responsible_agency": "Department of Parks & Parkway",
    "final_address": "10800 Dwyer Rd",
    "address_councildis": "E",
    "status": "Pending",
    "rowid": "899871",
    "final_x": "3715241.43653",
    "final_y": "558245.526812",
    "longitude": "-89.96051716827257",
    "latitude": "30.027913045607406",
    "geocoded_column": {
      "latitude": "30.027913045607406",
      "longitude": "-89.96051716827257"
    }
  },
  {
    "service_request": "2022-899870",
    "request_type": "Abandoned Vehicles",
    "request_reason": "Abandoned/Junk Vehicles",
    "date_created": "2022-07-13T18:09:46.000",
    "date_modified": "2022-07-13T18:09:46.000",
    "request_status": "Pending",
    "responsible_agency": "Department of Public Works",
    "final_address": "12431 N Lake Carmel Dr",
    "address_councildis": "E",
    "status": "Pending",
    "rowid": "899870",
    "final_x": "3715429.0268",
    "final_y": "567776.829156",
    "longitude": "-89.95956331002186",
    "latitude": "30.054114089597444",
    "geocoded_column": {
      "latitude": "30.054114089597444",
      "longitude": "-89.95956331002186"
    }
  },
  {
    "service_request": "2022-899869",
    "request_type": "Traffic Signals/Signs/Striping/Streetlights",
    "request_reason": "Traffic Signal Malfunctioning/Damaged",
    "date_created": "2022-07-13T18:06:43.000",
    "date_modified": "2022-07-13T18:06:43.000",
    "request_status": "Pending",
    "responsible_agency": "Department of Public Works",
    "final_address": "639 Loyola Ave",
    "address_councildis": "B",
    "status": "Pending",
    "rowid": "899869",
    "final_x": "3678812.45179",
    "final_y": "529120.849216",
    "longitude": "-90.07663971762535",
    "latitude": "29.948980150081656",
    "geocoded_column": {
      "latitude": "29.948980150081656",
      "longitude": "-90.07663971762535"
    }
  },
  {
    "service_request": "2022-899868",
    "request_type": "Trash/Recycling",
    "request_reason": "Request a Large Item Pick Up",
    "date_created": "2022-07-13T18:06:35.000",
    "date_modified": "2022-07-13T18:06:36.000",
    "request_status": "Pending",
    "responsible_agency": "Department of Sanitation",
    "final_address": "4805 Annette St",
    "address_councildis": "D",
    "status": "Assigned to Contractor",
    "contractor": "Metro Disposal",
    "rowid": "899868",
    "final_x": "3682112.60924",
    "final_y": "550208.683476",
    "longitude": "-90.06548296634084",
    "latitude": "30.006864410474634",
    "geocoded_column": {
      "latitude": "30.006864410474634",
      "longitude": "-90.06548296634084"
    }
  },
  {
    "service_request": "2022-899867",
    "request_type": "Trash/Recycling",
    "request_reason": "MIssed Recycling Pick-Up",
    "date_created": "2022-07-13T18:01:51.000",
    "date_modified": "2022-07-13T18:01:51.000",
    "request_status": "Pending",
    "responsible_agency": "Department of Sanitation",
    "final_address": "4129 S Liberty St",
    "address_councildis": "B",
    "status": "Assigned to Contractor",
    "contractor": "Richards Disposal",
    "rowid": "899867",
    "final_x": "3671439.46913",
    "final_y": "523476.139323",
    "longitude": "-90.10011129645214",
    "latitude": "29.933679321223988",
    "geocoded_column": {
      "latitude": "29.933679321223988",
      "longitude": "-90.10011129645214"
    }
  },
  {
    "service_request": "2022-899866",
    "request_type": "Trash/Recycling",
    "request_reason": "Missed Trash Pick-Up",
    "date_created": "2022-07-13T17:55:32.000",
    "date_modified": "2022-07-13T17:55:32.000",
    "request_status": "Pending",
    "responsible_agency": "Department of Sanitation",
    "final_address": "1733 Audubon St",
    "address_councildis": "A",
    "status": "Assigned to Contractor",
    "contractor": "Richards Disposal",
    "rowid": "899866",
    "final_x": "3665599.76583",
    "final_y": "528036.728319",
    "longitude": "-90.11839436278602",
    "latitude": "29.946391006696786",
    "geocoded_column": {
      "latitude": "29.946391006696786",
      "longitude": "-90.11839436278602"
    }
  },
  {
    "service_request": "2022-899865",
    "request_type": "Trash/Recycling",
    "request_reason": "Missed Trash Pick-Up",
    "date_created": "2022-07-13T17:53:29.000",
    "date_modified": "2022-07-13T18:39:03.000",
    "request_status": "Pending",
    "responsible_agency": "Department of Sanitation",
    "final_address": "New Orleans,LA",
    "address_councildis": "A",
    "status": "Assigned to Contractor",
    "contractor": "Richards Disposal",
    "rowid": "899865",
    "final_x": "3665599.76583",
    "final_y": "528036.728319",
    "longitude": "-90.11839436278602",
    "latitude": "29.946391006696786",
    "geocoded_column": {
      "latitude": "29.946391006696786",
      "longitude": "-90.11839436278602"
    }
  },
  {
    "service_request": "2022-899864",
    "request_type": "Roads/Drainage",
    "request_reason": "Catch Basin - Clogged",
    "date_created": "2022-07-13T17:50:21.000",
    "date_modified": "2022-07-13T17:50:21.000",
    "request_status": "Pending",
    "responsible_agency": "Department of Public Works",
    "final_address": "8019 Hickory St",
    "address_councildis": "A",
    "status": "Pending",
    "rowid": "899864",
    "final_x": "3663624.96288",
    "final_y": "529762.025345",
    "longitude": "-90.12457207424431",
    "latitude": "29.95119244546672",
    "geocoded_column": {
      "latitude": "29.95119244546672",
      "longitude": "-90.12457207424431"
    }
  },
  {
    "service_request": "2022-899863",
    "request_type": "Trash/Recycling",
    "request_reason": "Replace Trash Cart",
    "date_created": "2022-07-13T17:44:10.000",
    "date_modified": "2022-07-13T17:44:10.000",
    "request_status": "Pending",
    "responsible_agency": "Department of Sanitation",
    "final_address": "4450 Bancroft Dr",
    "address_councildis": "D",
    "status": "Assigned to Contractor",
    "contractor": "Metro Disposal",
    "rowid": "899863",
    "final_x": "3676390.23387",
    "final_y": "548652.093779",
    "longitude": "-90.08361512344918",
    "latitude": "30.002757198845153",
    "geocoded_column": {
      "latitude": "30.002757198845153",
      "longitude": "-90.08361512344918"
    }
  },
  {
    "service_request": "2022-899862",
    "request_type": "Trash/Recycling",
    "request_reason": "Replace Trash Cart",
    "date_created": "2022-07-13T17:44:09.000",
    "date_modified": "2022-07-13T17:44:09.000",
    "request_status": "Pending",
    "responsible_agency": "Department of Sanitation",
    "final_address": "4450 Bancroft Dr",
    "address_councildis": "D",
    "status": "Assigned to Contractor",
    "contractor": "Metro Disposal",
    "rowid": "899862",
    "final_x": "3676390.23387",
    "final_y": "548652.093779",
    "longitude": "-90.08361512344918",
    "latitude": "30.002757198845153",
    "geocoded_column": {
      "latitude": "30.002757198845153",
      "longitude": "-90.08361512344918"
    }
  },
  {
    "service_request": "2022-899861",
    "request_type": "Roads/Drainage",
    "request_reason": "Street Flooding / Drainage",
    "date_created": "2022-07-13T17:41:52.000",
    "date_modified": "2022-07-13T17:41:52.000",
    "request_status": "Pending",
    "responsible_agency": "Department of Public Works",
    "final_address": "4400 Washington Ave",
    "address_councildis": "B",
    "status": "Pending",
    "rowid": "899861",
    "final_x": "3670209.97966",
    "final_y": "531428.105475",
    "longitude": "-90.10372335059913",
    "latitude": "29.955580966153367",
    "geocoded_column": {
      "latitude": "29.955580966153367",
      "longitude": "-90.10372335059913"
    }
  },
  {
    "service_request": "2022-899860",
    "request_type": "Traffic Signals/Signs/Striping/Streetlights",
    "request_reason": "Street Light Outage/Malfunction",
    "date_created": "2022-07-13T17:37:55.000",
    "date_modified": "2022-07-13T17:37:56.000",
    "request_status": "Pending",
    "responsible_agency": "Department of Public Works",
    "final_address": "2428 Barracks St",
    "address_councildis": "D",
    "status": "Pending",
    "contractor": "Royal Engineering",
    "rowid": "899860",
    "final_x": "3678914.3547",
    "final_y": "537993.608137",
    "longitude": "-90.07601055763882",
    "latitude": "29.97337415458735",
    "geocoded_column": {
      "latitude": "29.97337415458735",
      "longitude": "-90.07601055763882"
    }
  },
  {
    "service_request": "2022-899859",
    "request_type": "Traffic Signals/Signs/Striping/Streetlights",
    "request_reason": "Street Light Outage/Malfunction",
    "date_created": "2022-07-13T17:35:14.000",
    "date_modified": "2022-07-13T17:35:14.000",
    "request_status": "Pending",
    "responsible_agency": "Department of Public Works",
    "final_address": "7623 Mercier St",
    "address_councildis": "E",
    "status": "Pending",
    "contractor": "Royal Engineering",
    "rowid": "899859",
    "final_x": "3711543.92632",
    "final_y": "566439.444963",
    "longitude": "-89.97189329338732",
    "latitude": "30.05056432876398",
    "geocoded_column": {
      "latitude": "30.05056432876398",
      "longitude": "-89.97189329338732"
    }
  },
  {
    "service_request": "2022-899858",
    "request_type": "Roads/Drainage",
    "request_reason": "Catch Basin - Clogged",
    "date_created": "2022-07-13T17:21:10.000",
    "date_modified": "2022-07-13T17:21:10.000",
    "request_status": "Pending",
    "responsible_agency": "Department of Public Works",
    "final_address": "880 Hidalgo St",
    "address_councildis": "A",
    "status": "Pending",
    "rowid": "899858",
    "final_x": "3669391.19194",
    "final_y": "543970.725966",
    "longitude": "-90.10588453822488",
    "latitude": "29.990093093675366",
    "geocoded_column": {
      "latitude": "29.990093093675366",
      "longitude": "-90.10588453822488"
    }
  },
  {
    "service_request": "2022-899857",
    "request_type": "Trash/Recycling",
    "request_reason": "Missed Trash Pick-Up",
    "date_created": "2022-07-13T17:19:25.000",
    "date_modified": "2022-07-13T17:19:26.000",
    "request_status": "Pending",
    "responsible_agency": "Department of Sanitation",
    "final_address": "4218 S Rocheblave St",
    "address_councildis": "B",
    "status": "Assigned to Contractor",
    "contractor": "Richards Disposal",
    "rowid": "899857",
    "final_x": "3670688.15131",
    "final_y": "528491.3184",
    "longitude": "-90.10231307851559",
    "latitude": "29.947491648851702",
    "geocoded_column": {
      "latitude": "29.947491648851702",
      "longitude": "-90.10231307851559"
    }
  },
  {
    "service_request": "2022-899856",
    "request_type": "Trash/Recycling",
    "request_reason": "MIssed Recycling Pick-Up",
    "date_created": "2022-07-13T17:15:57.000",
    "date_modified": "2022-07-13T17:15:58.000",
    "request_status": "Pending",
    "responsible_agency": "Department of Sanitation",
    "final_address": "DHEMECOURT ST & S TELEMACHUS ST",
    "address_councildis": "B",
    "status": "Assigned to Contractor",
    "contractor": "Richards Disposal",
    "rowid": "899856",
    "final_x": "3671136.8",
    "final_y": "535820.28",
    "longitude": "-90.10064757538693",
    "latitude": "29.967630603934307",
    "geocoded_column": {
      "latitude": "29.967630603934307",
      "longitude": "-90.10064757538693"
    }
  },
  {
    "service_request": "2022-899855",
    "request_type": "Trash/Recycling",
    "request_reason": "MIssed Recycling Pick-Up",
    "date_created": "2022-07-13T17:14:41.000",
    "date_modified": "2022-07-13T17:14:42.000",
    "request_status": "Pending",
    "responsible_agency": "Department of Sanitation",
    "final_address": "2118 Freret St",
    "address_councildis": "B",
    "status": "Assigned to Contractor",
    "contractor": "Richards Disposal",
    "rowid": "899855",
    "final_x": "3675801.34357",
    "final_y": "526418.156094",
    "longitude": "-90.08623997872645",
    "latitude": "29.941639099133855",
    "geocoded_column": {
      "latitude": "29.941639099133855",
      "longitude": "-90.08623997872645"
    }
  },
  {
    "service_request": "2022-899854",
    "request_type": "Property Maintenance",
    "request_reason": "Property Maintenance",
    "date_created": "2022-07-13T17:09:07.000",
    "date_modified": "2022-07-13T17:09:07.000",
    "request_status": "Pending",
    "responsible_agency": "Department of Code Enforcement",
    "final_address": "2003 Kerlerec St",
    "address_councildis": "D",
    "status": "Pending",
    "rowid": "899854",
    "final_x": "3680363.51253",
    "final_y": "537812.14292",
    "longitude": "-90.0714401322197",
    "latitude": "29.972831384594304",
    "geocoded_column": {
      "latitude": "29.972831384594304",
      "longitude": "-90.0714401322197"
    }
  },
  {
    "service_request": "2022-899853",
    "request_type": "Tax and Revenue",
    "request_reason": "Personal Property Tax Question",
    "date_created": "2022-07-13T17:07:29.000",
    "date_modified": "2022-07-13T17:07:29.000",
    "request_status": "Pending",
    "responsible_agency": "Bureau of Treasury",
    "final_address": "2630 Dreux Ave",
    "address_councildis": "D",
    "status": "Pending",
    "rowid": "899853",
    "final_x": "3686962.40502",
    "final_y": "552206.29615",
    "longitude": "-90.05009052969942",
    "latitude": "30.01220867207121",
    "geocoded_column": {
      "latitude": "30.01220867207121",
      "longitude": "-90.05009052969942"
    }
  },
  {
    "service_request": "2022-899852",
    "request_type": "Abandoned Vehicles",
    "request_reason": "Abandoned/Junk Vehicles",
    "date_created": "2022-07-13T17:05:18.000",
    "date_modified": "2022-07-13T17:05:18.000",
    "request_status": "Pending",
    "responsible_agency": "Department of Public Works",
    "final_address": "3421 Burgundy St",
    "address_councildis": "C",
    "status": "Pending",
    "rowid": "899852",
    "final_x": "3690170.22179",
    "final_y": "534904.589766",
    "longitude": "-90.04057239902869",
    "latitude": "29.964536029837564",
    "geocoded_column": {
      "latitude": "29.964536029837564",
      "longitude": "-90.04057239902869"
    }
  },
  {
    "service_request": "2022-899851",
    "request_type": "Traffic Signals/Signs/Striping/Streetlights",
    "request_reason": "Street Light Outage/Malfunction",
    "date_created": "2022-07-13T17:03:02.000",
    "date_modified": "2022-07-13T17:03:03.000",
    "request_status": "Pending",
    "responsible_agency": "Department of Public Works",
    "final_address": "615 Alvar St",
    "address_councildis": "C",
    "status": "Pending",
    "contractor": "Royal Engineering",
    "rowid": "899851",
    "final_x": "3691102.85027",
    "final_y": "533664.448773",
    "longitude": "-90.0376715213778",
    "latitude": "29.961097111068142",
    "geocoded_column": {
      "latitude": "29.961097111068142",
      "longitude": "-90.0376715213778"
    }
  },
  {
    "service_request": "2022-899850",
    "request_type": "Traffic Signals/Signs/Striping/Streetlights",
    "request_reason": "Street Light Outage/Malfunction",
    "date_created": "2022-07-13T17:01:51.000",
    "date_modified": "2022-07-13T17:01:52.000",
    "request_status": "Pending",
    "responsible_agency": "Department of Public Works",
    "final_address": "7200 BLK Restgate Rd",
    "address_councildis": "E",
    "status": "Pending",
    "contractor": "Royal Engineering",
    "rowid": "899850",
    "final_x": "3710617.63778",
    "final_y": "563439.825992",
    "longitude": "-89.97493333353717",
    "latitude": "30.042346813718964",
    "geocoded_column": {
      "latitude": "30.042346813718964",
      "longitude": "-89.97493333353717"
    }
  },
  {
    "service_request": "2022-899849",
    "request_type": "Trash/Recycling",
    "request_reason": "Request a Large Item Pick Up",
    "date_created": "2022-07-13T17:00:17.000",
    "date_modified": "2022-07-13T17:00:18.000",
    "request_status": "Pending",
    "responsible_agency": "Department of Sanitation",
    "final_address": "6022 Cameron Blvd",
    "address_councildis": "D",
    "status": "Assigned to Contractor",
    "contractor": "Metro Disposal",
    "rowid": "899849",
    "final_x": "3682272.37026",
    "final_y": "554982.240216",
    "longitude": "-90.06481128323975",
    "latitude": "30.01998509547522",
    "geocoded_column": {
      "latitude": "30.01998509547522",
      "longitude": "-90.06481128323975"
    }
  },
  {
    "service_request": "2022-899848",
    "request_type": "Trash/Recycling",
    "request_reason": "Missed Trash Pick-Up",
    "date_created": "2022-07-13T17:00:11.000",
    "date_modified": "2022-07-13T17:00:16.000",
    "request_status": "Pending",
    "responsible_agency": "Department of Sanitation",
    "final_address": "2013 Burdette St",
    "address_councildis": "A",
    "status": "Assigned to Contractor",
    "contractor": "Richards Disposal",
    "rowid": "899848",
    "final_x": "3664808.34701",
    "final_y": "529757.073665",
    "longitude": "-90.12083568388132",
    "latitude": "29.951144450953368",
    "geocoded_column": {
      "latitude": "29.951144450953368",
      "longitude": "-90.12083568388132"
    }
  },
  {
    "service_request": "2022-899847",
    "request_type": "Abandoned Vehicles",
    "request_reason": "Abandoned/Junk Vehicles",
    "date_created": "2022-07-13T16:58:58.000",
    "date_modified": "2022-07-13T16:58:58.000",
    "request_status": "Pending",
    "responsible_agency": "Department of Public Works",
    "final_address": "1321 General Taylor St",
    "address_councildis": "B",
    "status": "Pending",
    "rowid": "899847",
    "final_x": "3672807.67054",
    "final_y": "520437.846968",
    "longitude": "-90.095895529972",
    "latitude": "29.925284435241426",
    "geocoded_column": {
      "latitude": "29.925284435241426",
      "longitude": "-90.095895529972"
    }
  },
  {
    "service_request": "2022-899846",
    "request_type": "Trash/Recycling",
    "request_reason": "Missed Trash Pick-Up",
    "date_created": "2022-07-13T16:54:19.000",
    "date_modified": "2022-07-13T16:54:20.000",
    "request_status": "Pending",
    "responsible_agency": "Department of Sanitation",
    "final_address": "2900 BLK Maurepas St",
    "address_councildis": "A",
    "status": "Assigned to Contractor",
    "contractor": "Metro Disposal",
    "rowid": "899846",
    "final_x": "3677441.12244",
    "final_y": "540715.157202",
    "longitude": "-90.08056935788291",
    "latitude": "29.980901845554616",
    "geocoded_column": {
      "latitude": "29.980901845554616",
      "longitude": "-90.08056935788291"
    }
  },
  {
    "service_request": "2022-899845",
    "request_type": "Trash/Recycling",
    "request_reason": "Missed Trash Pick-Up",
    "date_created": "2022-07-13T16:52:47.000",
    "date_modified": "2022-07-13T16:52:47.000",
    "request_status": "Pending",
    "responsible_agency": "Department of Sanitation",
    "final_address": "1921 General Taylor St",
    "address_councildis": "B",
    "status": "Assigned to Contractor",
    "contractor": "Richards Disposal",
    "rowid": "899845",
    "final_x": "3672385.11079",
    "final_y": "522280.104506",
    "longitude": "-90.09716668183611",
    "latitude": "29.930362592690603",
    "geocoded_column": {
      "latitude": "29.930362592690603",
      "longitude": "-90.09716668183611"
    }
  },
  {
    "service_request": "2022-899844",
    "request_type": "Abandoned Vehicles",
    "request_reason": "Abandoned/Junk Vehicles",
    "date_created": "2022-07-13T16:52:46.000",
    "date_modified": "2022-07-13T16:52:46.000",
    "request_status": "Pending",
    "responsible_agency": "Department of Public Works",
    "final_address": "1614 Choctaw St",
    "address_councildis": "E",
    "status": "Pending",
    "rowid": "899844",
    "final_x": "3697949.86851",
    "final_y": "535929.724935",
    "longitude": "-90.01596777414807",
    "latitude": "29.96711115068736",
    "geocoded_column": {
      "latitude": "29.96711115068736",
      "longitude": "-90.01596777414807"
    }
  },
  {
    "service_request": "2022-899842",
    "request_type": "Trash/Recycling",
    "request_reason": "Missed Trash Pick-Up",
    "date_created": "2022-07-13T16:46:48.000",
    "date_modified": "2022-07-13T16:46:49.000",
    "request_status": "Pending",
    "responsible_agency": "Department of Sanitation",
    "final_address": "3344 Bell St",
    "address_councildis": "A",
    "status": "Assigned to Contractor",
    "contractor": "Richards Disposal",
    "rowid": "899842",
    "final_x": "3675141.5483",
    "final_y": "539730.624138",
    "longitude": "-90.08786624253099",
    "latitude": "29.97826364784087",
    "geocoded_column": {
      "latitude": "29.97826364784087",
      "longitude": "-90.08786624253099"
    }
  },
  {
    "service_request": "2022-899841",
    "request_type": "Abandoned Vehicles",
    "request_reason": "Abandoned/Junk Vehicles",
    "date_created": "2022-07-13T16:46:33.000",
    "date_modified": "2022-07-13T16:49:30.000",
    "request_status": "Pending",
    "responsible_agency": "Department of Public Works",
    "final_address": "1629 Simon Bolivar Ave",
    "address_councildis": "B",
    "status": "Pending",
    "rowid": "899841",
    "final_x": "3676969.71234",
    "final_y": "526323.070974",
    "longitude": "-90.08255447753633",
    "latitude": "29.941342629593237",
    "geocoded_column": {
      "latitude": "29.941342629593237",
      "longitude": "-90.08255447753633"
    }
  },
  {
    "service_request": "2022-899840",
    "request_type": "Trash/Recycling",
    "request_reason": "Order Trash Cart",
    "date_created": "2022-07-13T16:44:51.000",
    "date_modified": "2022-07-13T16:44:52.000",
    "request_status": "Pending",
    "responsible_agency": "Department of Sanitation",
    "final_address": "4607 Loyola Ave, New Orleans, Louisiana, 70115",
    "address_councildis": "B",
    "status": "Assigned to Contractor",
    "contractor": "Richards Disposal",
    "rowid": "899840",
    "final_x": "3669814.7611",
    "final_y": "522950.972283",
    "longitude": "-90.10525820161753",
    "latitude": "29.93228326148348",
    "geocoded_column": {
      "latitude": "29.93228326148348",
      "longitude": "-90.10525820161753"
    }
  },
  {
    "service_request": "2022-899838",
    "request_type": "Trash/Recycling",
    "request_reason": "Illegal Dumping",
    "date_created": "2022-07-13T16:43:33.000",
    "date_modified": "2022-07-13T16:43:33.000",
    "request_status": "Pending",
    "responsible_agency": "Department of Sanitation",
    "final_address": "2003 Kerlerec St",
    "address_councildis": "D",
    "status": "Pending",
    "rowid": "899838",
    "final_x": "3680363.51253",
    "final_y": "537812.14292",
    "longitude": "-90.0714401322197",
    "latitude": "29.972831384594304",
    "geocoded_column": {
      "latitude": "29.972831384594304",
      "longitude": "-90.0714401322197"
    }
  },
  {
    "service_request": "2022-899837",
    "request_type": "Roads/Drainage",
    "request_reason": "Catch Basin - Clogged",
    "date_created": "2022-07-13T16:42:50.000",
    "date_modified": "2022-07-13T16:42:51.000",
    "request_status": "Pending",
    "responsible_agency": "Department of Public Works",
    "final_address": "CONTI ST & N NORMAN C FRANCIS PKWY",
    "address_councildis": "B",
    "status": "Pending",
    "rowid": "899837",
    "final_x": "3673840.9",
    "final_y": "537716.58",
    "longitude": "-90.0920430750219",
    "latitude": "29.9727645211337",
    "geocoded_column": {
      "latitude": "29.9727645211337",
      "longitude": "-90.0920430750219"
    }
  },
  {
    "service_request": "2022-899836",
    "request_type": "Trash/Recycling",
    "request_reason": "Missed Trash Pick-Up",
    "date_created": "2022-07-13T16:40:54.000",
    "date_modified": "2022-07-13T16:40:55.000",
    "case_close_date": "2021-10-05T19:00:00.000",
    "request_status": "Pending",
    "responsible_agency": "Department of Sanitation",
    "final_address": "9966 E Rockton Cir",
    "address_councildis": "E",
    "status": "Assigned to Contractor",
    "contractor": "Metro Disposal",
    "rowid": "899836",
    "final_x": "3708921.76785",
    "final_y": "562883.307936",
    "longitude": "-89.98031366267416",
    "latitude": "30.04087178209963",
    "geocoded_column": {
      "latitude": "30.04087178209963",
      "longitude": "-89.98031366267416"
    }
  },
  {
    "service_request": "2022-899835",
    "request_type": "Abandoned Vehicles",
    "request_reason": "Abandoned/Junk Vehicles",
    "date_created": "2022-07-13T16:40:21.000",
    "date_modified": "2022-07-13T16:40:21.000",
    "request_status": "Pending",
    "responsible_agency": "Department of Public Works",
    "final_address": "1614 Choctaw St",
    "address_councildis": "E",
    "status": "Pending",
    "rowid": "899835",
    "final_x": "3697949.86851",
    "final_y": "535929.724935",
    "longitude": "-90.01596777414807",
    "latitude": "29.96711115068736",
    "geocoded_column": {
      "latitude": "29.96711115068736",
      "longitude": "-90.01596777414807"
    }
  },
  {
    "service_request": "2022-899834",
    "request_type": "Trash/Recycling",
    "request_reason": "Missed Trash Pick-Up",
    "date_created": "2022-07-13T16:39:30.000",
    "date_modified": "2022-07-13T16:39:30.000",
    "request_status": "Pending",
    "responsible_agency": "Department of Sanitation",
    "final_address": "934 N Johnson St",
    "address_councildis": "D",
    "status": "Assigned to Contractor",
    "contractor": "Richards Disposal",
    "rowid": "899834",
    "final_x": "3679300.0509",
    "final_y": "536296.044423",
    "longitude": "-90.07485133265186",
    "latitude": "29.96869479436846",
    "geocoded_column": {
      "latitude": "29.96869479436846",
      "longitude": "-90.07485133265186"
    }
  },
  {
    "service_request": "2022-899833",
    "request_type": "Trash/Recycling",
    "request_reason": "Return Trash Cart",
    "date_created": "2022-07-13T16:36:39.000",
    "date_modified": "2022-07-13T16:36:40.000",
    "request_status": "Pending",
    "responsible_agency": "Department of Sanitation",
    "final_address": "7514 Willow St",
    "address_councildis": "A",
    "status": "Assigned to Contractor",
    "contractor": "Richards Disposal",
    "rowid": "899833",
    "final_x": "3663903.04058",
    "final_y": "527463.415679",
    "longitude": "-90.12377065390213",
    "latitude": "29.94486393966146",
    "geocoded_column": {
      "latitude": "29.94486393966146",
      "longitude": "-90.12377065390213"
    }
  },
  {
    "service_request": "2022-899832",
    "request_type": "Trash/Recycling",
    "request_reason": "Illegal Dumping",
    "date_created": "2022-07-13T16:35:21.000",
    "date_modified": "2022-07-13T16:35:21.000",
    "request_status": "Pending",
    "responsible_agency": "Department of Sanitation",
    "final_address": "3801 Dauphine St",
    "address_councildis": "C",
    "status": "Pending",
    "rowid": "899832",
    "final_x": "3690966.85859",
    "final_y": "534324.768133",
    "longitude": "-90.03807738601482",
    "latitude": "29.962916985980204",
    "geocoded_column": {
      "latitude": "29.962916985980204",
      "longitude": "-90.03807738601482"
    }
  },
  {
    "service_request": "2022-899831",
    "request_type": "Trash/Recycling",
    "request_reason": "MIssed Recycling Pick-Up",
    "date_created": "2022-07-13T16:34:38.000",
    "date_modified": "2022-07-13T16:34:39.000",
    "request_status": "Pending",
    "responsible_agency": "Department of Sanitation",
    "final_address": "2800 Octavia St",
    "address_councildis": "A",
    "status": "Assigned to Contractor",
    "contractor": "Richards Disposal",
    "rowid": "899831",
    "final_x": "3667916.40282",
    "final_y": "525752.171709",
    "longitude": "-90.11115683701111",
    "latitude": "29.940041469996498",
    "geocoded_column": {
      "latitude": "29.940041469996498",
      "longitude": "-90.11115683701111"
    }
  },
  {
    "service_request": "2022-899830",
    "request_type": "Trash/Recycling",
    "request_reason": "Replace Trash Cart",
    "date_created": "2022-07-13T16:26:40.000",
    "date_modified": "2022-07-13T16:26:41.000",
    "request_status": "Pending",
    "responsible_agency": "Department of Sanitation",
    "final_address": "2622 Elder St",
    "address_councildis": "D",
    "status": "Assigned to Contractor",
    "contractor": "Metro Disposal",
    "rowid": "899830",
    "final_x": "3687427.807",
    "final_y": "545756.771856",
    "longitude": "-90.0488485498246",
    "latitude": "29.994460484339402",
    "geocoded_column": {
      "latitude": "29.994460484339402",
      "longitude": "-90.0488485498246"
    }
  },
  {
    "service_request": "2022-899829",
    "request_type": "Roads/Drainage",
    "request_reason": "Catch Basin - Clogged",
    "date_created": "2022-07-13T16:22:24.000",
    "date_modified": "2022-07-13T16:22:24.000",
    "request_status": "Pending",
    "responsible_agency": "Department of Public Works",
    "final_address": "1738 Allen St",
    "address_councildis": "D",
    "status": "Pending",
    "rowid": "899829",
    "final_x": "3682540.298",
    "final_y": "538665.310729",
    "longitude": "-90.06453560432519",
    "latitude": "29.975111204096894",
    "geocoded_column": {
      "latitude": "29.975111204096894",
      "longitude": "-90.06453560432519"
    }
  },
  {
    "service_request": "2022-899828",
    "request_type": "Abandoned Vehicles",
    "request_reason": "Abandoned/Junk Vehicles",
    "date_created": "2022-07-13T16:20:22.000",
    "date_modified": "2022-07-13T16:20:22.000",
    "request_status": "Pending",
    "responsible_agency": "Department of Public Works",
    "final_address": "2000 BLK Clio St",
    "address_councildis": "B",
    "status": "Pending",
    "rowid": "899828",
    "final_x": "3678167.90609",
    "final_y": "527336.239407",
    "longitude": "-90.07873652470828",
    "latitude": "29.944092488911895",
    "geocoded_column": {
      "latitude": "29.944092488911895",
      "longitude": "-90.07873652470828"
    }
  },
  {
    "service_request": "2022-899827",
    "request_type": "Safety & Permits",
    "request_reason": "Short term Rental (Enforcement)",
    "date_created": "2022-07-13T16:18:55.000",
    "date_modified": "2022-07-13T16:18:55.000",
    "request_status": "Pending",
    "responsible_agency": "Safety and Permits",
    "final_address": "2422 Chartres St",
    "address_councildis": "C",
    "status": "Pending",
    "rowid": "899827",
    "final_x": "3686123.77698",
    "final_y": "534561.164421",
    "longitude": "-90.05336285986866",
    "latitude": "29.963716638288158",
    "geocoded_column": {
      "latitude": "29.963716638288158",
      "longitude": "-90.05336285986866"
    }
  },
  {
    "service_request": "2022-899826",
    "request_type": "Trash/Recycling",
    "request_reason": "Missed Trash Pick-Up",
    "date_created": "2022-07-13T16:17:59.000",
    "date_modified": "2022-07-13T16:17:59.000",
    "request_status": "Pending",
    "responsible_agency": "Department of Sanitation",
    "final_address": "5200 Atlanta St",
    "address_councildis": "B",
    "status": "Assigned to Contractor",
    "contractor": "Richards Disposal",
    "rowid": "899826",
    "final_x": "3667983.80449",
    "final_y": "520661.062009",
    "longitude": "-90.11111548717626",
    "latitude": "29.92604056837358",
    "geocoded_column": {
      "latitude": "29.92604056837358",
      "longitude": "-90.11111548717626"
    }
  },
  {
    "service_request": "2022-899824",
    "request_type": "Abandoned Vehicles",
    "request_reason": "Abandoned/Junk Vehicles",
    "date_created": "2022-07-13T16:12:47.000",
    "date_modified": "2022-07-13T16:12:47.000",
    "request_status": "Pending",
    "responsible_agency": "Department of Public Works",
    "final_address": "2401 Octavia St",
    "address_councildis": "A",
    "status": "Pending",
    "rowid": "899824",
    "final_x": "3667724.10081",
    "final_y": "524438.596412",
    "longitude": "-90.11180817644397",
    "latitude": "29.936435198479533",
    "geocoded_column": {
      "latitude": "29.936435198479533",
      "longitude": "-90.11180817644397"
    }
  },
  {
    "service_request": "2022-899823",
    "request_type": "Property Maintenance",
    "request_reason": "Property Maintenance",
    "date_created": "2022-07-13T16:12:34.000",
    "date_modified": "2022-07-13T16:12:35.000",
    "request_status": "Pending",
    "responsible_agency": "Department of Code Enforcement",
    "final_address": "4638 Majestic Oaks Dr",
    "address_councildis": "D",
    "status": "Pending",
    "rowid": "899823",
    "final_x": "3697675.41443",
    "final_y": "553919.239127",
    "longitude": "-90.0161814516493",
    "latitude": "30.016584377366332",
    "geocoded_column": {
      "latitude": "30.016584377366332",
      "longitude": "-90.0161814516493"
    }
  },
  {
    "service_request": "2022-899822",
    "request_type": "Trash/Recycling",
    "request_reason": "Replace Trash Cart",
    "date_created": "2022-07-13T16:11:46.000",
    "date_modified": "2022-07-13T16:11:46.000",
    "request_status": "Pending",
    "responsible_agency": "Department of Sanitation",
    "final_address": "14 Virginia Ct",
    "address_councildis": "A",
    "status": "Assigned to Contractor",
    "contractor": "Metro Disposal",
    "rowid": "899822",
    "final_x": "3668882.8875",
    "final_y": "542254.329741",
    "longitude": "-90.10754814132542",
    "latitude": "29.98538855241857",
    "geocoded_column": {
      "latitude": "29.98538855241857",
      "longitude": "-90.10754814132542"
    }
  },
  {
    "service_request": "2022-899821",
    "request_type": "Trash/Recycling",
    "request_reason": "Missed Trash Pick-Up",
    "date_created": "2022-07-13T16:11:18.000",
    "date_modified": "2022-07-13T16:11:18.000",
    "request_status": "Pending",
    "responsible_agency": "Department of Sanitation",
    "final_address": "726 Valence St",
    "address_councildis": "B",
    "status": "Assigned to Contractor",
    "contractor": "Richards Disposal",
    "rowid": "899821",
    "final_x": "3669891.52602",
    "final_y": "518132.654326",
    "longitude": "-90.10517889836925",
    "latitude": "29.91903215904445",
    "geocoded_column": {
      "latitude": "29.91903215904445",
      "longitude": "-90.10517889836925"
    }
  },
  {
    "service_request": "2022-899820",
    "request_type": "Property Maintenance",
    "request_reason": "Property Maintenance",
    "date_created": "2022-07-13T16:10:50.000",
    "date_modified": "2022-07-13T16:10:51.000",
    "request_status": "Pending",
    "responsible_agency": "Department of Code Enforcement",
    "final_address": "4665 Majestic Oaks Dr",
    "address_councildis": "D",
    "status": "Pending",
    "rowid": "899820",
    "final_x": "3697872.03639",
    "final_y": "553931.396696",
    "longitude": "-90.01555977184574",
    "latitude": "30.016611589944358",
    "geocoded_column": {
      "latitude": "30.016611589944358",
      "longitude": "-90.01555977184574"
    }
  },
  {
    "service_request": "2022-899819",
    "request_type": "Property Maintenance",
    "request_reason": "Property Maintenance",
    "date_created": "2022-07-13T16:09:15.000",
    "date_modified": "2022-07-13T16:09:16.000",
    "request_status": "Pending",
    "responsible_agency": "Department of Code Enforcement",
    "final_address": "4619 Francis Dr",
    "address_councildis": "D",
    "status": "Pending",
    "rowid": "899819",
    "final_x": "3698375.71319",
    "final_y": "553671.987735",
    "longitude": "-90.01397781410765",
    "latitude": "30.015882376491714",
    "geocoded_column": {
      "latitude": "30.015882376491714",
      "longitude": "-90.01397781410765"
    }
  },
  {
    "service_request": "2022-899818",
    "request_type": "Abandoned Vehicles",
    "request_reason": "Abandoned/Junk Vehicles",
    "date_created": "2022-07-13T16:08:00.000",
    "date_modified": "2022-07-13T16:08:00.000",
    "request_status": "Pending",
    "responsible_agency": "Department of Public Works",
    "final_address": "2401 Octavia St",
    "address_councildis": "A",
    "status": "Pending",
    "rowid": "899818",
    "final_x": "3667724.10081",
    "final_y": "524438.596412",
    "longitude": "-90.11180817644397",
    "latitude": "29.936435198479533",
    "geocoded_column": {
      "latitude": "29.936435198479533",
      "longitude": "-90.11180817644397"
    }
  },
  {
    "service_request": "2022-899817",
    "request_type": "Property Maintenance",
    "request_reason": "Property Maintenance",
    "date_created": "2022-07-13T16:07:58.000",
    "date_modified": "2022-07-13T16:07:59.000",
    "request_status": "Pending",
    "responsible_agency": "Department of Code Enforcement",
    "final_address": "4561 Francis Dr",
    "address_councildis": "D",
    "status": "Pending",
    "rowid": "899817",
    "final_x": "3698394.59114",
    "final_y": "553474.704279",
    "longitude": "-90.01392534605367",
    "latitude": "30.015339323887787",
    "geocoded_column": {
      "latitude": "30.015339323887787",
      "longitude": "-90.01392534605367"
    }
  },
  {
    "service_request": "2022-899816",
    "request_type": "Trash/Recycling",
    "request_reason": "MIssed Recycling Pick-Up",
    "date_created": "2022-07-13T16:07:36.000",
    "date_modified": "2022-07-13T16:07:39.000",
    "request_status": "Pending",
    "responsible_agency": "Department of Sanitation",
    "final_address": "1015 Louisiana Ave",
    "address_councildis": "B",
    "status": "Assigned to Contractor",
    "contractor": "Richards Disposal",
    "rowid": "899816",
    "final_x": "3675199.70267",
    "final_y": "519448.536567",
    "longitude": "-90.08837856136961",
    "latitude": "29.922492902670886",
    "geocoded_column": {
      "latitude": "29.922492902670886",
      "longitude": "-90.08837856136961"
    }
  },
  {
    "service_request": "2022-899815",
    "request_type": "Roads/Drainage",
    "request_reason": "Catch Basin - Clogged",
    "date_created": "2022-07-13T16:03:24.000",
    "date_modified": "2022-07-13T16:03:24.000",
    "request_status": "Pending",
    "responsible_agency": "Department of Public Works",
    "final_address": "926 Esplanade Ave",
    "address_councildis": "C",
    "status": "Pending",
    "rowid": "899815",
    "final_x": "3683257.6989",
    "final_y": "534939.562566",
    "longitude": "-90.06240038284064",
    "latitude": "29.964844824180176",
    "geocoded_column": {
      "latitude": "29.964844824180176",
      "longitude": "-90.06240038284064"
    }
  },
  {
    "service_request": "2022-899814",
    "request_type": "Trash/Recycling",
    "request_reason": "Repair Trash Cart",
    "date_created": "2022-07-13T16:03:20.000",
    "date_modified": "2022-07-13T16:03:21.000",
    "request_status": "Pending",
    "responsible_agency": "Department of Sanitation",
    "final_address": "4904 S Saratoga St",
    "address_councildis": "B",
    "status": "Assigned to Contractor",
    "contractor": "Richards Disposal",
    "rowid": "899814",
    "final_x": "3669050.64122",
    "final_y": "522461.18521",
    "longitude": "-90.10768700231061",
    "latitude": "29.930959000321348",
    "geocoded_column": {
      "latitude": "29.930959000321348",
      "longitude": "-90.10768700231061"
    }
  },
  {
    "service_request": "2022-899813",
    "request_type": "Trash/Recycling",
    "request_reason": "Replace Trash Cart",
    "date_created": "2022-07-13T16:02:58.000",
    "date_modified": "2022-07-13T16:02:59.000",
    "request_status": "Pending",
    "responsible_agency": "Department of Sanitation",
    "final_address": "6810 Norwood Ct",
    "address_councildis": "E",
    "status": "Assigned to Contractor",
    "contractor": "Metro Disposal",
    "rowid": "899813",
    "final_x": "3701114.32855",
    "final_y": "556936.420634",
    "longitude": "-90.00520552665216",
    "latitude": "30.02477132910179",
    "geocoded_column": {
      "latitude": "30.02477132910179",
      "longitude": "-90.00520552665216"
    }
  },
  {
    "service_request": "2022-899812",
    "request_type": "Trash/Recycling",
    "request_reason": "Repair Trash Cart",
    "date_created": "2022-07-13T15:59:22.000",
    "date_modified": "2022-07-13T15:59:23.000",
    "case_close_date": "2019-08-29T19:00:00.000",
    "request_status": "Pending",
    "responsible_agency": "Department of Sanitation",
    "final_address": "6061 Paris Ave",
    "address_councildis": "D",
    "status": "Assigned to Contractor",
    "contractor": "Metro Disposal",
    "rowid": "899812",
    "final_x": "3679044.01839",
    "final_y": "554872.547992",
    "longitude": "-90.07501565437639",
    "latitude": "30.01978135864627",
    "geocoded_column": {
      "latitude": "30.01978135864627",
      "longitude": "-90.07501565437639"
    }
  },
  {
    "service_request": "2022-899811",
    "request_type": "Trash/Recycling",
    "request_reason": "Missed Trash Pick-Up",
    "date_created": "2022-07-13T15:58:45.000",
    "date_modified": "2022-07-13T15:58:46.000",
    "request_status": "Pending",
    "responsible_agency": "Department of Sanitation",
    "final_address": "4325 N Derbigny St, New Orleans, Louisiana, 70117",
    "address_councildis": "D",
    "status": "Assigned to Contractor",
    "contractor": "Metro Disposal",
    "rowid": "899811",
    "final_x": "3693414.78153",
    "final_y": "537325.321672",
    "longitude": "-90.03023942848914",
    "latitude": "29.9710911335064",
    "geocoded_column": {
      "latitude": "29.9710911335064",
      "longitude": "-90.03023942848914"
    }
  },
  {
    "service_request": "2022-899810",
    "request_type": "Mosquito, Termite & Rodent Control",
    "request_reason": "Rodent Complaint (Rats)",
    "date_created": "2022-07-13T15:58:06.000",
    "date_modified": "2022-07-13T15:58:07.000",
    "case_close_date": "2019-08-29T19:00:00.000",
    "request_status": "Pending",
    "responsible_agency": "Mosquito, Termite & Rodent Control Board",
    "final_address": "6061 Paris Ave",
    "address_councildis": "D",
    "status": "Pending",
    "rowid": "899810",
    "final_x": "3679044.01839",
    "final_y": "554872.547992",
    "longitude": "-90.07501565437639",
    "latitude": "30.01978135864627",
    "geocoded_column": {
      "latitude": "30.01978135864627",
      "longitude": "-90.07501565437639"
    }
  },
  {
    "service_request": "2022-899809",
    "request_type": "Trash/Recycling",
    "request_reason": "Missed Trash Pick-Up",
    "date_created": "2022-07-13T15:56:13.000",
    "date_modified": "2022-07-13T15:56:14.000",
    "request_status": "Pending",
    "responsible_agency": "Department of Sanitation",
    "final_address": "6479 Colbert St",
    "address_councildis": "A",
    "status": "Assigned to Contractor",
    "contractor": "Metro Disposal",
    "rowid": "899809",
    "final_x": "3667813.36084",
    "final_y": "550739.410773",
    "longitude": "-90.11064036020993",
    "latitude": "30.00875101887176",
    "geocoded_column": {
      "latitude": "30.00875101887176",
      "longitude": "-90.11064036020993"
    }
  },
  {
    "service_request": "2022-899808",
    "request_type": "Trash/Recycling",
    "request_reason": "Request a Large Item Pick Up",
    "date_created": "2022-07-13T15:55:21.000",
    "date_modified": "2022-07-13T15:55:22.000",
    "request_status": "Pending",
    "responsible_agency": "Department of Sanitation",
    "final_address": "616 Whitney Ave",
    "address_councildis": "C",
    "status": "Assigned to Contractor",
    "contractor": "Richards Disposal",
    "rowid": "899808",
    "final_x": "3690297.7672",
    "final_y": "529208.286272",
    "longitude": "-90.0403726026007",
    "latitude": "29.948869214464025",
    "geocoded_column": {
      "latitude": "29.948869214464025",
      "longitude": "-90.0403726026007"
    }
  },
  {
    "service_request": "2022-899807",
    "request_type": "Trash/Recycling",
    "request_reason": "Dead Animal Pick Up",
    "date_created": "2022-07-13T15:53:53.000",
    "date_modified": "2022-07-13T15:53:54.000",
    "request_status": "Pending",
    "responsible_agency": "Department of Sanitation",
    "final_address": "616 Whitney Ave",
    "address_councildis": "C",
    "status": "Assigned to Contractor",
    "contractor": "Richards Disposal",
    "rowid": "899807",
    "final_x": "3690297.7672",
    "final_y": "529208.286272",
    "longitude": "-90.0403726026007",
    "latitude": "29.948869214464025",
    "geocoded_column": {
      "latitude": "29.948869214464025",
      "longitude": "-90.0403726026007"
    }
  },
  {
    "service_request": "2022-899806",
    "request_type": "Trash/Recycling",
    "request_reason": "MIssed Recycling Pick-Up",
    "date_created": "2022-07-13T15:51:26.000",
    "date_modified": "2022-07-13T15:51:27.000",
    "request_status": "Pending",
    "responsible_agency": "Department of Sanitation",
    "final_address": "2514 Amelia St",
    "address_councildis": "B",
    "status": "Assigned to Contractor",
    "contractor": "Richards Disposal",
    "rowid": "899806",
    "final_x": "3672303.55988",
    "final_y": "524398.937276",
    "longitude": "-90.09735197566623",
    "latitude": "29.93619111695968",
    "geocoded_column": {
      "latitude": "29.93619111695968",
      "longitude": "-90.09735197566623"
    }
  },
  {
    "service_request": "2022-899805",
    "request_type": "Roads/Drainage",
    "request_reason": "Accessibility Ramps, Curbs and Sidewalk Repair",
    "date_created": "2022-07-13T15:51:00.000",
    "date_modified": "2022-07-13T15:51:00.000",
    "request_status": "Pending",
    "responsible_agency": "Department of Public Works",
    "final_address": "4600 Charlene Dr",
    "address_councildis": "E",
    "status": "Pending",
    "rowid": "899805",
    "final_x": "3707946.48107",
    "final_y": "554518.318872",
    "longitude": "-89.98370725416333",
    "latitude": "30.017902975729307",
    "geocoded_column": {
      "latitude": "30.017902975729307",
      "longitude": "-89.98370725416333"
    }
  },
  {
    "service_request": "2022-899804",
    "request_type": "Trash/Recycling",
    "request_reason": "Replace Trash Cart",
    "date_created": "2022-07-13T15:50:25.000",
    "date_modified": "2022-07-13T15:50:26.000",
    "request_status": "Pending",
    "responsible_agency": "Department of Sanitation",
    "final_address": "1530 Jefferson Ave",
    "address_councildis": "A",
    "status": "Assigned to Contractor",
    "contractor": "Richards Disposal",
    "rowid": "899804",
    "final_x": "3667149.15169",
    "final_y": "520822.343545",
    "longitude": "-90.11374483309073",
    "latitude": "29.926508495204175",
    "geocoded_column": {
      "latitude": "29.926508495204175",
      "longitude": "-90.11374483309073"
    }
  },
  {
    "service_request": "2022-899803",
    "request_type": "Trash/Recycling",
    "request_reason": "Missed Trash Pick-Up",
    "date_created": "2022-07-13T15:48:32.000",
    "date_modified": "2022-07-13T15:48:33.000",
    "request_status": "Pending",
    "responsible_agency": "Department of Sanitation",
    "final_address": "439 Hendee St",
    "address_councildis": "C",
    "status": "Assigned to Contractor",
    "contractor": "Richards Disposal",
    "rowid": "899803",
    "final_x": "3690849.24041",
    "final_y": "529912.893185",
    "longitude": "-90.03860623243231",
    "latitude": "29.950789518393158",
    "geocoded_column": {
      "latitude": "29.950789518393158",
      "longitude": "-90.03860623243231"
    }
  },
  {
    "service_request": "2022-899802",
    "request_type": "Trash/Recycling",
    "request_reason": "Request a Large Item Pick Up",
    "date_created": "2022-07-13T15:47:33.000",
    "date_modified": "2022-07-13T15:47:34.000",
    "request_status": "Pending",
    "responsible_agency": "Department of Sanitation",
    "final_address": "204 N Rendon St",
    "address_councildis": "B",
    "status": "Assigned to Contractor",
    "contractor": "Richards Disposal",
    "rowid": "899802",
    "final_x": "3673923.71649",
    "final_y": "536832.260936",
    "longitude": "-90.09181178526207",
    "latitude": "29.970330476423847",
    "geocoded_column": {
      "latitude": "29.970330476423847",
      "longitude": "-90.09181178526207"
    }
  },
  {
    "service_request": "2022-899801",
    "request_type": "Traffic Signals/Signs/Striping/Streetlights",
    "request_reason": "Street Light Outage/Malfunction",
    "date_created": "2022-07-13T15:45:26.000",
    "date_modified": "2022-07-13T15:45:27.000",
    "request_status": "Pending",
    "responsible_agency": "Department of Public Works",
    "final_address": "3400 BLK Constance St",
    "address_councildis": "B",
    "status": "Pending",
    "contractor": "Royal Engineering",
    "rowid": "899801",
    "final_x": "3674989.30353",
    "final_y": "519204.985328",
    "longitude": "-90.08905105571661",
    "latitude": "29.921829499076473",
    "geocoded_column": {
      "latitude": "29.921829499076473",
      "longitude": "-90.08905105571661"
    }
  },
  {
    "service_request": "2022-899800",
    "request_type": "Roads/Drainage",
    "request_reason": "Debris in Roadway",
    "date_created": "2022-07-13T15:41:24.000",
    "date_modified": "2022-07-13T15:41:25.000",
    "request_status": "Pending",
    "responsible_agency": "Department of Public Works",
    "final_address": "ALINE ST & CONSTANCE ST",
    "address_councildis": "B",
    "status": "Pending",
    "rowid": "899800",
    "final_x": "3674585.8",
    "final_y": "519050.78",
    "longitude": "-90.09033002701563",
    "latitude": "29.921417525977247",
    "geocoded_column": {
      "latitude": "29.921417525977247",
      "longitude": "-90.09033002701563"
    }
  },
  {
    "service_request": "2022-899799",
    "request_type": "Roads/Drainage",
    "request_reason": "Catch Basin - Clogged",
    "date_created": "2022-07-13T15:40:50.000",
    "date_modified": "2022-07-13T15:40:51.000",
    "request_status": "Pending",
    "responsible_agency": "Department of Public Works",
    "final_address": "1432 First St",
    "address_councildis": "B",
    "status": "Pending",
    "rowid": "899799",
    "final_x": "3677305.62574",
    "final_y": "522612.107258",
    "longitude": "-90.08162192135536",
    "latitude": "29.931128611257588",
    "geocoded_column": {
      "latitude": "29.931128611257588",
      "longitude": "-90.08162192135536"
    }
  },
  {
    "service_request": "2022-899798",
    "request_type": "Roads/Drainage",
    "request_reason": "Catch Basin - Broken/Damage",
    "date_created": "2022-07-13T15:38:44.000",
    "date_modified": "2022-07-13T15:39:46.000",
    "request_status": "Pending",
    "responsible_agency": "Department of Public Works",
    "final_address": "6440 Berkley Dr",
    "address_councildis": "C",
    "status": "Pending",
    "rowid": "899798",
    "final_x": "3708032.08907",
    "final_y": "518122.778166",
    "longitude": "-89.9847901548143",
    "latitude": "29.917825829643412",
    "geocoded_column": {
      "latitude": "29.917825829643412",
      "longitude": "-89.9847901548143"
    }
  },
  {
    "service_request": "2022-899797",
    "request_type": "Roads/Drainage",
    "request_reason": "Accessibility Ramps, Curbs and Sidewalk Repair",
    "date_created": "2022-07-13T15:36:59.000",
    "date_modified": "2022-07-13T15:36:59.000",
    "request_status": "Pending",
    "responsible_agency": "Department of Public Works",
    "final_address": "8500 Chef Menteur Hwy",
    "address_councildis": "E",
    "status": "Pending",
    "rowid": "899797",
    "final_x": "3706749.80855",
    "final_y": "553105.580183",
    "longitude": "-89.98754067318255",
    "latitude": "30.01405719082644",
    "geocoded_column": {
      "latitude": "30.01405719082644",
      "longitude": "-89.98754067318255"
    }
  },
  {
    "service_request": "2022-899796",
    "request_type": "Traffic Signals/Signs/Striping/Streetlights",
    "request_reason": "Street Light Outage/Malfunction",
    "date_created": "2022-07-13T15:33:36.000",
    "date_modified": "2022-07-13T15:33:37.000",
    "request_status": "Pending",
    "responsible_agency": "Department of Public Works",
    "final_address": "3216 Prytania St",
    "address_councildis": "B",
    "status": "Pending",
    "contractor": "Royal Engineering",
    "rowid": "899796",
    "final_x": "3675027.54472",
    "final_y": "521167.391929",
    "longitude": "-90.08886306753037",
    "latitude": "29.927224342945344",
    "geocoded_column": {
      "latitude": "29.927224342945344",
      "longitude": "-90.08886306753037"
    }
  },
  {
    "service_request": "2022-899795",
    "request_type": "Abandoned Vehicles",
    "request_reason": "Abandoned/Junk Vehicles",
    "date_created": "2022-07-13T15:28:49.000",
    "date_modified": "2022-07-13T15:28:49.000",
    "request_status": "Pending",
    "responsible_agency": "Department of Public Works",
    "final_address": "3604 Cleveland Ave",
    "address_councildis": "B",
    "status": "Pending",
    "rowid": "899795",
    "final_x": "3672219.56391",
    "final_y": "536815.372872",
    "longitude": "-90.09719427213317",
    "latitude": "29.970334701092114",
    "geocoded_column": {
      "latitude": "29.970334701092114",
      "longitude": "-90.09719427213317"
    }
  },
  {
    "service_request": "2022-899794",
    "request_type": "Abandoned Vehicles",
    "request_reason": "Abandoned/Junk Vehicles",
    "date_created": "2022-07-13T15:28:03.000",
    "date_modified": "2022-07-13T15:30:02.000",
    "request_status": "Pending",
    "responsible_agency": "Department of Public Works",
    "final_address": "2824 Baronne St",
    "address_councildis": "B",
    "status": "Pending",
    "rowid": "899794",
    "final_x": "3675349.40712",
    "final_y": "523000.205691",
    "longitude": "-90.08778413672246",
    "latitude": "29.932254370372988",
    "geocoded_column": {
      "latitude": "29.932254370372988",
      "longitude": "-90.08778413672246"
    }
  },
  {
    "service_request": "2022-899793",
    "request_type": "Trash/Recycling",
    "request_reason": "Request a Large Item Pick Up",
    "date_created": "2022-07-13T15:27:34.000",
    "date_modified": "2022-07-13T15:27:34.000",
    "request_status": "Pending",
    "responsible_agency": "Department of Sanitation",
    "final_address": "524 Austerlitz St, New Orleans, Louisiana, 70115",
    "address_councildis": "B",
    "status": "Assigned to Contractor",
    "contractor": "Richards Disposal",
    "rowid": "899793",
    "final_x": "3672938.30267",
    "final_y": "517874.402294",
    "longitude": "-90.09557057631058",
    "latitude": "29.918231901789447",
    "geocoded_column": {
      "latitude": "29.918231901789447",
      "longitude": "-90.09557057631058"
    }
  },
  {
    "service_request": "2022-899792",
    "request_type": "Trash/Recycling",
    "request_reason": "Repair Recycling Cart",
    "date_created": "2022-07-13T15:22:04.000",
    "date_modified": "2022-07-13T15:22:04.000",
    "request_status": "Pending",
    "responsible_agency": "Department of Sanitation",
    "final_address": "1108 City Park Ave",
    "address_councildis": "A",
    "status": "Pending",
    "rowid": "899792",
    "final_x": "3673082.06088",
    "final_y": "541475.325004",
    "longitude": "-90.09431127299739",
    "latitude": "29.983122370195684",
    "geocoded_column": {
      "latitude": "29.983122370195684",
      "longitude": "-90.09431127299739"
    }
  },
  {
    "service_request": "2022-899791",
    "request_type": "Trash/Recycling",
    "request_reason": "Dead Animal Pick Up",
    "date_created": "2022-07-13T15:20:35.000",
    "date_modified": "2022-07-13T15:20:35.000",
    "request_status": "Pending",
    "responsible_agency": "Department of Sanitation",
    "final_address": "7849 Read Blvd Apt 12",
    "address_councildis": "E",
    "status": "Assigned to Contractor",
    "contractor": "Metro Disposal",
    "rowid": "899791",
    "final_x": "3708429.38795",
    "final_y": "565267.44797",
    "longitude": "-89.98178086429685",
    "latitude": "30.047443191521047",
    "geocoded_column": {
      "latitude": "30.047443191521047",
      "longitude": "-89.98178086429685"
    }
  },
  {
    "service_request": "2022-899790",
    "request_type": "Trash/Recycling",
    "request_reason": "Replace Trash Cart",
    "date_created": "2022-07-13T15:17:57.000",
    "date_modified": "2022-07-13T15:17:57.000",
    "request_status": "Pending",
    "responsible_agency": "Department of Sanitation",
    "final_address": "New Orleans,LA",
    "status": "Assigned to Contractor",
    "rowid": "899790",
    "longitude": "0.0",
    "latitude": "0.0",
    "geocoded_column": {
      "latitude": "0.0",
      "longitude": "0.0"
    }
  },
  {
    "service_request": "2022-899789",
    "request_type": "Trash/Recycling",
    "request_reason": "Missed Trash Pick-Up",
    "date_created": "2022-07-13T15:17:41.000",
    "date_modified": "2022-07-13T15:17:42.000",
    "request_status": "Pending",
    "responsible_agency": "Department of Sanitation",
    "final_address": "474 Pine St",
    "address_councildis": "A",
    "status": "Assigned to Contractor",
    "contractor": "Richards Disposal",
    "rowid": "899789",
    "final_x": "3662271.71021",
    "final_y": "524353.757756",
    "longitude": "-90.12902447629864",
    "latitude": "29.936360618508427",
    "geocoded_column": {
      "latitude": "29.936360618508427",
      "longitude": "-90.12902447629864"
    }
  },
  {
    "service_request": "2022-899788",
    "request_type": "Trash/Recycling",
    "request_reason": "Dead Animal Pick Up",
    "date_created": "2022-07-13T15:17:22.000",
    "date_modified": "2022-07-13T15:17:22.000",
    "request_status": "Pending",
    "responsible_agency": "Department of Sanitation",
    "final_address": "601 Whitney Ave",
    "address_councildis": "C",
    "status": "Assigned to Contractor",
    "contractor": "Richards Disposal",
    "rowid": "899788",
    "final_x": "3690146.8911",
    "final_y": "529333.586241",
    "longitude": "-90.04084451917464",
    "latitude": "29.949218426661496",
    "geocoded_column": {
      "latitude": "29.949218426661496",
      "longitude": "-90.04084451917464"
    }
  },
  {
    "service_request": "2022-899787",
    "request_type": "Trash/Recycling",
    "request_reason": "Start Trash Service",
    "date_created": "2022-07-13T15:16:17.000",
    "date_modified": "2022-07-13T15:16:18.000",
    "request_status": "Pending",
    "responsible_agency": "Department of Sanitation",
    "final_address": "63 Spanish Fort Blvd",
    "address_councildis": "D",
    "status": "Assigned to Contractor",
    "contractor": "Metro Disposal",
    "rowid": "899787",
    "final_x": "3674043.42836",
    "final_y": "555399.213657",
    "longitude": "-90.09079787448418",
    "latitude": "30.021379546895165",
    "geocoded_column": {
      "latitude": "30.021379546895165",
      "longitude": "-90.09079787448418"
    }
  },
  {
    "service_request": "2022-899786",
    "request_type": "Trash/Recycling",
    "request_reason": "Request a Large Item Pick Up",
    "date_created": "2022-07-13T15:15:41.000",
    "date_modified": "2022-07-13T15:15:42.000",
    "request_status": "Pending",
    "responsible_agency": "Department of Sanitation",
    "final_address": "1131 Leboeuf St",
    "address_councildis": "C",
    "status": "Assigned to Contractor",
    "contractor": "Richards Disposal",
    "rowid": "899786",
    "final_x": "3689663.2495",
    "final_y": "527157.584959",
    "longitude": "-90.04244898713497",
    "latitude": "29.94325015998874",
    "geocoded_column": {
      "latitude": "29.94325015998874",
      "longitude": "-90.04244898713497"
    }
  },
  {
    "service_request": "2022-899785",
    "request_type": "Trash/Recycling",
    "request_reason": "Repair Trash Cart",
    "date_created": "2022-07-13T15:07:20.000",
    "date_modified": "2022-07-13T15:07:21.000",
    "request_status": "Pending",
    "responsible_agency": "Department of Sanitation",
    "final_address": "3600 Mimosa Ct",
    "address_councildis": "C",
    "status": "Assigned to Contractor",
    "contractor": "Richards Disposal",
    "rowid": "899785",
    "final_x": "3703011.98839",
    "final_y": "513197.857714",
    "longitude": "-90.00081650455641",
    "latitude": "29.904445480559932",
    "geocoded_column": {
      "latitude": "29.904445480559932",
      "longitude": "-90.00081650455641"
    }
  },
  {
    "service_request": "2022-899784",
    "request_type": "Trash/Recycling",
    "request_reason": "Order Trash Cart",
    "date_created": "2022-07-13T15:05:51.000",
    "date_modified": "2022-07-13T15:05:52.000",
    "request_status": "Pending",
    "responsible_agency": "Department of Sanitation",
    "final_address": "4701 Baudin St Apt B",
    "address_councildis": "A",
    "status": "Assigned to Contractor",
    "contractor": "Richards Disposal",
    "rowid": "899784",
    "final_x": "3668150.28775",
    "final_y": "538634.405769",
    "longitude": "-90.10998420112664",
    "latitude": "29.975456513769046",
    "geocoded_column": {
      "latitude": "29.975456513769046",
      "longitude": "-90.10998420112664"
    }
  },
  {
    "service_request": "2022-899783",
    "request_type": "Roads/Drainage",
    "request_reason": "Catch Basin - Broken/Damage",
    "date_created": "2022-07-13T15:05:11.000",
    "date_modified": "2022-07-13T15:05:11.000",
    "request_status": "Pending",
    "responsible_agency": "Department of Public Works",
    "final_address": "4218 Iberville St",
    "address_councildis": "A",
    "status": "Pending",
    "rowid": "899783",
    "final_x": "3670675.08417",
    "final_y": "539159.848138",
    "longitude": "-90.10199235471255",
    "latitude": "29.97682694171457",
    "geocoded_column": {
      "latitude": "29.97682694171457",
      "longitude": "-90.10199235471255"
    }
  },
  {
    "service_request": "2022-899782",
    "request_type": "Trash/Recycling",
    "request_reason": "Replace Trash Cart",
    "date_created": "2022-07-13T15:00:16.000",
    "date_modified": "2022-07-13T15:00:17.000",
    "request_status": "Pending",
    "responsible_agency": "Department of Sanitation",
    "final_address": "5506 Laurel St",
    "address_councildis": "A",
    "status": "Assigned to Contractor",
    "contractor": "Richards Disposal",
    "rowid": "899782",
    "final_x": "3666138.64436",
    "final_y": "517833.835126",
    "longitude": "-90.11703487721252",
    "latitude": "29.91832057159619",
    "geocoded_column": {
      "latitude": "29.91832057159619",
      "longitude": "-90.11703487721252"
    }
  },
  {
    "service_request": "2022-899781",
    "request_type": "Trash/Recycling",
    "request_reason": "Request a Large Item Pick Up",
    "date_created": "2022-07-13T14:57:32.000",
    "date_modified": "2022-07-13T14:57:32.000",
    "request_status": "Pending",
    "responsible_agency": "Department of Sanitation",
    "final_address": "2241 Valentine Ct",
    "address_councildis": "C",
    "status": "Assigned to Contractor",
    "contractor": "Richards Disposal",
    "rowid": "899781",
    "final_x": "3699418.35056",
    "final_y": "522819.036859",
    "longitude": "-90.0118078430483",
    "latitude": "29.93101486918151",
    "geocoded_column": {
      "latitude": "29.93101486918151",
      "longitude": "-90.0118078430483"
    }
  },
  {
    "service_request": "2022-899780",
    "request_type": "Trash/Recycling",
    "request_reason": "Request a Large Item Pick Up",
    "date_created": "2022-07-13T14:53:23.000",
    "date_modified": "2022-07-13T14:53:24.000",
    "request_status": "Pending",
    "responsible_agency": "Department of Sanitation",
    "final_address": "1802 Lowerline St",
    "address_councildis": "A",
    "status": "Assigned to Contractor",
    "contractor": "Richards Disposal",
    "rowid": "899780",
    "final_x": "3664864.16525",
    "final_y": "528647.102592",
    "longitude": "-90.12069652739912",
    "latitude": "29.948090765040305",
    "geocoded_column": {
      "latitude": "29.948090765040305",
      "longitude": "-90.12069652739912"
    }
  },