[
  {
    "service_request": "2022-915420",
    "request_type": "Trash/Recycling",
    "request_reason": "Missed Trash Pick-Up",
    "date_created": "2022-09-01T01:41:37.000",
    "date_modified": "2022-09-01T01:41:44.000",
    "request_status": "Pending",
    "responsible_agency": "Department of Sanitation",
    "final_address": "8336 Belfast St",
    "address_councildis": "A",
    "status": "Assigned to Contractor",
    "contractor": "Richards Disposal",
    "rowid": "915420",
    "final_x": "3664841.04768",
    "final_y": "533000.807364",
    "longitude": "-90.12062403281487",
    "latitude": "29.960062711363086",
    "geocoded_column": {
      "latitude": "29.960062711363086",
      "longitude": "-90.12062403281487"
    }
  },
  {
    "service_request": "2022-915419",
    "request_type": "Health Related Questions",
    "request_reason": "Noise Ordinance Complaint",
    "date_created": "2022-09-01T00:53:46.000",
    "date_modified": "2022-09-01T00:53:46.000",
    "request_status": "Pending",
    "responsible_agency": "Health Department",
    "final_address": "1723 Henriette Delille St",
    "address_councildis": "C",
    "status": "Pending",
    "rowid": "915419",
    "final_x": "3683338.40943",
    "final_y": "536195.373255",
    "longitude": "-90.06210150700602",
    "latitude": "29.968295408632137",
    "geocoded_column": {
      "latitude": "29.968295408632137",
      "longitude": "-90.06210150700602"
    }
  },
  {
    "service_request": "2022-915418",
    "request_type": "Trash/Recycling",
    "request_reason": "Illegal Dumping",
    "date_created": "2022-09-01T00:43:38.000",
    "date_modified": "2022-09-01T00:43:38.000",
    "request_status": "Pending",
    "responsible_agency": "Department of Sanitation",
    "final_address": "2524 Valence St",
    "address_councildis": "B",
    "status": "Pending",
    "rowid": "915418",
    "final_x": "3669347.64506",
    "final_y": "524145.718076",
    "longitude": "-90.10669247050184",
    "latitude": "29.93558218659783",
    "geocoded_column": {
      "latitude": "29.93558218659783",
      "longitude": "-90.10669247050184"
    }
  },
  {
    "service_request": "2022-915417",
    "request_type": "Trash/Recycling",
    "request_reason": "Replace Trash Cart",
    "date_created": "2022-09-01T00:29:25.000",
    "date_modified": "2022-09-01T00:29:29.000",
    "request_status": "Pending",
    "responsible_agency": "Department of Sanitation",
    "final_address": "2036 Gallier St",
    "address_councildis": "D",
    "status": "Assigned to Contractor",
    "contractor": "Metro Disposal",
    "rowid": "915417",
    "final_x": "3691325.08208",
    "final_y": "539338.392266",
    "longitude": "-90.03676701537982",
    "latitude": "29.976691543447334",
    "geocoded_column": {
      "latitude": "29.976691543447334",
      "longitude": "-90.03676701537982"
    }
  },
  {
    "service_request": "2022-915415",
    "request_type": "Trash/Recycling",
    "request_reason": "Request a Large Item Pick Up",
    "date_created": "2022-08-31T23:56:53.000",
    "date_modified": "2022-08-31T23:56:54.000",
    "request_status": "Pending",
    "responsible_agency": "Department of Sanitation",
    "final_address": "929 St Andrew St",
    "address_councildis": "B",
    "status": "Assigned to Contractor",
    "contractor": "Richards Disposal",
    "rowid": "915415",
    "final_x": "3679859.13442",
    "final_y": "522229.32057",
    "longitude": "-90.07357411577644",
    "latitude": "29.929999126079405",
    "geocoded_column": {
      "latitude": "29.929999126079405",
      "longitude": "-90.07357411577644"
    }
  },
  {
    "service_request": "2022-915414",
    "request_type": "Property Maintenance",
    "request_reason": "Property Maintenance",
    "date_created": "2022-08-31T23:37:22.000",
    "date_modified": "2022-08-31T23:37:22.000",
    "request_status": "Pending",
    "responsible_agency": "Department of Code Enforcement",
    "final_address": "4774 Flake Ave",
    "address_councildis": "E",
    "status": "Pending",
    "rowid": "915414",
    "final_x": "3705999.94871",
    "final_y": "555703.811097",
    "longitude": "-89.98981357797443",
    "latitude": "30.02122551876965",
    "geocoded_column": {
      "latitude": "30.02122551876965",
      "longitude": "-89.98981357797443"
    }
  },
  {
    "service_request": "2022-915413",
    "request_type": "Health Related Questions",
    "request_reason": "Noise Ordinance Complaint",
    "date_created": "2022-08-31T23:25:02.000",
    "date_modified": "2022-08-31T23:25:02.000",
    "request_status": "Pending",
    "responsible_agency": "Health Department",
    "final_address": "1723 Henriette Delille St",
    "address_councildis": "C",
    "status": "Pending",
    "rowid": "915413",
    "final_x": "3683338.40943",
    "final_y": "536195.373255",
    "longitude": "-90.06210150700602",
    "latitude": "29.968295408632137",
    "geocoded_column": {
      "latitude": "29.968295408632137",
      "longitude": "-90.06210150700602"
    }
  },
  {
    "service_request": "2022-915412",
    "request_type": "Health Related Questions",
    "request_reason": "Noise Ordinance Complaint",
    "date_created": "2022-08-31T23:23:00.000",
    "date_modified": "2022-08-31T23:23:00.000",
    "request_status": "Pending",
    "responsible_agency": "Health Department",
    "final_address": "1723 Henriette Delille St",
    "address_councildis": "C",
    "status": "Pending",
    "rowid": "915412",
    "final_x": "3683338.40943",
    "final_y": "536195.373255",
    "longitude": "-90.06210150700602",
    "latitude": "29.968295408632137",
    "geocoded_column": {
      "latitude": "29.968295408632137",
      "longitude": "-90.06210150700602"
    }
  },
  {
    "service_request": "2022-915411",
    "request_type": "Abandoned Vehicles",
    "request_reason": "Abandoned/Junk Vehicles",
    "date_created": "2022-08-31T23:06:30.000",
    "date_modified": "2022-08-31T23:06:30.000",
    "request_status": "Pending",
    "responsible_agency": "Department of Public Works",
    "final_address": "3837 Virgil Blvd",
    "address_councildis": "D",
    "status": "Pending",
    "rowid": "915411",
    "final_x": "3680514.13391",
    "final_y": "546664.464977",
    "longitude": "-90.0706563618535",
    "latitude": "29.99716761048537",
    "geocoded_column": {
      "latitude": "29.99716761048537",
      "longitude": "-90.0706563618535"
    }
  },
  {
    "service_request": "2022-915410",
    "request_type": "Trash/Recycling",
    "request_reason": "MIssed Recycling Pick-Up",
    "date_created": "2022-08-31T23:03:23.000",
    "date_modified": "2022-08-31T23:03:24.000",
    "request_status": "Pending",
    "responsible_agency": "Department of Sanitation",
    "final_address": "1409 Saint Mary St, New Orleans, Louisiana, 70130",
    "status": "Assigned to Contractor",
    "rowid": "915410",
    "longitude": "0.0",
    "latitude": "0.0",
    "geocoded_column": {
      "latitude": "0.0",
      "longitude": "0.0"
    }
  },
  {
    "service_request": "2022-915409",
    "request_type": "Traffic Signals/Signs/Striping/Streetlights",
    "request_reason": "Street Light Outage/Malfunction",
    "date_created": "2022-08-31T22:57:36.000",
    "date_modified": "2022-08-31T22:57:37.000",
    "request_status": "Pending",
    "responsible_agency": "Department of Public Works",
    "final_address": "10936 Chaucer St",
    "address_councildis": "E",
    "status": "Pending",
    "contractor": "Legacy Professional Services",
    "rowid": "915409",
    "final_x": "3712908.90962",
    "final_y": "561837.077215",
    "longitude": "-89.96775246388235",
    "latitude": "30.037865011332414",
    "geocoded_column": {
      "latitude": "30.037865011332414",
      "longitude": "-89.96775246388235"
    }
  },
  {
    "service_request": "2022-915408",
    "request_type": "Traffic Signals/Signs/Striping/Streetlights",
    "request_reason": "Street Light Outage/Malfunction",
    "date_created": "2022-08-31T22:54:59.000",
    "date_modified": "2022-08-31T22:55:00.000",
    "request_status": "Pending",
    "responsible_agency": "Department of Public Works",
    "final_address": "11018 Chaucer St",
    "address_councildis": "E",
    "status": "Pending",
    "contractor": "Legacy Professional Services",
    "rowid": "915408",
    "final_x": "3713246.80267",
    "final_y": "562088.309471",
    "longitude": "-89.96667517984282",
    "latitude": "30.038544722400434",
    "geocoded_column": {
      "latitude": "30.038544722400434",
      "longitude": "-89.96667517984282"
    }
  },
  {
    "service_request": "2022-915407",
    "request_type": "Trash/Recycling",
    "request_reason": "Replace Trash Cart",
    "date_created": "2022-08-31T22:45:52.000",
    "date_modified": "2022-08-31T22:45:53.000",
    "request_status": "Pending",
    "responsible_agency": "Department of Sanitation",
    "final_address": "634 Toledano St",
    "address_councildis": "B",
    "status": "Assigned to Contractor",
    "contractor": "Richards Disposal",
    "rowid": "915407",
    "final_x": "3676020.78747",
    "final_y": "518269.09887",
    "longitude": "-90.08582725923878",
    "latitude": "29.919225272884006",
    "geocoded_column": {
      "latitude": "29.919225272884006",
      "longitude": "-90.08582725923878"
    }
  },
  {
    "service_request": "2022-915406",
    "request_type": "Parks & Parkways",
    "request_reason": "Request Tree Service (Right of Way/Public Property)",
    "date_created": "2022-08-31T22:35:28.000",
    "date_modified": "2022-08-31T22:35:28.000",
    "request_status": "Pending",
    "responsible_agency": "Department of Parks & Parkway",
    "final_address": "100 Veterans Blvd",
    "address_councildis": "A",
    "status": "Pending",
    "rowid": "915406",
    "final_x": "3665782.41946",
    "final_y": "547184.399441",
    "longitude": "-90.11717599852675",
    "latitude": "29.99903539956277",
    "geocoded_column": {
      "latitude": "29.99903539956277",
      "longitude": "-90.11717599852675"
    }
  },
  {
    "service_request": "2022-915405",
    "request_type": "Roads/Drainage",
    "request_reason": "Street Subsidence (Sinking)",
    "date_created": "2022-08-31T22:33:28.000",
    "date_modified": "2022-08-31T22:33:28.000",
    "request_status": "Pending",
    "responsible_agency": "Department of Public Works",
    "final_address": "6637 Congress Dr",
    "address_councildis": "D",
    "status": "Pending",
    "rowid": "915405",
    "final_x": "3690659.86006",
    "final_y": "558178.235739",
    "longitude": "-90.03819543736923",
    "latitude": "30.02851489957645",
    "geocoded_column": {
      "latitude": "30.02851489957645",
      "longitude": "-90.03819543736923"
    }
  },
  {
    "service_request": "2022-915404",
    "request_type": "Traffic Signals/Signs/Striping/Streetlights",
    "request_reason": "Street Light Outage/Malfunction",
    "date_created": "2022-08-31T22:30:19.000",
    "date_modified": "2022-08-31T22:30:20.000",
    "request_status": "Pending",
    "responsible_agency": "Department of Public Works",
    "final_address": "107 W Brooks St",
    "address_councildis": "A",
    "status": "Pending",
    "contractor": "Legacy Professional Services",
    "rowid": "915404",
    "final_x": "3665910.80506",
    "final_y": "546637.385745",
    "longitude": "-90.11678877104501",
    "latitude": "29.997527552355287",
    "geocoded_column": {
      "latitude": "29.997527552355287",
      "longitude": "-90.11678877104501"
    }
  },
  {
    "service_request": "2022-915403",
    "request_type": "Traffic Signals/Signs/Striping/Streetlights",
    "request_reason": "Street Light Outage/Malfunction",
    "date_created": "2022-08-31T22:29:33.000",
    "date_modified": "2022-08-31T22:29:34.000",
    "request_status": "Pending",
    "responsible_agency": "Department of Public Works",
    "final_address": "6500 Press Dr",
    "address_councildis": "D",
    "status": "Pending",
    "contractor": "Legacy Professional Services",
    "rowid": "915403",
    "final_x": "3688512.95907",
    "final_y": "557984.971099",
    "longitude": "-90.04498638871938",
    "latitude": "30.02805004295675",
    "geocoded_column": {
      "latitude": "30.02805004295675",
      "longitude": "-90.04498638871938"
    }
  },
  {
    "service_request": "2022-915402",
    "request_type": "Health Related Questions",
    "request_reason": "Noise Ordinance Complaint",
    "date_created": "2022-08-31T22:27:42.000",
    "date_modified": "2022-08-31T22:27:42.000",
    "request_status": "Pending",
    "responsible_agency": "Health Department",
    "final_address": "1723 Henriette Delille St",
    "address_councildis": "C",
    "status": "Pending",
    "rowid": "915402",
    "final_x": "3683338.40943",
    "final_y": "536195.373255",
    "longitude": "-90.06210150700602",
    "latitude": "29.968295408632137",
    "geocoded_column": {
      "latitude": "29.968295408632137",
      "longitude": "-90.06210150700602"
    }
  },
  {
    "service_request": "2022-915401",
    "request_type": "Traffic Signals/Signs/Striping/Streetlights",
    "request_reason": "Street Light Outage/Malfunction",
    "date_created": "2022-08-31T22:25:33.000",
    "date_modified": "2022-08-31T22:25:34.000",
    "request_status": "Pending",
    "responsible_agency": "Department of Public Works",
    "final_address": "100 Veterans Blvd",
    "address_councildis": "A",
    "status": "Pending",
    "contractor": "Legacy Professional Services",
    "rowid": "915401",
    "final_x": "3665782.41946",
    "final_y": "547184.399441",
    "longitude": "-90.11717599852675",
    "latitude": "29.99903539956277",
    "geocoded_column": {
      "latitude": "29.99903539956277",
      "longitude": "-90.11717599852675"
    }
  },
  {
    "service_request": "2022-915400",
    "request_type": "Trash/Recycling",
    "request_reason": "Request a Large Item Pick Up",
    "date_created": "2022-08-31T22:22:16.000",
    "date_modified": "2022-08-31T22:22:17.000",
    "request_status": "Pending",
    "responsible_agency": "Department of Sanitation",
    "final_address": "3108 College Ct",
    "address_councildis": "B",
    "status": "Assigned to Contractor",
    "contractor": "Richards Disposal",
    "rowid": "915400",
    "final_x": "3668438.72218",
    "final_y": "531824.666499",
    "longitude": "-90.10930299017294",
    "latitude": "29.956723524055274",
    "geocoded_column": {
      "latitude": "29.956723524055274",
      "longitude": "-90.10930299017294"
    }
  },
  {
    "service_request": "2022-915399",
    "request_type": "Trash/Recycling",
    "request_reason": "Order Recycling Cart",
    "date_created": "2022-08-31T22:17:30.000",
    "date_modified": "2022-08-31T22:17:30.000",
    "request_status": "Pending",
    "responsible_agency": "Department of Sanitation",
    "final_address": "1409 Music St",
    "address_councildis": "C",
    "status": "Pending",
    "rowid": "915399",
    "final_x": "3686788.62959",
    "final_y": "537656.283656",
    "longitude": "-90.05115395620412",
    "latitude": "29.97220670003207",
    "geocoded_column": {
      "latitude": "29.97220670003207",
      "longitude": "-90.05115395620412"
    }
  },
  {
    "service_request": "2022-915398",
    "request_type": "Traffic Signals/Signs/Striping/Streetlights",
    "request_reason": "Street Light Outage/Malfunction",
    "date_created": "2022-08-31T22:17:19.000",
    "date_modified": "2022-08-31T22:17:19.000",
    "request_status": "Pending",
    "responsible_agency": "Department of Public Works",
    "final_address": "127 W Brooks St",
    "address_councildis": "A",
    "status": "Pending",
    "contractor": "Legacy Professional Services",
    "rowid": "915398",
    "final_x": "3665817.24167",
    "final_y": "546638.417169",
    "longitude": "-90.11708430161829",
    "latitude": "29.99753311949747",
    "geocoded_column": {
      "latitude": "29.99753311949747",
      "longitude": "-90.11708430161829"
    }
  },
  {
    "service_request": "2022-915397",
    "request_type": "Health Related Questions",
    "request_reason": "Noise Ordinance Complaint",
    "date_created": "2022-08-31T22:13:37.000",
    "date_modified": "2022-08-31T22:13:37.000",
    "request_status": "Pending",
    "responsible_agency": "Health Department",
    "final_address": "1723 Henriette Delille St",
    "address_councildis": "C",
    "status": "Pending",
    "rowid": "915397",
    "final_x": "3683338.40943",
    "final_y": "536195.373255",
    "longitude": "-90.06210150700602",
    "latitude": "29.968295408632137",
    "geocoded_column": {
      "latitude": "29.968295408632137",
      "longitude": "-90.06210150700602"
    }
  },
  {
    "service_request": "2022-915396",
    "request_type": "Abandoned Vehicles",
    "request_reason": "Abandoned/Junk Vehicles",
    "date_created": "2022-08-31T22:08:53.000",
    "date_modified": "2022-08-31T22:08:53.000",
    "request_status": "Pending",
    "responsible_agency": "Department of Public Works",
    "final_address": "2121 Piety St",
    "address_councildis": "D",
    "status": "Pending",
    "rowid": "915396",
    "final_x": "3690852.12547",
    "final_y": "539725.169738",
    "longitude": "-90.03824694725257",
    "latitude": "29.97776975081894",
    "geocoded_column": {
      "latitude": "29.97776975081894",
      "longitude": "-90.03824694725257"
    }
  },
  {
    "service_request": "2022-915395",
    "request_type": "Safety & Permits",
    "request_reason": "Short term Rental (Enforcement)",
    "date_created": "2022-08-31T21:59:54.000",
    "date_modified": "2022-08-31T21:59:54.000",
    "request_status": "Pending",
    "responsible_agency": "Safety and Permits",
    "final_address": "2106 Piety St",
    "address_councildis": "D",
    "status": "Pending",
    "rowid": "915395",
    "final_x": "3690771.71388",
    "final_y": "539653.031626",
    "longitude": "-90.03850348849589",
    "latitude": "29.977573895447094",
    "geocoded_column": {
      "latitude": "29.977573895447094",
      "longitude": "-90.03850348849589"
    }
  },
  {
    "service_request": "2022-915394",
    "request_type": "Trash/Recycling",
    "request_reason": "MIssed Recycling Pick-Up",
    "date_created": "2022-08-31T21:58:19.000",
    "date_modified": "2022-08-31T21:58:19.000",
    "request_status": "Pending",
    "responsible_agency": "Department of Sanitation",
    "final_address": "1809 Camp St",
    "address_councildis": "B",
    "status": "Assigned to Contractor",
    "contractor": "Richards Disposal",
    "rowid": "915394",
    "final_x": "3679560.65871",
    "final_y": "523288.009659",
    "longitude": "-90.07447963641624",
    "latitude": "29.932919192972673",
    "geocoded_column": {
      "latitude": "29.932919192972673",
      "longitude": "-90.07447963641624"
    }
  },
  {
    "service_request": "2022-915393",
    "request_type": "Trash/Recycling",
    "request_reason": "Replace Trash Cart",
    "date_created": "2022-08-31T21:40:19.000",
    "date_modified": "2022-08-31T21:40:20.000",
    "request_status": "Pending",
    "responsible_agency": "Department of Sanitation",
    "final_address": "5417 S Galvez St",
    "address_councildis": "A",
    "status": "Assigned to Contractor",
    "contractor": "Richards Disposal",
    "rowid": "915393",
    "final_x": "3668502.2354",
    "final_y": "527401.989439",
    "longitude": "-90.1092516252443",
    "latitude": "29.944560740584215",
    "geocoded_column": {
      "latitude": "29.944560740584215",
      "longitude": "-90.1092516252443"
    }
  },
  {
    "service_request": "2022-915392",
    "request_type": "Mosquito, Termite & Rodent Control",
    "request_reason": "Mosquito Complaint",
    "date_created": "2022-08-31T21:26:27.000",
    "date_modified": "2022-08-31T21:26:27.000",
    "request_status": "Pending",
    "responsible_agency": "Mosquito, Termite & Rodent Control Board",
    "final_address": "706 River Oaks Dr",
    "address_councildis": "C",
    "status": "Pending",
    "rowid": "915392",
    "final_x": "3701545.82583",
    "final_y": "519947.15692",
    "longitude": "-90.00519682115737",
    "latitude": "29.923050552996486",
    "geocoded_column": {
      "latitude": "29.923050552996486",
      "longitude": "-90.00519682115737"
    }
  },
  {
    "service_request": "2022-915391",
    "request_type": "Roads/Drainage",
    "request_reason": "Damaged Sidewalk",
    "date_created": "2022-08-31T21:25:15.000",
    "date_modified": "2022-08-31T21:25:15.000",
    "request_status": "Pending",
    "responsible_agency": "Department of Public Works",
    "final_address": "3122 Hamilton St",
    "address_councildis": "A",
    "status": "Pending",
    "rowid": "915391",
    "final_x": "3664036.48359",
    "final_y": "535942.806919",
    "longitude": "-90.12306655849386",
    "latitude": "29.96817563412154",
    "geocoded_column": {
      "latitude": "29.96817563412154",
      "longitude": "-90.12306655849386"
    }
  },
  {
    "service_request": "2022-915390",
    "request_type": "Trash/Recycling",
    "request_reason": "Missed Trash Pick-Up",
    "date_created": "2022-08-31T21:16:14.000",
    "date_modified": "2022-08-31T21:16:15.000",
    "request_status": "Pending",
    "responsible_agency": "Department of Sanitation",
    "final_address": "7319 Heather Ct",
    "address_councildis": "E",
    "status": "Assigned to Contractor",
    "contractor": "Metro Disposal",
    "rowid": "915390",
    "final_x": "3705683.32945",
    "final_y": "562146.296991",
    "longitude": "-89.99057545084975",
    "latitude": "30.038950040582716",
    "geocoded_column": {
      "latitude": "30.038950040582716",
      "longitude": "-89.99057545084975"
    }
  },
  {
    "service_request": "2022-915389",
    "request_type": "Trash/Recycling",
    "request_reason": "MIssed Recycling Pick-Up",
    "date_created": "2022-08-31T21:06:10.000",
    "date_modified": "2022-08-31T21:06:11.000",
    "request_status": "Pending",
    "responsible_agency": "Department of Sanitation",
    "final_address": "4015 Cleveland Ave",
    "address_councildis": "A",
    "status": "Assigned to Contractor",
    "contractor": "Richards Disposal",
    "rowid": "915389",
    "final_x": "3671152.55054",
    "final_y": "537813.683336",
    "longitude": "-90.10053010476683",
    "latitude": "29.973111326752825",
    "geocoded_column": {
      "latitude": "29.973111326752825",
      "longitude": "-90.10053010476683"
    }
  },
  {
    "service_request": "2022-915388",
    "request_type": "Trash/Recycling",
    "request_reason": "MIssed Recycling Pick-Up",
    "date_created": "2022-08-31T20:53:47.000",
    "date_modified": "2022-08-31T20:53:47.000",
    "request_status": "Pending",
    "responsible_agency": "Department of Sanitation",
    "final_address": "1714 Farragut St",
    "address_councildis": "C",
    "status": "Assigned to Contractor",
    "contractor": "Richards Disposal",
    "rowid": "915388",
    "final_x": "3692325.26147",
    "final_y": "524982.784957",
    "longitude": "-90.03412223153659",
    "latitude": "29.93718747458015",
    "geocoded_column": {
      "latitude": "29.93718747458015",
      "longitude": "-90.03412223153659"
    }
  },
  {
    "service_request": "2022-915387",
    "request_type": "Health Related Questions",
    "request_reason": "Noise Ordinance Complaint",
    "date_created": "2022-08-31T20:47:56.000",
    "date_modified": "2022-08-31T20:47:56.000",
    "request_status": "Pending",
    "responsible_agency": "Health Department",
    "final_address": "1723 Henriette Delille St",
    "address_councildis": "C",
    "status": "Pending",
    "rowid": "915387",
    "final_x": "3683338.40943",
    "final_y": "536195.373255",
    "longitude": "-90.06210150700602",
    "latitude": "29.968295408632137",
    "geocoded_column": {
      "latitude": "29.968295408632137",
      "longitude": "-90.06210150700602"
    }
  },
  {
    "service_request": "2022-915386",
    "request_type": "Traffic Signals/Signs/Striping/Streetlights",
    "request_reason": "Street Light Outage/Malfunction",
    "date_created": "2022-08-31T20:42:10.000",
    "date_modified": "2022-08-31T20:42:10.000",
    "request_status": "Pending",
    "responsible_agency": "Department of Public Works",
    "final_address": "5530 Vicksburg St",
    "address_councildis": "A",
    "status": "Pending",
    "contractor": "Legacy Professional Services",
    "rowid": "915386",
    "final_x": "3668647.87118",
    "final_y": "543727.930766",
    "longitude": "-90.10824069863268",
    "latitude": "29.989447363409585",
    "geocoded_column": {
      "latitude": "29.989447363409585",
      "longitude": "-90.10824069863268"
    }
  },
  {
    "service_request": "2022-915385",
    "request_type": "Roads/Drainage",
    "request_reason": "Pothole",
    "date_created": "2022-08-31T20:31:10.000",
    "date_modified": "2022-08-31T20:31:10.000",
    "request_status": "Pending",
    "responsible_agency": "Department of Public Works",
    "final_address": "741 Navarre St",
    "address_councildis": "A",
    "status": "Pending",
    "rowid": "915385",
    "final_x": "3668643.71726",
    "final_y": "543876.248974",
    "longitude": "-90.10824881076562",
    "latitude": "29.98985530986403",
    "geocoded_column": {
      "latitude": "29.98985530986403",
      "longitude": "-90.10824881076562"
    }
  },
  {
    "service_request": "2022-915384",
    "request_type": "Health Related Questions",
    "request_reason": "Noise Ordinance Complaint",
    "date_created": "2022-08-31T20:25:47.000",
    "date_modified": "2022-08-31T20:25:47.000",
    "request_status": "Pending",
    "responsible_agency": "Health Department",
    "final_address": "718 Bourbon St, New Orleans, Louisiana, 70116",
    "address_councildis": "C",
    "status": "Pending",
    "rowid": "915384",
    "final_x": "3682364.17781",
    "final_y": "532746.008004",
    "longitude": "-90.06529872053143",
    "latitude": "29.95884052062511",
    "geocoded_column": {
      "latitude": "29.95884052062511",
      "longitude": "-90.06529872053143"
    }
  },
  {
    "service_request": "2022-915383",
    "request_type": "Health Related Questions",
    "request_reason": "Noise Ordinance Complaint",
    "date_created": "2022-08-31T20:25:18.000",
    "date_modified": "2022-08-31T20:25:18.000",
    "request_status": "Pending",
    "responsible_agency": "Health Department",
    "final_address": "718 Bourbon St, New Orleans, Louisiana, 70116",
    "address_councildis": "C",
    "status": "Pending",
    "rowid": "915383",
    "final_x": "3682364.17781",
    "final_y": "532746.008004",
    "longitude": "-90.06529872053143",
    "latitude": "29.95884052062511",
    "geocoded_column": {
      "latitude": "29.95884052062511",
      "longitude": "-90.06529872053143"
    }
  },
  {
    "service_request": "2022-915382",
    "request_type": "Trash/Recycling",
    "request_reason": "Replace Trash Cart",
    "date_created": "2022-08-31T20:22:04.000",
    "date_modified": "2022-08-31T20:22:05.000",
    "request_status": "Pending",
    "responsible_agency": "Department of Sanitation",
    "final_address": "7601 Dogwood Dr",
    "address_councildis": "E",
    "status": "Assigned to Contractor",
    "contractor": "Metro Disposal",
    "rowid": "915382",
    "final_x": "3701390.5505",
    "final_y": "560966.267806",
    "longitude": "-90.0041850103556",
    "latitude": "30.035843042257614",
    "geocoded_column": {
      "latitude": "30.035843042257614",
      "longitude": "-90.0041850103556"
    }
  },
  {
    "service_request": "2022-915381",
    "request_type": "Traffic Signals/Signs/Striping/Streetlights",
    "request_reason": "Street Light Outage/Malfunction",
    "date_created": "2022-08-31T20:10:36.000",
    "date_modified": "2022-08-31T20:10:36.000",
    "request_status": "Pending",
    "responsible_agency": "Department of Public Works",
    "final_address": "3434 Monroe St",
    "address_councildis": "A",
    "status": "Pending",
    "contractor": "Legacy Professional Services",
    "rowid": "915381",
    "final_x": "3665812.2752",
    "final_y": "535813.958727",
    "longitude": "-90.11746283091631",
    "latitude": "29.967769651064902",
    "geocoded_column": {
      "latitude": "29.967769651064902",
      "longitude": "-90.11746283091631"
    }
  },
  {
    "service_request": "2022-915380",
    "request_type": "Parks & Parkways",
    "request_reason": "Request Tree Service (Right of Way/Public Property)",
    "date_created": "2022-08-31T20:05:28.000",
    "date_modified": "2022-08-31T20:58:07.000",
    "request_status": "Pending",
    "responsible_agency": "Department of Parks & Parkway",
    "final_address": "TULANE AVE & S NORMAN C FRANCIS PKWY",
    "address_councildis": "B",
    "status": "Pending",
    "rowid": "915380",
    "final_x": "3671783.6",
    "final_y": "535005.68",
    "longitude": "-90.09863268125413",
    "latitude": "29.965371578483712",
    "geocoded_column": {
      "latitude": "29.965371578483712",
      "longitude": "-90.09863268125413"
    }
  },
  {
    "service_request": "2022-915379",
    "request_type": "Mosquito, Termite & Rodent Control",
    "request_reason": "Mosquito Complaint",
    "date_created": "2022-08-31T20:04:05.000",
    "date_modified": "2022-08-31T20:04:05.000",
    "request_status": "Pending",
    "responsible_agency": "Mosquito, Termite & Rodent Control Board",
    "final_address": "260 Hay Pl",
    "address_councildis": "A",
    "status": "Pending",
    "rowid": "915379",
    "final_x": "3665669.40967",
    "final_y": "554169.386264",
    "longitude": "-90.11729882519377",
    "latitude": "30.01824498256028",
    "geocoded_column": {
      "latitude": "30.01824498256028",
      "longitude": "-90.11729882519377"
    }
  },
  {
    "service_request": "2022-915378",
    "request_type": "Trash/Recycling",
    "request_reason": "Illegal Dumping",
    "date_created": "2022-08-31T20:01:37.000",
    "date_modified": "2022-08-31T20:01:37.000",
    "request_status": "Pending",
    "responsible_agency": "Department of Sanitation",
    "final_address": "4203 S Johnson St",
    "address_councildis": "B",
    "status": "Pending",
    "rowid": "915378",
    "final_x": "3670903.94727",
    "final_y": "527335.294207",
    "longitude": "-90.10167095953149",
    "latitude": "29.944306583451",
    "geocoded_column": {
      "latitude": "29.944306583451",
      "longitude": "-90.10167095953149"
    }
  },
  {
    "service_request": "2022-915377",
    "request_type": "Roads/Drainage",
    "request_reason": "Catch Basin - Clogged",
    "date_created": "2022-08-31T19:56:32.000",
    "date_modified": "2022-08-31T19:56:32.000",
    "request_status": "Pending",
    "responsible_agency": "Department of Public Works",
    "final_address": "128 N Solomon St",
    "address_councildis": "A",
    "status": "Pending",
    "rowid": "915377",
    "final_x": "3670802.10817",
    "final_y": "538936.779338",
    "longitude": "-90.10159874524204",
    "latitude": "29.976209824064355",
    "geocoded_column": {
      "latitude": "29.976209824064355",
      "longitude": "-90.10159874524204"
    }
  },
  {
    "service_request": "2022-915376",
    "request_type": "Trash/Recycling",
    "request_reason": "Missed Trash Pick-Up",
    "date_created": "2022-08-31T19:56:24.000",
    "date_modified": "2022-08-31T19:56:25.000",
    "request_status": "Pending",
    "responsible_agency": "Department of Sanitation",
    "final_address": "7416 Dogwood Dr",
    "address_councildis": "E",
    "status": "Assigned to Contractor",
    "contractor": "Metro Disposal",
    "rowid": "915376",
    "final_x": "3701438.51095",
    "final_y": "560431.303326",
    "longitude": "-90.00405305985794",
    "latitude": "30.03437056845955",
    "geocoded_column": {
      "latitude": "30.03437056845955",
      "longitude": "-90.00405305985794"
    }
  },
  {
    "service_request": "2022-915375",
    "request_type": "Property Maintenance",
    "request_reason": "Property Maintenance",
    "date_created": "2022-08-31T19:54:41.000",
    "date_modified": "2022-08-31T19:54:41.000",
    "request_status": "Pending",
    "responsible_agency": "Department of Code Enforcement",
    "final_address": "9123 Colapissa St",
    "address_councildis": "A",
    "status": "Pending",
    "rowid": "915375",
    "final_x": "3663879.9296",
    "final_y": "535884.308423",
    "longitude": "-90.12356291516927",
    "latitude": "29.96801932835046",
    "geocoded_column": {
      "latitude": "29.96801932835046",
      "longitude": "-90.12356291516927"
    }
  },
  {
    "service_request": "2022-915374",
    "request_type": "Health Related Questions",
    "request_reason": "Noise Ordinance Complaint",
    "date_created": "2022-08-31T19:51:05.000",
    "date_modified": "2022-08-31T19:51:05.000",
    "request_status": "Pending",
    "responsible_agency": "Health Department",
    "final_address": "718 Bourbon St, New Orleans, Louisiana, 70116",
    "address_councildis": "C",
    "status": "Pending",
    "rowid": "915374",
    "final_x": "3682364.17781",
    "final_y": "532746.008004",
    "longitude": "-90.06529872053143",
    "latitude": "29.95884052062511",
    "geocoded_column": {
      "latitude": "29.95884052062511",
      "longitude": "-90.06529872053143"
    }
  },
  {
    "service_request": "2022-915373",
    "request_type": "Health Related Questions",
    "request_reason": "Noise Ordinance Complaint",
    "date_created": "2022-08-31T19:50:29.000",
    "date_modified": "2022-08-31T19:50:29.000",
    "request_status": "Pending",
    "responsible_agency": "Health Department",
    "final_address": "718 Bourbon St, New Orleans, Louisiana, 70116",
    "address_councildis": "C",
    "status": "Pending",
    "rowid": "915373",
    "final_x": "3682364.17781",
    "final_y": "532746.008004",
    "longitude": "-90.06529872053143",
    "latitude": "29.95884052062511",
    "geocoded_column": {
      "latitude": "29.95884052062511",
      "longitude": "-90.06529872053143"
    }
  },
  {
    "service_request": "2022-915372",
    "request_type": "Property Maintenance",
    "request_reason": "Property Maintenance",
    "date_created": "2022-08-31T19:50:27.000",
    "date_modified": "2022-08-31T19:50:27.000",
    "request_status": "Pending",
    "responsible_agency": "Department of Code Enforcement",
    "final_address": "5518 Wildair Dr",
    "address_councildis": "D",
    "status": "Pending",
    "rowid": "915372",
    "final_x": "3681524.95375",
    "final_y": "553354.022487",
    "longitude": "-90.06722972601291",
    "latitude": "30.01553082077983",
    "geocoded_column": {
      "latitude": "30.01553082077983",
      "longitude": "-90.06722972601291"
    }
  },
  {
    "service_request": "2022-915371",
    "request_type": "Traffic Signals/Signs/Striping/Streetlights",
    "request_reason": "Street Light Outage/Malfunction",
    "date_created": "2022-08-31T19:48:36.000",
    "date_modified": "2022-08-31T19:48:37.000",
    "request_status": "Pending",
    "responsible_agency": "Department of Public Works",
    "final_address": "3122 Hamilton St",
    "address_councildis": "A",
    "status": "Pending",
    "contractor": "Legacy Professional Services",
    "rowid": "915371",
    "final_x": "3664036.48359",
    "final_y": "535942.806919",
    "longitude": "-90.12306655849386",
    "latitude": "29.96817563412154",
    "geocoded_column": {
      "latitude": "29.96817563412154",
      "longitude": "-90.12306655849386"
    }
  },
  {
    "service_request": "2022-915370",
    "request_type": "Trash/Recycling",
    "request_reason": "Order Recycling Cart",
    "date_created": "2022-08-31T19:43:37.000",
    "date_modified": "2022-08-31T19:43:37.000",
    "request_status": "Pending",
    "responsible_agency": "Department of Sanitation",
    "final_address": "7667 Avalon Way",
    "address_councildis": "E",
    "status": "Pending",
    "rowid": "915370",
    "final_x": "3708889.39448",
    "final_y": "564900.86077",
    "longitude": "-89.98034068409923",
    "latitude": "30.04642029666581",
    "geocoded_column": {
      "latitude": "30.04642029666581",
      "longitude": "-89.98034068409923"
    }
  },
  {
    "service_request": "2022-915369",
    "request_type": "Roads/Drainage",
    "request_reason": "Catch Basin - Clogged",
    "date_created": "2022-08-31T19:41:56.000",
    "date_modified": "2022-08-31T19:41:56.000",
    "request_status": "Pending",
    "responsible_agency": "Department of Public Works",
    "final_address": "128 N Solomon St",
    "address_councildis": "A",
    "status": "Pending",
    "rowid": "915369",
    "final_x": "3670802.10817",
    "final_y": "538936.779338",
    "longitude": "-90.10159874524204",
    "latitude": "29.976209824064355",
    "geocoded_column": {
      "latitude": "29.976209824064355",
      "longitude": "-90.10159874524204"
    }
  },
  {
    "service_request": "2022-915368",
    "request_type": "Health Related Questions",
    "request_reason": "Noise Ordinance Complaint",
    "date_created": "2022-08-31T19:41:53.000",
    "date_modified": "2022-08-31T19:41:53.000",
    "request_status": "Pending",
    "responsible_agency": "Health Department",
    "final_address": "718 Bourbon St, New Orleans, Louisiana, 70116",
    "address_councildis": "C",
    "status": "Pending",
    "rowid": "915368",
    "final_x": "3682364.17781",
    "final_y": "532746.008004",
    "longitude": "-90.06529872053143",
    "latitude": "29.95884052062511",
    "geocoded_column": {
      "latitude": "29.95884052062511",
      "longitude": "-90.06529872053143"
    }
  },
  {
    "service_request": "2022-915367",
    "request_type": "Trash/Recycling",
    "request_reason": "Missed Trash Pick-Up",
    "date_created": "2022-08-31T19:40:35.000",
    "date_modified": "2022-08-31T19:40:35.000",
    "request_status": "Pending",
    "responsible_agency": "Department of Sanitation",
    "final_address": "3933 Toulouse St",
    "address_councildis": "A",
    "status": "Assigned to Contractor",
    "contractor": "Richards Disposal",
    "rowid": "915367",
    "final_x": "3672652.40091",
    "final_y": "539461.298954",
    "longitude": "-90.09573707015643",
    "latitude": "29.977597254358088",
    "geocoded_column": {
      "latitude": "29.977597254358088",
      "longitude": "-90.09573707015643"
    }
  },
  {
    "service_request": "2022-915366",
    "request_type": "Roads/Drainage",
    "request_reason": "Pothole",
    "date_created": "2022-08-31T19:40:28.000",
    "date_modified": "2022-08-31T19:40:28.000",
    "request_status": "Pending",
    "responsible_agency": "Department of Public Works",
    "final_address": "8010 Trapier Ave, New Orleans, Louisiana, 70127",
    "address_councildis": "E",
    "status": "Pending",
    "rowid": "915366",
    "final_x": "3705933.59518",
    "final_y": "564614.909601",
    "longitude": "-89.98969306482903",
    "latitude": "30.04572967978005",
    "geocoded_column": {
      "latitude": "30.04572967978005",
      "longitude": "-89.98969306482903"
    }
  },
  {
    "service_request": "2022-915365",
    "request_type": "Trash/Recycling",
    "request_reason": "Missed Trash Pick-Up",
    "date_created": "2022-08-31T19:39:45.000",
    "date_modified": "2022-08-31T19:39:46.000",
    "request_status": "Pending",
    "responsible_agency": "Department of Sanitation",
    "final_address": "8010 Trapier Ave, New Orleans, Louisiana, 70127",
    "address_councildis": "E",
    "status": "Assigned to Contractor",
    "contractor": "Metro Disposal",
    "rowid": "915365",
    "final_x": "3705933.59518",
    "final_y": "564614.909601",
    "longitude": "-89.98969306482903",
    "latitude": "30.04572967978005",
    "geocoded_column": {
      "latitude": "30.04572967978005",
      "longitude": "-89.98969306482903"
    }
  },
  {
    "service_request": "2022-915364",
    "request_type": "Traffic Signals/Signs/Striping/Streetlights",
    "request_reason": "Street Light Outage/Malfunction",
    "date_created": "2022-08-31T19:38:12.000",
    "date_modified": "2022-08-31T19:39:08.000",
    "request_status": "Pending",
    "responsible_agency": "Department of Public Works",
    "final_address": "3 Everett Pl",
    "address_councildis": "A",
    "status": "Pending",
    "contractor": "Legacy Professional Services",
    "rowid": "915364",
    "final_x": "3666399.20397",
    "final_y": "523113.895547",
    "longitude": "-90.11603537007707",
    "latitude": "29.93283146365291",
    "geocoded_column": {
      "latitude": "29.93283146365291",
      "longitude": "-90.11603537007707"
    }
  },
  {
    "service_request": "2022-915363",
    "request_type": "Health Related Questions",
    "request_reason": "Noise Ordinance Complaint",
    "date_created": "2022-08-31T19:37:07.000",
    "date_modified": "2022-08-31T19:37:07.000",
    "request_status": "Pending",
    "responsible_agency": "Health Department",
    "final_address": "718 Bourbon St, New Orleans, Louisiana, 70116",
    "address_councildis": "C",
    "status": "Pending",
    "rowid": "915363",
    "final_x": "3682364.17781",
    "final_y": "532746.008004",
    "longitude": "-90.06529872053143",
    "latitude": "29.95884052062511",
    "geocoded_column": {
      "latitude": "29.95884052062511",
      "longitude": "-90.06529872053143"
    }
  },
  {
    "service_request": "2022-915362",
    "request_type": "Trash/Recycling",
    "request_reason": "Missed Trash Pick-Up",
    "date_created": "2022-08-31T19:28:58.000",
    "date_modified": "2022-08-31T19:28:59.000",
    "request_status": "Pending",
    "responsible_agency": "Department of Sanitation",
    "final_address": "1527 Jefferson Ave, New Orleans, Louisiana, 70115",
    "address_councildis": "B",
    "status": "Assigned to Contractor",
    "contractor": "Richards Disposal",
    "rowid": "915362",
    "final_x": "3667308.05799",
    "final_y": "520784.102393",
    "longitude": "-90.11324449353462",
    "latitude": "29.92639869255721",
    "geocoded_column": {
      "latitude": "29.92639869255721",
      "longitude": "-90.11324449353462"
    }
  },
  {
    "service_request": "2022-915361",
    "request_type": "Abandoned Vehicles",
    "request_reason": "Abandoned/Junk Vehicles",
    "date_created": "2022-08-31T19:25:32.000",
    "date_modified": "2022-08-31T19:25:32.000",
    "request_status": "Pending",
    "responsible_agency": "Department of Public Works",
    "final_address": "3301 Touro St",
    "address_councildis": "D",
    "status": "Pending",
    "rowid": "915361",
    "final_x": "3683591.15215",
    "final_y": "544755.048143",
    "longitude": "-90.06100317644629",
    "latitude": "29.9918238017377",
    "geocoded_column": {
      "latitude": "29.9918238017377",
      "longitude": "-90.06100317644629"
    }
  },
  {
    "service_request": "2022-915360",
    "request_type": "Roads/Drainage",
    "request_reason": "Man hole cover issue",
    "date_created": "2022-08-31T19:24:07.000",
    "date_modified": "2022-08-31T19:24:07.000",
    "request_status": "Pending",
    "responsible_agency": "Department of Public Works",
    "final_address": "3443 Audubon St",
    "address_councildis": "B",
    "status": "Pending",
    "rowid": "915360",
    "final_x": "3668947.67905",
    "final_y": "533007.044292",
    "longitude": "-90.107655925847",
    "latitude": "29.959959713609653",
    "geocoded_column": {
      "latitude": "29.959959713609653",
      "longitude": "-90.107655925847"
    }
  },
  {
    "service_request": "2022-915359",
    "request_type": "Roads/Drainage",
    "request_reason": "Road Shoulder Repair",
    "date_created": "2022-08-31T19:18:14.000",
    "date_modified": "2022-08-31T19:18:14.000",
    "request_status": "Pending",
    "responsible_agency": "Department of Public Works",
    "final_address": "2553 N Rocheblave St",
    "address_councildis": "D",
    "status": "Pending",
    "rowid": "915359",
    "final_x": "3686303.8415",
    "final_y": "541263.991628",
    "longitude": "-90.05255764066068",
    "latitude": "29.98214153551677",
    "geocoded_column": {
      "latitude": "29.98214153551677",
      "longitude": "-90.05255764066068"
    }
  },
  {
    "service_request": "2022-915358",
    "request_type": "Parks & Parkways",
    "request_reason": "Request Grass Cutting Service (City Owned Property)",
    "date_created": "2022-08-31T19:13:25.000",
    "date_modified": "2022-08-31T19:13:26.000",
    "request_status": "Pending",
    "responsible_agency": "Department of Parks & Parkway",
    "final_address": "SAMOVAR DR & DWYER RD & VIOLA ST",
    "address_councildis": "E",
    "status": "Pending",
    "rowid": "915358",
    "final_x": "3703798.3",
    "final_y": "556273.88",
    "longitude": "-89.99674910927423",
    "latitude": "30.022863785605786",
    "geocoded_column": {
      "latitude": "30.022863785605786",
      "longitude": "-89.99674910927423"
    }
  },
  {
    "service_request": "2022-915357",
    "request_type": "Property Maintenance",
    "request_reason": "Property Maintenance",
    "date_created": "2022-08-31T19:00:21.000",
    "date_modified": "2022-08-31T19:00:21.000",
    "request_status": "Pending",
    "responsible_agency": "Department of Code Enforcement",
    "final_address": "6701 Cindy Pl",
    "address_councildis": "E",
    "status": "Pending",
    "rowid": "915357",
    "final_x": "3707368.9404",
    "final_y": "558680.943068",
    "longitude": "-89.98537732273275",
    "latitude": "30.02936726263741",
    "geocoded_column": {
      "latitude": "30.02936726263741",
      "longitude": "-89.98537732273275"
    }
  },
  {
    "service_request": "2022-915356",
    "request_type": "Trash/Recycling",
    "request_reason": "Missed Trash Pick-Up",
    "date_created": "2022-08-31T18:59:38.000",
    "date_modified": "2022-08-31T18:59:39.000",
    "request_status": "Pending",
    "responsible_agency": "Department of Sanitation",
    "final_address": "1515 Jefferson Ave",
    "address_councildis": "B",
    "status": "Assigned to Contractor",
    "contractor": "Richards Disposal",
    "rowid": "915356",
    "final_x": "3667248.21767",
    "final_y": "520687.835257",
    "longitude": "-90.11343662860484",
    "latitude": "29.926135740304627",
    "geocoded_column": {
      "latitude": "29.926135740304627",
      "longitude": "-90.11343662860484"
    }
  },
  {
    "service_request": "2022-915355",
    "request_type": "Trash/Recycling",
    "request_reason": "Return Recycling Cart",
    "date_created": "2022-08-31T18:57:28.000",
    "date_modified": "2022-08-31T18:57:28.000",
    "request_status": "Pending",
    "responsible_agency": "Department of Sanitation",
    "final_address": "2401 Joseph St",
    "address_councildis": "A",
    "status": "Pending",
    "rowid": "915355",
    "final_x": "3667516.85389",
    "final_y": "524849.595836",
    "longitude": "-90.1124486396867",
    "latitude": "29.93757138849858",
    "geocoded_column": {
      "latitude": "29.93757138849858",
      "longitude": "-90.1124486396867"
    }
  },
  {
    "service_request": "2022-915354",
    "request_type": "Trash/Recycling",
    "request_reason": "MIssed Recycling Pick-Up",
    "date_created": "2022-08-31T18:53:19.000",
    "date_modified": "2022-08-31T18:53:20.000",
    "request_status": "Pending",
    "responsible_agency": "Department of Sanitation",
    "final_address": "2401 Joseph St",
    "address_councildis": "A",
    "status": "Assigned to Contractor",
    "contractor": "Richards Disposal",
    "rowid": "915354",
    "final_x": "3667516.85389",
    "final_y": "524849.595836",
    "longitude": "-90.1124486396867",
    "latitude": "29.93757138849858",
    "geocoded_column": {
      "latitude": "29.93757138849858",
      "longitude": "-90.1124486396867"
    }
  },
  {
    "service_request": "2022-915353",
    "request_type": "Trash/Recycling",
    "request_reason": "Replace Trash Cart",
    "date_created": "2022-08-31T18:51:17.000",
    "date_modified": "2022-08-31T18:51:18.000",
    "request_status": "Pending",
    "responsible_agency": "Department of Sanitation",
    "final_address": "8921 Green St",
    "address_councildis": "A",
    "status": "Assigned to Contractor",
    "contractor": "Richards Disposal",
    "rowid": "915353",
    "final_x": "3660954.62829",
    "final_y": "531716.988163",
    "longitude": "-90.13293904413734",
    "latitude": "29.95664515139337",
    "geocoded_column": {
      "latitude": "29.95664515139337",
      "longitude": "-90.13293904413734"
    }
  },
  {
    "service_request": "2022-915352",
    "request_type": "Trash/Recycling",
    "request_reason": "Request a Large Item Pick Up",
    "date_created": "2022-08-31T18:40:41.000",
    "date_modified": "2022-08-31T18:40:42.000",
    "request_status": "Pending",
    "responsible_agency": "Department of Sanitation",
    "final_address": "1108 Amelia St",
    "address_councildis": "B",
    "status": "Assigned to Contractor",
    "contractor": "Richards Disposal",
    "rowid": "915352",
    "final_x": "3673557.90113",
    "final_y": "519202.994167",
    "longitude": "-90.09356946045267",
    "latitude": "29.921866686773186",
    "geocoded_column": {
      "latitude": "29.921866686773186",
      "longitude": "-90.09356946045267"
    }
  },
  {
    "service_request": "2022-915351",
    "request_type": "Trash/Recycling",
    "request_reason": "Request a Large Item Pick Up",
    "date_created": "2022-08-31T18:38:42.000",
    "date_modified": "2022-08-31T18:38:43.000",
    "request_status": "Pending",
    "responsible_agency": "Department of Sanitation",
    "final_address": "1112 Amelia St",
    "address_councildis": "B",
    "status": "Assigned to Contractor",
    "contractor": "Richards Disposal",
    "rowid": "915351",
    "final_x": "3673584.3467",
    "final_y": "519235.471543",
    "longitude": "-90.09348487357305",
    "latitude": "29.9219552023608",
    "geocoded_column": {
      "latitude": "29.9219552023608",
      "longitude": "-90.09348487357305"
    }
  },
  {
    "service_request": "2022-915350",
    "request_type": "Property Maintenance",
    "request_reason": "Property Maintenance",
    "date_created": "2022-08-31T18:27:43.000",
    "date_modified": "2022-08-31T18:27:43.000",
    "request_status": "Pending",
    "responsible_agency": "Department of Code Enforcement",
    "final_address": "6700 Cindy Pl",
    "address_councildis": "E",
    "status": "Pending",
    "rowid": "915350",
    "final_x": "3707199.446",
    "final_y": "558627.075036",
    "longitude": "-89.98591491844806",
    "latitude": "30.02922462809095",
    "geocoded_column": {
      "latitude": "30.02922462809095",
      "longitude": "-89.98591491844806"
    }
  },
  {
    "service_request": "2022-915349",
    "request_type": "Trash/Recycling",
    "request_reason": "Missed Trash Pick-Up",
    "date_created": "2022-08-31T18:10:15.000",
    "date_modified": "2022-08-31T18:10:16.000",
    "case_close_date": "2022-04-18T19:00:00.000",
    "request_status": "Pending",
    "responsible_agency": "Department of Sanitation",
    "final_address": "1806 Moss St",
    "address_councildis": "A",
    "status": "Assigned to Contractor",
    "contractor": "Metro Disposal",
    "rowid": "915349",
    "final_x": "3675345.49601",
    "final_y": "542994.618189",
    "longitude": "-90.08710998143782",
    "latitude": "29.987232409278484",
    "geocoded_column": {
      "latitude": "29.987232409278484",
      "longitude": "-90.08710998143782"
    }
  },
  {
    "service_request": "2022-915348",
    "request_type": "Trash/Recycling",
    "request_reason": "Missed Trash Pick-Up",
    "date_created": "2022-08-31T18:01:00.000",
    "date_modified": "2022-08-31T18:01:01.000",
    "request_status": "Pending",
    "responsible_agency": "Department of Sanitation",
    "final_address": "8033 Wales St",
    "address_councildis": "E",
    "status": "Assigned to Contractor",
    "contractor": "Metro Disposal",
    "rowid": "915348",
    "final_x": "3702000.56445",
    "final_y": "562299.600095",
    "longitude": "-90.00220831851539",
    "latitude": "30.03948971417866",
    "geocoded_column": {
      "latitude": "30.03948971417866",
      "longitude": "-90.00220831851539"
    }
  },
  {
    "service_request": "2022-915347",
    "request_type": "Abandoned Vehicles",
    "request_reason": "Abandoned/Junk Vehicles",
    "date_created": "2022-08-31T17:54:00.000",
    "date_modified": "2022-08-31T17:54:00.000",
    "request_status": "Pending",
    "responsible_agency": "Department of Public Works",
    "final_address": "5300 Memphis St",
    "address_councildis": "A",
    "status": "Pending",
    "rowid": "915347",
    "final_x": "3668607.50721",
    "final_y": "542266.721869",
    "longitude": "-90.10841753798775",
    "latitude": "29.985430723979512",
    "geocoded_column": {
      "latitude": "29.985430723979512",
      "longitude": "-90.10841753798775"
    }
  },
  {
    "service_request": "2022-915346",
    "request_type": "Roads/Drainage",
    "request_reason": "Pothole",
    "date_created": "2022-08-31T17:52:03.000",
    "date_modified": "2022-08-31T17:52:03.000",
    "request_status": "Pending",
    "responsible_agency": "Department of Public Works",
    "final_address": "5300 Memphis St",
    "address_councildis": "A",
    "status": "Pending",
    "rowid": "915346",
    "final_x": "3668607.50721",
    "final_y": "542266.721869",
    "longitude": "-90.10841753798775",
    "latitude": "29.985430723979512",
    "geocoded_column": {
      "latitude": "29.985430723979512",
      "longitude": "-90.10841753798775"
    }
  },
  {
    "service_request": "2022-915345",
    "request_type": "Trash/Recycling",
    "request_reason": "Illegal Dumping",
    "date_created": "2022-08-31T17:51:06.000",
    "date_modified": "2022-08-31T17:51:06.000",
    "request_status": "Pending",
    "responsible_agency": "Department of Sanitation",
    "final_address": "2300 BLK First St",
    "address_councildis": "B",
    "status": "Pending",
    "rowid": "915345",
    "final_x": "3675504.56464",
    "final_y": "525401.323985",
    "longitude": "-90.08721188372486",
    "latitude": "29.938852022923705",
    "geocoded_column": {
      "latitude": "29.938852022923705",
      "longitude": "-90.08721188372486"
    }
  },
  {
    "service_request": "2022-915344",
    "request_type": "Trash/Recycling",
    "request_reason": "Missed Trash Pick-Up",
    "date_created": "2022-08-31T17:48:02.000",
    "date_modified": "2022-08-31T17:48:03.000",
    "request_status": "Pending",
    "responsible_agency": "Department of Sanitation",
    "final_address": "7327 Trapier Ave",
    "address_councildis": "E",
    "status": "Assigned to Contractor",
    "contractor": "Metro Disposal",
    "rowid": "915344",
    "final_x": "3707020.84971",
    "final_y": "562921.00016",
    "longitude": "-89.98631976444926",
    "latitude": "30.04103700230821",
    "geocoded_column": {
      "latitude": "30.04103700230821",
      "longitude": "-89.98631976444926"
    }
  },
  {
    "service_request": "2022-915343",
    "request_type": "Traffic Signals/Signs/Striping/Streetlights",
    "request_reason": "Traffic Signal Malfunctioning/Damaged",
    "date_created": "2022-08-31T17:44:13.000",
    "date_modified": "2022-08-31T17:44:14.000",
    "request_status": "Pending",
    "responsible_agency": "Department of Public Works",
    "final_address": "BIENVILLE ST & N BROAD ST",
    "address_councildis": "B",
    "status": "Pending",
    "rowid": "915343",
    "final_x": "3675766.89",
    "final_y": "535752.34",
    "longitude": "-90.08602796081566",
    "latitude": "29.9673060187524",
    "geocoded_column": {
      "latitude": "29.9673060187524",
      "longitude": "-90.08602796081566"
    }
  },
  {
    "service_request": "2022-915342",
    "request_type": "Property Maintenance",
    "request_reason": "Property Maintenance",
    "date_created": "2022-08-31T17:40:48.000",
    "date_modified": "2022-08-31T17:40:48.000",
    "request_status": "Pending",
    "responsible_agency": "Department of Code Enforcement",
    "final_address": "4933 Feliciana Dr",
    "address_councildis": "D",
    "status": "Pending",
    "rowid": "915342",
    "final_x": "3690093.90153",
    "final_y": "551651.393429",
    "longitude": "-90.04021658699979",
    "latitude": "30.010586092687767",
    "geocoded_column": {
      "latitude": "30.010586092687767",
      "longitude": "-90.04021658699979"
    }
  },
  {
    "service_request": "2022-915341",
    "request_type": "Trash/Recycling",
    "request_reason": "MIssed Recycling Pick-Up",
    "date_created": "2022-08-31T17:40:16.000",
    "date_modified": "2022-08-31T17:40:17.000",
    "request_status": "Pending",
    "responsible_agency": "Department of Sanitation",
    "final_address": "3729 Baudin St",
    "address_councildis": "B",
    "status": "Assigned to Contractor",
    "contractor": "Richards Disposal",
    "rowid": "915341",
    "final_x": "3671200.85748",
    "final_y": "536300.205959",
    "longitude": "-90.1004289720538",
    "latitude": "29.968948344270064",
    "geocoded_column": {
      "latitude": "29.968948344270064",
      "longitude": "-90.1004289720538"
    }
  },
  {
    "service_request": "2022-915340",
    "request_type": "Trash/Recycling",
    "request_reason": "Missed Trash Pick-Up",
    "date_created": "2022-08-31T17:30:21.000",
    "date_modified": "2022-08-31T17:30:22.000",
    "request_status": "Pending",
    "responsible_agency": "Department of Sanitation",
    "final_address": "3431 Parkview Pl",
    "address_councildis": "A",
    "status": "Assigned to Contractor",
    "contractor": "Metro Disposal",
    "rowid": "915340",
    "final_x": "3675656.68264",
    "final_y": "543421.941006",
    "longitude": "-90.08611236063754",
    "latitude": "29.988398088898556",
    "geocoded_column": {
      "latitude": "29.988398088898556",
      "longitude": "-90.08611236063754"
    }
  },
  {
    "service_request": "2022-915339",
    "request_type": "Roads/Drainage",
    "request_reason": "Pothole",
    "date_created": "2022-08-31T17:29:44.000",
    "date_modified": "2022-08-31T17:29:44.000",
    "request_status": "Pending",
    "responsible_agency": "Department of Public Works",
    "final_address": "6208 Curran Rd",
    "address_councildis": "E",
    "status": "Pending",
    "rowid": "915339",
    "final_x": "3696043.85968",
    "final_y": "559037.23414",
    "longitude": "-90.02115126118328",
    "latitude": "30.030708388974194",
    "geocoded_column": {
      "latitude": "30.030708388974194",
      "longitude": "-90.02115126118328"
    }
  },
  {
    "service_request": "2022-915338",
    "request_type": "Roads/Drainage",
    "request_reason": "Pothole",
    "date_created": "2022-08-31T17:27:47.000",
    "date_modified": "2022-08-31T17:27:47.000",
    "request_status": "Pending",
    "responsible_agency": "Department of Public Works",
    "final_address": "1028 Port St",
    "address_councildis": "C",
    "status": "Pending",
    "rowid": "915338",
    "final_x": "3687336.89679",
    "final_y": "536206.321479",
    "longitude": "-90.04947374815768",
    "latitude": "29.968202930528427",
    "geocoded_column": {
      "latitude": "29.968202930528427",
      "longitude": "-90.04947374815768"
    }
  },
  {
    "service_request": "2022-915337",
    "request_type": "Trash/Recycling",
    "request_reason": "MIssed Recycling Pick-Up",
    "date_created": "2022-08-31T17:18:33.000",
    "date_modified": "2022-08-31T17:18:34.000",
    "request_status": "Pending",
    "responsible_agency": "Department of Sanitation",
    "final_address": "504 S Alexander St",
    "address_councildis": "A",
    "status": "Assigned to Contractor",
    "contractor": "Richards Disposal",
    "rowid": "915337",
    "final_x": "3669008.93767",
    "final_y": "537821.549065",
    "longitude": "-90.10729981214295",
    "latitude": "29.97319619614067",
    "geocoded_column": {
      "latitude": "29.97319619614067",
      "longitude": "-90.10729981214295"
    }
  },
  {
    "service_request": "2022-915336",
    "request_type": "Trash/Recycling",
    "request_reason": "Request a Large Item Pick Up",
    "date_created": "2022-08-31T17:17:31.000",
    "date_modified": "2022-08-31T17:17:31.000",
    "request_status": "Pending",
    "responsible_agency": "Department of Sanitation",
    "final_address": "5061 Bancroft Dr",
    "address_councildis": "D",
    "status": "Assigned to Contractor",
    "contractor": "Metro Disposal",
    "rowid": "915336",
    "final_x": "3676390.48859",
    "final_y": "550899.512981",
    "longitude": "-90.08353687833646",
    "latitude": "30.008936795742564",
    "geocoded_column": {
      "latitude": "30.008936795742564",
      "longitude": "-90.08353687833646"
    }
  },
  {
    "service_request": "2022-915335",
    "request_type": "Trash/Recycling",
    "request_reason": "Replace Trash Cart",
    "date_created": "2022-08-31T17:08:49.000",
    "date_modified": "2022-08-31T17:08:49.000",
    "request_status": "Pending",
    "responsible_agency": "Department of Sanitation",
    "final_address": "1915 S Carrollton Ave",
    "address_councildis": "A",
    "status": "Assigned to Contractor",
    "contractor": "Richards Disposal",
    "rowid": "915335",
    "final_x": "3663843.60013",
    "final_y": "530175.881089",
    "longitude": "-90.12386793003276",
    "latitude": "29.952324071269093",
    "geocoded_column": {
      "latitude": "29.952324071269093",
      "longitude": "-90.12386793003276"
    }
  },
  {
    "service_request": "2022-915334",
    "request_type": "Abandoned Vehicles",
    "request_reason": "Abandoned/Junk Vehicles",
    "date_created": "2022-08-31T17:06:37.000",
    "date_modified": "2022-08-31T17:06:41.000",
    "request_status": "Pending",
    "responsible_agency": "Department of Public Works",
    "final_address": "428 Park Blvd",
    "address_councildis": "C",
    "status": "Pending",
    "rowid": "915334",
    "final_x": "3687039.59535",
    "final_y": "525891.166909",
    "longitude": "-90.05077726060355",
    "latitude": "29.939848951875543",
    "geocoded_column": {
      "latitude": "29.939848951875543",
      "longitude": "-90.05077726060355"
    }
  },
  {
    "service_request": "2022-915333",
    "request_type": "Roads/Drainage",
    "request_reason": "Accessibility Ramps, Curbs and Sidewalk Repair",
    "date_created": "2022-08-31T17:02:15.000",
    "date_modified": "2022-08-31T17:02:15.000",
    "request_status": "Pending",
    "responsible_agency": "Department of Public Works",
    "final_address": "4880 Rosemont Pl",
    "address_councildis": "E",
    "status": "Pending",
    "rowid": "915333",
    "final_x": "3702555.92669",
    "final_y": "555771.035801",
    "longitude": "-90.00069317721669",
    "latitude": "30.021520946194936",
    "geocoded_column": {
      "latitude": "30.021520946194936",
      "longitude": "-90.00069317721669"
    }
  },
  {
    "service_request": "2022-915332",
    "request_type": "Property Maintenance",
    "request_reason": "Property Maintenance",
    "date_created": "2022-08-31T16:55:14.000",
    "date_modified": "2022-08-31T16:55:14.000",
    "request_status": "Pending",
    "responsible_agency": "Department of Code Enforcement",
    "final_address": "5518 Wildair Dr",
    "address_councildis": "D",
    "status": "Pending",
    "rowid": "915332",
    "final_x": "3681524.95375",
    "final_y": "553354.022487",
    "longitude": "-90.06722972601291",
    "latitude": "30.01553082077983",
    "geocoded_column": {
      "latitude": "30.01553082077983",
      "longitude": "-90.06722972601291"
    }
  },
  {
    "service_request": "2022-915331",
    "request_type": "Abandoned Vehicles",
    "request_reason": "Abandoned/Junk Vehicles",
    "date_created": "2022-08-31T16:54:58.000",
    "date_modified": "2022-08-31T16:54:58.000",
    "request_status": "Pending",
    "responsible_agency": "Department of Public Works",
    "final_address": "241 10Th St",
    "address_councildis": "A",
    "status": "Pending",
    "rowid": "915331",
    "final_x": "3665231.83559",
    "final_y": "547577.891858",
    "longitude": "-90.11890213558247",
    "latitude": "30.00013342524247",
    "geocoded_column": {
      "latitude": "30.00013342524247",
      "longitude": "-90.11890213558247"
    }
  },
  {
    "service_request": "2022-915330",
    "request_type": "Property Maintenance",
    "request_reason": "Property Maintenance",
    "date_created": "2022-08-31T16:54:26.000",
    "date_modified": "2022-08-31T16:54:27.000",
    "request_status": "Pending",
    "responsible_agency": "Department of Code Enforcement",
    "final_address": "3541 Touro St",
    "address_councildis": "D",
    "status": "Pending",
    "rowid": "915330",
    "final_x": "3683510.12335",
    "final_y": "545777.148752",
    "longitude": "-90.0612232852",
    "latitude": "29.994636688425746",
    "geocoded_column": {
      "latitude": "29.994636688425746",
      "longitude": "-90.0612232852"
    }
  },
  {
    "service_request": "2022-915328",
    "request_type": "Traffic Signals/Signs/Striping/Streetlights",
    "request_reason": "Street Light Outage/Malfunction",
    "date_created": "2022-08-31T16:49:08.000",
    "date_modified": "2022-08-31T16:49:08.000",
    "request_status": "Pending",
    "responsible_agency": "Department of Public Works",
    "final_address": "MISTLETOE ST & APPLE ST",
    "address_councildis": "A",
    "status": "Pending",
    "contractor": "Legacy Professional Services",
    "rowid": "915328",
    "final_x": "3662486.1",
    "final_y": "534716.28",
    "longitude": "-90.12800350324346",
    "latitude": "29.96484802335783",
    "geocoded_column": {
      "latitude": "29.96484802335783",
      "longitude": "-90.12800350324346"
    }
  },
  {
    "service_request": "2022-915327",
    "request_type": "Trash/Recycling",
    "request_reason": "Return Trash Cart",
    "date_created": "2022-08-31T16:48:06.000",
    "date_modified": "2022-08-31T16:48:06.000",
    "request_status": "Pending",
    "responsible_agency": "Department of Sanitation",
    "final_address": "1922 Cadiz St",
    "address_councildis": "B",
    "status": "Assigned to Contractor",
    "contractor": "Richards Disposal",
    "rowid": "915327",
    "final_x": "3669890.17799",
    "final_y": "522049.797498",
    "longitude": "-90.10505061311466",
    "latitude": "29.92980309679333",
    "geocoded_column": {
      "latitude": "29.92980309679333",
      "longitude": "-90.10505061311466"
    }
  },
  {
    "service_request": "2022-915326",
    "request_type": "Trash/Recycling",
    "request_reason": "Order Trash Cart",
    "date_created": "2022-08-31T16:48:03.000",
    "date_modified": "2022-08-31T16:48:04.000",
    "request_status": "Pending",
    "responsible_agency": "Department of Sanitation",
    "final_address": "2570 Lavender St",
    "address_councildis": "D",
    "status": "Assigned to Contractor",
    "contractor": "Metro Disposal",
    "rowid": "915326",
    "final_x": "3686981.35362",
    "final_y": "546879.801553",
    "longitude": "-90.05021911108324",
    "latitude": "29.99756216548582",
    "geocoded_column": {
      "latitude": "29.99756216548582",
      "longitude": "-90.05021911108324"
    }
  },
  {
    "service_request": "2022-915325",
    "request_type": "Roads/Drainage",
    "request_reason": "Street Subsidence (Sinking)",
    "date_created": "2022-08-31T16:40:57.000",
    "date_modified": "2022-08-31T16:40:57.000",
    "request_status": "Pending",
    "responsible_agency": "Department of Public Works",
    "final_address": "4400 Allen St",
    "address_councildis": "D",
    "status": "Pending",
    "rowid": "915325",
    "final_x": "3681732.59938",
    "final_y": "548718.518739",
    "longitude": "-90.06673555741769",
    "latitude": "30.00277854876677",
    "geocoded_column": {
      "latitude": "30.00277854876677",
      "longitude": "-90.06673555741769"
    }
  },
  {
    "service_request": "2022-915324",
    "request_type": "Abandoned Vehicles",
    "request_reason": "Abandoned/Junk Vehicles",
    "date_created": "2022-08-31T16:39:33.000",
    "date_modified": "2022-08-31T16:39:33.000",
    "request_status": "Pending",
    "responsible_agency": "Department of Public Works",
    "final_address": "8309 Freret St",
    "address_councildis": "A",
    "status": "Pending",
    "rowid": "915324",
    "final_x": "3660911.19334",
    "final_y": "528437.299456",
    "longitude": "-90.1331846689563",
    "latitude": "29.94762831139337",
    "geocoded_column": {
      "latitude": "29.94762831139337",
      "longitude": "-90.1331846689563"
    }
  },
  {
    "service_request": "2022-915323",
    "request_type": "Trash/Recycling",
    "request_reason": "Illegal Dumping",
    "date_created": "2022-08-31T16:39:32.000",
    "date_modified": "2022-08-31T16:39:32.000",
    "request_status": "Pending",
    "responsible_agency": "Department of Sanitation",
    "final_address": "4061 Behrman Hwy",
    "address_councildis": "C",
    "status": "Pending",
    "rowid": "915323",
    "final_x": "3697337.77891",
    "final_y": "514500.730099",
    "longitude": "-90.01867717674794",
    "latitude": "29.908208165178518",
    "geocoded_column": {
      "latitude": "29.908208165178518",
      "longitude": "-90.01867717674794"
    }
  },
  {
    "service_request": "2022-915322",
    "request_type": "Trash/Recycling",
    "request_reason": "Replace Trash Cart",
    "date_created": "2022-08-31T16:38:56.000",
    "date_modified": "2022-08-31T16:38:56.000",
    "request_status": "Pending",
    "responsible_agency": "Department of Sanitation",
    "final_address": "841 St Andrew St",
    "address_councildis": "B",
    "status": "Assigned to Contractor",
    "contractor": "Richards Disposal",
    "rowid": "915322",
    "final_x": "3680081.17218",
    "final_y": "521958.099386",
    "longitude": "-90.0728825981475",
    "latitude": "29.92924664269114",
    "geocoded_column": {
      "latitude": "29.92924664269114",
      "longitude": "-90.0728825981475"
    }
  },
  {
    "service_request": "2022-915321",
    "request_type": "Trash/Recycling",
    "request_reason": "Request a Large Item Pick Up",
    "date_created": "2022-08-31T16:38:31.000",
    "date_modified": "2022-08-31T16:38:32.000",
    "request_status": "Pending",
    "responsible_agency": "Department of Sanitation",
    "final_address": "828 Roosevelt Pl",
    "address_councildis": "A",
    "status": "Assigned to Contractor",
    "contractor": "Richards Disposal",
    "rowid": "915321",
    "final_x": "3673598.26094",
    "final_y": "539844.138698",
    "longitude": "-90.09273662685574",
    "latitude": "29.978621808509047",
    "geocoded_column": {
      "latitude": "29.978621808509047",
      "longitude": "-90.09273662685574"
    }
  },
  {
    "service_request": "2022-915320",
    "request_type": "Roads/Drainage",
    "request_reason": "Pothole",
    "date_created": "2022-08-31T16:31:08.000",
    "date_modified": "2022-08-31T16:31:08.000",
    "request_status": "Pending",
    "responsible_agency": "Department of Public Works",
    "final_address": "1000 Dublin St",
    "address_councildis": "A",
    "status": "Pending",
    "rowid": "915320",
    "final_x": "3661228.21286",
    "final_y": "528150.302016",
    "longitude": "-90.13219320803226",
    "latitude": "29.946830026152547",
    "geocoded_column": {
      "latitude": "29.946830026152547",
      "longitude": "-90.13219320803226"
    }
  },
  {
    "service_request": "2022-915318",
    "request_type": "Abandoned Vehicles",
    "request_reason": "Abandoned/Junk Vehicles",
    "date_created": "2022-08-31T16:20:18.000",
    "date_modified": "2022-08-31T16:23:15.000",
    "request_status": "Pending",
    "responsible_agency": "Department of Public Works",
    "final_address": "2328 St Anthony St",
    "address_councildis": "D",
    "status": "Pending",
    "rowid": "915318",
    "final_x": "3683097.41551",
    "final_y": "540839.257867",
    "longitude": "-90.06269994759734",
    "latitude": "29.981071824991602",
    "geocoded_column": {
      "latitude": "29.981071824991602",
      "longitude": "-90.06269994759734"
    }
  },
  {
    "service_request": "2022-915317",
    "request_type": "Parks & Parkways",
    "request_reason": "Request Grass Cutting Service (City Owned Property)",
    "date_created": "2022-08-31T16:16:16.000",
    "date_modified": "2022-08-31T16:16:16.000",
    "request_status": "Pending",
    "responsible_agency": "Department of Parks & Parkway",
    "final_address": "4900 Francisco Verrett Dr",
    "address_councildis": "E",
    "status": "Pending",
    "rowid": "915317",
    "final_x": "3704061.97566",
    "final_y": "555942.217817",
    "longitude": "-89.99592819230189",
    "latitude": "30.02194338300517",
    "geocoded_column": {
      "latitude": "30.02194338300517",
      "longitude": "-89.99592819230189"
    }
  },
  {
    "service_request": "2022-915316",
    "request_type": "Traffic Signals/Signs/Striping/Streetlights",
    "request_reason": "Additional signage",
    "date_created": "2022-08-31T16:14:09.000",
    "date_modified": "2022-08-31T16:14:09.000",
    "request_status": "Pending",
    "responsible_agency": "Department of Public Works",
    "final_address": "622 PirateS Aly",
    "address_councildis": "C",
    "status": "Pending",
    "rowid": "915316",
    "final_x": "3682736.74882",
    "final_y": "532445.114627",
    "longitude": "-90.06413276163453",
    "latitude": "29.958001824335554",
    "geocoded_column": {
      "latitude": "29.958001824335554",
      "longitude": "-90.06413276163453"
    }
  },
  {
    "service_request": "2022-915315",
    "request_type": "Abandoned Vehicles",
    "request_reason": "Abandoned/Junk Vehicles",
    "date_created": "2022-08-31T16:10:59.000",
    "date_modified": "2022-08-31T16:15:28.000",
    "request_status": "Pending",
    "responsible_agency": "Department of Public Works",
    "final_address": "2667 Lavender St",
    "address_councildis": "D",
    "status": "Pending",
    "rowid": "915315",
    "final_x": "3687627.55683",
    "final_y": "547053.707409",
    "longitude": "-90.04817161722879",
    "latitude": "29.998020430986823",
    "geocoded_column": {
      "latitude": "29.998020430986823",
      "longitude": "-90.04817161722879"
    }
  },
  {
    "service_request": "2022-915314",
    "request_type": "Trash/Recycling",
    "request_reason": "Replace Trash Cart",
    "date_created": "2022-08-31T16:10:43.000",
    "date_modified": "2022-08-31T16:10:44.000",
    "request_status": "Pending",
    "responsible_agency": "Department of Sanitation",
    "final_address": "5736 Vermillion Blvd",
    "address_councildis": "D",
    "status": "Assigned to Contractor",
    "contractor": "Metro Disposal",
    "rowid": "915314",
    "final_x": "3683036.42716",
    "final_y": "554281.70684",
    "longitude": "-90.06242166007245",
    "latitude": "30.01803560511359",
    "geocoded_column": {
      "latitude": "30.01803560511359",
      "longitude": "-90.06242166007245"
    }
  },
  {
    "service_request": "2022-915313",
    "request_type": "Trash/Recycling",
    "request_reason": "Replace Trash Cart",
    "date_created": "2022-08-31T16:09:20.000",
    "date_modified": "2022-08-31T16:10:32.000",
    "request_status": "Pending",
    "responsible_agency": "Department of Sanitation",
    "final_address": "5736 Vermillion Blvd",
    "address_councildis": "D",
    "status": "Assigned to Contractor",
    "contractor": "Metro Disposal",
    "rowid": "915313",
    "final_x": "3683036.42716",
    "final_y": "554281.70684",
    "longitude": "-90.06242166007245",
    "latitude": "30.01803560511359",
    "geocoded_column": {
      "latitude": "30.01803560511359",
      "longitude": "-90.06242166007245"
    }
  },
  {
    "service_request": "2022-915312",
    "request_type": "Trash/Recycling",
    "request_reason": "MIssed Recycling Pick-Up",
    "date_created": "2022-08-31T16:08:39.000",
    "date_modified": "2022-08-31T16:08:40.000",
    "request_status": "Pending",
    "responsible_agency": "Department of Sanitation",
    "final_address": "635 Eighth St",
    "address_councildis": "B",
    "status": "Assigned to Contractor",
    "contractor": "Richards Disposal",
    "rowid": "915312",
    "final_x": "3676996.9387",
    "final_y": "518943.305143",
    "longitude": "-90.08272281584532",
    "latitude": "29.921049864251078",
    "geocoded_column": {
      "latitude": "29.921049864251078",
      "longitude": "-90.08272281584532"
    }
  },
  {
    "service_request": "2022-915311",
    "request_type": "Mosquito, Termite & Rodent Control",
    "request_reason": "Mosquito Complaint",
    "date_created": "2022-08-31T16:07:06.000",
    "date_modified": "2022-08-31T17:51:24.000",
    "case_close_date": "2022-08-31T12:51:25.000",
    "request_status": "Closed",
    "responsible_agency": "Mosquito, Termite & Rodent Control Board",
    "final_address": "2931 Ponce De Leon St",
    "address_councildis": "A",
    "status": "Resolved",
    "rowid": "915311",
    "final_x": "3677482.46146",
    "final_y": "540531.065547",
    "longitude": "-90.08044514846974",
    "latitude": "29.980394414319647",
    "geocoded_column": {
      "latitude": "29.980394414319647",
      "longitude": "-90.08044514846974"
    }
  },
  {
    "service_request": "2022-915310",
    "request_type": "Traffic Signals/Signs/Striping/Streetlights",
    "request_reason": "Street Light Outage/Malfunction",
    "date_created": "2022-08-31T16:02:09.000",
    "date_modified": "2022-08-31T16:02:10.000",
    "request_status": "Pending",
    "responsible_agency": "Department of Public Works",
    "final_address": "1833 N Rocheblave St",
    "address_councildis": "D",
    "status": "Pending",
    "contractor": "Legacy Professional Services",
    "rowid": "915310",
    "final_x": "3681027.80507",
    "final_y": "540844.625355",
    "longitude": "-90.06923651674572",
    "latitude": "29.981149526197857",
    "geocoded_column": {
      "latitude": "29.981149526197857",
      "longitude": "-90.06923651674572"
    }
  },
  {
    "service_request": "2022-915309",
    "request_type": "Trash/Recycling",
    "request_reason": "Request a Large Item Pick Up",
    "date_created": "2022-08-31T15:56:48.000",
    "date_modified": "2022-08-31T15:56:49.000",
    "request_status": "Pending",
    "responsible_agency": "Department of Sanitation",
    "final_address": "3634 Toledano St",
    "address_councildis": "B",
    "status": "Assigned to Contractor",
    "contractor": "Richards Disposal",
    "rowid": "915309",
    "final_x": "3671503.61217",
    "final_y": "528774.079424",
    "longitude": "-90.09972873564763",
    "latitude": "29.94824503443892",
    "geocoded_column": {
      "latitude": "29.94824503443892",
      "longitude": "-90.09972873564763"
    }
  },
  {
    "service_request": "2022-915308",
    "request_type": "Trash/Recycling",
    "request_reason": "Missed Trash Pick-Up",
    "date_created": "2022-08-31T15:52:24.000",
    "date_modified": "2022-08-31T15:52:25.000",
    "request_status": "Pending",
    "responsible_agency": "Department of Sanitation",
    "final_address": "7561 Jahncke Rd",
    "address_councildis": "E",
    "status": "Assigned to Contractor",
    "contractor": "Metro Disposal",
    "rowid": "915308",
    "final_x": "3714423.08107",
    "final_y": "568015.782885",
    "longitude": "-89.96273379680284",
    "latitude": "30.054804237648845",
    "geocoded_column": {
      "latitude": "30.054804237648845",
      "longitude": "-89.96273379680284"
    }
  },
  {
    "service_request": "2022-915306",
    "request_type": "Trash/Recycling",
    "request_reason": "Replace Trash Cart",
    "date_created": "2022-08-31T15:47:45.000",
    "date_modified": "2022-08-31T15:47:46.000",
    "request_status": "Pending",
    "responsible_agency": "Department of Sanitation",
    "final_address": "69 Allard Blvd",
    "address_councildis": "A",
    "status": "Assigned to Contractor",
    "contractor": "Richards Disposal",
    "rowid": "915306",
    "final_x": "3672748.7476",
    "final_y": "540457.344331",
    "longitude": "-90.09539878710879",
    "latitude": "29.980333177737332",
    "geocoded_column": {
      "latitude": "29.980333177737332",
      "longitude": "-90.09539878710879"
    }
  },
  {
    "service_request": "2022-915305",
    "request_type": "Traffic Signals/Signs/Striping/Streetlights",
    "request_reason": "Street Light Outage/Malfunction",
    "date_created": "2022-08-31T15:47:07.000",
    "date_modified": "2022-08-31T15:47:08.000",
    "request_status": "Pending",
    "responsible_agency": "Department of Public Works",
    "final_address": "BAUDIN ST & S NORMAN C FRANCIS PKWY",
    "address_councildis": "B",
    "status": "Pending",
    "contractor": "Legacy Professional Services",
    "rowid": "915305",
    "final_x": "3672170.8",
    "final_y": "535509.28",
    "longitude": "-90.09739276551453",
    "latitude": "29.966744831526487",
    "geocoded_column": {
      "latitude": "29.966744831526487",
      "longitude": "-90.09739276551453"
    }
  },
  {
    "service_request": "2022-915304",
    "request_type": "Trash/Recycling",
    "request_reason": "Replace Trash Cart",
    "date_created": "2022-08-31T15:43:45.000",
    "date_modified": "2022-08-31T15:43:46.000",
    "request_status": "Pending",
    "responsible_agency": "Department of Sanitation",
    "final_address": "7701 Allison Rd",
    "address_councildis": "E",
    "status": "Assigned to Contractor",
    "contractor": "Metro Disposal",
    "rowid": "915304",
    "final_x": "3700034.22365",
    "final_y": "560730.194206",
    "longitude": "-90.00847985120188",
    "latitude": "30.035237121820533",
    "geocoded_column": {
      "latitude": "30.035237121820533",
      "longitude": "-90.00847985120188"
    }
  },
  {
    "service_request": "2022-915303",
    "request_type": "Trash/Recycling",
    "request_reason": "Request a Large Item Pick Up",
    "date_created": "2022-08-31T15:43:29.000",
    "date_modified": "2022-08-31T15:43:30.000",
    "request_status": "Pending",
    "responsible_agency": "Department of Sanitation",
    "final_address": "1129 N Villere St",
    "address_councildis": "C",
    "status": "Assigned to Contractor",
    "contractor": "Richards Disposal",
    "rowid": "915303",
    "final_x": "3681333.49621",
    "final_y": "535580.10279",
    "longitude": "-90.0684545581027",
    "latitude": "29.96666463497064",
    "geocoded_column": {
      "latitude": "29.96666463497064",
      "longitude": "-90.0684545581027"
    }
  },
  {
    "service_request": "2022-915302",
    "request_type": "Trash/Recycling",
    "request_reason": "Illegal Dumping",
    "date_created": "2022-08-31T15:43:04.000",
    "date_modified": "2022-08-31T15:43:04.000",
    "request_status": "Pending",
    "responsible_agency": "Department of Sanitation",
    "final_address": "2815 Frenchmen St",
    "address_councildis": "D",
    "status": "Pending",
    "rowid": "915302",
    "final_x": "3684099.4829",
    "final_y": "542831.519821",
    "longitude": "-90.05946501793682",
    "latitude": "29.9865192509697",
    "geocoded_column": {
      "latitude": "29.9865192509697",
      "longitude": "-90.05946501793682"
    }
  },
  {
    "service_request": "2022-915301",
    "request_type": "Trash/Recycling",
    "request_reason": "Request a Large Item Pick Up",
    "date_created": "2022-08-31T15:43:00.000",
    "date_modified": "2022-08-31T15:43:01.000",
    "request_status": "Pending",
    "responsible_agency": "Department of Sanitation",
    "final_address": "1133 N Villere St",
    "address_councildis": "C",
    "status": "Assigned to Contractor",
    "contractor": "Richards Disposal",
    "rowid": "915301",
    "final_x": "3681357.098",
    "final_y": "535603.616198",
    "longitude": "-90.06837920411353",
    "latitude": "29.966728572361113",
    "geocoded_column": {
      "latitude": "29.966728572361113",
      "longitude": "-90.06837920411353"
    }
  },
  {
    "service_request": "2022-915300",
    "request_type": "Parks & Parkways",
    "request_reason": "Request Grass Cutting Service (City Owned Property)",
    "date_created": "2022-08-31T15:42:11.000",
    "date_modified": "2022-08-31T15:42:11.000",
    "request_status": "Pending",
    "responsible_agency": "Department of Parks & Parkway",
    "final_address": "4674 Read Blvd",
    "address_councildis": "E",
    "status": "Pending",
    "rowid": "915300",
    "final_x": "3712701.81438",
    "final_y": "555827.541593",
    "longitude": "-89.96863311952998",
    "latitude": "30.021347958707267",
    "geocoded_column": {
      "latitude": "30.021347958707267",
      "longitude": "-89.96863311952998"
    }
  },
  {
    "service_request": "2022-915299",
    "request_type": "Roads/Drainage",
    "request_reason": "Damaged Sidewalk",
    "date_created": "2022-08-31T15:38:29.000",
    "date_modified": "2022-08-31T15:38:29.000",
    "request_status": "Pending",
    "responsible_agency": "Department of Public Works",
    "final_address": "4251 Vincennes Pl",
    "address_councildis": "B",
    "status": "Pending",
    "rowid": "915299",
    "final_x": "3668897.07482",
    "final_y": "531683.768387",
    "longitude": "-90.10786041363833",
    "latitude": "29.956322629478137",
    "geocoded_column": {
      "latitude": "29.956322629478137",
      "longitude": "-90.10786041363833"
    }
  },
  {
    "service_request": "2022-915298",
    "request_type": "Trash/Recycling",
    "request_reason": "MIssed Recycling Pick-Up",
    "date_created": "2022-08-31T15:37:20.000",
    "date_modified": "2022-08-31T15:37:21.000",
    "request_status": "Pending",
    "responsible_agency": "Department of Sanitation",
    "final_address": "819 Eliza St",
    "address_councildis": "C",
    "status": "Assigned to Contractor",
    "contractor": "Richards Disposal",
    "rowid": "915298",
    "final_x": "3688039.02991",
    "final_y": "529868.660609",
    "longitude": "-90.0474809901212",
    "latitude": "29.950754906436263",
    "geocoded_column": {
      "latitude": "29.950754906436263",
      "longitude": "-90.0474809901212"
    }
  },
  {
    "service_request": "2022-915297",
    "request_type": "Trash/Recycling",
    "request_reason": "Missed Trash Pick-Up",
    "date_created": "2022-08-31T15:35:00.000",
    "date_modified": "2022-08-31T15:35:01.000",
    "request_status": "Pending",
    "responsible_agency": "Department of Sanitation",
    "final_address": "433 S Scott St",
    "address_councildis": "B",
    "status": "Assigned to Contractor",
    "contractor": "Richards Disposal",
    "rowid": "915297",
    "final_x": "3670830.42561",
    "final_y": "536650.710343",
    "longitude": "-90.10158692409306",
    "latitude": "29.96992306800931",
    "geocoded_column": {
      "latitude": "29.96992306800931",
      "longitude": "-90.10158692409306"
    }
  },
  {
    "service_request": "2022-915296",
    "request_type": "Abandoned Vehicles",
    "request_reason": "Abandoned/Junk Vehicles",
    "date_created": "2022-08-31T15:32:52.000",
    "date_modified": "2022-08-31T15:35:31.000",
    "request_status": "Pending",
    "responsible_agency": "Department of Public Works",
    "final_address": "6535 Foch Rd",
    "address_councildis": "D",
    "status": "Pending",
    "rowid": "915296",
    "final_x": "3697109.18813",
    "final_y": "555278.230041",
    "longitude": "-90.01792118298845",
    "latitude": "30.020338973074296",
    "geocoded_column": {
      "latitude": "30.020338973074296",
      "longitude": "-90.01792118298845"
    }
  },
  {
    "service_request": "2022-915295",
    "request_type": "Parks & Parkways",
    "request_reason": "Request Grass Cutting Service (City Owned Property)",
    "date_created": "2022-08-31T15:31:49.000",
    "date_modified": "2022-08-31T15:31:49.000",
    "request_status": "Pending",
    "responsible_agency": "Department of Parks & Parkway",
    "final_address": "4901 Corinne St",
    "address_councildis": "E",
    "status": "Pending",
    "rowid": "915295",
    "final_x": "3715053.64818",
    "final_y": "557425.675291",
    "longitude": "-89.96114158444003",
    "latitude": "30.025664965041912",
    "geocoded_column": {
      "latitude": "30.025664965041912",
      "longitude": "-89.96114158444003"
    }
  },
  {
    "service_request": "2022-915294",
    "request_type": "Trash/Recycling",
    "request_reason": "Missed Trash Pick-Up",
    "date_created": "2022-08-31T15:30:57.000",
    "date_modified": "2022-08-31T17:19:25.000",
    "request_status": "Pending",
    "responsible_agency": "Department of Sanitation",
    "final_address": "New Orleans,LA",
    "address_councildis": "B",
    "status": "Assigned to Contractor",
    "contractor": "Richards Disposal",
    "rowid": "915294",
    "final_x": "3670830.42561",
    "final_y": "536650.710343",
    "longitude": "-90.10158692409306",
    "latitude": "29.96992306800931",
    "geocoded_column": {
      "latitude": "29.96992306800931",
      "longitude": "-90.10158692409306"
    }
  },
  {
    "service_request": "2022-915293",
    "request_type": "Trash/Recycling",
    "request_reason": "Request a Large Item Pick Up",
    "date_created": "2022-08-31T15:29:55.000",
    "date_modified": "2022-08-31T15:58:05.000",
    "case_close_date": "2022-08-31T10:58:05.000",
    "request_status": "Closed",
    "responsible_agency": "Department of Sanitation",
    "final_address": "7500 Canal Blvd",
    "address_councildis": "D",
    "status": "Invalid Request",
    "contractor": "Metro Disposal",
    "rowid": "915293",
    "final_x": "3669155.09582",
    "final_y": "556387.647514",
    "longitude": "-90.10621026465695",
    "latitude": "30.02424223570285",
    "geocoded_column": {
      "latitude": "30.02424223570285",
      "longitude": "-90.10621026465695"
    }
  },
  {
    "service_request": "2022-915292",
    "request_type": "Trash/Recycling",
    "request_reason": "Damaged Caused By Contractor",
    "date_created": "2022-08-31T15:28:05.000",
    "date_modified": "2022-08-31T15:28:06.000",
    "request_status": "Pending",
    "responsible_agency": "Department of Sanitation",
    "final_address": "1919 State St",
    "address_councildis": "A",
    "status": "Assigned to Contractor",
    "contractor": "Richards Disposal",
    "rowid": "915292",
    "final_x": "3666288.37287",
    "final_y": "523845.077435",
    "longitude": "-90.11636074083381",
    "latitude": "29.934845218044078",
    "geocoded_column": {
      "latitude": "29.934845218044078",
      "longitude": "-90.11636074083381"
    }
  },
  {
    "service_request": "2022-915291",
    "request_type": "Parks & Parkways",
    "request_reason": "Request Grass Cutting Service (City Owned Property)",
    "date_created": "2022-08-31T15:25:26.000",
    "date_modified": "2022-08-31T18:05:12.000",
    "case_close_date": "2022-08-31T13:05:12.000",
    "request_status": "Closed",
    "responsible_agency": "Department of Parks & Parkway",
    "final_address": "10800 Dwyer Rd",
    "address_councildis": "E",
    "status": "Invalid Request",
    "rowid": "915291",
    "final_x": "3715241.43653",
    "final_y": "558245.526812",
    "longitude": "-89.96051716827257",
    "latitude": "30.027913045607406",
    "geocoded_column": {
      "latitude": "30.027913045607406",
      "longitude": "-89.96051716827257"
    }
  },
  {
    "service_request": "2022-915290",
    "request_type": "Traffic Signals/Signs/Striping/Streetlights",
    "request_reason": "Road Surface Marking Maintenance-Traffic Control",
    "date_created": "2022-08-31T15:22:33.000",
    "date_modified": "2022-08-31T15:22:33.000",
    "request_status": "Pending",
    "responsible_agency": "Department of Public Works",
    "final_address": "5552 Read Blvd",
    "address_councildis": "E",
    "status": "Pending",
    "rowid": "915290",
    "final_x": "3711612.33822",
    "final_y": "558560.875996",
    "longitude": "-89.97197291933162",
    "latitude": "30.028899184723294",
    "geocoded_column": {
      "latitude": "30.028899184723294",
      "longitude": "-89.97197291933162"
    }
  },
  {
    "service_request": "2022-915289",
    "request_type": "Trash/Recycling",
    "request_reason": "Request a Large Item Pick Up",
    "date_created": "2022-08-31T15:20:36.000",
    "date_modified": "2022-08-31T15:20:36.000",
    "request_status": "Pending",
    "responsible_agency": "Department of Sanitation",
    "final_address": "1450 N Roman St",
    "address_councildis": "D",
    "status": "Assigned to Contractor",
    "contractor": "Metro Disposal",
    "rowid": "915289",
    "final_x": "3681016.49608",
    "final_y": "537392.719496",
    "longitude": "-90.06939249964725",
    "latitude": "29.971658325517353",
    "geocoded_column": {
      "latitude": "29.971658325517353",
      "longitude": "-90.06939249964725"
    }
  },
  {
    "service_request": "2022-915288",
    "request_type": "Trash/Recycling",
    "request_reason": "Missed Trash Pick-Up",
    "date_created": "2022-08-31T15:19:51.000",
    "date_modified": "2022-08-31T15:19:51.000",
    "request_status": "Pending",
    "responsible_agency": "Department of Sanitation",
    "final_address": "5015 St Claude Ave",
    "address_councildis": "E",
    "status": "Assigned to Contractor",
    "contractor": "Metro Disposal",
    "rowid": "915288",
    "final_x": "3696113.05085",
    "final_y": "534351.361221",
    "longitude": "-90.02182547915295",
    "latitude": "29.962829149857008",
    "geocoded_column": {
      "latitude": "29.962829149857008",
      "longitude": "-90.02182547915295"
    }
  },
  {
    "service_request": "2022-915287",
    "request_type": "Trash/Recycling",
    "request_reason": "Return Recycling Cart",
    "date_created": "2022-08-31T15:18:46.000",
    "date_modified": "2022-08-31T15:18:46.000",
    "request_status": "Pending",
    "responsible_agency": "Department of Sanitation",
    "final_address": "1450 N Roman St",
    "address_councildis": "D",
    "status": "Pending",
    "rowid": "915287",
    "final_x": "3681016.49608",
    "final_y": "537392.719496",
    "longitude": "-90.06939249964725",
    "latitude": "29.971658325517353",
    "geocoded_column": {
      "latitude": "29.971658325517353",
      "longitude": "-90.06939249964725"
    }
  },
  {
    "service_request": "2022-915286",
    "request_type": "Trash/Recycling",
    "request_reason": "Order Recycling Cart",
    "date_created": "2022-08-31T15:15:23.000",
    "date_modified": "2022-08-31T15:15:23.000",
    "request_status": "Pending",
    "responsible_agency": "Department of Sanitation",
    "final_address": "1216 Pine St",
    "address_councildis": "A",
    "status": "Pending",
    "rowid": "915286",
    "final_x": "3663982.51181",
    "final_y": "526813.679422",
    "longitude": "-90.12354139708314",
    "latitude": "29.943075066161253",
    "geocoded_column": {
      "latitude": "29.943075066161253",
      "longitude": "-90.12354139708314"
    }
  },
  {
    "service_request": "2022-915285",
    "request_type": "Property Maintenance",
    "request_reason": "Property Maintenance",
    "date_created": "2022-08-31T15:12:04.000",
    "date_modified": "2022-08-31T15:12:04.000",
    "request_status": "Pending",
    "responsible_agency": "Department of Code Enforcement",
    "final_address": "2229 Gentilly Blvd",
    "address_councildis": "D",
    "status": "Pending",
    "rowid": "915285",
    "final_x": "3680854.6861",
    "final_y": "544649.927823",
    "longitude": "-90.06965075516035",
    "latitude": "29.99161802344704",
    "geocoded_column": {
      "latitude": "29.99161802344704",
      "longitude": "-90.06965075516035"
    }
  },
  {
    "service_request": "2022-915284",
    "request_type": "Property Maintenance",
    "request_reason": "Property Maintenance",
    "date_created": "2022-08-31T15:11:59.000",
    "date_modified": "2022-08-31T15:11:59.000",
    "request_status": "Pending",
    "responsible_agency": "Department of Code Enforcement",
    "final_address": "2229 Gentilly Blvd",
    "address_councildis": "D",
    "status": "Pending",
    "rowid": "915284",
    "final_x": "3680854.6861",
    "final_y": "544649.927823",
    "longitude": "-90.06965075516035",
    "latitude": "29.99161802344704",
    "geocoded_column": {
      "latitude": "29.99161802344704",
      "longitude": "-90.06965075516035"
    }
  },
  {
    "service_request": "2022-915282",
    "request_type": "Safety & Permits",
    "request_reason": "Licenses & Permits",
    "date_created": "2022-08-31T15:10:16.000",
    "date_modified": "2022-08-31T15:10:16.000",
    "request_status": "Pending",
    "responsible_agency": "Safety and Permits",
    "final_address": "2100 Josephine St",
    "address_councildis": "B",
    "status": "Pending",
    "rowid": "915282",
    "final_x": "3676715.36289",
    "final_y": "525441.185981",
    "longitude": "-90.08338788068801",
    "latitude": "29.938925368101806",
    "geocoded_column": {
      "latitude": "29.938925368101806",
      "longitude": "-90.08338788068801"
    }
  },
  {
    "service_request": "2022-915280",
    "request_type": "Trash/Recycling",
    "request_reason": "Request a Large Item Pick Up",
    "date_created": "2022-08-31T15:06:57.000",
    "date_modified": "2022-08-31T15:06:57.000",
    "request_status": "Pending",
    "responsible_agency": "Department of Sanitation",
    "final_address": "5361 Magazine St, New Orleans, Louisiana, 70115",
    "address_councildis": "B",
    "status": "Assigned to Contractor",
    "contractor": "Richards Disposal",
    "rowid": "915280",
    "final_x": "3666965.1986",
    "final_y": "518827.693111",
    "longitude": "-90.1143925067963",
    "latitude": "29.921029218032334",
    "geocoded_column": {
      "latitude": "29.921029218032334",
      "longitude": "-90.1143925067963"
    }
  },
  {
    "service_request": "2022-915279",
    "request_type": "Trash/Recycling",
    "request_reason": "Request a Large Item Pick Up",
    "date_created": "2022-08-31T15:06:11.000",
    "date_modified": "2022-08-31T15:06:12.000",
    "request_status": "Pending",
    "responsible_agency": "Department of Sanitation",
    "final_address": "3627 Herald St",
    "address_councildis": "C",
    "status": "Assigned to Contractor",
    "contractor": "Richards Disposal",
    "rowid": "915279",
    "final_x": "3702144.65169",
    "final_y": "517690.672758",
    "longitude": "-90.0033892454127",
    "latitude": "29.91682689818623",
    "geocoded_column": {
      "latitude": "29.91682689818623",
      "longitude": "-90.0033892454127"
    }
  },
  {
    "service_request": "2022-915278",
    "request_type": "Trash/Recycling",
    "request_reason": "Replace Trash Cart",
    "date_created": "2022-08-31T15:01:07.000",
    "date_modified": "2022-08-31T15:01:08.000",
    "request_status": "Pending",
    "responsible_agency": "Department of Sanitation",
    "final_address": "709 Reynes St, New Orleans, Louisiana, 70117",
    "address_councildis": "E",
    "status": "Assigned to Contractor",
    "contractor": "Metro Disposal",
    "rowid": "915278",
    "final_x": "3695614.13981",
    "final_y": "532872.117508",
    "longitude": "-90.02345436826982",
    "latitude": "29.958777444362642",
    "geocoded_column": {
      "latitude": "29.958777444362642",
      "longitude": "-90.02345436826982"
    }
  },
  {
    "service_request": "2022-915277",
    "request_type": "Traffic Signals/Signs/Striping/Streetlights",
    "request_reason": "Street Light Outage/Malfunction",
    "date_created": "2022-08-31T14:56:03.000",
    "date_modified": "2022-08-31T14:56:04.000",
    "request_status": "Pending",
    "responsible_agency": "Department of Public Works",
    "final_address": "724 Camp St",
    "address_councildis": "B",
    "status": "Pending",
    "contractor": "Legacy Professional Services",
    "rowid": "915277",
    "final_x": "3680922.6756",
    "final_y": "528288.551808",
    "longitude": "-90.0700058029185",
    "latitude": "29.946627805312936",
    "geocoded_column": {
      "latitude": "29.946627805312936",
      "longitude": "-90.0700058029185"
    }
  },