[
  {
    "service_request": "2022-872853",
    "request_type": "Trash/Recycling",
    "request_reason": "Request a Large Item Pick Up",
    "date_created": "2022-04-07T00:08:03.000",
    "date_modified": "2022-04-07T00:08:04.000",
    "request_status": "Pending",
    "responsible_agency": "Department of Sanitation",
    "final_address": "1016 Crete St",
    "address_councildis": "A",
    "status": "Assigned to Contractor",
    "contractor": "Richards Disposal",
    "rowid": "872853",
    "final_x": "3677559.72181",
    "final_y": "538465.779209",
    "longitude": "-90.08027246155306",
    "latitude": "29.97471326520945",
    "geocoded_column": {
      "latitude": "29.97471326520945",
      "longitude": "-90.08027246155306"
    }
  },
  {
    "service_request": "2022-872852",
    "request_type": "Safety & Permits",
    "request_reason": "Licenses & Permits",
    "date_created": "2022-04-06T23:14:06.000",
    "date_modified": "2022-04-06T23:14:06.000",
    "request_status": "Pending",
    "responsible_agency": "Safety and Permits",
    "final_address": "218 S Robertson St",
    "address_councildis": "B",
    "status": "Pending",
    "rowid": "872852",
    "final_x": "3678366.0452",
    "final_y": "532056.137795",
    "longitude": "-90.07794767698763",
    "latitude": "29.957064663440146",
    "geocoded_column": {
      "latitude": "29.957064663440146",
      "longitude": "-90.07794767698763"
    }
  },
  {
    "service_request": "2022-872851",
    "request_type": "Trash/Recycling",
    "request_reason": "Replace Trash Cart",
    "date_created": "2022-04-06T22:55:34.000",
    "date_modified": "2022-04-06T22:55:34.000",
    "request_status": "Pending",
    "responsible_agency": "Department of Sanitation",
    "final_address": "6871 Louisville St, New Orleans, Louisiana, 70124",
    "address_councildis": "A",
    "status": "Assigned to Contractor",
    "contractor": "Metro Disposal",
    "rowid": "872851",
    "final_x": "3668377.44154",
    "final_y": "553291.070679",
    "longitude": "-90.10877208598923",
    "latitude": "30.015750624470876",
    "geocoded_column": {
      "latitude": "30.015750624470876",
      "longitude": "-90.10877208598923"
    }
  },
  {
    "service_request": "2022-872850",
    "request_type": "Trash/Recycling",
    "request_reason": "Request a Large Item Pick Up",
    "date_created": "2022-04-06T22:34:05.000",
    "date_modified": "2022-04-06T22:34:06.000",
    "request_status": "Pending",
    "responsible_agency": "Department of Sanitation",
    "final_address": "2347 N Claiborne Ave",
    "address_councildis": "D",
    "status": "Assigned to Contractor",
    "contractor": "Metro Disposal",
    "rowid": "872850",
    "final_x": "3686060.05225",
    "final_y": "538277.770057",
    "longitude": "-90.05343299762539",
    "latitude": "29.973937967176425",
    "geocoded_column": {
      "latitude": "29.973937967176425",
      "longitude": "-90.05343299762539"
    }
  },
  {
    "service_request": "2022-872849",
    "request_type": "Parks & Parkways",
    "request_reason": "Request Tree Service (Right of Way/Public Property)",
    "date_created": "2022-04-06T22:32:34.000",
    "date_modified": "2022-04-06T22:32:34.000",
    "request_status": "Pending",
    "responsible_agency": "Department of Parks & Parkway",
    "final_address": "1135 Marais St",
    "address_councildis": "C",
    "status": "Pending",
    "rowid": "872849",
    "final_x": "3681589.73954",
    "final_y": "535395.28999",
    "longitude": "-90.06765179074739",
    "latitude": "29.966148682959034",
    "geocoded_column": {
      "latitude": "29.966148682959034",
      "longitude": "-90.06765179074739"
    }
  },
  {
    "service_request": "2022-872847",
    "request_type": "Parks & Parkways",
    "request_reason": "Tree Stump (removal, grind)",
    "date_created": "2022-04-06T21:55:48.000",
    "date_modified": "2022-04-06T21:55:48.000",
    "request_status": "Pending",
    "responsible_agency": "Department of Parks & Parkway",
    "final_address": "818 Lafayette St",
    "address_councildis": "B",
    "status": "Pending",
    "rowid": "872847",
    "final_x": "3680022.00571",
    "final_y": "529020.337408",
    "longitude": "-90.07282412337844",
    "latitude": "29.94866724462532",
    "geocoded_column": {
      "latitude": "29.94866724462532",
      "longitude": "-90.07282412337844"
    }
  },
  {
    "service_request": "2022-872848",
    "request_type": "Parks & Parkways",
    "request_reason": "Tree Stump (removal, grind)",
    "date_created": "2022-04-06T21:55:48.000",
    "date_modified": "2022-04-06T21:55:48.000",
    "request_status": "Pending",
    "responsible_agency": "Department of Parks & Parkway",
    "final_address": "818 Lafayette St",
    "address_councildis": "B",
    "status": "Pending",
    "rowid": "872848",
    "final_x": "3680022.00571",
    "final_y": "529020.337408",
    "longitude": "-90.07282412337844",
    "latitude": "29.94866724462532",
    "geocoded_column": {
      "latitude": "29.94866724462532",
      "longitude": "-90.07282412337844"
    }
  },
  {
    "service_request": "2022-872846",
    "request_type": "Property Maintenance",
    "request_reason": "Property Maintenance",
    "date_created": "2022-04-06T21:55:15.000",
    "date_modified": "2022-04-06T21:55:15.000",
    "request_status": "Pending",
    "responsible_agency": "Department of Code Enforcement",
    "final_address": "3615 Loyola Ave",
    "address_councildis": "B",
    "status": "Pending",
    "rowid": "872846",
    "final_x": "3672650.69659",
    "final_y": "523296.203707",
    "longitude": "-90.09629363729205",
    "latitude": "29.93314865630751",
    "geocoded_column": {
      "latitude": "29.93314865630751",
      "longitude": "-90.09629363729205"
    }
  },
  {
    "service_request": "2022-872845",
    "request_type": "Mosquito, Termite & Rodent Control",
    "request_reason": "Non-Rodent Complaint (Mice, Possums, Snakes)",
    "date_created": "2022-04-06T21:52:31.000",
    "date_modified": "2022-04-06T21:52:31.000",
    "request_status": "Pending",
    "responsible_agency": "Mosquito, Termite & Rodent Control Board",
    "final_address": "611 Esplanade Ave",
    "address_councildis": "C",
    "status": "Pending",
    "rowid": "872845",
    "final_x": "3684293.73589",
    "final_y": "534298.427781",
    "longitude": "-90.05915116402679",
    "latitude": "29.96305028636645",
    "geocoded_column": {
      "latitude": "29.96305028636645",
      "longitude": "-90.05915116402679"
    }
  },
  {
    "service_request": "2022-872844",
    "request_type": "Roads/Drainage",
    "request_reason": "Street Subsidence (Sinking)",
    "date_created": "2022-04-06T21:50:50.000",
    "date_modified": "2022-04-06T21:50:50.000",
    "request_status": "Pending",
    "responsible_agency": "Department of Public Works",
    "final_address": "818 Lafayette St",
    "address_councildis": "B",
    "status": "Pending",
    "rowid": "872844",
    "final_x": "3680022.00571",
    "final_y": "529020.337408",
    "longitude": "-90.07282412337844",
    "latitude": "29.94866724462532",
    "geocoded_column": {
      "latitude": "29.94866724462532",
      "longitude": "-90.07282412337844"
    }
  },
  {
    "service_request": "2022-872843",
    "request_type": "Traffic Signals/Signs/Striping/Streetlights",
    "request_reason": "Street Light Outage/Malfunction",
    "date_created": "2022-04-06T21:47:25.000",
    "date_modified": "2022-04-06T21:47:26.000",
    "request_status": "Pending",
    "responsible_agency": "Department of Public Works",
    "final_address": "909 Lafayette St",
    "address_councildis": "B",
    "status": "Pending",
    "contractor": "Royal Engineering",
    "rowid": "872843",
    "final_x": "3679744.23119",
    "final_y": "529147.754624",
    "longitude": "-90.07369675248621",
    "latitude": "29.949025998571166",
    "geocoded_column": {
      "latitude": "29.949025998571166",
      "longitude": "-90.07369675248621"
    }
  },
  {
    "service_request": "2022-872842",
    "request_type": "Traffic Signals/Signs/Striping/Streetlights",
    "request_reason": "Street Light Outage/Malfunction",
    "date_created": "2022-04-06T21:25:26.000",
    "date_modified": "2022-04-06T21:25:27.000",
    "request_status": "Pending",
    "responsible_agency": "Department of Public Works",
    "final_address": "1819 Pine St",
    "address_councildis": "A",
    "status": "Pending",
    "contractor": "Royal Engineering",
    "rowid": "872842",
    "final_x": "3665264.33997",
    "final_y": "528519.54752",
    "longitude": "-90.1194372748939",
    "latitude": "29.94772837878553",
    "geocoded_column": {
      "latitude": "29.94772837878553",
      "longitude": "-90.1194372748939"
    }
  },
  {
    "service_request": "2022-872841",
    "request_type": "Trash/Recycling",
    "request_reason": "Missed Trash Pick-Up",
    "date_created": "2022-04-06T21:16:21.000",
    "date_modified": "2022-04-06T21:16:25.000",
    "request_status": "Pending",
    "responsible_agency": "Department of Sanitation",
    "final_address": "1927 Marengo St",
    "address_councildis": "B",
    "status": "Assigned to Contractor",
    "contractor": "Richards Disposal",
    "rowid": "872841",
    "final_x": "3671901.55585",
    "final_y": "522286.386874",
    "longitude": "-90.09869297941121",
    "latitude": "29.93039420264244",
    "geocoded_column": {
      "latitude": "29.93039420264244",
      "longitude": "-90.09869297941121"
    }
  },
  {
    "service_request": "2022-872840",
    "request_type": "Roads/Drainage",
    "request_reason": "Street Flooding / Drainage",
    "date_created": "2022-04-06T20:49:25.000",
    "date_modified": "2022-04-06T20:49:25.000",
    "request_status": "Pending",
    "responsible_agency": "Department of Public Works",
    "final_address": "2721 Dreux Ave",
    "address_councildis": "D",
    "status": "Pending",
    "rowid": "872840",
    "final_x": "3687502.32982",
    "final_y": "552337.165078",
    "longitude": "-90.04838003981193",
    "latitude": "30.012551876287432",
    "geocoded_column": {
      "latitude": "30.012551876287432",
      "longitude": "-90.04838003981193"
    }
  },
  {
    "service_request": "2022-872839",
    "request_type": "Trash/Recycling",
    "request_reason": "Order Recycling Cart",
    "date_created": "2022-04-06T20:39:10.000",
    "date_modified": "2022-04-06T20:39:10.000",
    "request_status": "Pending",
    "responsible_agency": "Department of Sanitation",
    "final_address": "4628 Crowder Blvd",
    "address_councildis": "E",
    "status": "Pending",
    "rowid": "872839",
    "final_x": "3706395.57918",
    "final_y": "554952.593176",
    "longitude": "-89.98859136330823",
    "latitude": "30.019147199286294",
    "geocoded_column": {
      "latitude": "30.019147199286294",
      "longitude": "-89.98859136330823"
    }
  },
  {
    "service_request": "2022-872837",
    "request_type": "Trash/Recycling",
    "request_reason": "Request a Large Item Pick Up",
    "date_created": "2022-04-06T20:22:35.000",
    "date_modified": "2022-04-06T20:22:36.000",
    "request_status": "Pending",
    "responsible_agency": "Department of Sanitation",
    "final_address": "4628 Crowder Blvd",
    "address_councildis": "E",
    "status": "Assigned to Contractor",
    "contractor": "Metro Disposal",
    "rowid": "872837",
    "final_x": "3706395.57918",
    "final_y": "554952.593176",
    "longitude": "-89.98859136330823",
    "latitude": "30.019147199286294",
    "geocoded_column": {
      "latitude": "30.019147199286294",
      "longitude": "-89.98859136330823"
    }
  },
  {
    "service_request": "2022-872836",
    "request_type": "Trash/Recycling",
    "request_reason": "Return Recycling Cart",
    "date_created": "2022-04-06T20:02:06.000",
    "date_modified": "2022-04-06T20:02:06.000",
    "request_status": "Pending",
    "responsible_agency": "Department of Sanitation",
    "final_address": "6566 General Haig St",
    "address_councildis": "A",
    "status": "Pending",
    "rowid": "872836",
    "final_x": "3670834.01025",
    "final_y": "550982.483541",
    "longitude": "-90.10108886189863",
    "latitude": "30.009330409734932",
    "geocoded_column": {
      "latitude": "30.009330409734932",
      "longitude": "-90.10108886189863"
    }
  },
  {
    "service_request": "2022-872835",
    "request_type": "Trash/Recycling",
    "request_reason": "Request a Large Item Pick Up",
    "date_created": "2022-04-06T20:00:05.000",
    "date_modified": "2022-04-06T20:00:06.000",
    "request_status": "Pending",
    "responsible_agency": "Department of Sanitation",
    "final_address": "6566 General Haig St",
    "address_councildis": "A",
    "status": "Assigned to Contractor",
    "contractor": "Metro Disposal",
    "rowid": "872835",
    "final_x": "3670834.01025",
    "final_y": "550982.483541",
    "longitude": "-90.10108886189863",
    "latitude": "30.009330409734932",
    "geocoded_column": {
      "latitude": "30.009330409734932",
      "longitude": "-90.10108886189863"
    }
  },
  {
    "service_request": "2022-872834",
    "request_type": "Traffic Signals/Signs/Striping/Streetlights",
    "request_reason": "Street Light Outage/Malfunction",
    "date_created": "2022-04-06T19:53:54.000",
    "date_modified": "2022-04-06T19:53:55.000",
    "request_status": "Pending",
    "responsible_agency": "Department of Public Works",
    "final_address": "EAST DR & LAUREL ST",
    "address_councildis": "A",
    "status": "Pending",
    "contractor": "Royal Engineering",
    "rowid": "872834",
    "final_x": "3662567.3",
    "final_y": "518980.48",
    "longitude": "-90.1282696887383",
    "latitude": "29.921577244786146",
    "geocoded_column": {
      "latitude": "29.921577244786146",
      "longitude": "-90.1282696887383"
    }
  },
  {
    "service_request": "2022-872833",
    "request_type": "Trash/Recycling",
    "request_reason": "Repair Trash Cart",
    "date_created": "2022-04-06T19:46:14.000",
    "date_modified": "2022-04-06T19:46:15.000",
    "request_status": "Pending",
    "responsible_agency": "Department of Sanitation",
    "final_address": "New Orleans,LA",
    "status": "Assigned to Contractor",
    "rowid": "872833",
    "longitude": "0.0",
    "latitude": "0.0",
    "geocoded_column": {
      "latitude": "0.0",
      "longitude": "0.0"
    }
  },
  {
    "service_request": "2022-872832",
    "request_type": "Trash/Recycling",
    "request_reason": "Order Trash Cart",
    "date_created": "2022-04-06T19:44:21.000",
    "date_modified": "2022-04-06T19:44:22.000",
    "request_status": "Pending",
    "responsible_agency": "Department of Sanitation",
    "final_address": "New Orleans,LA",
    "status": "Assigned to Contractor",
    "rowid": "872832",
    "longitude": "0.0",
    "latitude": "0.0",
    "geocoded_column": {
      "latitude": "0.0",
      "longitude": "0.0"
    }
  },
  {
    "service_request": "2022-872831",
    "request_type": "Trash/Recycling",
    "request_reason": "MIssed Recycling Pick-Up",
    "date_created": "2022-04-06T19:42:41.000",
    "date_modified": "2022-04-06T19:42:42.000",
    "request_status": "Pending",
    "responsible_agency": "Department of Sanitation",
    "final_address": "3211 River Oaks Dr, New Orleans, Louisiana, 70131",
    "address_councildis": "C",
    "status": "Assigned to Contractor",
    "contractor": "Richards Disposal",
    "rowid": "872831",
    "final_x": "3701386.24241",
    "final_y": "519399.212215",
    "longitude": "-90.0057206011941",
    "latitude": "29.921548978633314",
    "geocoded_column": {
      "latitude": "29.921548978633314",
      "longitude": "-90.0057206011941"
    }
  },
  {
    "service_request": "2022-872829",
    "request_type": "Trash/Recycling",
    "request_reason": "Replace Trash Cart",
    "date_created": "2022-04-06T19:37:27.000",
    "date_modified": "2022-04-06T19:37:28.000",
    "request_status": "Pending",
    "responsible_agency": "Department of Sanitation",
    "final_address": "New Orleans,LA",
    "status": "Assigned to Contractor",
    "rowid": "872829",
    "longitude": "0.0",
    "latitude": "0.0",
    "geocoded_column": {
      "latitude": "0.0",
      "longitude": "0.0"
    }
  },
  {
    "service_request": "2022-872828",
    "request_type": "Traffic Signals/Signs/Striping/Streetlights",
    "request_reason": "Traffic Signal Malfunctioning/Damaged",
    "date_created": "2022-04-06T19:19:33.000",
    "date_modified": "2022-04-06T19:19:33.000",
    "request_status": "Pending",
    "responsible_agency": "Department of Public Works",
    "final_address": "N Carrollton Ave & City Park Ave, New Orleans, Louisiana, 70119",
    "status": "Pending",
    "rowid": "872828",
    "longitude": "0.0",
    "latitude": "0.0",
    "geocoded_column": {
      "latitude": "0.0",
      "longitude": "0.0"
    }
  },
  {
    "service_request": "2022-872827",
    "request_type": "Property Maintenance",
    "request_reason": "Property Maintenance",
    "date_created": "2022-04-06T18:59:44.000",
    "date_modified": "2022-04-06T18:59:44.000",
    "request_status": "Pending",
    "responsible_agency": "Department of Code Enforcement",
    "final_address": "411 Elmira Ave",
    "address_councildis": "C",
    "status": "Pending",
    "rowid": "872827",
    "final_x": "3688175.61961",
    "final_y": "530215.744449",
    "longitude": "-90.04703740822552",
    "latitude": "29.951705052533697",
    "geocoded_column": {
      "latitude": "29.951705052533697",
      "longitude": "-90.04703740822552"
    }
  },
  {
    "service_request": "2022-872824",
    "request_type": "Trash/Recycling",
    "request_reason": "Request a Large Item Pick Up",
    "date_created": "2022-04-06T18:34:05.000",
    "date_modified": "2022-04-06T18:34:05.000",
    "request_status": "Pending",
    "responsible_agency": "Department of Sanitation",
    "final_address": "4133 Iberville St",
    "address_councildis": "A",
    "status": "Assigned to Contractor",
    "contractor": "Richards Disposal",
    "rowid": "872824",
    "final_x": "3671141.79239",
    "final_y": "538911.087434",
    "longitude": "-90.10052679253299",
    "latitude": "29.976129135351396",
    "geocoded_column": {
      "latitude": "29.976129135351396",
      "longitude": "-90.10052679253299"
    }
  },
  {
    "service_request": "2022-872823",
    "request_type": "Roads/Drainage",
    "request_reason": "Catch Basin - Clogged",
    "date_created": "2022-04-06T18:19:54.000",
    "date_modified": "2022-04-06T18:19:54.000",
    "request_status": "Pending",
    "responsible_agency": "Department of Public Works",
    "final_address": "1522 St Ann St",
    "address_councildis": "C",
    "status": "Pending",
    "rowid": "872823",
    "final_x": "3680355.31906",
    "final_y": "534560.738245",
    "longitude": "-90.07157908192595",
    "latitude": "29.963891385492946",
    "geocoded_column": {
      "latitude": "29.963891385492946",
      "longitude": "-90.07157908192595"
    }
  },
  {
    "service_request": "2022-872822",
    "request_type": "Trash/Recycling",
    "request_reason": "Order Recycling Cart",
    "date_created": "2022-04-06T18:10:30.000",
    "date_modified": "2022-04-06T18:10:30.000",
    "request_status": "Pending",
    "responsible_agency": "Department of Sanitation",
    "final_address": "4640 Berkley Dr",
    "address_councildis": "C",
    "status": "Pending",
    "rowid": "872822",
    "final_x": "3701109.86212",
    "final_y": "518352.963062",
    "longitude": "-90.00663124620368",
    "latitude": "29.918680954384367",
    "geocoded_column": {
      "latitude": "29.918680954384367",
      "longitude": "-90.00663124620368"
    }
  },
  {
    "service_request": "2022-872821",
    "request_type": "Trash/Recycling",
    "request_reason": "Missed Trash Pick-Up",
    "date_created": "2022-04-06T18:07:42.000",
    "date_modified": "2022-04-06T18:07:43.000",
    "request_status": "Pending",
    "responsible_agency": "Department of Sanitation",
    "final_address": "615 Jefferson Ave",
    "address_councildis": "B",
    "status": "Assigned to Contractor",
    "contractor": "Richards Disposal",
    "rowid": "872821",
    "final_x": "3666592.3266",
    "final_y": "517696.842742",
    "longitude": "-90.11560743554148",
    "latitude": "29.917930635750533",
    "geocoded_column": {
      "latitude": "29.917930635750533",
      "longitude": "-90.11560743554148"
    }
  },
  {
    "service_request": "2022-872820",
    "request_type": "Trash/Recycling",
    "request_reason": "MIssed Recycling Pick-Up",
    "date_created": "2022-04-06T17:37:29.000",
    "date_modified": "2022-04-06T17:37:30.000",
    "request_status": "Pending",
    "responsible_agency": "Department of Sanitation",
    "final_address": "1412 Erato St",
    "address_councildis": "B",
    "status": "Assigned to Contractor",
    "contractor": "Richards Disposal",
    "rowid": "872820",
    "final_x": "3680065.94664",
    "final_y": "525672.581821",
    "longitude": "-90.07280166626343",
    "latitude": "29.939460704225844",
    "geocoded_column": {
      "latitude": "29.939460704225844",
      "longitude": "-90.07280166626343"
    }
  },
  {
    "service_request": "2022-872819",
    "request_type": "Property Maintenance",
    "request_reason": "Property Maintenance",
    "date_created": "2022-04-06T17:22:52.000",
    "date_modified": "2022-04-06T17:22:52.000",
    "request_status": "Pending",
    "responsible_agency": "Department of Code Enforcement",
    "final_address": "2538 Dumaine St",
    "address_councildis": "D",
    "status": "Pending",
    "rowid": "872819",
    "final_x": "3677682.33166",
    "final_y": "537072.698376",
    "longitude": "-90.07993335597898",
    "latitude": "29.97087908287973",
    "geocoded_column": {
      "latitude": "29.97087908287973",
      "longitude": "-90.07993335597898"
    }
  },
  {
    "service_request": "2022-872818",
    "request_type": "Trash/Recycling",
    "request_reason": "Request a Large Item Pick Up",
    "date_created": "2022-04-06T17:21:52.000",
    "date_modified": "2022-04-06T17:21:53.000",
    "request_status": "Pending",
    "responsible_agency": "Department of Sanitation",
    "final_address": "727 Sixth St",
    "address_councildis": "B",
    "status": "Assigned to Contractor",
    "contractor": "Richards Disposal",
    "rowid": "872818",
    "final_x": "3677366.04597",
    "final_y": "519498.437751",
    "longitude": "-90.08153856613426",
    "latitude": "29.922565217088046",
    "geocoded_column": {
      "latitude": "29.922565217088046",
      "longitude": "-90.08153856613426"
    }
  },
  {
    "service_request": "2022-872817",
    "request_type": "Traffic Signals/Signs/Striping/Streetlights",
    "request_reason": "Traffic Signal Malfunctioning/Damaged",
    "date_created": "2022-04-06T17:21:00.000",
    "date_modified": "2022-04-06T17:21:00.000",
    "request_status": "Pending",
    "responsible_agency": "Department of Public Works",
    "final_address": "N BROAD ST & ESPLANADE AVE",
    "address_councildis": "A",
    "status": "Pending",
    "rowid": "872817",
    "final_x": "3678171.26",
    "final_y": "538989.1",
    "longitude": "-90.07832296918176",
    "latitude": "29.97613381448182",
    "geocoded_column": {
      "latitude": "29.97613381448182",
      "longitude": "-90.07832296918176"
    }
  },
  {
    "service_request": "2022-872816",
    "request_type": "Property Maintenance",
    "request_reason": "Property Maintenance",
    "date_created": "2022-04-06T17:17:10.000",
    "date_modified": "2022-04-06T17:17:10.000",
    "request_status": "Pending",
    "responsible_agency": "Department of Code Enforcement",
    "final_address": "6144 S Laverne St",
    "address_councildis": "D",
    "status": "Pending",
    "rowid": "872816",
    "final_x": "3696807.07338",
    "final_y": "555297.490585",
    "longitude": "-90.0188750695052",
    "latitude": "30.020401465206245",
    "geocoded_column": {
      "latitude": "30.020401465206245",
      "longitude": "-90.0188750695052"
    }
  },
  {
    "service_request": "2022-872815",
    "request_type": "Abandoned Vehicles",
    "request_reason": "Abandoned/Junk Vehicles",
    "date_created": "2022-04-06T17:15:04.000",
    "date_modified": "2022-04-06T17:15:05.000",
    "request_status": "Pending",
    "responsible_agency": "Department of Public Works",
    "final_address": "1022 Odeon St",
    "address_councildis": "C",
    "status": "Pending",
    "rowid": "872815",
    "final_x": "3696084.71754",
    "final_y": "527601.939839",
    "longitude": "-90.02215884314211",
    "latitude": "29.94427150026455",
    "geocoded_column": {
      "latitude": "29.94427150026455",
      "longitude": "-90.02215884314211"
    }
  },
  {
    "service_request": "2022-872814",
    "request_type": "Trash/Recycling",
    "request_reason": "Illegal Dumping",
    "date_created": "2022-04-06T17:12:22.000",
    "date_modified": "2022-04-06T17:12:23.000",
    "request_status": "Pending",
    "responsible_agency": "Department of Sanitation",
    "final_address": "ODEON ST & BRINGIER ST",
    "address_councildis": "C",
    "status": "Pending",
    "rowid": "872814",
    "final_x": "3695930.2",
    "final_y": "525116.98",
    "longitude": "-90.02273643470744",
    "latitude": "29.937443580992763",
    "geocoded_column": {
      "latitude": "29.937443580992763",
      "longitude": "-90.02273643470744"
    }
  },
  {
    "service_request": "2022-872813",
    "request_type": "Property Maintenance",
    "request_reason": "Property Maintenance",
    "date_created": "2022-04-06T17:12:03.000",
    "date_modified": "2022-04-06T17:12:03.000",
    "request_status": "Pending",
    "responsible_agency": "Department of Code Enforcement",
    "final_address": "ODEON ST & BRINGIER ST",
    "address_councildis": "C",
    "status": "Pending",
    "rowid": "872813",
    "final_x": "3695930.2",
    "final_y": "525116.98",
    "longitude": "-90.02273643470744",
    "latitude": "29.937443580992763",
    "geocoded_column": {
      "latitude": "29.937443580992763",
      "longitude": "-90.02273643470744"
    }
  },
  {
    "service_request": "2022-872812",
    "request_type": "Property Maintenance",
    "request_reason": "Property Maintenance",
    "date_created": "2022-04-06T17:06:29.000",
    "date_modified": "2022-04-06T17:06:30.000",
    "request_status": "Pending",
    "responsible_agency": "Department of Code Enforcement",
    "final_address": "3100 Bringier St",
    "address_councildis": "C",
    "status": "Pending",
    "rowid": "872812",
    "final_x": "3695767.1665",
    "final_y": "525159.961021",
    "longitude": "-90.02324958861448",
    "latitude": "29.937566890439882",
    "geocoded_column": {
      "latitude": "29.937566890439882",
      "longitude": "-90.02324958861448"
    }
  },
  {
    "service_request": "2022-872811",
    "request_type": "Trash/Recycling",
    "request_reason": "Order Recycling Cart",
    "date_created": "2022-04-06T16:55:48.000",
    "date_modified": "2022-04-06T16:55:48.000",
    "request_status": "Pending",
    "responsible_agency": "Department of Sanitation",
    "final_address": "2733 St Philip St",
    "address_councildis": "A",
    "status": "Pending",
    "rowid": "872811",
    "final_x": "3677160.54798",
    "final_y": "538081.826441",
    "longitude": "-90.08154639970938",
    "latitude": "29.973669523633454",
    "geocoded_column": {
      "latitude": "29.973669523633454",
      "longitude": "-90.08154639970938"
    }
  },
  {
    "service_request": "2022-872810",
    "request_type": "Trash/Recycling",
    "request_reason": "Replace Trash Cart",
    "date_created": "2022-04-06T16:55:18.000",
    "date_modified": "2022-04-06T16:55:19.000",
    "request_status": "Pending",
    "responsible_agency": "Department of Sanitation",
    "final_address": "7112 Colapissa St",
    "address_councildis": "B",
    "status": "Assigned to Contractor",
    "contractor": "Richards Disposal",
    "rowid": "872810",
    "final_x": "3668021.72583",
    "final_y": "532007.324419",
    "longitude": "-90.11061358033956",
    "latitude": "29.95723801515374",
    "geocoded_column": {
      "latitude": "29.95723801515374",
      "longitude": "-90.11061358033956"
    }
  },
  {
    "service_request": "2022-872809",
    "request_type": "Trash/Recycling",
    "request_reason": "Repair Trash Cart",
    "date_created": "2022-04-06T16:49:01.000",
    "date_modified": "2022-04-06T16:49:02.000",
    "request_status": "Pending",
    "responsible_agency": "Department of Sanitation",
    "final_address": "2015 Josephine St",
    "address_councildis": "B",
    "status": "Assigned to Contractor",
    "contractor": "Richards Disposal",
    "rowid": "872809",
    "final_x": "3676883.48917",
    "final_y": "525336.682685",
    "longitude": "-90.08286068676507",
    "latitude": "29.938632974412524",
    "geocoded_column": {
      "latitude": "29.938632974412524",
      "longitude": "-90.08286068676507"
    }
  },
  {
    "service_request": "2022-872808",
    "request_type": "Trash/Recycling",
    "request_reason": "Repair Recycling Cart",
    "date_created": "2022-04-06T16:48:27.000",
    "date_modified": "2022-04-06T16:48:27.000",
    "request_status": "Pending",
    "responsible_agency": "Department of Sanitation",
    "final_address": "2015 Josephine St",
    "address_councildis": "B",
    "status": "Pending",
    "rowid": "872808",
    "final_x": "3676883.48917",
    "final_y": "525336.682685",
    "longitude": "-90.08286068676507",
    "latitude": "29.938632974412524",
    "geocoded_column": {
      "latitude": "29.938632974412524",
      "longitude": "-90.08286068676507"
    }
  },
  {
    "service_request": "2022-872807",
    "request_type": "Trash/Recycling",
    "request_reason": "Missed Trash Pick-Up",
    "date_created": "2022-04-06T16:46:13.000",
    "date_modified": "2022-04-06T16:46:14.000",
    "request_status": "Pending",
    "responsible_agency": "Department of Sanitation",
    "final_address": "ALINE ST & ST CHARLES AVE",
    "address_councildis": "B",
    "status": "Assigned to Contractor",
    "contractor": "Richards Disposal",
    "rowid": "872807",
    "final_x": "3673804.0",
    "final_y": "521319.58",
    "longitude": "-90.09272029168221",
    "latitude": "29.927679293796263",
    "geocoded_column": {
      "latitude": "29.927679293796263",
      "longitude": "-90.09272029168221"
    }
  },
  {
    "service_request": "2022-872806",
    "request_type": "Safety & Permits",
    "request_reason": "Safety & Permits Request (Cyber Incident Back Up)",
    "date_created": "2022-04-06T16:46:08.000",
    "date_modified": "2022-04-06T16:46:08.000",
    "request_status": "Pending",
    "responsible_agency": "Safety and Permits",
    "status": "Pending",
    "rowid": "872806",
    "longitude": "0.0",
    "latitude": "0.0",
    "geocoded_column": {
      "latitude": "0.0",
      "longitude": "0.0"
    }
  },
  {
    "service_request": "2022-872805",
    "request_type": "Trash/Recycling",
    "request_reason": "Request a Large Item Pick Up",
    "date_created": "2022-04-06T16:43:07.000",
    "date_modified": "2022-04-06T16:43:07.000",
    "request_status": "Pending",
    "responsible_agency": "Department of Sanitation",
    "final_address": "6716 Deanne St",
    "address_councildis": "D",
    "status": "Assigned to Contractor",
    "contractor": "Metro Disposal",
    "rowid": "872805",
    "final_x": "3695930.94941",
    "final_y": "555373.641561",
    "longitude": "-90.0216405852505",
    "latitude": "30.020638457703008",
    "geocoded_column": {
      "latitude": "30.020638457703008",
      "longitude": "-90.0216405852505"
    }
  },
  {
    "service_request": "2022-872804",
    "request_type": "Health Related Questions",
    "request_reason": "Noise Ordinance Complaint",
    "date_created": "2022-04-06T16:41:33.000",
    "date_modified": "2022-04-06T16:41:33.000",
    "request_status": "Pending",
    "responsible_agency": "Health Department",
    "final_address": "2123 N Roman St",
    "address_councildis": "D",
    "status": "Pending",
    "rowid": "872804",
    "final_x": "3684577.20489",
    "final_y": "538905.13985",
    "longitude": "-90.05809410211795",
    "latitude": "29.975708475190764",
    "geocoded_column": {
      "latitude": "29.975708475190764",
      "longitude": "-90.05809410211795"
    }
  },
  {
    "service_request": "2022-872803",
    "request_type": "Trash/Recycling",
    "request_reason": "Replace Trash Cart",
    "date_created": "2022-04-06T16:38:49.000",
    "date_modified": "2022-04-06T16:38:49.000",
    "request_status": "Pending",
    "responsible_agency": "Department of Sanitation",
    "final_address": "6871 Louisville St",
    "address_councildis": "A",
    "status": "Assigned to Contractor",
    "contractor": "Metro Disposal",
    "rowid": "872803",
    "final_x": "3668377.44154",
    "final_y": "553291.070679",
    "longitude": "-90.10877208598923",
    "latitude": "30.015750624470876",
    "geocoded_column": {
      "latitude": "30.015750624470876",
      "longitude": "-90.10877208598923"
    }
  },
  {
    "service_request": "2022-872802",
    "request_type": "Trash/Recycling",
    "request_reason": "Missed Trash Pick-Up",
    "date_created": "2022-04-06T16:32:39.000",
    "date_modified": "2022-04-06T16:32:40.000",
    "request_status": "Pending",
    "responsible_agency": "Department of Sanitation",
    "final_address": "2625 Pine St",
    "address_councildis": "A",
    "status": "Assigned to Contractor",
    "contractor": "Richards Disposal",
    "rowid": "872802",
    "final_x": "3666919.81319",
    "final_y": "530998.84781",
    "longitude": "-90.11412698075927",
    "latitude": "29.954497320293576",
    "geocoded_column": {
      "latitude": "29.954497320293576",
      "longitude": "-90.11412698075927"
    }
  },
  {
    "service_request": "2022-872801",
    "request_type": "Trash/Recycling",
    "request_reason": "Order Trash Cart",
    "date_created": "2022-04-06T16:31:03.000",
    "date_modified": "2022-04-06T16:31:04.000",
    "request_status": "Pending",
    "responsible_agency": "Department of Sanitation",
    "final_address": "2625 Pine St",
    "address_councildis": "A",
    "status": "Assigned to Contractor",
    "contractor": "Richards Disposal",
    "rowid": "872801",
    "final_x": "3666919.81319",
    "final_y": "530998.84781",
    "longitude": "-90.11412698075927",
    "latitude": "29.954497320293576",
    "geocoded_column": {
      "latitude": "29.954497320293576",
      "longitude": "-90.11412698075927"
    }
  },
  {
    "service_request": "2022-872800",
    "request_type": "Abandoned Vehicles",
    "request_reason": "Abandoned/Junk Vehicles",
    "date_created": "2022-04-06T16:26:51.000",
    "date_modified": "2022-04-06T16:26:51.000",
    "case_close_date": "2021-08-19T19:00:00.000",
    "request_status": "Pending",
    "responsible_agency": "Department of Public Works",
    "final_address": "6030 Kuebel Dr",
    "address_councildis": "E",
    "status": "Pending",
    "rowid": "872800",
    "final_x": "3695099.69546",
    "final_y": "559692.158941",
    "longitude": "-90.02411117910636",
    "latitude": "30.03253887775691",
    "geocoded_column": {
      "latitude": "30.03253887775691",
      "longitude": "-90.02411117910636"
    }
  },
  {
    "service_request": "2022-872799",
    "request_type": "Trash/Recycling",
    "request_reason": "Dead Animal Pick Up",
    "date_created": "2022-04-06T16:23:03.000",
    "date_modified": "2022-04-06T16:23:06.000",
    "request_status": "Pending",
    "responsible_agency": "Department of Sanitation",
    "final_address": "8920 Oleander St",
    "address_councildis": "A",
    "status": "Assigned to Contractor",
    "contractor": "Richards Disposal",
    "rowid": "872799",
    "final_x": "3664543.66432",
    "final_y": "535642.998214",
    "longitude": "-90.12147486749842",
    "latitude": "29.967336519484036",
    "geocoded_column": {
      "latitude": "29.967336519484036",
      "longitude": "-90.12147486749842"
    }
  },
  {
    "service_request": "2022-872798",
    "request_type": "Parks & Parkways",
    "request_reason": "Request Tree Service (Right of Way/Public Property)",
    "date_created": "2022-04-06T16:22:40.000",
    "date_modified": "2022-04-06T16:22:40.000",
    "request_status": "Pending",
    "responsible_agency": "Department of Parks & Parkway",
    "final_address": "5919 Laurel St",
    "address_councildis": "A",
    "status": "Pending",
    "rowid": "872798",
    "final_x": "3664856.04474",
    "final_y": "518142.721398",
    "longitude": "-90.12107305902657",
    "latitude": "29.91920728616994",
    "geocoded_column": {
      "latitude": "29.91920728616994",
      "longitude": "-90.12107305902657"
    }
  },
  {
    "service_request": "2022-872797",
    "request_type": "Roads/Drainage",
    "request_reason": "Pothole",
    "date_created": "2022-04-06T16:21:50.000",
    "date_modified": "2022-04-06T16:21:50.000",
    "request_status": "Pending",
    "responsible_agency": "Department of Public Works",
    "final_address": "4635 Mandeville St",
    "address_councildis": "D",
    "status": "Pending",
    "rowid": "872797",
    "final_x": "3684820.95477",
    "final_y": "549939.43778",
    "longitude": "-90.05693607211444",
    "latitude": "30.006041404988384",
    "geocoded_column": {
      "latitude": "30.006041404988384",
      "longitude": "-90.05693607211444"
    }
  },
  {
    "service_request": "2022-872796",
    "request_type": "Trash/Recycling",
    "request_reason": "Request a Large Item Pick Up",
    "date_created": "2022-04-06T16:17:12.000",
    "date_modified": "2022-04-06T16:17:13.000",
    "request_status": "Pending",
    "responsible_agency": "Department of Sanitation",
    "final_address": "2917 Elmwood Park Dr",
    "address_councildis": "C",
    "status": "Assigned to Contractor",
    "contractor": "Richards Disposal",
    "rowid": "872796",
    "final_x": "3693347.73321",
    "final_y": "519688.550136",
    "longitude": "-90.03108419721694",
    "latitude": "29.922598209467708",
    "geocoded_column": {
      "latitude": "29.922598209467708",
      "longitude": "-90.03108419721694"
    }
  },
  {
    "service_request": "2022-872795",
    "request_type": "Traffic Signals/Signs/Striping/Streetlights",
    "request_reason": "Street Light Outage/Malfunction",
    "date_created": "2022-04-06T16:12:27.000",
    "date_modified": "2022-04-06T16:12:28.000",
    "request_status": "Pending",
    "responsible_agency": "Department of Public Works",
    "final_address": "749 Baronne St",
    "address_councildis": "B",
    "status": "Pending",
    "contractor": "Royal Engineering",
    "rowid": "872795",
    "final_x": "3679601.84776",
    "final_y": "528380.907648",
    "longitude": "-90.07417292614112",
    "latitude": "29.9469217291182",
    "geocoded_column": {
      "latitude": "29.9469217291182",
      "longitude": "-90.07417292614112"
    }
  },
  {
    "service_request": "2022-872794",
    "request_type": "Parks & Parkways",
    "request_reason": "Request Tree Service (Right of Way/Public Property)",
    "date_created": "2022-04-06T16:04:29.000",
    "date_modified": "2022-04-06T16:04:29.000",
    "request_status": "Pending",
    "responsible_agency": "Department of Parks & Parkway",
    "final_address": "1017 Valence St",
    "address_councildis": "B",
    "status": "Pending",
    "rowid": "872794",
    "final_x": "3669945.82273",
    "final_y": "519207.871543",
    "longitude": "-90.10497112769677",
    "latitude": "29.92198706555784",
    "geocoded_column": {
      "latitude": "29.92198706555784",
      "longitude": "-90.10497112769677"
    }
  },
  {
    "service_request": "2022-872793",
    "request_type": "Trash/Recycling",
    "request_reason": "Repair Trash Cart",
    "date_created": "2022-04-06T16:02:40.000",
    "date_modified": "2022-04-06T16:02:41.000",
    "request_status": "Pending",
    "responsible_agency": "Department of Sanitation",
    "final_address": "2710 Danbury Dr",
    "address_councildis": "C",
    "status": "Assigned to Contractor",
    "contractor": "Richards Disposal",
    "rowid": "872793",
    "final_x": "3703716.7089",
    "final_y": "520848.520761",
    "longitude": "-89.99831108432963",
    "latitude": "29.925459623939517",
    "geocoded_column": {
      "latitude": "29.925459623939517",
      "longitude": "-89.99831108432963"
    }
  },
  {
    "service_request": "2022-872792",
    "request_type": "Trash/Recycling",
    "request_reason": "Request a Large Item Pick Up",
    "date_created": "2022-04-06T16:00:43.000",
    "date_modified": "2022-04-06T16:00:44.000",
    "request_status": "Pending",
    "responsible_agency": "Department of Sanitation",
    "final_address": "7929 Freret St",
    "address_councildis": "A",
    "status": "Assigned to Contractor",
    "contractor": "Richards Disposal",
    "rowid": "872792",
    "final_x": "3661926.85114",
    "final_y": "527522.518655",
    "longitude": "-90.13000815603785",
    "latitude": "29.9450836666227",
    "geocoded_column": {
      "latitude": "29.9450836666227",
      "longitude": "-90.13000815603785"
    }
  },
  {
    "service_request": "2022-872791",
    "request_type": "Trash/Recycling",
    "request_reason": "Repair Trash Cart",
    "date_created": "2022-04-06T15:59:43.000",
    "date_modified": "2022-04-06T15:59:44.000",
    "request_status": "Pending",
    "responsible_agency": "Department of Sanitation",
    "final_address": "406 Abalon Ct",
    "address_councildis": "C",
    "status": "Assigned to Contractor",
    "contractor": "Richards Disposal",
    "rowid": "872791",
    "final_x": "3689409.36047",
    "final_y": "530162.662017",
    "longitude": "-90.0431437462406",
    "latitude": "29.951520954438926",
    "geocoded_column": {
      "latitude": "29.951520954438926",
      "longitude": "-90.0431437462406"
    }
  },
  {
    "service_request": "2022-872790",
    "request_type": "Trash/Recycling",
    "request_reason": "Order Recycling Cart",
    "date_created": "2022-04-06T15:58:49.000",
    "date_modified": "2022-04-06T15:58:49.000",
    "request_status": "Pending",
    "responsible_agency": "Department of Sanitation",
    "final_address": "2024 Westbend Prkwy",
    "address_councildis": "C",
    "status": "Pending",
    "rowid": "872790",
    "final_x": "3696950.85757",
    "final_y": "523561.302843",
    "longitude": "-90.01957047748172",
    "latitude": "29.933133865574526",
    "geocoded_column": {
      "latitude": "29.933133865574526",
      "longitude": "-90.01957047748172"
    }
  },
  {
    "service_request": "2022-872788",
    "request_type": "Parks & Parkways",
    "request_reason": "Request Tree Service (Right of Way/Public Property)",
    "date_created": "2022-04-06T15:58:27.000",
    "date_modified": "2022-04-06T15:58:27.000",
    "request_status": "Pending",
    "responsible_agency": "Department of Parks & Parkway",
    "final_address": "6011 Chamberlain Dr",
    "address_councildis": "D",
    "status": "Pending",
    "rowid": "872788",
    "final_x": "3679385.40955",
    "final_y": "554540.980824",
    "longitude": "-90.07394848380592",
    "latitude": "30.018859356577934",
    "geocoded_column": {
      "latitude": "30.018859356577934",
      "longitude": "-90.07394848380592"
    }
  },
  {
    "service_request": "2022-872787",
    "request_type": "Property Maintenance",
    "request_reason": "Property Maintenance",
    "date_created": "2022-04-06T15:58:14.000",
    "date_modified": "2022-04-06T15:58:14.000",
    "request_status": "Pending",
    "responsible_agency": "Department of Code Enforcement",
    "final_address": "817 Common St",
    "address_councildis": "B",
    "status": "Pending",
    "rowid": "872787",
    "final_x": "3680475.86792",
    "final_y": "530608.104258",
    "longitude": "-90.0713358739745",
    "latitude": "29.953019332872906",
    "geocoded_column": {
      "latitude": "29.953019332872906",
      "longitude": "-90.0713358739745"
    }
  },
  {
    "service_request": "2022-872786",
    "request_type": "Trash/Recycling",
    "request_reason": "Replace Trash Cart",
    "date_created": "2022-04-06T15:48:36.000",
    "date_modified": "2022-04-06T15:48:37.000",
    "request_status": "Pending",
    "responsible_agency": "Department of Sanitation",
    "final_address": "911 Delachaise St",
    "address_councildis": "B",
    "status": "Assigned to Contractor",
    "contractor": "Richards Disposal",
    "rowid": "872786",
    "final_x": "3674950.97537",
    "final_y": "518922.500151",
    "longitude": "-90.08918172349557",
    "latitude": "29.921053899929753",
    "geocoded_column": {
      "latitude": "29.921053899929753",
      "longitude": "-90.08918172349557"
    }
  },
  {
    "service_request": "2022-872785",
    "request_type": "Trash/Recycling",
    "request_reason": "Replace Recycling Cart",
    "date_created": "2022-04-06T15:47:24.000",
    "date_modified": "2022-04-06T15:47:24.000",
    "request_status": "Pending",
    "responsible_agency": "Department of Sanitation",
    "final_address": "540 Olivier St",
    "address_councildis": "C",
    "status": "Pending",
    "rowid": "872785",
    "final_x": "3687328.09545",
    "final_y": "529594.280001",
    "longitude": "-90.04973545802754",
    "latitude": "29.950022371398884",
    "geocoded_column": {
      "latitude": "29.950022371398884",
      "longitude": "-90.04973545802754"
    }
  },
  {
    "service_request": "2022-872784",
    "request_type": "Trash/Recycling",
    "request_reason": "Request a Large Item Pick Up",
    "date_created": "2022-04-06T15:42:23.000",
    "date_modified": "2022-04-06T15:42:23.000",
    "request_status": "Pending",
    "responsible_agency": "Department of Sanitation",
    "final_address": "4216 Mccoy St",
    "address_councildis": "E",
    "status": "Assigned to Contractor",
    "contractor": "Metro Disposal",
    "rowid": "872784",
    "final_x": "3711967.34981",
    "final_y": "553752.011799",
    "longitude": "-89.97103177127718",
    "latitude": "30.015665096050245",
    "geocoded_column": {
      "latitude": "30.015665096050245",
      "longitude": "-89.97103177127718"
    }
  },
  {
    "service_request": "2022-872783",
    "request_type": "Traffic Signals/Signs/Striping/Streetlights",
    "request_reason": "Street Light Outage/Malfunction",
    "date_created": "2022-04-06T15:39:43.000",
    "date_modified": "2022-04-06T15:39:43.000",
    "request_status": "Pending",
    "responsible_agency": "Department of Public Works",
    "final_address": "7613 HansbroughAve",
    "status": "Pending",
    "contractor": "Royal Engineering",
    "rowid": "872783",
    "longitude": "0.0",
    "latitude": "0.0",
    "geocoded_column": {
      "latitude": "0.0",
      "longitude": "0.0"
    }
  },
  {
    "service_request": "2022-872782",
    "request_type": "Trash/Recycling",
    "request_reason": "Illegal Dumping",
    "date_created": "2022-04-06T15:34:54.000",
    "date_modified": "2022-04-06T15:34:54.000",
    "request_status": "Pending",
    "responsible_agency": "Department of Sanitation",
    "final_address": "6046 Pines Blvd",
    "address_councildis": "D",
    "status": "Pending",
    "rowid": "872782",
    "final_x": "3696185.44323",
    "final_y": "556057.734681",
    "longitude": "-90.02081170516817",
    "latitude": "30.022511441711345",
    "geocoded_column": {
      "latitude": "30.022511441711345",
      "longitude": "-90.02081170516817"
    }
  },
  {
    "service_request": "2022-872781",
    "request_type": "Roads/Drainage",
    "request_reason": "Accessibility Ramps, Curbs and Sidewalk Repair",
    "date_created": "2022-04-06T15:29:49.000",
    "date_modified": "2022-04-06T15:29:49.000",
    "request_status": "Pending",
    "responsible_agency": "Department of Public Works",
    "final_address": "1629 Pine St",
    "address_councildis": "A",
    "status": "Pending",
    "rowid": "872781",
    "final_x": "3664946.96237",
    "final_y": "528045.489215",
    "longitude": "-90.12045520893072",
    "latitude": "29.946434112585354",
    "geocoded_column": {
      "latitude": "29.946434112585354",
      "longitude": "-90.12045520893072"
    }
  },
  {
    "service_request": "2022-872780",
    "request_type": "Property Maintenance",
    "request_reason": "Property Maintenance",
    "date_created": "2022-04-06T15:29:08.000",
    "date_modified": "2022-04-06T15:29:08.000",
    "request_status": "Pending",
    "responsible_agency": "Department of Code Enforcement",
    "final_address": "4759 Wilson Ave",
    "address_councildis": "E",
    "status": "Pending",
    "rowid": "872780",
    "final_x": "3703080.15793",
    "final_y": "555085.219801",
    "longitude": "-89.9990619936112",
    "latitude": "30.019618441068744",
    "geocoded_column": {
      "latitude": "30.019618441068744",
      "longitude": "-89.9990619936112"
    }
  },
  {
    "service_request": "2022-872779",
    "request_type": "Property Maintenance",
    "request_reason": "Property Maintenance",
    "date_created": "2022-04-06T15:27:43.000",
    "date_modified": "2022-04-06T15:27:43.000",
    "request_status": "Pending",
    "responsible_agency": "Department of Code Enforcement",
    "final_address": "6045 Pines Blvd",
    "address_councildis": "D",
    "status": "Pending",
    "rowid": "872779",
    "final_x": "3696148.54659",
    "final_y": "556164.707098",
    "longitude": "-90.0209244177289",
    "latitude": "30.02280673734054",
    "geocoded_column": {
      "latitude": "30.02280673734054",
      "longitude": "-90.0209244177289"
    }
  },
  {
    "service_request": "2022-872778",
    "request_type": "Trash/Recycling",
    "request_reason": "Replace Trash Cart",
    "date_created": "2022-04-06T15:23:21.000",
    "date_modified": "2022-04-06T15:23:22.000",
    "request_status": "Pending",
    "responsible_agency": "Department of Sanitation",
    "final_address": "76 Versailles Blvd",
    "address_councildis": "B",
    "status": "Assigned to Contractor",
    "contractor": "Richards Disposal",
    "rowid": "872778",
    "final_x": "3667859.38644",
    "final_y": "530665.146434",
    "longitude": "-90.11117140524786",
    "latitude": "29.953552227979444",
    "geocoded_column": {
      "latitude": "29.953552227979444",
      "longitude": "-90.11117140524786"
    }
  },
  {
    "service_request": "2022-872777",
    "request_type": "Trash/Recycling",
    "request_reason": "Repair Trash Cart",
    "date_created": "2022-04-06T15:21:09.000",
    "date_modified": "2022-04-06T15:21:10.000",
    "request_status": "Pending",
    "responsible_agency": "Department of Sanitation",
    "final_address": "823 Milan St",
    "address_councildis": "B",
    "status": "Assigned to Contractor",
    "contractor": "Richards Disposal",
    "rowid": "872777",
    "final_x": "3671862.00935",
    "final_y": "518682.321271",
    "longitude": "-90.09894038948309",
    "latitude": "29.920485347086522",
    "geocoded_column": {
      "latitude": "29.920485347086522",
      "longitude": "-90.09894038948309"
    }
  },
  {
    "service_request": "2022-872776",
    "request_type": "Parks & Parkways",
    "request_reason": "Request Tree Service (Right of Way/Public Property)",
    "date_created": "2022-04-06T15:20:30.000",
    "date_modified": "2022-04-06T15:20:30.000",
    "request_status": "Pending",
    "responsible_agency": "Department of Parks & Parkway",
    "final_address": "1014 N Carrollton Ave",
    "address_councildis": "A",
    "status": "Pending",
    "rowid": "872776",
    "final_x": "3673787.24987",
    "final_y": "541106.512972",
    "longitude": "-90.09209653868531",
    "latitude": "29.982087277803604",
    "geocoded_column": {
      "latitude": "29.982087277803604",
      "longitude": "-90.09209653868531"
    }
  },
  {
    "service_request": "2022-872775",
    "request_type": "Trash/Recycling",
    "request_reason": "Illegal Dumping",
    "date_created": "2022-04-06T15:19:47.000",
    "date_modified": "2022-04-06T15:19:47.000",
    "request_status": "Pending",
    "responsible_agency": "Department of Code Enforcement",
    "final_address": "1236 Teche St",
    "address_councildis": "C",
    "status": "Pending",
    "rowid": "872775",
    "final_x": "3686736.26306",
    "final_y": "526825.699198",
    "longitude": "-90.05170192136215",
    "latitude": "29.942427932027044",
    "geocoded_column": {
      "latitude": "29.942427932027044",
      "longitude": "-90.05170192136215"
    }
  },
  {
    "service_request": "2022-872774",
    "request_type": "Property Maintenance",
    "request_reason": "Property Maintenance",
    "date_created": "2022-04-06T15:17:43.000",
    "date_modified": "2022-04-06T15:17:43.000",
    "request_status": "Pending",
    "responsible_agency": "Department of Code Enforcement",
    "final_address": "5167 Desire Dr",
    "address_councildis": "D",
    "status": "Pending",
    "rowid": "872774",
    "final_x": "3691471.45827",
    "final_y": "553034.043671",
    "longitude": "-90.03581490709004",
    "latitude": "30.01434505003376",
    "geocoded_column": {
      "latitude": "30.01434505003376",
      "longitude": "-90.03581490709004"
    }
  },
  {
    "service_request": "2022-872773",
    "request_type": "Trash/Recycling",
    "request_reason": "Repair Trash Cart",
    "date_created": "2022-04-06T15:13:15.000",
    "date_modified": "2022-04-06T15:13:16.000",
    "request_status": "Pending",
    "responsible_agency": "Department of Sanitation",
    "final_address": "1440 Richland Rd",
    "address_councildis": "C",
    "status": "Assigned to Contractor",
    "contractor": "Richards Disposal",
    "rowid": "872773",
    "final_x": "3698051.66122",
    "final_y": "525783.100349",
    "longitude": "-90.01601469772905",
    "latitude": "29.9392082899211",
    "geocoded_column": {
      "latitude": "29.9392082899211",
      "longitude": "-90.01601469772905"
    }
  },
  {
    "service_request": "2022-872772",
    "request_type": "Roads/Drainage",
    "request_reason": "Pothole",
    "date_created": "2022-04-06T15:12:58.000",
    "date_modified": "2022-04-06T15:12:58.000",
    "request_status": "Pending",
    "responsible_agency": "Department of Public Works",
    "final_address": "762 St Charles Ave",
    "address_councildis": "B",
    "status": "Pending",
    "rowid": "872772",
    "final_x": "3680443.50741",
    "final_y": "528059.378239",
    "longitude": "-90.07152667665403",
    "latitude": "29.946012172465643",
    "geocoded_column": {
      "latitude": "29.946012172465643",
      "longitude": "-90.07152667665403"
    }
  },
  {
    "service_request": "2022-872771",
    "request_type": "Trash/Recycling",
    "request_reason": "Illegal Dumping",
    "date_created": "2022-04-06T15:11:09.000",
    "date_modified": "2022-04-06T15:11:10.000",
    "request_status": "Pending",
    "responsible_agency": "Department of Code Enforcement",
    "final_address": "1229 Teche St",
    "address_councildis": "C",
    "status": "Pending",
    "rowid": "872771",
    "final_x": "3686587.3887",
    "final_y": "526863.532094",
    "longitude": "-90.05217061483943",
    "latitude": "29.942536537511018",
    "geocoded_column": {
      "latitude": "29.942536537511018",
      "longitude": "-90.05217061483943"
    }
  },
  {
    "service_request": "2022-872770",
    "request_type": "Trash/Recycling",
    "request_reason": "Request a Large Item Pick Up",
    "date_created": "2022-04-06T15:11:02.000",
    "date_modified": "2022-04-06T15:11:03.000",
    "request_status": "Pending",
    "responsible_agency": "Department of Sanitation",
    "final_address": "216 S Bernadotte St",
    "address_councildis": "A",
    "status": "Assigned to Contractor",
    "contractor": "Richards Disposal",
    "rowid": "872770",
    "final_x": "3668500.03521",
    "final_y": "539570.610954",
    "longitude": "-90.10884800279219",
    "latitude": "29.978020490790858",
    "geocoded_column": {
      "latitude": "29.978020490790858",
      "longitude": "-90.10884800279219"
    }
  },
  {
    "service_request": "2022-872769",
    "request_type": "Abandoned Vehicles",
    "request_reason": "Abandoned/Junk Vehicles",
    "date_created": "2022-04-06T15:05:04.000",
    "date_modified": "2022-04-06T15:05:05.000",
    "request_status": "Pending",
    "responsible_agency": "Department of Public Works",
    "final_address": "4436 Eden St",
    "address_councildis": "B",
    "status": "Pending",
    "rowid": "872769",
    "final_x": "3669705.64839",
    "final_y": "530718.966658",
    "longitude": "-90.1053398505583",
    "latitude": "29.953645939327277",
    "geocoded_column": {
      "latitude": "29.953645939327277",
      "longitude": "-90.1053398505583"
    }
  },
  {
    "service_request": "2022-872768",
    "request_type": "Trash/Recycling",
    "request_reason": "Replace Trash Cart",
    "date_created": "2022-04-06T14:59:58.000",
    "date_modified": "2022-04-06T14:59:58.000",
    "request_status": "Pending",
    "responsible_agency": "Department of Sanitation",
    "final_address": "2322 Palmer Ave",
    "address_councildis": "A",
    "status": "Assigned to Contractor",
    "contractor": "Richards Disposal",
    "rowid": "872768",
    "final_x": "3666215.68852",
    "final_y": "525460.745341",
    "longitude": "-90.11653604015072",
    "latitude": "29.93928991083451",
    "geocoded_column": {
      "latitude": "29.93928991083451",
      "longitude": "-90.11653604015072"
    }
  },
  {
    "service_request": "2022-872767",
    "request_type": "Traffic Signals/Signs/Striping/Streetlights",
    "request_reason": "Street Light Outage/Malfunction",
    "date_created": "2022-04-06T14:58:00.000",
    "date_modified": "2022-04-06T14:58:01.000",
    "request_status": "Pending",
    "responsible_agency": "Department of Public Works",
    "final_address": "9231 Lake Forest Blvd",
    "address_councildis": "E",
    "status": "Pending",
    "contractor": "Royal Engineering",
    "rowid": "872767",
    "final_x": "3707909.58769",
    "final_y": "558690.16342",
    "longitude": "-89.98366856084421",
    "latitude": "30.029375115952373",
    "geocoded_column": {
      "latitude": "30.029375115952373",
      "longitude": "-89.98366856084421"
    }
  },
  {
    "service_request": "2022-872766",
    "request_type": "Roads/Drainage",
    "request_reason": "Catch Basin - Clogged",
    "date_created": "2022-04-06T14:56:54.000",
    "date_modified": "2022-04-06T14:56:54.000",
    "request_status": "Pending",
    "responsible_agency": "Department of Public Works",
    "final_address": "2916 General Taylor St",
    "address_councildis": "B",
    "status": "Pending",
    "rowid": "872766",
    "final_x": "3671494.15086",
    "final_y": "525699.609341",
    "longitude": "-90.09986310652064",
    "latitude": "29.939791525524036",
    "geocoded_column": {
      "latitude": "29.939791525524036",
      "longitude": "-90.09986310652064"
    }
  },
  {
    "service_request": "2022-872765",
    "request_type": "Roads/Drainage",
    "request_reason": "Catch Basin - Clogged",
    "date_created": "2022-04-06T14:55:43.000",
    "date_modified": "2022-04-06T14:56:30.000",
    "request_status": "Pending",
    "responsible_agency": "Department of Public Works",
    "final_address": "2916 General Taylor St",
    "address_councildis": "B",
    "status": "Pending",
    "rowid": "872765",
    "final_x": "3671494.15086",
    "final_y": "525699.609341",
    "longitude": "-90.09986310652064",
    "latitude": "29.939791525524036",
    "geocoded_column": {
      "latitude": "29.939791525524036",
      "longitude": "-90.09986310652064"
    }
  },
  {
    "service_request": "2022-872764",
    "request_type": "Property Maintenance",
    "request_reason": "Property Maintenance",
    "date_created": "2022-04-06T14:55:42.000",
    "date_modified": "2022-04-06T14:55:42.000",
    "request_status": "Pending",
    "responsible_agency": "Department of Code Enforcement",
    "final_address": "4708 Bonita Dr",
    "address_councildis": "E",
    "status": "Pending",
    "rowid": "872764",
    "final_x": "3704422.4666",
    "final_y": "555035.215833",
    "longitude": "-89.9948226200491",
    "latitude": "30.019437903066905",
    "geocoded_column": {
      "latitude": "30.019437903066905",
      "longitude": "-89.9948226200491"
    }
  },
  {
    "service_request": "2022-872763",
    "request_type": "Roads/Drainage",
    "request_reason": "Damaged Sidewalk",
    "date_created": "2022-04-06T14:49:47.000",
    "date_modified": "2022-04-06T14:49:47.000",
    "request_status": "Pending",
    "responsible_agency": "Department of Public Works",
    "final_address": "636 Baronne St",
    "address_councildis": "B",
    "status": "Pending",
    "rowid": "872763",
    "final_x": "3679785.0292",
    "final_y": "528795.052928",
    "longitude": "-90.07358017887013",
    "latitude": "29.94805495378251",
    "geocoded_column": {
      "latitude": "29.94805495378251",
      "longitude": "-90.07358017887013"
    }
  },
  {
    "service_request": "2022-872762",
    "request_type": "Roads/Drainage",
    "request_reason": "Damaged Sidewalk",
    "date_created": "2022-04-06T14:46:40.000",
    "date_modified": "2022-04-06T14:46:40.000",
    "request_status": "Pending",
    "responsible_agency": "Department of Public Works",
    "final_address": "608 Baronne St",
    "address_councildis": "B",
    "status": "Pending",
    "rowid": "872762",
    "final_x": "3679842.42555",
    "final_y": "529022.00832",
    "longitude": "-90.07339107593909",
    "latitude": "29.948677269855132",
    "geocoded_column": {
      "latitude": "29.948677269855132",
      "longitude": "-90.07339107593909"
    }
  },
  {
    "service_request": "2022-872761",
    "request_type": "Safety & Permits",
    "request_reason": "Licenses & Permits",
    "date_created": "2022-04-06T14:46:23.000",
    "date_modified": "2022-04-06T14:46:23.000",
    "request_status": "Pending",
    "responsible_agency": "Safety and Permits",
    "final_address": "3526 Hollygrove St",
    "address_councildis": "A",
    "status": "Pending",
    "rowid": "872761",
    "final_x": "3665259.87597",
    "final_y": "536764.865224",
    "longitude": "-90.11917551016815",
    "latitude": "29.970400434988456",
    "geocoded_column": {
      "latitude": "29.970400434988456",
      "longitude": "-90.11917551016815"
    }
  },
  {
    "service_request": "2022-872760",
    "request_type": "Traffic Signals/Signs/Striping/Streetlights",
    "request_reason": "Street Light Outage/Malfunction",
    "date_created": "2022-04-06T14:44:37.000",
    "date_modified": "2022-04-06T14:44:39.000",
    "request_status": "Pending",
    "responsible_agency": "Department of Public Works",
    "final_address": "2638 Deers St",
    "address_councildis": "D",
    "status": "Pending",
    "contractor": "Royal Engineering",
    "rowid": "872760",
    "final_x": "3688118.86569",
    "final_y": "542433.124493",
    "longitude": "-90.0467834713996",
    "latitude": "29.98530032617533",
    "geocoded_column": {
      "latitude": "29.98530032617533",
      "longitude": "-90.0467834713996"
    }
  },
  {
    "service_request": "2022-872759",
    "request_type": "Property Maintenance",
    "request_reason": "Property Maintenance",
    "date_created": "2022-04-06T14:43:42.000",
    "date_modified": "2022-04-06T14:43:42.000",
    "request_status": "Pending",
    "responsible_agency": "Department of Code Enforcement",
    "final_address": "1200 Belleville St",
    "address_councildis": "C",
    "status": "Pending",
    "rowid": "872759",
    "final_x": "3687781.08009",
    "final_y": "527133.710335",
    "longitude": "-90.0483923008942",
    "latitude": "29.943242683125554",
    "geocoded_column": {
      "latitude": "29.943242683125554",
      "longitude": "-90.0483923008942"
    }
  },
  {
    "service_request": "2022-872758",
    "request_type": "Property Maintenance",
    "request_reason": "Property Maintenance",
    "date_created": "2022-04-06T14:42:46.000",
    "date_modified": "2022-04-06T14:42:46.000",
    "request_status": "Pending",
    "responsible_agency": "Department of Code Enforcement",
    "final_address": "825 Lafayette St",
    "address_councildis": "B",
    "status": "Pending",
    "rowid": "872758",
    "final_x": "3680023.26549",
    "final_y": "529078.1024",
    "longitude": "-90.07281813930165",
    "latitude": "29.94882604087949",
    "geocoded_column": {
      "latitude": "29.94882604087949",
      "longitude": "-90.07281813930165"
    }
  },
  {
    "service_request": "2022-872757",
    "request_type": "Roads/Drainage",
    "request_reason": "Damaged Sidewalk",
    "date_created": "2022-04-06T14:41:51.000",
    "date_modified": "2022-04-06T14:41:51.000",
    "request_status": "Pending",
    "responsible_agency": "Department of Public Works",
    "final_address": "8542 Gervais St",
    "address_councildis": "E",
    "status": "Pending",
    "rowid": "872757",
    "final_x": "3703887.55518",
    "final_y": "562660.974752",
    "longitude": "-89.99623158126883",
    "latitude": "30.040422942174967",
    "geocoded_column": {
      "latitude": "30.040422942174967",
      "longitude": "-89.99623158126883"
    }
  },
  {
    "service_request": "2022-872756",
    "request_type": "Traffic Signals/Signs/Striping/Streetlights",
    "request_reason": "Street Light Outage/Malfunction",
    "date_created": "2022-04-06T14:39:42.000",
    "date_modified": "2022-04-06T14:39:43.000",
    "request_status": "Pending",
    "responsible_agency": "Department of Public Works",
    "final_address": "7341 Bullard Ave",
    "address_councildis": "E",
    "status": "Pending",
    "contractor": "Royal Engineering",
    "rowid": "872756",
    "final_x": "3714033.71013",
    "final_y": "566373.707747",
    "longitude": "-89.96402652565712",
    "latitude": "30.05030200249689",
    "geocoded_column": {
      "latitude": "30.05030200249689",
      "longitude": "-89.96402652565712"
    }
  },
  {
    "service_request": "2022-872754",
    "request_type": "Property Maintenance",
    "request_reason": "Property Maintenance",
    "date_created": "2022-04-06T14:36:37.000",
    "date_modified": "2022-04-06T14:36:37.000",
    "request_status": "Pending",
    "responsible_agency": "Department of Code Enforcement",
    "final_address": "3454 Roger Williams St",
    "address_councildis": "D",
    "status": "Pending",
    "rowid": "872754",
    "final_x": "3676393.94081",
    "final_y": "543892.025742",
    "longitude": "-90.08376740243948",
    "latitude": "29.989668572028066",
    "geocoded_column": {
      "latitude": "29.989668572028066",
      "longitude": "-90.08376740243948"
    }
  },
  {
    "service_request": "2022-872753",
    "request_type": "Health Related Questions",
    "request_reason": "Noise Ordinance Complaint",
    "date_created": "2022-04-06T14:36:19.000",
    "date_modified": "2022-04-06T14:36:19.000",
    "request_status": "Pending",
    "responsible_agency": "Health Department",
    "final_address": "3526 Hollygrove St",
    "address_councildis": "A",
    "status": "Pending",
    "rowid": "872753",
    "final_x": "3665259.87597",
    "final_y": "536764.865224",
    "longitude": "-90.11917551016815",
    "latitude": "29.970400434988456",
    "geocoded_column": {
      "latitude": "29.970400434988456",
      "longitude": "-90.11917551016815"
    }
  },
  {
    "service_request": "2022-872752",
    "request_type": "Roads/Drainage",
    "request_reason": "Damaged Sidewalk",
    "date_created": "2022-04-06T14:32:30.000",
    "date_modified": "2022-04-06T14:32:30.000",
    "request_status": "Pending",
    "responsible_agency": "Department of Public Works",
    "final_address": "334 Carondelet St",
    "address_councildis": "B",
    "status": "Pending",
    "rowid": "872752",
    "final_x": "3680466.50722",
    "final_y": "529866.280065",
    "longitude": "-90.07139122788028",
    "latitude": "29.950979849726757",
    "geocoded_column": {
      "latitude": "29.950979849726757",
      "longitude": "-90.07139122788028"
    }
  },
  {
    "service_request": "2022-872750",
    "request_type": "Abandoned Vehicles",
    "request_reason": "Abandoned/Junk Vehicles",
    "date_created": "2022-04-06T14:29:07.000",
    "date_modified": "2022-04-06T14:29:07.000",
    "request_status": "Pending",
    "responsible_agency": "Department of Public Works",
    "final_address": "3007 Banks St",
    "address_councildis": "B",
    "status": "Pending",
    "rowid": "872750",
    "final_x": "3673588.54926",
    "final_y": "535004.993798",
    "longitude": "-90.09293275121132",
    "latitude": "29.965316089418454",
    "geocoded_column": {
      "latitude": "29.965316089418454",
      "longitude": "-90.09293275121132"
    }
  },
  {
    "service_request": "2022-872749",
    "request_type": "Trash/Recycling",
    "request_reason": "Request a Large Item Pick Up",
    "date_created": "2022-04-06T14:27:47.000",
    "date_modified": "2022-04-06T14:27:48.000",
    "request_status": "Pending",
    "responsible_agency": "Department of Sanitation",
    "final_address": "1411 Dauphine St",
    "address_councildis": "C",
    "status": "Assigned to Contractor",
    "contractor": "Metro Disposal",
    "rowid": "872749",
    "final_x": "3683502.50972",
    "final_y": "535009.138374",
    "longitude": "-90.06162484850074",
    "latitude": "29.96502866507802",
    "geocoded_column": {
      "latitude": "29.96502866507802",
      "longitude": "-90.06162484850074"
    }
  },
  {
    "service_request": "2022-872748",
    "request_type": "Trash/Recycling",
    "request_reason": "Request a Large Item Pick Up",
    "date_created": "2022-04-06T14:26:43.000",
    "date_modified": "2022-04-06T14:26:44.000",
    "request_status": "Pending",
    "responsible_agency": "Department of Sanitation",
    "final_address": "1916 S Lopez St",
    "address_councildis": "B",
    "status": "Assigned to Contractor",
    "contractor": "Richards Disposal",
    "rowid": "872748",
    "final_x": "3669591.81038",
    "final_y": "529896.087553",
    "longitude": "-90.10572714159562",
    "latitude": "29.951386645895244",
    "geocoded_column": {
      "latitude": "29.951386645895244",
      "longitude": "-90.10572714159562"
    }
  },
  {
    "service_request": "2022-872746",
    "request_type": "Roads/Drainage",
    "request_reason": "Street Subsidence (Sinking)",
    "date_created": "2022-04-06T14:23:59.000",
    "date_modified": "2022-04-06T14:23:59.000",
    "request_status": "Pending",
    "responsible_agency": "Department of Public Works",
    "final_address": "8401 Palmetto St",
    "address_councildis": "A",
    "status": "Pending",
    "rowid": "872746",
    "final_x": "3667347.34061",
    "final_y": "536044.814599",
    "longitude": "-90.11260726678653",
    "latitude": "29.968359549920265",
    "geocoded_column": {
      "latitude": "29.968359549920265",
      "longitude": "-90.11260726678653"
    }
  },
  {
    "service_request": "2022-872744",
    "request_type": "Trash/Recycling",
    "request_reason": "Request a Large Item Pick Up",
    "date_created": "2022-04-06T14:20:58.000",
    "date_modified": "2022-04-06T14:20:59.000",
    "request_status": "Pending",
    "responsible_agency": "Department of Sanitation",
    "final_address": "7825 Spruce St",
    "address_councildis": "A",
    "status": "Assigned to Contractor",
    "contractor": "Richards Disposal",
    "rowid": "872744",
    "final_x": "3664536.09095",
    "final_y": "529884.922881",
    "longitude": "-90.12169106807205",
    "latitude": "29.951503913748827",
    "geocoded_column": {
      "latitude": "29.951503913748827",
      "longitude": "-90.12169106807205"
    }
  },
  {
    "service_request": "2022-872743",
    "request_type": "Trash/Recycling",
    "request_reason": "Illegal Dumping",
    "date_created": "2022-04-06T14:20:25.000",
    "date_modified": "2022-04-06T14:20:25.000",
    "request_status": "Pending",
    "responsible_agency": "Department of Sanitation",
    "final_address": "9201 Palmetto St",
    "address_councildis": "A",
    "status": "Pending",
    "rowid": "872743",
    "final_x": "3665286.63488",
    "final_y": "538014.015433",
    "longitude": "-90.11904919616774",
    "latitude": "29.973834403331583",
    "geocoded_column": {
      "latitude": "29.973834403331583",
      "longitude": "-90.11904919616774"
    }
  },
  {
    "service_request": "2022-872742",
    "request_type": "Roads/Drainage",
    "request_reason": "Street Subsidence (Sinking)",
    "date_created": "2022-04-06T14:19:17.000",
    "date_modified": "2022-04-06T14:19:17.000",
    "request_status": "Pending",
    "responsible_agency": "Department of Public Works",
    "final_address": "8601 Palmetto St",
    "address_councildis": "A",
    "status": "Pending",
    "rowid": "872742",
    "final_x": "3666866.95034",
    "final_y": "536523.105159",
    "longitude": "-90.11410829537694",
    "latitude": "29.96968875364591",
    "geocoded_column": {
      "latitude": "29.96968875364591",
      "longitude": "-90.11410829537694"
    }
  },
  {
    "service_request": "2022-872741",
    "request_type": "Property Maintenance",
    "request_reason": "Property Maintenance",
    "date_created": "2022-04-06T14:17:12.000",
    "date_modified": "2022-04-06T14:17:12.000",
    "request_status": "Pending",
    "responsible_agency": "Department of Code Enforcement",
    "final_address": "226 Carondelet St",
    "address_councildis": "B",
    "status": "Pending",
    "rowid": "872741",
    "final_x": "3680577.63528",
    "final_y": "530289.810113",
    "longitude": "-90.07102560928817",
    "latitude": "29.95214104898222",
    "geocoded_column": {
      "latitude": "29.95214104898222",
      "longitude": "-90.07102560928817"
    }
  },
  {
    "service_request": "2022-872740",
    "request_type": "Trash/Recycling",
    "request_reason": "Order Trash Cart",
    "date_created": "2022-04-06T14:12:30.000",
    "date_modified": "2022-04-06T14:12:31.000",
    "request_status": "Pending",
    "responsible_agency": "Department of Sanitation",
    "final_address": "New Orleans,LA",
    "status": "Assigned to Contractor",
    "rowid": "872740",
    "longitude": "0.0",
    "latitude": "0.0",
    "geocoded_column": {
      "latitude": "0.0",
      "longitude": "0.0"
    }
  },
  {
    "service_request": "2022-872739",
    "request_type": "Trash/Recycling",
    "request_reason": "Order Trash Cart",
    "date_created": "2022-04-06T14:12:08.000",
    "date_modified": "2022-04-06T14:12:09.000",
    "request_status": "Pending",
    "responsible_agency": "Department of Sanitation",
    "final_address": "13702 N Nemours St",
    "address_councildis": "E",
    "status": "Assigned to Contractor",
    "contractor": "Metro Disposal",
    "rowid": "872739",
    "final_x": "3726729.3991",
    "final_y": "563266.560928",
    "longitude": "-89.92402138847784",
    "latitude": "30.041335371066218",
    "geocoded_column": {
      "latitude": "30.041335371066218",
      "longitude": "-89.92402138847784"
    }
  },
  {
    "service_request": "2022-872738",
    "request_type": "Trash/Recycling",
    "request_reason": "Request a Large Item Pick Up",
    "date_created": "2022-04-06T14:06:22.000",
    "date_modified": "2022-04-06T14:06:23.000",
    "request_status": "Pending",
    "responsible_agency": "Department of Sanitation",
    "final_address": "1566 Tropic Dr",
    "address_councildis": "C",
    "status": "Assigned to Contractor",
    "contractor": "Richards Disposal",
    "rowid": "872738",
    "final_x": "3699551.69514",
    "final_y": "525013.998013",
    "longitude": "-90.01130694858044",
    "latitude": "29.93704602245471",
    "geocoded_column": {
      "latitude": "29.93704602245471",
      "longitude": "-90.01130694858044"
    }
  },
  {
    "service_request": "2022-872735",
    "request_type": "Roads/Drainage",
    "request_reason": "Street Flooding / Drainage",
    "date_created": "2022-04-06T14:03:57.000",
    "date_modified": "2022-04-06T14:03:57.000",
    "request_status": "Pending",
    "responsible_agency": "Department of Public Works",
    "final_address": "4971 Desire Dr",
    "address_councildis": "D",
    "status": "Pending",
    "rowid": "872735",
    "final_x": "3691588.39203",
    "final_y": "552448.850454",
    "longitude": "-90.03546639818323",
    "latitude": "30.01273234458771",
    "geocoded_column": {
      "latitude": "30.01273234458771",
      "longitude": "-90.03546639818323"
    }
  },
  {
    "service_request": "2022-872734",
    "request_type": "Trash/Recycling",
    "request_reason": "Illegal Dumping",
    "date_created": "2022-04-06T13:59:12.000",
    "date_modified": "2022-04-06T13:59:12.000",
    "request_status": "Pending",
    "responsible_agency": "Department of Sanitation",
    "final_address": "1719 Monroe St",
    "address_councildis": "A",
    "status": "Pending",
    "rowid": "872734",
    "final_x": "3661689.58291",
    "final_y": "531181.358274",
    "longitude": "-90.13063603607692",
    "latitude": "29.95515115082239",
    "geocoded_column": {
      "latitude": "29.95515115082239",
      "longitude": "-90.13063603607692"
    }
  },
  {
    "service_request": "2022-872733",
    "request_type": "Traffic Signals/Signs/Striping/Streetlights",
    "request_reason": "Street Light Outage/Malfunction",
    "date_created": "2022-04-06T13:58:40.000",
    "date_modified": "2022-04-06T13:58:45.000",
    "request_status": "Pending",
    "responsible_agency": "Department of Public Works",
    "final_address": "BARONNE ST & JULIA ST",
    "address_councildis": "B",
    "status": "Pending",
    "contractor": "Royal Engineering",
    "rowid": "872733",
    "final_x": "3679611.1",
    "final_y": "528223.88",
    "longitude": "-90.07414916178107",
    "latitude": "29.94648967599105",
    "geocoded_column": {
      "latitude": "29.94648967599105",
      "longitude": "-90.07414916178107"
    }
  },
  {
    "service_request": "2022-872732",
    "request_type": "Roads/Drainage",
    "request_reason": "Road Shoulder Repair",
    "date_created": "2022-04-06T13:55:37.000",
    "date_modified": "2022-04-06T13:55:37.000",
    "request_status": "Pending",
    "responsible_agency": "Department of Public Works",
    "final_address": "2701 N Rampart St",
    "address_councildis": "C",
    "status": "Pending",
    "rowid": "872732",
    "final_x": "3687355.7775",
    "final_y": "536019.474247",
    "longitude": "-90.04942073396685",
    "latitude": "29.96768858412163",
    "geocoded_column": {
      "latitude": "29.96768858412163",
      "longitude": "-90.04942073396685"
    }
  },
  {
    "service_request": "2022-872731",
    "request_type": "Traffic Signals/Signs/Striping/Streetlights",
    "request_reason": "Street Light Outage/Malfunction",
    "date_created": "2022-04-06T13:54:49.000",
    "date_modified": "2022-04-06T13:54:50.000",
    "request_status": "Pending",
    "responsible_agency": "Department of Public Works",
    "final_address": "4056 Piedmont Dr",
    "address_councildis": "D",
    "status": "Pending",
    "contractor": "Royal Engineering",
    "rowid": "872731",
    "final_x": "3685046.37839",
    "final_y": "547580.659282",
    "longitude": "-90.05630695712608",
    "latitude": "29.99954870944879",
    "geocoded_column": {
      "latitude": "29.99954870944879",
      "longitude": "-90.05630695712608"
    }
  },
  {
    "service_request": "2022-872730",
    "request_type": "Traffic Signals/Signs/Striping/Streetlights",
    "request_reason": "Traffic Sign Missing/Damaged",
    "date_created": "2022-04-06T13:53:25.000",
    "date_modified": "2022-04-06T13:53:25.000",
    "request_status": "Pending",
    "responsible_agency": "Department of Public Works",
    "final_address": "3669 Gentilly Blvd",
    "address_councildis": "D",
    "status": "Pending",
    "rowid": "872730",
    "final_x": "3686679.63017",
    "final_y": "548979.288787",
    "longitude": "-90.05109802788117",
    "latitude": "30.00334428313437",
    "geocoded_column": {
      "latitude": "30.00334428313437",
      "longitude": "-90.05109802788117"
    }
  },
  {
    "service_request": "2022-872729",
    "request_type": "Roads/Drainage",
    "request_reason": "Street Subsidence (Sinking)",
    "date_created": "2022-04-06T13:52:13.000",
    "date_modified": "2022-04-06T13:52:13.000",
    "request_status": "Pending",
    "responsible_agency": "Department of Public Works",
    "final_address": "1415 Franklin Ave",
    "address_councildis": "C",
    "status": "Pending",
    "rowid": "872729",
    "final_x": "3687468.12098",
    "final_y": "537699.087624",
    "longitude": "-90.04900649795452",
    "latitude": "29.972303471683006",
    "geocoded_column": {
      "latitude": "29.972303471683006",
      "longitude": "-90.04900649795452"
    }
  },
  {
    "service_request": "2022-872728",
    "request_type": "Trash/Recycling",
    "request_reason": "Missed Trash Pick-Up",
    "date_created": "2022-04-06T13:51:56.000",
    "date_modified": "2022-04-06T13:51:56.000",
    "request_status": "Pending",
    "responsible_agency": "Department of Sanitation",
    "final_address": "1401 Lafitte Ave",
    "address_councildis": "C",
    "status": "Assigned to Contractor",
    "contractor": "Richards Disposal",
    "rowid": "872728",
    "final_x": "3680429.00616",
    "final_y": "533893.520069",
    "longitude": "-90.07136959054105",
    "latitude": "29.962054531764746",
    "geocoded_column": {
      "latitude": "29.962054531764746",
      "longitude": "-90.07136959054105"
    }
  },
  {
    "service_request": "2022-872727",
    "request_type": "Roads/Drainage",
    "request_reason": "Street Subsidence (Sinking)",
    "date_created": "2022-04-06T13:51:17.000",
    "date_modified": "2022-04-06T13:51:37.000",
    "request_status": "Pending",
    "responsible_agency": "Department of Public Works",
    "final_address": "5977 Babylon St",
    "address_councildis": "D",
    "status": "Pending",
    "rowid": "872727",
    "final_x": "3696484.71197",
    "final_y": "555059.644185",
    "longitude": "-90.01990224215561",
    "latitude": "30.019757641771367",
    "geocoded_column": {
      "latitude": "30.019757641771367",
      "longitude": "-90.01990224215561"
    }
  },
  {
    "service_request": "2022-872726",
    "request_type": "Roads/Drainage",
    "request_reason": "Catch Basin - Clogged",
    "date_created": "2022-04-06T13:50:59.000",
    "date_modified": "2022-04-06T13:50:59.000",
    "request_status": "Pending",
    "responsible_agency": "Department of Public Works",
    "final_address": "901 Stewart Ct",
    "address_councildis": "A",
    "status": "Pending",
    "rowid": "872726",
    "final_x": "3673010.33992",
    "final_y": "540754.678475",
    "longitude": "-90.09456241286665",
    "latitude": "29.981142971358693",
    "geocoded_column": {
      "latitude": "29.981142971358693",
      "longitude": "-90.09456241286665"
    }
  },
  {
    "service_request": "2022-872725",
    "request_type": "Trash/Recycling",
    "request_reason": "Replace Trash Cart",
    "date_created": "2022-04-06T13:49:18.000",
    "date_modified": "2022-04-06T13:49:19.000",
    "request_status": "Pending",
    "responsible_agency": "Department of Sanitation",
    "final_address": "8635 Green St",
    "address_councildis": "A",
    "status": "Assigned to Contractor",
    "contractor": "Richards Disposal",
    "rowid": "872725",
    "final_x": "3661639.16595",
    "final_y": "531094.678466",
    "longitude": "-90.13079810741583",
    "latitude": "29.95491426431273",
    "geocoded_column": {
      "latitude": "29.95491426431273",
      "longitude": "-90.13079810741583"
    }
  },
  {
    "service_request": "2022-872724",
    "request_type": "Roads/Drainage",
    "request_reason": "Road Shoulder Repair",
    "date_created": "2022-04-06T13:45:53.000",
    "date_modified": "2022-04-06T13:45:53.000",
    "request_status": "Pending",
    "responsible_agency": "Department of Public Works",
    "final_address": "1 N Peters St",
    "address_councildis": "C",
    "status": "Pending",
    "rowid": "872724",
    "final_x": "3686149.20265",
    "final_y": "533982.178437",
    "longitude": "-90.05330299332216",
    "latitude": "29.9621238461012",
    "geocoded_column": {
      "latitude": "29.9621238461012",
      "longitude": "-90.05330299332216"
    }
  },
  {
    "service_request": "2022-872723",
    "request_type": "Roads/Drainage",
    "request_reason": "Catch Basin - Clogged",
    "date_created": "2022-04-06T13:44:44.000",
    "date_modified": "2022-04-06T13:44:44.000",
    "request_status": "Pending",
    "responsible_agency": "Department of Public Works",
    "final_address": "5601 Bullard Ave",
    "address_councildis": "E",
    "status": "Pending",
    "rowid": "872723",
    "final_x": "3717384.87365",
    "final_y": "562076.013983",
    "longitude": "-89.95359838523632",
    "latitude": "30.03837455733316",
    "geocoded_column": {
      "latitude": "30.03837455733316",
      "longitude": "-89.95359838523632"
    }
  },
  {
    "service_request": "2022-872722",
    "request_type": "Roads/Drainage",
    "request_reason": "Catch Basin - Clogged",
    "date_created": "2022-04-06T13:44:20.000",
    "date_modified": "2022-04-06T13:44:20.000",
    "request_status": "Pending",
    "responsible_agency": "Department of Public Works",
    "final_address": "5601 Bullard Ave",
    "address_councildis": "E",
    "status": "Pending",
    "rowid": "872722",
    "final_x": "3717384.87365",
    "final_y": "562076.013983",
    "longitude": "-89.95359838523632",
    "latitude": "30.03837455733316",
    "geocoded_column": {
      "latitude": "30.03837455733316",
      "longitude": "-89.95359838523632"
    }
  },
  {
    "service_request": "2022-872721",
    "request_type": "Roads/Drainage",
    "request_reason": "Pothole",
    "date_created": "2022-04-06T13:43:51.000",
    "date_modified": "2022-04-06T13:43:51.000",
    "request_status": "Pending",
    "responsible_agency": "Department of Public Works",
    "final_address": "8635 Green St",
    "address_councildis": "A",
    "status": "Pending",
    "rowid": "872721",
    "final_x": "3661639.16595",
    "final_y": "531094.678466",
    "longitude": "-90.13079810741583",
    "latitude": "29.95491426431273",
    "geocoded_column": {
      "latitude": "29.95491426431273",
      "longitude": "-90.13079810741583"
    }
  },
  {
    "service_request": "2022-872720",
    "request_type": "Property Maintenance",
    "request_reason": "Property Maintenance",
    "date_created": "2022-04-06T13:37:41.000",
    "date_modified": "2022-04-06T13:37:41.000",
    "request_status": "Pending",
    "responsible_agency": "Department of Code Enforcement",
    "final_address": "8910 Apple St",
    "address_councildis": "A",
    "status": "Pending",
    "rowid": "872720",
    "final_x": "3663167.12551",
    "final_y": "534048.003461",
    "longitude": "-90.12587509677661",
    "latitude": "29.962990765941534",
    "geocoded_column": {
      "latitude": "29.962990765941534",
      "longitude": "-90.12587509677661"
    }
  },
  {
    "service_request": "2022-872719",
    "request_type": "Trash/Recycling",
    "request_reason": "Replace Trash Cart",
    "date_created": "2022-04-06T13:32:12.000",
    "date_modified": "2022-04-06T13:32:13.000",
    "request_status": "Pending",
    "responsible_agency": "Department of Sanitation",
    "final_address": "2238 Nashville Ave",
    "address_councildis": "A",
    "status": "Assigned to Contractor",
    "contractor": "Richards Disposal",
    "rowid": "872719",
    "final_x": "3666895.12897",
    "final_y": "524529.51814",
    "longitude": "-90.11442222725883",
    "latitude": "29.936709477706067",
    "geocoded_column": {
      "latitude": "29.936709477706067",
      "longitude": "-90.11442222725883"
    }
  },
  {
    "service_request": "2022-872718",
    "request_type": "Roads/Drainage",
    "request_reason": "Street Subsidence (Sinking)",
    "date_created": "2022-04-06T13:32:07.000",
    "date_modified": "2022-04-06T13:32:07.000",
    "request_status": "Pending",
    "responsible_agency": "Department of Public Works",
    "final_address": "610 Poydras St",
    "address_councildis": "B",
    "status": "Pending",
    "rowid": "872718",
    "final_x": "3680998.16392",
    "final_y": "529214.179904",
    "longitude": "-90.06973523041297",
    "latitude": "29.94917068305588",
    "geocoded_column": {
      "latitude": "29.94917068305588",
      "longitude": "-90.06973523041297"
    }
  },
  {
    "service_request": "2022-872717",
    "request_type": "Traffic Signals/Signs/Striping/Streetlights",
    "request_reason": "Traffic Signal Malfunctioning/Damaged",
    "date_created": "2022-04-06T13:29:31.000",
    "date_modified": "2022-04-06T13:29:31.000",
    "request_status": "Pending",
    "responsible_agency": "Department of Public Works",
    "final_address": "500 Poydras Plz",
    "address_councildis": "B",
    "status": "Pending",
    "rowid": "872717",
    "final_x": "3678315.16091",
    "final_y": "529320.178689",
    "longitude": "-90.07820298707057",
    "latitude": "29.949543226872816",
    "geocoded_column": {
      "latitude": "29.949543226872816",
      "longitude": "-90.07820298707057"
    }
  },
  {
    "service_request": "2022-872716",
    "request_type": "Trash/Recycling",
    "request_reason": "Request a Large Item Pick Up",
    "date_created": "2022-04-06T13:28:32.000",
    "date_modified": "2022-04-06T13:28:33.000",
    "request_status": "Pending",
    "responsible_agency": "Department of Sanitation",
    "final_address": "1720 St Anthony St",
    "address_councildis": "D",
    "status": "Assigned to Contractor",
    "contractor": "Metro Disposal",
    "rowid": "872716",
    "final_x": "3683279.81909",
    "final_y": "538580.434761",
    "longitude": "-90.06220298054727",
    "latitude": "29.974855287722498",
    "geocoded_column": {
      "latitude": "29.974855287722498",
      "longitude": "-90.06220298054727"
    }
  },
  {
    "service_request": "2022-872715",
    "request_type": "Trash/Recycling",
    "request_reason": "Request a Large Item Pick Up",
    "date_created": "2022-04-06T13:28:27.000",
    "date_modified": "2022-04-06T13:28:27.000",
    "request_status": "Pending",
    "responsible_agency": "Department of Sanitation",
    "final_address": "2115 Columbus St",
    "address_councildis": "D",
    "status": "Assigned to Contractor",
    "contractor": "Metro Disposal",
    "rowid": "872715",
    "final_x": "3680271.29775",
    "final_y": "538441.188169",
    "longitude": "-90.0717094899144",
    "latitude": "29.974563833977133",
    "geocoded_column": {
      "latitude": "29.974563833977133",
      "longitude": "-90.0717094899144"
    }
  },
  {
    "service_request": "2022-872714",
    "request_type": "Trash/Recycling",
    "request_reason": "Replace Trash Cart",
    "date_created": "2022-04-06T13:28:08.000",
    "date_modified": "2022-04-06T13:28:09.000",
    "request_status": "Pending",
    "responsible_agency": "Department of Sanitation",
    "final_address": "7118 Virgilian St",
    "address_councildis": "D",
    "status": "Assigned to Contractor",
    "contractor": "Metro Disposal",
    "rowid": "872714",
    "final_x": "3696683.49917",
    "final_y": "557008.341018",
    "longitude": "-90.01920352721416",
    "latitude": "30.025109551510713",
    "geocoded_column": {
      "latitude": "30.025109551510713",
      "longitude": "-90.01920352721416"
    }
  },
  {
    "service_request": "2022-872713",
    "request_type": "Roads/Drainage",
    "request_reason": "Street Subsidence (Sinking)",
    "date_created": "2022-04-06T13:27:40.000",
    "date_modified": "2022-04-06T13:27:40.000",
    "request_status": "Pending",
    "responsible_agency": "Department of Public Works",
    "final_address": "200 Carondelet St",
    "address_councildis": "B",
    "status": "Pending",
    "rowid": "872713",
    "final_x": "3680618.51733",
    "final_y": "530414.539586",
    "longitude": "-90.07089218374696",
    "latitude": "29.952482774541487",
    "geocoded_column": {
      "latitude": "29.952482774541487",
      "longitude": "-90.07089218374696"
    }
  },
  {
    "service_request": "2022-872712",
    "request_type": "Trash/Recycling",
    "request_reason": "Repair Trash Cart",
    "date_created": "2022-04-06T13:26:21.000",
    "date_modified": "2022-04-06T13:26:21.000",
    "request_status": "Pending",
    "responsible_agency": "Department of Sanitation",
    "final_address": "7040 Lake Barrington Dr",
    "address_councildis": "E",
    "status": "Assigned to Contractor",
    "contractor": "Metro Disposal",
    "rowid": "872712",
    "final_x": "3712507.37707",
    "final_y": "563837.295905",
    "longitude": "-89.96894612504661",
    "latitude": "30.04337796091714",
    "geocoded_column": {
      "latitude": "30.04337796091714",
      "longitude": "-89.96894612504661"
    }
  },
  {
    "service_request": "2022-872711",
    "request_type": "Traffic Signals/Signs/Striping/Streetlights",
    "request_reason": "Traffic Sign Missing/Damaged",
    "date_created": "2022-04-06T13:25:40.000",
    "date_modified": "2022-04-06T13:25:40.000",
    "request_status": "Pending",
    "responsible_agency": "Department of Public Works",
    "final_address": "5500 Bullard Ave",
    "address_councildis": "E",
    "status": "Pending",
    "rowid": "872711",
    "final_x": "3717405.28556",
    "final_y": "561353.14979",
    "longitude": "-89.9535613871464",
    "latitude": "30.03638629753509",
    "geocoded_column": {
      "latitude": "30.03638629753509",
      "longitude": "-89.9535613871464"
    }
  },
  {
    "service_request": "2022-872710",
    "request_type": "Trash/Recycling",
    "request_reason": "Return Trash Cart",
    "date_created": "2022-04-06T13:25:34.000",
    "date_modified": "2022-04-06T13:25:34.000",
    "request_status": "Pending",
    "responsible_agency": "Department of Sanitation",
    "final_address": "8023 Green St",
    "address_councildis": "A",
    "status": "Assigned to Contractor",
    "contractor": "Richards Disposal",
    "rowid": "872710",
    "final_x": "3663310.53069",
    "final_y": "529562.293953",
    "longitude": "-90.1255715470843",
    "latitude": "29.950652365406768",
    "geocoded_column": {
      "latitude": "29.950652365406768",
      "longitude": "-90.1255715470843"
    }
  },
  {
    "service_request": "2022-872709",
    "request_type": "Abandoned Vehicles",
    "request_reason": "Abandoned/Junk Vehicles",
    "date_created": "2022-04-06T13:25:04.000",
    "date_modified": "2022-04-06T13:25:04.000",
    "request_status": "Pending",
    "responsible_agency": "Department of Public Works",
    "final_address": "1231 General Ogden St",
    "address_councildis": "A",
    "status": "Pending",
    "rowid": "872709",
    "final_x": "3660067.72467",
    "final_y": "530439.88365",
    "longitude": "-90.13578176132391",
    "latitude": "29.95315904261641",
    "geocoded_column": {
      "latitude": "29.95315904261641",
      "longitude": "-90.13578176132391"
    }
  },
  {
    "service_request": "2022-872708",
    "request_type": "Traffic Signals/Signs/Striping/Streetlights",
    "request_reason": "Additional signage",
    "date_created": "2022-04-06T13:24:27.000",
    "date_modified": "2022-04-06T13:24:27.000",
    "request_status": "Pending",
    "responsible_agency": "Department of Public Works",
    "final_address": "100 BLK N Prieur St",
    "address_councildis": "B",
    "status": "Pending",
    "rowid": "872708",
    "final_x": "3677683.17576",
    "final_y": "533634.762899",
    "longitude": "-90.08004944540615",
    "latitude": "29.961425903954904",
    "geocoded_column": {
      "latitude": "29.961425903954904",
      "longitude": "-90.08004944540615"
    }
  },
  {
    "service_request": "2022-872707",
    "request_type": "Traffic Signals/Signs/Striping/Streetlights",
    "request_reason": "Traffic Sign Missing/Damaged",
    "date_created": "2022-04-06T13:23:58.000",
    "date_modified": "2022-04-06T13:23:58.000",
    "request_status": "Pending",
    "responsible_agency": "Department of Public Works",
    "final_address": "500 Poydras Plz",
    "address_councildis": "B",
    "status": "Pending",
    "rowid": "872707",
    "final_x": "3678315.16091",
    "final_y": "529320.178689",
    "longitude": "-90.07820298707057",
    "latitude": "29.949543226872816",
    "geocoded_column": {
      "latitude": "29.949543226872816",
      "longitude": "-90.07820298707057"
    }
  },
  {
    "service_request": "2022-872706",
    "request_type": "Tax and Revenue",
    "request_reason": "Personal Property Tax Question",
    "date_created": "2022-04-06T13:18:26.000",
    "date_modified": "2022-04-06T14:27:51.000",
    "case_close_date": "2022-04-06T09:27:51.000",
    "request_status": "Closed",
    "responsible_agency": "Bureau of Treasury",
    "status": "Resolved",
    "rowid": "872706",
    "longitude": "0.0",
    "latitude": "0.0",
    "geocoded_column": {
      "latitude": "0.0",
      "longitude": "0.0"
    }
  },
  {
    "service_request": "2022-872705",
    "request_type": "Trash/Recycling",
    "request_reason": "Repair Recycling Cart",
    "date_created": "2022-04-06T13:16:31.000",
    "date_modified": "2022-04-06T13:16:31.000",
    "request_status": "Pending",
    "responsible_agency": "Department of Sanitation",
    "final_address": "838 Weiblen Pl",
    "address_councildis": "A",
    "status": "Pending",
    "rowid": "872705",
    "final_x": "3668760.17902",
    "final_y": "542482.172557",
    "longitude": "-90.10792803148787",
    "latitude": "29.986018651465926",
    "geocoded_column": {
      "latitude": "29.986018651465926",
      "longitude": "-90.10792803148787"
    }
  },
  {
    "service_request": "2022-872704",
    "request_type": "Trash/Recycling",
    "request_reason": "Repair Trash Cart",
    "date_created": "2022-04-06T13:15:07.000",
    "date_modified": "2022-04-06T13:15:08.000",
    "request_status": "Pending",
    "responsible_agency": "Department of Sanitation",
    "final_address": "838 Weiblen Pl",
    "address_councildis": "A",
    "status": "Assigned to Contractor",
    "contractor": "Metro Disposal",
    "rowid": "872704",
    "final_x": "3668760.17902",
    "final_y": "542482.172557",
    "longitude": "-90.10792803148787",
    "latitude": "29.986018651465926",
    "geocoded_column": {
      "latitude": "29.986018651465926",
      "longitude": "-90.10792803148787"
    }
  },
  {
    "service_request": "2022-872703",
    "request_type": "Trash/Recycling",
    "request_reason": "Repair Trash Cart",
    "date_created": "2022-04-06T13:12:27.000",
    "date_modified": "2022-04-06T13:12:28.000",
    "request_status": "Pending",
    "responsible_agency": "Department of Sanitation",
    "final_address": "2302 Harmony St",
    "address_councildis": "B",
    "status": "Assigned to Contractor",
    "contractor": "Richards Disposal",
    "rowid": "872703",
    "final_x": "3673679.69102",
    "final_y": "524090.34374",
    "longitude": "-90.09301802791133",
    "latitude": "29.93530169754203",
    "geocoded_column": {
      "latitude": "29.93530169754203",
      "longitude": "-90.09301802791133"
    }
  },
  {
    "service_request": "2022-872702",
    "request_type": "Traffic Signals/Signs/Striping/Streetlights",
    "request_reason": "Street Name Sign Damaged or Missing",
    "date_created": "2022-04-06T13:07:26.000",
    "date_modified": "2022-04-06T13:07:27.000",
    "request_status": "Pending",
    "responsible_agency": "Department of Public Works",
    "final_address": "GORDON ST & N CLAIBORNE AVE",
    "address_councildis": "E",
    "status": "Pending",
    "rowid": "872702",
    "final_x": "3699871.2",
    "final_y": "535208.78",
    "longitude": "-90.00992652949054",
    "latitude": "29.965067932738656",
    "geocoded_column": {
      "latitude": "29.965067932738656",
      "longitude": "-90.00992652949054"
    }
  },