[
  {
    "service_request": "2023-975416",
    "request_type": "Safety & Permits",
    "request_reason": "Licenses & Permits",
    "date_created": "2023-02-15T01:02:29.000",
    "date_modified": "2023-02-15T01:02:29.000",
    "request_status": "Pending",
    "responsible_agency": "Safety and Permits",
    "final_address": "1234 N Claiborne Ave",
    "address_councildis": "D",
    "status": "Pending",
    "rowid": "975416",
    "final_x": "3681221.7092",
    "final_y": "536309.569607",
    "longitude": "-90.06878215739472",
    "latitude": "29.968673810700984",
    "geocoded_column": {
      "latitude": "29.968673810700984",
      "longitude": "-90.06878215739472"
    }
  },
  {
    "service_request": "2023-975415",
    "request_type": "Safety & Permits",
    "request_reason": "Licenses & Permits",
    "date_created": "2023-02-14T23:16:46.000",
    "date_modified": "2023-02-14T23:16:46.000",
    "request_status": "Pending",
    "responsible_agency": "Safety and Permits",
    "final_address": "1775 Joseph Guillaume Pl",
    "address_councildis": "C",
    "status": "Pending",
    "rowid": "975415",
    "final_x": "3683462.43785",
    "final_y": "536121.270855",
    "longitude": "-90.06171241725919",
    "latitude": "29.96808786850646",
    "geocoded_column": {
      "latitude": "29.96808786850646",
      "longitude": "-90.06171241725919"
    }
  },
  {
    "service_request": "2023-975414",
    "request_type": "Abandoned Vehicles",
    "request_reason": "Abandoned/Junk Vehicles",
    "date_created": "2023-02-14T22:51:38.000",
    "date_modified": "2023-02-14T22:51:38.000",
    "request_status": "Pending",
    "responsible_agency": "Department of Public Works",
    "final_address": "2014 N Rampart St",
    "address_councildis": "C",
    "status": "Pending",
    "rowid": "975414",
    "final_x": "3684379.94767",
    "final_y": "535863.368199",
    "longitude": "-90.05882394983786",
    "latitude": "29.9673506958795",
    "geocoded_column": {
      "latitude": "29.9673506958795",
      "longitude": "-90.05882394983786"
    }
  },
  {
    "service_request": "2023-975413",
    "request_type": "Traffic Signals/Signs/Striping/Streetlights",
    "request_reason": "Street Light Outage/Malfunction",
    "date_created": "2023-02-14T22:50:03.000",
    "date_modified": "2023-02-14T22:50:04.000",
    "request_status": "Pending",
    "responsible_agency": "Department of Public Works",
    "final_address": "44 Grand Canyon Dr",
    "address_councildis": "C",
    "status": "Assigned to Contractor",
    "contractor": "Legacy Professional Services",
    "rowid": "975413",
    "final_x": "3699475.80042",
    "final_y": "516614.764021",
    "longitude": "-90.01185236531828",
    "latitude": "29.913953420389934",
    "geocoded_column": {
      "latitude": "29.913953420389934",
      "longitude": "-90.01185236531828"
    }
  },
  {
    "service_request": "2023-975412",
    "request_type": "Roads/Drainage",
    "request_reason": "Catch Basin - Clogged",
    "date_created": "2023-02-14T21:42:03.000",
    "date_modified": "2023-02-14T21:42:03.000",
    "request_status": "Pending",
    "responsible_agency": "Department of Public Works",
    "final_address": "120 N Norman C Francis Prkwy",
    "address_councildis": "B",
    "status": "Pending",
    "rowid": "975412",
    "final_x": "3673479.79496",
    "final_y": "536850.009928",
    "longitude": "-90.09321313375989",
    "latitude": "29.970392498272314",
    "geocoded_column": {
      "latitude": "29.970392498272314",
      "longitude": "-90.09321313375989"
    }
  },
  {
    "service_request": "2023-975411",
    "request_type": "Health Related Request",
    "request_reason": "Noise Ordinance Complaint",
    "date_created": "2023-02-14T21:38:35.000",
    "date_modified": "2023-02-14T21:38:35.000",
    "request_status": "Pending",
    "responsible_agency": "Health Department",
    "final_address": "1775 Joseph Guillaume Pl",
    "address_councildis": "C",
    "status": "Pending",
    "rowid": "975411",
    "final_x": "3683462.43785",
    "final_y": "536121.270855",
    "longitude": "-90.06171241725919",
    "latitude": "29.96808786850646",
    "geocoded_column": {
      "latitude": "29.96808786850646",
      "longitude": "-90.06171241725919"
    }
  },
  {
    "service_request": "2023-975410",
    "request_type": "Traffic Signals/Signs/Striping/Streetlights",
    "request_reason": "Street Light Outage/Malfunction",
    "date_created": "2023-02-14T21:38:28.000",
    "date_modified": "2023-02-14T21:38:29.000",
    "request_status": "Pending",
    "responsible_agency": "Department of Public Works",
    "final_address": "BELLAIRE DR & ETHEL LN",
    "address_councildis": "A",
    "status": "Assigned to Contractor",
    "contractor": "Legacy Professional Services",
    "rowid": "975410",
    "final_x": "3663921.6",
    "final_y": "541502.38",
    "longitude": "-90.1232439486889",
    "latitude": "29.983465946664598",
    "geocoded_column": {
      "latitude": "29.983465946664598",
      "longitude": "-90.1232439486889"
    }
  },
  {
    "service_request": "2023-975408",
    "request_type": "Health Related Request",
    "request_reason": "Noise Ordinance Complaint",
    "date_created": "2023-02-14T21:35:47.000",
    "date_modified": "2023-02-14T21:35:47.000",
    "request_status": "Pending",
    "responsible_agency": "Health Department",
    "final_address": "1775 Joseph Guillaume Pl",
    "address_councildis": "C",
    "status": "Pending",
    "rowid": "975408",
    "final_x": "3683462.43785",
    "final_y": "536121.270855",
    "longitude": "-90.06171241725919",
    "latitude": "29.96808786850646",
    "geocoded_column": {
      "latitude": "29.96808786850646",
      "longitude": "-90.06171241725919"
    }
  },
  {
    "service_request": "2023-975407",
    "request_type": "Health Related Request",
    "request_reason": "Noise Ordinance Complaint",
    "date_created": "2023-02-14T21:33:54.000",
    "date_modified": "2023-02-14T21:33:54.000",
    "request_status": "Pending",
    "responsible_agency": "Health Department",
    "final_address": "1775 Joseph Guillaume Pl",
    "address_councildis": "C",
    "status": "Pending",
    "rowid": "975407",
    "final_x": "3683462.43785",
    "final_y": "536121.270855",
    "longitude": "-90.06171241725919",
    "latitude": "29.96808786850646",
    "geocoded_column": {
      "latitude": "29.96808786850646",
      "longitude": "-90.06171241725919"
    }
  },
  {
    "service_request": "2023-975406",
    "request_type": "Health Related Request",
    "request_reason": "Noise Ordinance Complaint",
    "date_created": "2023-02-14T21:31:46.000",
    "date_modified": "2023-02-14T21:31:46.000",
    "request_status": "Pending",
    "responsible_agency": "Health Department",
    "final_address": "1775 Joseph Guillaume Pl",
    "address_councildis": "C",
    "status": "Pending",
    "rowid": "975406",
    "final_x": "3683462.43785",
    "final_y": "536121.270855",
    "longitude": "-90.06171241725919",
    "latitude": "29.96808786850646",
    "geocoded_column": {
      "latitude": "29.96808786850646",
      "longitude": "-90.06171241725919"
    }
  },
  {
    "service_request": "2023-975405",
    "request_type": "Health Related Request",
    "request_reason": "Noise Ordinance Complaint",
    "date_created": "2023-02-14T21:29:54.000",
    "date_modified": "2023-02-14T21:29:54.000",
    "request_status": "Pending",
    "responsible_agency": "Health Department",
    "final_address": "1775 Joseph Guillaume Pl",
    "address_councildis": "C",
    "status": "Pending",
    "rowid": "975405",
    "final_x": "3683462.43785",
    "final_y": "536121.270855",
    "longitude": "-90.06171241725919",
    "latitude": "29.96808786850646",
    "geocoded_column": {
      "latitude": "29.96808786850646",
      "longitude": "-90.06171241725919"
    }
  },
  {
    "service_request": "2023-975404",
    "request_type": "Roads/Drainage",
    "request_reason": "Street Flooding / Drainage",
    "date_created": "2023-02-14T20:55:02.000",
    "date_modified": "2023-02-14T20:55:02.000",
    "request_status": "Pending",
    "responsible_agency": "Department of Public Works",
    "final_address": "4720 Painters St",
    "address_councildis": "D",
    "status": "Pending",
    "rowid": "975404",
    "final_x": "3686044.94351",
    "final_y": "550708.143061",
    "longitude": "-90.05304207115393",
    "latitude": "30.008117518105426",
    "geocoded_column": {
      "latitude": "30.008117518105426",
      "longitude": "-90.05304207115393"
    }
  },
  {
    "service_request": "2023-975403",
    "request_type": "Abandoned Vehicles",
    "request_reason": "Abandoned/Junk Vehicles",
    "date_created": "2023-02-14T20:40:44.000",
    "date_modified": "2023-02-14T20:40:44.000",
    "request_status": "Pending",
    "responsible_agency": "Department of Public Works",
    "final_address": "Saint Claude Ave & Marigny St, New Orleans, Louisiana, 70117",
    "status": "Pending",
    "rowid": "975403",
    "longitude": "0.0",
    "latitude": "0.0",
    "geocoded_column": {
      "latitude": "0.0",
      "longitude": "0.0"
    }
  },
  {
    "service_request": "2023-975402",
    "request_type": "Abandoned Vehicles",
    "request_reason": "Abandoned/Junk Vehicles",
    "date_created": "2023-02-14T20:03:44.000",
    "date_modified": "2023-02-14T20:04:53.000",
    "request_status": "Pending",
    "responsible_agency": "Department of Public Works",
    "final_address": "3438 Cleveland Ave, New Orleans, Louisiana, 70119",
    "address_councildis": "B",
    "rowid": "975402",
    "final_x": "3672612.03816",
    "final_y": "536597.805639",
    "longitude": "-90.09596221290224",
    "latitude": "29.969724816618136",
    "geocoded_column": {
      "latitude": "29.969724816618136",
      "longitude": "-90.09596221290224"
    }
  },
  {
    "service_request": "2023-975401",
    "request_type": "Trash/Recycling",
    "request_reason": "Illegal Dumping",
    "date_created": "2023-02-14T19:50:31.000",
    "date_modified": "2023-02-14T19:50:31.000",
    "request_status": "Pending",
    "responsible_agency": "Department of Sanitation",
    "final_address": "122 Huntlee Dr",
    "address_councildis": "C",
    "status": "Pending",
    "rowid": "975401",
    "final_x": "3702491.19793",
    "final_y": "524060.124412",
    "longitude": "-90.0020618278109",
    "latitude": "29.934329621861657",
    "geocoded_column": {
      "latitude": "29.934329621861657",
      "longitude": "-90.0020618278109"
    }
  },
  {
    "service_request": "2023-975400",
    "request_type": "Trash/Recycling",
    "request_reason": "Request a Large Item Pick Up",
    "date_created": "2023-02-14T19:41:06.000",
    "date_modified": "2023-02-14T19:41:07.000",
    "request_status": "Pending",
    "responsible_agency": "Department of Sanitation",
    "final_address": "312 30Th St",
    "address_councildis": "A",
    "status": "Assigned to Contractor",
    "contractor": "IV Waste",
    "rowid": "975400",
    "final_x": "3665147.77933",
    "final_y": "550478.566292",
    "longitude": "-90.11907056909635",
    "latitude": "30.008111727675775",
    "geocoded_column": {
      "latitude": "30.008111727675775",
      "longitude": "-90.11907056909635"
    }
  },
  {
    "service_request": "2023-975399",
    "request_type": "Roads/Drainage",
    "request_reason": "Accessibility Ramps, Curbs and Sidewalk Repair",
    "date_created": "2023-02-14T19:40:50.000",
    "date_modified": "2023-02-14T19:40:50.000",
    "request_status": "Pending",
    "responsible_agency": "Department of Public Works",
    "final_address": "700 Decatur St",
    "address_councildis": "C",
    "status": "Pending",
    "rowid": "975399",
    "final_x": "3683339.11113",
    "final_y": "532087.273027",
    "longitude": "-90.06224320776103",
    "latitude": "29.956999522283336",
    "geocoded_column": {
      "latitude": "29.956999522283336",
      "longitude": "-90.06224320776103"
    }
  },
  {
    "service_request": "2023-975398",
    "request_type": "Safety & Permits",
    "request_reason": "Licenses & Permits",
    "date_created": "2023-02-14T19:20:44.000",
    "date_modified": "2023-02-14T19:20:44.000",
    "request_status": "Pending",
    "responsible_agency": "Safety and Permits",
    "status": "Pending",
    "rowid": "975398",
    "longitude": "0.0",
    "latitude": "0.0",
    "geocoded_column": {
      "latitude": "0.0",
      "longitude": "0.0"
    }
  },
  {
    "service_request": "2023-975397",
    "request_type": "Traffic Signals/Signs/Striping/Streetlights",
    "request_reason": "Street Light Outage/Malfunction",
    "date_created": "2023-02-14T19:11:24.000",
    "date_modified": "2023-02-14T19:11:25.000",
    "request_status": "Pending",
    "responsible_agency": "Department of Public Works",
    "final_address": "2027 north rampart",
    "status": "Assigned to Contractor",
    "contractor": "Legacy Professional Services",
    "rowid": "975397",
    "longitude": "0.0",
    "latitude": "0.0",
    "geocoded_column": {
      "latitude": "0.0",
      "longitude": "0.0"
    }
  },
  {
    "service_request": "2023-975396",
    "request_type": "Traffic Signals/Signs/Striping/Streetlights",
    "request_reason": "Street Light Outage/Malfunction",
    "date_created": "2023-02-14T19:09:39.000",
    "date_modified": "2023-02-14T19:09:39.000",
    "request_status": "Pending",
    "responsible_agency": "Department of Public Works",
    "final_address": "2018 north rampart",
    "status": "Assigned to Contractor",
    "contractor": "Legacy Professional Services",
    "rowid": "975396",
    "longitude": "0.0",
    "latitude": "0.0",
    "geocoded_column": {
      "latitude": "0.0",
      "longitude": "0.0"
    }
  },
  {
    "service_request": "2023-975395",
    "request_type": "Traffic Signals/Signs/Striping/Streetlights",
    "request_reason": "Street Light Outage/Malfunction",
    "date_created": "2023-02-14T18:56:49.000",
    "date_modified": "2023-02-14T18:56:49.000",
    "request_status": "Pending",
    "responsible_agency": "Department of Public Works",
    "final_address": "5653 Woodlawn Pl",
    "address_councildis": "A",
    "status": "Assigned to Contractor",
    "contractor": "Legacy Professional Services",
    "rowid": "975395",
    "final_x": "3667598.87917",
    "final_y": "545064.696463",
    "longitude": "-90.11150915171524",
    "latitude": "29.993153808924202",
    "geocoded_column": {
      "latitude": "29.993153808924202",
      "longitude": "-90.11150915171524"
    }
  },
  {
    "service_request": "2023-975394",
    "request_type": "Traffic Signals/Signs/Striping/Streetlights",
    "request_reason": "Street Light Outage/Malfunction",
    "date_created": "2023-02-14T18:45:53.000",
    "date_modified": "2023-02-14T18:45:53.000",
    "request_status": "Pending",
    "responsible_agency": "Department of Public Works",
    "final_address": "2537 Bristol Pl",
    "address_councildis": "C",
    "status": "Assigned to Contractor",
    "contractor": "Legacy Professional Services",
    "rowid": "975394",
    "final_x": "3702567.93623",
    "final_y": "521623.281785",
    "longitude": "-90.00190895910316",
    "latitude": "29.927626700978372",
    "geocoded_column": {
      "latitude": "29.927626700978372",
      "longitude": "-90.00190895910316"
    }
  },
  {
    "service_request": "2023-975393",
    "request_type": "Trash/Recycling",
    "request_reason": "Request a Large Item Pick Up",
    "date_created": "2023-02-14T18:43:26.000",
    "date_modified": "2023-02-14T18:43:27.000",
    "request_status": "Pending",
    "responsible_agency": "Department of Sanitation",
    "final_address": "7711 Oak St",
    "address_councildis": "A",
    "status": "Assigned to Contractor",
    "contractor": "Richards Disposal",
    "rowid": "975393",
    "final_x": "3662989.33056",
    "final_y": "527492.776639",
    "longitude": "-90.12665455140784",
    "latitude": "29.944971162491683",
    "geocoded_column": {
      "latitude": "29.944971162491683",
      "longitude": "-90.12665455140784"
    }
  },
  {
    "service_request": "2023-975391",
    "request_type": "Abandoned Vehicles",
    "request_reason": "Abandoned/Junk Vehicles",
    "date_created": "2023-02-14T18:25:56.000",
    "date_modified": "2023-02-14T18:25:56.000",
    "request_status": "Pending",
    "responsible_agency": "Department of Public Works",
    "final_address": "3801 Tchoupitoulas St",
    "address_councildis": "B",
    "status": "Pending",
    "rowid": "975391",
    "final_x": "3673671.26804",
    "final_y": "517749.470262",
    "longitude": "-90.09326126339094",
    "latitude": "29.917866587178136",
    "geocoded_column": {
      "latitude": "29.917866587178136",
      "longitude": "-90.09326126339094"
    }
  },
  {
    "service_request": "2023-975390",
    "request_type": "Taxi Issues",
    "request_reason": "Taxi Complaint",
    "date_created": "2023-02-14T18:06:46.000",
    "date_modified": "2023-02-14T18:06:47.000",
    "request_status": "Pending",
    "responsible_agency": "Ground Transportation Bureau",
    "final_address": "1940 N Rampart St",
    "address_councildis": "C",
    "status": "Pending",
    "rowid": "975390",
    "final_x": "3684227.84316",
    "final_y": "535845.104967",
    "longitude": "-90.05930493871351",
    "latitude": "29.967305129430788",
    "geocoded_column": {
      "latitude": "29.967305129430788",
      "longitude": "-90.05930493871351"
    }
  },
  {
    "service_request": "2023-975389",
    "request_type": "Trash/Recycling",
    "request_reason": "Replace Trash Cart",
    "date_created": "2023-02-14T18:04:55.000",
    "date_modified": "2023-02-14T18:04:55.000",
    "request_status": "Pending",
    "responsible_agency": "Department of Sanitation",
    "final_address": "9009 Belfast St",
    "address_councildis": "A",
    "status": "Assigned to Contractor",
    "contractor": "Richards Disposal",
    "rowid": "975389",
    "final_x": "3663196.74119",
    "final_y": "534589.198213",
    "longitude": "-90.12576356266692",
    "latitude": "29.96447801622129",
    "geocoded_column": {
      "latitude": "29.96447801622129",
      "longitude": "-90.12576356266692"
    }
  },
  {
    "service_request": "2023-975388",
    "request_type": "Mosquito, Termite & Rodent Control",
    "request_reason": "Non-Rodent Complaint (Mice, Possums, Snakes)",
    "date_created": "2023-02-14T18:04:52.000",
    "date_modified": "2023-02-14T18:04:52.000",
    "request_status": "Pending",
    "responsible_agency": "Mosquito, Termite & Rodent Control Board",
    "final_address": "6170 Argonne Blvd",
    "address_councildis": "A",
    "status": "Pending",
    "rowid": "975388",
    "final_x": "3670207.94138",
    "final_y": "548347.576978",
    "longitude": "-90.10315620725376",
    "latitude": "30.002103836993193",
    "geocoded_column": {
      "latitude": "30.002103836993193",
      "longitude": "-90.10315620725376"
    }
  },
  {
    "service_request": "2023-975387",
    "request_type": "Trash/Recycling",
    "request_reason": "Request a Large Item Pick Up",
    "date_created": "2023-02-14T17:55:50.000",
    "date_modified": "2023-02-14T17:55:50.000",
    "request_status": "Pending",
    "responsible_agency": "Department of Sanitation",
    "final_address": "TOLEDANO ST & S JOHNSON ST",
    "address_councildis": "B",
    "status": "Assigned to Contractor",
    "contractor": "Richards Disposal",
    "rowid": "975387",
    "final_x": "3672052.9",
    "final_y": "527653.08",
    "longitude": "-90.09803256273403",
    "latitude": "29.945146381770897",
    "geocoded_column": {
      "latitude": "29.945146381770897",
      "longitude": "-90.09803256273403"
    }
  },
  {
    "service_request": "2023-975386",
    "request_type": "Trash/Recycling",
    "request_reason": "Missed Trash Pick-Up",
    "date_created": "2023-02-14T17:51:56.000",
    "date_modified": "2023-02-14T17:51:56.000",
    "request_status": "Pending",
    "responsible_agency": "Department of Sanitation",
    "final_address": "523 Walker St",
    "address_councildis": "A",
    "status": "Assigned to Contractor",
    "contractor": "IV Waste",
    "rowid": "975386",
    "final_x": "3668554.52858",
    "final_y": "554123.523544",
    "longitude": "-90.10818444704869",
    "latitude": "30.018034370584047",
    "geocoded_column": {
      "latitude": "30.018034370584047",
      "longitude": "-90.10818444704869"
    }
  },
  {
    "service_request": "2023-975385",
    "request_type": "Traffic Signals/Signs/Striping/Streetlights",
    "request_reason": "Street Light Outage/Malfunction",
    "date_created": "2023-02-14T17:46:42.000",
    "date_modified": "2023-02-14T17:46:42.000",
    "request_status": "Pending",
    "responsible_agency": "Department of Public Works",
    "final_address": "2501 Mazant St",
    "address_councildis": "D",
    "status": "Assigned to Contractor",
    "contractor": "Legacy Professional Services",
    "rowid": "975385",
    "final_x": "3693471.9087",
    "final_y": "540523.247499",
    "longitude": "-90.02994413306294",
    "latitude": "29.979882501103372",
    "geocoded_column": {
      "latitude": "29.979882501103372",
      "longitude": "-90.02994413306294"
    }
  },
  {
    "service_request": "2023-975384",
    "request_type": "Trash/Recycling",
    "request_reason": "Replace Trash Cart",
    "date_created": "2023-02-14T17:46:05.000",
    "date_modified": "2023-02-14T17:46:06.000",
    "request_status": "Pending",
    "responsible_agency": "Department of Sanitation",
    "final_address": "7709 Hampson St",
    "address_councildis": "A",
    "status": "Assigned to Contractor",
    "contractor": "Richards Disposal",
    "rowid": "975384",
    "final_x": "3661843.71398",
    "final_y": "526183.434622",
    "longitude": "-90.13031503606943",
    "latitude": "29.941404012330246",
    "geocoded_column": {
      "latitude": "29.941404012330246",
      "longitude": "-90.13031503606943"
    }
  },
  {
    "service_request": "2023-975383",
    "request_type": "Trash/Recycling",
    "request_reason": "Request a Large Item Pick Up",
    "date_created": "2023-02-14T17:45:10.000",
    "date_modified": "2023-02-14T17:45:11.000",
    "request_status": "Pending",
    "responsible_agency": "Department of Sanitation",
    "final_address": "4010 Laurel St",
    "address_councildis": "B",
    "status": "Assigned to Contractor",
    "contractor": "Richards Disposal",
    "rowid": "975383",
    "final_x": "3672503.86209",
    "final_y": "518100.766646",
    "longitude": "-90.09693416412868",
    "latitude": "29.918867228646164",
    "geocoded_column": {
      "latitude": "29.918867228646164",
      "longitude": "-90.09693416412868"
    }
  },
  {
    "service_request": "2023-975382",
    "request_type": "Traffic Signals/Signs/Striping/Streetlights",
    "request_reason": "Traffic Sign Missing/Damaged",
    "date_created": "2023-02-14T17:43:22.000",
    "date_modified": "2023-02-14T17:43:22.000",
    "request_status": "Pending",
    "responsible_agency": "Department of Public Works",
    "final_address": "2300 Fats Domino Ave",
    "address_councildis": "E",
    "status": "Pending",
    "rowid": "975382",
    "final_x": "3699192.72004",
    "final_y": "538305.073929",
    "longitude": "-90.0119563588932",
    "latitude": "29.97360315701651",
    "geocoded_column": {
      "latitude": "29.97360315701651",
      "longitude": "-90.0119563588932"
    }
  },
  {
    "service_request": "2023-975381",
    "request_type": "Traffic Signals/Signs/Striping/Streetlights",
    "request_reason": "Traffic Sign Missing/Damaged",
    "date_created": "2023-02-14T17:41:23.000",
    "date_modified": "2023-02-14T17:41:23.000",
    "request_status": "Pending",
    "responsible_agency": "Department of Public Works",
    "final_address": "2200 Fats Domino Ave",
    "address_councildis": "E",
    "status": "Pending",
    "rowid": "975381",
    "final_x": "3699098.0506",
    "final_y": "537926.196169",
    "longitude": "-90.01226913886153",
    "latitude": "29.972564381470185",
    "geocoded_column": {
      "latitude": "29.972564381470185",
      "longitude": "-90.01226913886153"
    }
  },
  {
    "service_request": "2023-975380",
    "request_type": "Roads/Drainage",
    "request_reason": "Pothole",
    "date_created": "2023-02-14T17:36:36.000",
    "date_modified": "2023-02-14T17:36:36.000",
    "request_status": "Pending",
    "responsible_agency": "Department of Public Works",
    "final_address": "2200 Flood St",
    "address_councildis": "E",
    "status": "Pending",
    "rowid": "975380",
    "final_x": "3698793.48317",
    "final_y": "538003.513865",
    "longitude": "-90.01322819861315",
    "latitude": "29.972786628927963",
    "geocoded_column": {
      "latitude": "29.972786628927963",
      "longitude": "-90.01322819861315"
    }
  },
  {
    "service_request": "2023-975379",
    "request_type": "Trash/Recycling",
    "request_reason": "Repair Recycling Cart",
    "date_created": "2023-02-14T17:32:25.000",
    "date_modified": "2023-02-14T17:32:25.000",
    "request_status": "Pending",
    "responsible_agency": "Department of Sanitation",
    "final_address": "4616 Constance St",
    "address_councildis": "B",
    "status": "Pending",
    "rowid": "975379",
    "final_x": "3670194.40686",
    "final_y": "518292.208886",
    "longitude": "-90.10421745414423",
    "latitude": "29.919461953595725",
    "geocoded_column": {
      "latitude": "29.919461953595725",
      "longitude": "-90.10421745414423"
    }
  },
  {
    "service_request": "2023-975378",
    "request_type": "Traffic Signals/Signs/Striping/Streetlights",
    "request_reason": "Street Light Outage/Malfunction",
    "date_created": "2023-02-14T17:25:45.000",
    "date_modified": "2023-02-14T17:25:45.000",
    "request_status": "Pending",
    "responsible_agency": "Department of Public Works",
    "final_address": "1952 Florida Ave",
    "address_councildis": "D",
    "status": "Assigned to Contractor",
    "contractor": "Legacy Professional Services",
    "rowid": "975378",
    "final_x": "3682658.05928",
    "final_y": "543032.252621",
    "longitude": "-90.06401090160298",
    "latitude": "29.987115179195207",
    "geocoded_column": {
      "latitude": "29.987115179195207",
      "longitude": "-90.06401090160298"
    }
  },
  {
    "service_request": "2023-975377",
    "request_type": "Mosquito, Termite & Rodent Control",
    "request_reason": "Non-Rodent Complaint (Mice, Possums, Snakes)",
    "date_created": "2023-02-14T17:24:20.000",
    "date_modified": "2023-02-14T17:24:20.000",
    "request_status": "Pending",
    "responsible_agency": "Mosquito, Termite & Rodent Control Board",
    "final_address": "1670 Chippewa St",
    "address_councildis": "B",
    "status": "Pending",
    "rowid": "975377",
    "final_x": "3681001.82984",
    "final_y": "522261.484218",
    "longitude": "-90.06996569921199",
    "latitude": "29.93005297189629",
    "geocoded_column": {
      "latitude": "29.93005297189629",
      "longitude": "-90.06996569921199"
    }
  },
  {
    "service_request": "2023-975376",
    "request_type": "Mosquito, Termite & Rodent Control",
    "request_reason": "Non-Rodent Complaint (Mice, Possums, Snakes)",
    "date_created": "2023-02-14T17:24:20.000",
    "date_modified": "2023-02-14T17:24:20.000",
    "request_status": "Pending",
    "responsible_agency": "Mosquito, Termite & Rodent Control Board",
    "final_address": "1670 Chippewa St",
    "address_councildis": "B",
    "status": "Pending",
    "rowid": "975376",
    "final_x": "3681001.82984",
    "final_y": "522261.484218",
    "longitude": "-90.06996569921199",
    "latitude": "29.93005297189629",
    "geocoded_column": {
      "latitude": "29.93005297189629",
      "longitude": "-90.06996569921199"
    }
  },
  {
    "service_request": "2023-975375",
    "request_type": "Trash/Recycling",
    "request_reason": "Repair Trash Cart",
    "date_created": "2023-02-14T17:14:31.000",
    "date_modified": "2023-02-14T17:14:32.000",
    "request_status": "Pending",
    "responsible_agency": "Department of Sanitation",
    "final_address": "3129 De Soto St",
    "address_councildis": "A",
    "status": "Assigned to Contractor",
    "contractor": "Richards Disposal",
    "rowid": "975375",
    "final_x": "3676191.23445",
    "final_y": "539959.436362",
    "longitude": "-90.08454307626417",
    "latitude": "29.978861388797128",
    "geocoded_column": {
      "latitude": "29.978861388797128",
      "longitude": "-90.08454307626417"
    }
  },
  {
    "service_request": "2023-975374",
    "request_type": "Traffic Signals/Signs/Striping/Streetlights",
    "request_reason": "Street Light Outage/Malfunction",
    "date_created": "2023-02-14T17:09:10.000",
    "date_modified": "2023-02-14T17:09:11.000",
    "request_status": "Pending",
    "responsible_agency": "Department of Public Works",
    "final_address": "5023 Prytania St",
    "address_councildis": "B",
    "status": "Assigned to Contractor",
    "contractor": "Legacy Professional Services",
    "rowid": "975374",
    "final_x": "3668498.03169",
    "final_y": "520195.830264",
    "longitude": "-90.10950790231975",
    "latitude": "29.924746236566715",
    "geocoded_column": {
      "latitude": "29.924746236566715",
      "longitude": "-90.10950790231975"
    }
  },
  {
    "service_request": "2023-975373",
    "request_type": "Trash/Recycling",
    "request_reason": "Order Trash Cart",
    "date_created": "2023-02-14T17:07:09.000",
    "date_modified": "2023-02-14T17:07:10.000",
    "request_status": "Pending",
    "responsible_agency": "Department of Sanitation",
    "final_address": "4900 Painters St",
    "address_councildis": "D",
    "status": "Assigned to Contractor",
    "contractor": "IV Waste",
    "rowid": "975373",
    "final_x": "3686119.74831",
    "final_y": "550926.893589",
    "longitude": "-90.05279801702622",
    "latitude": "30.008716703914462",
    "geocoded_column": {
      "latitude": "30.008716703914462",
      "longitude": "-90.05279801702622"
    }
  },
  {
    "service_request": "2023-975372",
    "request_type": "Trash/Recycling",
    "request_reason": "Order Trash Cart",
    "date_created": "2023-02-14T17:02:21.000",
    "date_modified": "2023-02-14T17:02:22.000",
    "request_status": "Pending",
    "responsible_agency": "Department of Sanitation",
    "final_address": "308 Magazine St",
    "address_councildis": "B",
    "status": "Assigned to Contractor",
    "contractor": "Empire Services",
    "rowid": "975372",
    "final_x": "3681661.71452",
    "final_y": "529621.792257",
    "longitude": "-90.06762589445401",
    "latitude": "29.95027134248378",
    "geocoded_column": {
      "latitude": "29.95027134248378",
      "longitude": "-90.06762589445401"
    }
  },
  {
    "service_request": "2023-975371",
    "request_type": "Trash/Recycling",
    "request_reason": "Missed Trash Pick-Up",
    "date_created": "2023-02-14T17:00:35.000",
    "date_modified": "2023-02-14T17:00:35.000",
    "request_status": "Pending",
    "responsible_agency": "Department of Sanitation",
    "final_address": "3229 Napoleon Ave",
    "address_councildis": "B",
    "status": "Assigned to Contractor",
    "contractor": "Richards Disposal",
    "rowid": "975371",
    "final_x": "3670357.28538",
    "final_y": "526844.426174",
    "longitude": "-90.10341356732239",
    "latitude": "29.94297300199751",
    "geocoded_column": {
      "latitude": "29.94297300199751",
      "longitude": "-90.10341356732239"
    }
  },
  {
    "service_request": "2023-975370",
    "request_type": "Trash/Recycling",
    "request_reason": "Missed Trash Pick-Up",
    "date_created": "2023-02-14T16:55:19.000",
    "date_modified": "2023-02-14T16:55:20.000",
    "request_status": "Pending",
    "responsible_agency": "Department of Sanitation",
    "final_address": "8020 Oneida St",
    "address_councildis": "E",
    "status": "Assigned to Contractor",
    "contractor": "Waste Pro",
    "rowid": "975370",
    "final_x": "3713073.40158",
    "final_y": "569141.982246",
    "longitude": "-89.96695735042924",
    "latitude": "30.057945145893754",
    "geocoded_column": {
      "latitude": "30.057945145893754",
      "longitude": "-89.96695735042924"
    }
  },
  {
    "service_request": "2023-975369",
    "request_type": "Abandoned Vehicles",
    "request_reason": "Abandoned/Junk Vehicles",
    "date_created": "2023-02-14T16:51:43.000",
    "date_modified": "2023-02-14T16:51:44.000",
    "request_status": "Pending",
    "responsible_agency": "Department of Public Works",
    "final_address": "413 S White St",
    "address_councildis": "B",
    "status": "Pending",
    "rowid": "975369",
    "final_x": "3673996.61294",
    "final_y": "534418.746245",
    "longitude": "-90.09166416595166",
    "latitude": "29.96369195319647",
    "geocoded_column": {
      "latitude": "29.96369195319647",
      "longitude": "-90.09166416595166"
    }
  },
  {
    "service_request": "2023-975368",
    "request_type": "Traffic Signals/Signs/Striping/Streetlights",
    "request_reason": "Street Light Outage/Malfunction",
    "date_created": "2023-02-14T16:46:57.000",
    "date_modified": "2023-02-14T16:46:58.000",
    "request_status": "Pending",
    "responsible_agency": "Department of Public Works",
    "final_address": "4921 Tynecastle Dr",
    "address_councildis": "E",
    "status": "Assigned to Contractor",
    "contractor": "Legacy Professional Services",
    "rowid": "975368",
    "final_x": "3718504.54271",
    "final_y": "557997.723035",
    "longitude": "-89.95021555227486",
    "latitude": "30.02712378493039",
    "geocoded_column": {
      "latitude": "30.02712378493039",
      "longitude": "-89.95021555227486"
    }
  },
  {
    "service_request": "2023-975367",
    "request_type": "Abandoned Vehicles",
    "request_reason": "Abandoned/Junk Vehicles",
    "date_created": "2023-02-14T16:39:17.000",
    "date_modified": "2023-02-14T16:39:17.000",
    "request_status": "Pending",
    "responsible_agency": "Department of Public Works",
    "final_address": "1113 Jena St",
    "address_councildis": "B",
    "status": "Pending",
    "rowid": "975367",
    "final_x": "3670605.88929",
    "final_y": "519611.00876",
    "longitude": "-90.10287390431982",
    "latitude": "29.923076091422637",
    "geocoded_column": {
      "latitude": "29.923076091422637",
      "longitude": "-90.10287390431982"
    }
  },
  {
    "service_request": "2023-975366",
    "request_type": "Parks & Parkways",
    "request_reason": "Request Tree Service (Right of Way/Public Property)",
    "date_created": "2023-02-14T16:36:12.000",
    "date_modified": "2023-02-14T16:36:12.000",
    "request_status": "Pending",
    "responsible_agency": "Department of Parks & Parkway",
    "final_address": "7600 Burthe St",
    "address_councildis": "A",
    "status": "Pending",
    "rowid": "975366",
    "final_x": "3662531.17575",
    "final_y": "526388.092158",
    "longitude": "-90.12813777896403",
    "latitude": "29.94194689128216",
    "geocoded_column": {
      "latitude": "29.94194689128216",
      "longitude": "-90.12813777896403"
    }
  },
  {
    "service_request": "2023-975365",
    "request_type": "Trash/Recycling",
    "request_reason": "Order Recycling Cart",
    "date_created": "2023-02-14T16:31:01.000",
    "date_modified": "2023-02-14T16:31:01.000",
    "request_status": "Pending",
    "responsible_agency": "Department of Sanitation",
    "final_address": "1031 Hagan St",
    "address_councildis": "A",
    "status": "Pending",
    "rowid": "975365",
    "final_x": "3675517.16187",
    "final_y": "539632.423498",
    "longitude": "-90.08668329256066",
    "latitude": "29.977982398350967",
    "geocoded_column": {
      "latitude": "29.977982398350967",
      "longitude": "-90.08668329256066"
    }
  },
  {
    "service_request": "2023-975364",
    "request_type": "Parks & Parkways",
    "request_reason": "Request Tree Service (Right of Way/Public Property)",
    "date_created": "2023-02-14T16:28:59.000",
    "date_modified": "2023-02-14T16:46:41.000",
    "request_status": "Pending",
    "responsible_agency": "Department of Parks & Parkway",
    "final_address": "1319 Lamanche St",
    "address_councildis": "E",
    "status": "Pending",
    "rowid": "975364",
    "final_x": "3698646.07735",
    "final_y": "534584.521669",
    "longitude": "-90.01381807512259",
    "latitude": "29.963390295306056",
    "geocoded_column": {
      "latitude": "29.963390295306056",
      "longitude": "-90.01381807512259"
    }
  },
  {
    "service_request": "2023-975363",
    "request_type": "Traffic Signals/Signs/Striping/Streetlights",
    "request_reason": "Street Light Outage/Malfunction",
    "date_created": "2023-02-14T16:28:48.000",
    "date_modified": "2023-02-14T16:28:48.000",
    "request_status": "Pending",
    "responsible_agency": "Department of Public Works",
    "final_address": "2519 Upperline St",
    "address_councildis": "B",
    "status": "Assigned to Contractor",
    "contractor": "Legacy Professional Services",
    "rowid": "975363",
    "final_x": "3669205.39879",
    "final_y": "524085.472956",
    "longitude": "-90.10714358004745",
    "latitude": "29.93542071823589",
    "geocoded_column": {
      "latitude": "29.93542071823589",
      "longitude": "-90.10714358004745"
    }
  },
  {
    "service_request": "2023-975362",
    "request_type": "Trash/Recycling",
    "request_reason": "Dead Animal Pick Up",
    "date_created": "2023-02-14T16:24:49.000",
    "date_modified": "2023-02-14T16:24:49.000",
    "request_status": "Pending",
    "responsible_agency": "Department of Sanitation",
    "final_address": "802 Homedale St",
    "address_councildis": "A",
    "status": "Assigned to Contractor",
    "contractor": "IV Waste",
    "rowid": "975362",
    "final_x": "3668863.44737",
    "final_y": "544640.981391",
    "longitude": "-90.10752889950605",
    "latitude": "29.99195160040562",
    "geocoded_column": {
      "latitude": "29.99195160040562",
      "longitude": "-90.10752889950605"
    }
  },
  {
    "service_request": "2023-975361",
    "request_type": "Trash/Recycling",
    "request_reason": "Order Recycling Cart",
    "date_created": "2023-02-14T16:23:01.000",
    "date_modified": "2023-02-14T16:23:01.000",
    "request_status": "Pending",
    "responsible_agency": "Department of Sanitation",
    "final_address": "4305 Cartier Ave",
    "address_councildis": "D",
    "status": "Pending",
    "rowid": "975361",
    "final_x": "3678070.93058",
    "final_y": "548150.586834",
    "longitude": "-90.0783229248563",
    "latitude": "30.00132772298828",
    "geocoded_column": {
      "latitude": "30.00132772298828",
      "longitude": "-90.0783229248563"
    }
  },
  {
    "service_request": "2023-975360",
    "request_type": "Trash/Recycling",
    "request_reason": "MIssed Recycling Pick-Up",
    "date_created": "2023-02-14T16:15:55.000",
    "date_modified": "2023-02-14T16:15:56.000",
    "request_status": "Pending",
    "responsible_agency": "Department of Sanitation",
    "final_address": "7400 Means Ave",
    "address_councildis": "E",
    "status": "Assigned to Contractor",
    "contractor": "Waste Pro",
    "rowid": "975360",
    "final_x": "3708388.08926",
    "final_y": "564069.541025",
    "longitude": "-89.9819560413703",
    "latitude": "30.0441507664412",
    "geocoded_column": {
      "latitude": "30.0441507664412",
      "longitude": "-89.9819560413703"
    }
  },
  {
    "service_request": "2023-975359",
    "request_type": "Roads/Drainage",
    "request_reason": "Street Subsidence (Sinking)",
    "date_created": "2023-02-14T16:10:11.000",
    "date_modified": "2023-02-14T16:10:11.000",
    "request_status": "Pending",
    "responsible_agency": "Department of Public Works",
    "final_address": "2223 Short St",
    "address_councildis": "A",
    "status": "Pending",
    "rowid": "975359",
    "final_x": "3664807.11853",
    "final_y": "530768.018242",
    "longitude": "-90.12080578442523",
    "latitude": "29.953924256461192",
    "geocoded_column": {
      "latitude": "29.953924256461192",
      "longitude": "-90.12080578442523"
    }
  },
  {
    "service_request": "2023-975358",
    "request_type": "Abandoned Vehicles",
    "request_reason": "Abandoned/Junk Vehicles",
    "date_created": "2023-02-14T16:09:52.000",
    "date_modified": "2023-02-14T16:09:52.000",
    "request_status": "Pending",
    "responsible_agency": "Department of Public Works",
    "final_address": "1522 N Prieur St",
    "address_councildis": "D",
    "status": "Pending",
    "rowid": "975358",
    "final_x": "3681058.53448",
    "final_y": "537953.249481",
    "longitude": "-90.06924020679288",
    "latitude": "29.973198314296173",
    "geocoded_column": {
      "latitude": "29.973198314296173",
      "longitude": "-90.06924020679288"
    }
  },
  {
    "service_request": "2023-975356",
    "request_type": "Abandoned Vehicles",
    "request_reason": "Abandoned/Junk Vehicles",
    "date_created": "2023-02-14T16:08:11.000",
    "date_modified": "2023-02-14T16:08:12.000",
    "request_status": "Pending",
    "responsible_agency": "Department of Public Works",
    "final_address": "W LAVERNE ST & KUEBEL DR",
    "address_councildis": "E",
    "status": "Pending",
    "rowid": "975356",
    "final_x": "3694819.7",
    "final_y": "559663.18",
    "longitude": "-90.0249970283824",
    "latitude": "30.032467990359983",
    "geocoded_column": {
      "latitude": "30.032467990359983",
      "longitude": "-90.0249970283824"
    }
  },
  {
    "service_request": "2023-975355",
    "request_type": "Roads/Drainage",
    "request_reason": "Pothole",
    "date_created": "2023-02-14T16:07:11.000",
    "date_modified": "2023-02-14T16:07:11.000",
    "request_status": "Pending",
    "responsible_agency": "Department of Public Works",
    "final_address": "7103 Plum St",
    "address_councildis": "A",
    "status": "Pending",
    "rowid": "975355",
    "final_x": "3664524.01204",
    "final_y": "526721.67923",
    "longitude": "-90.12183481080008",
    "latitude": "29.94280636351811",
    "geocoded_column": {
      "latitude": "29.94280636351811",
      "longitude": "-90.12183481080008"
    }
  },
  {
    "service_request": "2023-975354",
    "request_type": "Roads/Drainage",
    "request_reason": "Debris in Roadway",
    "date_created": "2023-02-14T16:04:27.000",
    "date_modified": "2023-02-14T16:04:27.000",
    "request_status": "Pending",
    "responsible_agency": "Department of Public Works",
    "final_address": "4702 St Claude Ave",
    "address_councildis": "E",
    "status": "Pending",
    "rowid": "975354",
    "final_x": "3694685.70134",
    "final_y": "534525.550917",
    "longitude": "-90.02632657024841",
    "latitude": "29.963352954410013",
    "geocoded_column": {
      "latitude": "29.963352954410013",
      "longitude": "-90.02632657024841"
    }
  },
  {
    "service_request": "2023-975353",
    "request_type": "Trash/Recycling",
    "request_reason": "Repair Recycling Cart",
    "date_created": "2023-02-14T16:01:26.000",
    "date_modified": "2023-02-14T16:01:26.000",
    "request_status": "Pending",
    "responsible_agency": "Department of Sanitation",
    "final_address": "4219 Baronne St Apt B",
    "address_councildis": "B",
    "status": "Pending",
    "rowid": "975353",
    "final_x": "3671347.10631",
    "final_y": "521811.072954",
    "longitude": "-90.10045943992333",
    "latitude": "29.929103657397434",
    "geocoded_column": {
      "latitude": "29.929103657397434",
      "longitude": "-90.10045943992333"
    }
  },
  {
    "service_request": "2023-975352",
    "request_type": "Abandoned Vehicles",
    "request_reason": "Vehicle Blocking Your Driveway",
    "date_created": "2023-02-14T15:59:46.000",
    "date_modified": "2023-02-14T15:59:47.000",
    "request_status": "Pending",
    "responsible_agency": "Department of Public Works",
    "final_address": "6265 London Dr",
    "address_councildis": "D",
    "status": "Pending",
    "rowid": "975352",
    "final_x": "3680598.29032",
    "final_y": "556041.802137",
    "longitude": "-90.0700639310353",
    "latitude": "30.022949356801032",
    "geocoded_column": {
      "latitude": "30.022949356801032",
      "longitude": "-90.0700639310353"
    }
  },
  {
    "service_request": "2023-975351",
    "request_type": "Abandoned Vehicles",
    "request_reason": "Abandoned/Junk Vehicles",
    "date_created": "2023-02-14T15:52:19.000",
    "date_modified": "2023-02-14T15:52:19.000",
    "request_status": "Pending",
    "responsible_agency": "Department of Public Works",
    "final_address": "2925 Marais St",
    "address_councildis": "C",
    "status": "Pending",
    "rowid": "975351",
    "final_x": "3688434.93711",
    "final_y": "536549.195847",
    "longitude": "-90.04599393522415",
    "latitude": "29.969111840272106",
    "geocoded_column": {
      "latitude": "29.969111840272106",
      "longitude": "-90.04599393522415"
    }
  },
  {
    "service_request": "2023-975350",
    "request_type": "Trash/Recycling",
    "request_reason": "Repair Trash Cart",
    "date_created": "2023-02-14T15:44:38.000",
    "date_modified": "2023-02-14T15:44:38.000",
    "request_status": "Pending",
    "responsible_agency": "Department of Sanitation",
    "final_address": "4616 Constance St",
    "address_councildis": "B",
    "status": "Assigned to Contractor",
    "contractor": "Richards Disposal",
    "rowid": "975350",
    "final_x": "3670194.40686",
    "final_y": "518292.208886",
    "longitude": "-90.10421745414423",
    "latitude": "29.919461953595725",
    "geocoded_column": {
      "latitude": "29.919461953595725",
      "longitude": "-90.10421745414423"
    }
  },
  {
    "service_request": "2023-975349",
    "request_type": "Safety & Permits",
    "request_reason": "Licenses & Permits",
    "date_created": "2023-02-14T15:44:26.000",
    "date_modified": "2023-02-14T15:44:26.000",
    "request_status": "Pending",
    "responsible_agency": "Safety and Permits",
    "final_address": "2903 St Claude Ave",
    "address_councildis": "C",
    "status": "Pending",
    "rowid": "975349",
    "final_x": "3688228.97711",
    "final_y": "536330.785095",
    "longitude": "-90.04665211506025",
    "latitude": "29.96851764805988",
    "geocoded_column": {
      "latitude": "29.96851764805988",
      "longitude": "-90.04665211506025"
    }
  },
  {
    "service_request": "2023-975348",
    "request_type": "Abandoned Vehicles",
    "request_reason": "Abandoned/Junk Vehicles",
    "date_created": "2023-02-14T15:42:18.000",
    "date_modified": "2023-02-14T15:42:18.000",
    "request_status": "Pending",
    "responsible_agency": "Department of Public Works",
    "final_address": "1306 Dante St",
    "address_councildis": "A",
    "status": "Pending",
    "rowid": "975348",
    "final_x": "3661679.92211",
    "final_y": "529203.572544",
    "longitude": "-90.13073208630922",
    "latitude": "29.94971315521227",
    "geocoded_column": {
      "latitude": "29.94971315521227",
      "longitude": "-90.13073208630922"
    }
  },
  {
    "service_request": "2023-975347",
    "request_type": "Trash/Recycling",
    "request_reason": "Missed Trash Pick-Up",
    "date_created": "2023-02-14T15:42:13.000",
    "date_modified": "2023-02-14T15:42:14.000",
    "request_status": "Pending",
    "responsible_agency": "Department of Sanitation",
    "final_address": "4517 S Miro St",
    "address_councildis": "B",
    "status": "Assigned to Contractor",
    "contractor": "Richards Disposal",
    "rowid": "975347",
    "final_x": "3669605.8434",
    "final_y": "527817.366335",
    "longitude": "-90.10575315016352",
    "latitude": "29.94567042811314",
    "geocoded_column": {
      "latitude": "29.94567042811314",
      "longitude": "-90.10575315016352"
    }
  },
  {
    "service_request": "2023-975344",
    "request_type": "Roads/Drainage",
    "request_reason": "Pothole",
    "date_created": "2023-02-14T15:37:11.000",
    "date_modified": "2023-02-14T15:37:12.000",
    "request_status": "Pending",
    "responsible_agency": "Department of Public Works",
    "final_address": "1900 BLK Annette St",
    "address_councildis": "D",
    "status": "Pending",
    "rowid": "975344",
    "final_x": "3682895.57873",
    "final_y": "539282.393008",
    "longitude": "-90.0633919365923",
    "latitude": "29.976797143394595",
    "geocoded_column": {
      "latitude": "29.976797143394595",
      "longitude": "-90.0633919365923"
    }
  },
  {
    "service_request": "2023-975343",
    "request_type": "Traffic Signals/Signs/Striping/Streetlights",
    "request_reason": "Road Surface Marking Maintenance-Parking Lane",
    "date_created": "2023-02-14T15:36:50.000",
    "date_modified": "2023-02-14T15:36:50.000",
    "request_status": "Pending",
    "responsible_agency": "Department of Public Works",
    "final_address": "211 S Rampart St",
    "address_councildis": "B",
    "status": "Pending",
    "rowid": "975343",
    "final_x": "3679551.01851",
    "final_y": "530937.520386",
    "longitude": "-90.0742447130598",
    "latitude": "29.95395309208869",
    "geocoded_column": {
      "latitude": "29.95395309208869",
      "longitude": "-90.0742447130598"
    }
  },
  {
    "service_request": "2023-975341",
    "request_type": "Trash/Recycling",
    "request_reason": "Request a Large Item Pick Up",
    "date_created": "2023-02-14T15:32:52.000",
    "date_modified": "2023-02-14T15:32:53.000",
    "request_status": "Pending",
    "responsible_agency": "Department of Sanitation",
    "final_address": "15 Tradewinds Ct",
    "address_councildis": "E",
    "status": "Assigned to Contractor",
    "contractor": "Waste Pro",
    "rowid": "975341",
    "final_x": "3715572.44063",
    "final_y": "570788.789543",
    "longitude": "-89.95899583312217",
    "latitude": "30.062391009146324",
    "geocoded_column": {
      "latitude": "30.062391009146324",
      "longitude": "-89.95899583312217"
    }
  },
  {
    "service_request": "2023-975340",
    "request_type": "Roads/Drainage",
    "request_reason": "Street Subsidence (Sinking)",
    "date_created": "2023-02-14T15:30:29.000",
    "date_modified": "2023-02-14T15:30:29.000",
    "request_status": "Pending",
    "responsible_agency": "Department of Public Works",
    "final_address": "2800 BLK Annunciation St",
    "address_councildis": "B",
    "status": "Pending",
    "rowid": "975340",
    "final_x": "3677443.80518",
    "final_y": "519767.487484",
    "longitude": "-90.08128383138659",
    "latitude": "29.923302680705124",
    "geocoded_column": {
      "latitude": "29.923302680705124",
      "longitude": "-90.08128383138659"
    }
  },
  {
    "service_request": "2023-975339",
    "request_type": "Trash/Recycling",
    "request_reason": "Order Recycling Cart",
    "date_created": "2023-02-14T15:26:35.000",
    "date_modified": "2023-02-14T15:26:35.000",
    "request_status": "Pending",
    "responsible_agency": "Department of Sanitation",
    "final_address": "12340 N Lake Carmel Dr",
    "address_councildis": "E",
    "status": "Pending",
    "rowid": "975339",
    "final_x": "3715317.48914",
    "final_y": "567514.662244",
    "longitude": "-89.95992578229742",
    "latitude": "30.053396914605297",
    "geocoded_column": {
      "latitude": "30.053396914605297",
      "longitude": "-89.95992578229742"
    }
  },
  {
    "service_request": "2023-975338",
    "request_type": "Abandoned Vehicles",
    "request_reason": "Abandoned/Junk Vehicles",
    "date_created": "2023-02-14T15:21:42.000",
    "date_modified": "2023-02-14T15:28:47.000",
    "request_status": "Pending",
    "responsible_agency": "Department of Public Works",
    "final_address": "4504 Perlita St",
    "address_councildis": "D",
    "status": "Pending",
    "rowid": "975338",
    "final_x": "3678672.47221",
    "final_y": "549106.830355",
    "longitude": "-90.07638946225627",
    "latitude": "30.00393892267183",
    "geocoded_column": {
      "latitude": "30.00393892267183",
      "longitude": "-90.07638946225627"
    }
  },
  {
    "service_request": "2023-975337",
    "request_type": "Trash/Recycling",
    "request_reason": "Replace Trash Cart",
    "date_created": "2023-02-14T15:17:40.000",
    "date_modified": "2023-02-14T15:17:41.000",
    "request_status": "Pending",
    "responsible_agency": "Department of Sanitation",
    "final_address": "19 Rosa Park",
    "address_councildis": "A",
    "status": "Assigned to Contractor",
    "contractor": "Richards Disposal",
    "rowid": "975337",
    "final_x": "3666345.73869",
    "final_y": "522909.755963",
    "longitude": "-90.11621100193938",
    "latitude": "29.93227170642204",
    "geocoded_column": {
      "latitude": "29.93227170642204",
      "longitude": "-90.11621100193938"
    }
  },
  {
    "service_request": "2023-975336",
    "request_type": "Trash/Recycling",
    "request_reason": "Illegal Dumping",
    "date_created": "2023-02-14T15:17:10.000",
    "date_modified": "2023-02-14T15:17:10.000",
    "request_status": "Pending",
    "responsible_agency": "Department of Sanitation",
    "final_address": "7167 Dorian St",
    "address_councildis": "D",
    "status": "Pending",
    "rowid": "975336",
    "final_x": "3696134.9217",
    "final_y": "557214.011099",
    "longitude": "-90.0209294938823",
    "latitude": "30.025692353791865",
    "geocoded_column": {
      "latitude": "30.025692353791865",
      "longitude": "-90.0209294938823"
    }
  },
  {
    "service_request": "2023-975334",
    "request_type": "Parks & Parkways",
    "request_reason": "Request Tree Service (Right of Way/Public Property)",
    "date_created": "2023-02-14T15:15:08.000",
    "date_modified": "2023-02-14T15:37:17.000",
    "case_close_date": "2023-02-14T09:37:17.000",
    "request_status": "Closed",
    "responsible_agency": "Department of Parks & Parkway",
    "final_address": "19 Rosa Park",
    "address_councildis": "A",
    "status": "Duplicate Request",
    "rowid": "975334",
    "final_x": "3666345.73869",
    "final_y": "522909.755963",
    "longitude": "-90.11621100193938",
    "latitude": "29.93227170642204",
    "geocoded_column": {
      "latitude": "29.93227170642204",
      "longitude": "-90.11621100193938"
    }
  },
  {
    "service_request": "2023-975333",
    "request_type": "Trash/Recycling",
    "request_reason": "Illegal Dumping",
    "date_created": "2023-02-14T15:14:30.000",
    "date_modified": "2023-02-14T15:14:30.000",
    "request_status": "Pending",
    "responsible_agency": "Department of Sanitation",
    "final_address": "6128 Dorothea St",
    "address_councildis": "D",
    "status": "Pending",
    "rowid": "975333",
    "final_x": "3696267.13271",
    "final_y": "557360.185371",
    "longitude": "-90.02050643544302",
    "latitude": "30.02609011296759",
    "geocoded_column": {
      "latitude": "30.02609011296759",
      "longitude": "-90.02050643544302"
    }
  },
  {
    "service_request": "2023-975332",
    "request_type": "Safety & Permits",
    "request_reason": "Licenses & Permits",
    "date_created": "2023-02-14T15:11:35.000",
    "date_modified": "2023-02-14T15:11:35.000",
    "request_status": "Pending",
    "responsible_agency": "Safety and Permits",
    "final_address": "918 Broadway St",
    "address_councildis": "A",
    "status": "Pending",
    "rowid": "975332",
    "final_x": "3663610.088",
    "final_y": "525759.518973",
    "longitude": "-90.12475234134668",
    "latitude": "29.940187268150197",
    "geocoded_column": {
      "latitude": "29.940187268150197",
      "longitude": "-90.12475234134668"
    }
  },
  {
    "service_request": "2023-975331",
    "request_type": "Trash/Recycling",
    "request_reason": "Order Recycling Cart",
    "date_created": "2023-02-14T15:10:28.000",
    "date_modified": "2023-02-14T15:10:29.000",
    "request_status": "Pending",
    "responsible_agency": "Department of Sanitation",
    "final_address": "2238 Lafreniere St",
    "address_councildis": "D",
    "status": "Pending",
    "rowid": "975331",
    "final_x": "3684638.95676",
    "final_y": "545462.733328",
    "longitude": "-90.0576685004102",
    "latitude": "29.9937376506578",
    "geocoded_column": {
      "latitude": "29.9937376506578",
      "longitude": "-90.0576685004102"
    }
  },
  {
    "service_request": "2023-975330",
    "request_type": "Traffic Signals/Signs/Striping/Streetlights",
    "request_reason": "Traffic Signal Malfunctioning/Damaged",
    "date_created": "2023-02-14T15:07:18.000",
    "date_modified": "2023-02-14T15:07:18.000",
    "request_status": "Pending",
    "responsible_agency": "Department of Public Works",
    "final_address": "CANAL BLVD & HARRISON AVE",
    "address_councildis": "A",
    "status": "Pending",
    "rowid": "975330",
    "final_x": "3668723.1",
    "final_y": "549310.28",
    "longitude": "-90.10781447934356",
    "latitude": "30.00479468473077",
    "geocoded_column": {
      "latitude": "30.00479468473077",
      "longitude": "-90.10781447934356"
    }
  },
  {
    "service_request": "2023-975329",
    "request_type": "Roads/Drainage",
    "request_reason": "Catch Basin - Clogged",
    "date_created": "2023-02-14T15:06:11.000",
    "date_modified": "2023-02-14T15:06:12.000",
    "request_status": "Pending",
    "responsible_agency": "Department of Public Works",
    "final_address": "405 Esplanade Ave",
    "address_councildis": "C",
    "status": "Pending",
    "rowid": "975329",
    "final_x": "3684951.26537",
    "final_y": "533814.223941",
    "longitude": "-90.05709179983954",
    "latitude": "29.96169877142504",
    "geocoded_column": {
      "latitude": "29.96169877142504",
      "longitude": "-90.05709179983954"
    }
  },
  {
    "service_request": "2023-975328",
    "request_type": "Trash/Recycling",
    "request_reason": "Missed Trash Pick-Up",
    "date_created": "2023-02-14T15:05:00.000",
    "date_modified": "2023-02-14T15:05:01.000",
    "request_status": "Pending",
    "responsible_agency": "Department of Sanitation",
    "final_address": "912 Wilson Dr",
    "address_councildis": "A",
    "status": "Assigned to Contractor",
    "contractor": "Richards Disposal",
    "rowid": "975328",
    "final_x": "3674150.25723",
    "final_y": "539973.945931",
    "longitude": "-90.09098876959757",
    "latitude": "29.978962289288976",
    "geocoded_column": {
      "latitude": "29.978962289288976",
      "longitude": "-90.09098876959757"
    }
  },
  {
    "service_request": "2023-975327",
    "request_type": "Trash/Recycling",
    "request_reason": "Missed Trash Pick-Up",
    "date_created": "2023-02-14T15:04:14.000",
    "date_modified": "2023-02-14T15:04:15.000",
    "request_status": "Pending",
    "responsible_agency": "Department of Sanitation",
    "final_address": "3600 Delgado Dr",
    "address_councildis": "A",
    "status": "Assigned to Contractor",
    "contractor": "Richards Disposal",
    "rowid": "975327",
    "final_x": "3674325.3426",
    "final_y": "540400.416523",
    "longitude": "-90.0904211715261",
    "latitude": "29.98012971644632",
    "geocoded_column": {
      "latitude": "29.98012971644632",
      "longitude": "-90.0904211715261"
    }
  },
  {
    "service_request": "2023-975326",
    "request_type": "Traffic Signals/Signs/Striping/Streetlights",
    "request_reason": "Street Light Outage/Malfunction",
    "date_created": "2023-02-14T15:04:03.000",
    "date_modified": "2023-02-14T15:04:04.000",
    "request_status": "Pending",
    "responsible_agency": "Department of Public Works",
    "final_address": "2 Park Timbers Dr",
    "address_councildis": "C",
    "status": "Assigned to Contractor",
    "contractor": "Legacy Professional Services",
    "rowid": "975326",
    "final_x": "3699406.97348",
    "final_y": "518414.406966",
    "longitude": "-90.0120041022768",
    "latitude": "29.9189040089332",
    "geocoded_column": {
      "latitude": "29.9189040089332",
      "longitude": "-90.0120041022768"
    }
  },
  {
    "service_request": "2023-975325",
    "request_type": "Trash/Recycling",
    "request_reason": "Repair Trash Cart",
    "date_created": "2023-02-14T15:02:03.000",
    "date_modified": "2023-02-14T15:02:04.000",
    "request_status": "Pending",
    "responsible_agency": "Department of Sanitation",
    "final_address": "7940 Wave Dr",
    "address_councildis": "E",
    "status": "Assigned to Contractor",
    "contractor": "Waste Pro",
    "rowid": "975325",
    "final_x": "3714130.51026",
    "final_y": "569777.500966",
    "longitude": "-89.96359197534527",
    "latitude": "30.059657857744153",
    "geocoded_column": {
      "latitude": "30.059657857744153",
      "longitude": "-89.96359197534527"
    }
  },
  {
    "service_request": "2023-975324",
    "request_type": "Trash/Recycling",
    "request_reason": "Repair Trash Cart",
    "date_created": "2023-02-14T15:01:26.000",
    "date_modified": "2023-02-14T15:01:27.000",
    "request_status": "Pending",
    "responsible_agency": "Department of Sanitation",
    "final_address": "2 Park Timbers Dr",
    "address_councildis": "C",
    "status": "Assigned to Contractor",
    "contractor": "Richards Disposal",
    "rowid": "975324",
    "final_x": "3699406.97348",
    "final_y": "518414.406966",
    "longitude": "-90.0120041022768",
    "latitude": "29.9189040089332",
    "geocoded_column": {
      "latitude": "29.9189040089332",
      "longitude": "-90.0120041022768"
    }
  },
  {
    "service_request": "2023-975323",
    "request_type": "Trash/Recycling",
    "request_reason": "Order Recycling Cart",
    "date_created": "2023-02-14T14:59:58.000",
    "date_modified": "2023-02-14T14:59:58.000",
    "request_status": "Pending",
    "responsible_agency": "Department of Sanitation",
    "final_address": "2 Park Timbers Dr",
    "address_councildis": "C",
    "status": "Pending",
    "rowid": "975323",
    "final_x": "3699406.97348",
    "final_y": "518414.406966",
    "longitude": "-90.0120041022768",
    "latitude": "29.9189040089332",
    "geocoded_column": {
      "latitude": "29.9189040089332",
      "longitude": "-90.0120041022768"
    }
  },
  {
    "service_request": "2023-975322",
    "request_type": "Trash/Recycling",
    "request_reason": "Order Trash Cart",
    "date_created": "2023-02-14T14:54:04.000",
    "date_modified": "2023-02-14T14:54:04.000",
    "request_status": "Pending",
    "responsible_agency": "Department of Sanitation",
    "final_address": "181 Oakmont Dr",
    "address_councildis": "E",
    "status": "Assigned to Contractor",
    "contractor": "Waste Pro",
    "rowid": "975322",
    "final_x": "3720192.13407",
    "final_y": "563150.604384",
    "longitude": "-89.94468565982726",
    "latitude": "30.041235998225126",
    "geocoded_column": {
      "latitude": "30.041235998225126",
      "longitude": "-89.94468565982726"
    }
  },
  {
    "service_request": "2023-975321",
    "request_type": "Parks & Parkways",
    "request_reason": "Request Tree Service (Right of Way/Public Property)",
    "date_created": "2023-02-14T14:52:04.000",
    "date_modified": "2023-02-14T15:34:35.000",
    "case_close_date": "2023-02-14T09:34:35.000",
    "request_status": "Closed",
    "responsible_agency": "Department of Parks & Parkway",
    "final_address": "830 Spain St",
    "address_councildis": "C",
    "status": "Not Enough Information- Resubmittal Required",
    "rowid": "975321",
    "final_x": "3686166.95305",
    "final_y": "535578.512518",
    "longitude": "-90.05319062209662",
    "latitude": "29.9665126665688",
    "geocoded_column": {
      "latitude": "29.9665126665688",
      "longitude": "-90.05319062209662"
    }
  },
  {
    "service_request": "2023-975320",
    "request_type": "Trash/Recycling",
    "request_reason": "Missed Trash Pick-Up",
    "date_created": "2023-02-14T14:43:26.000",
    "date_modified": "2023-02-14T14:43:26.000",
    "request_status": "Pending",
    "responsible_agency": "Department of Sanitation",
    "final_address": "1459 Gardena Dr",
    "address_councildis": "D",
    "status": "Assigned to Contractor",
    "contractor": "IV Waste",
    "rowid": "975320",
    "final_x": "3677961.96795",
    "final_y": "551547.221269",
    "longitude": "-90.07854964299695",
    "latitude": "30.010670537657635",
    "geocoded_column": {
      "latitude": "30.010670537657635",
      "longitude": "-90.07854964299695"
    }
  },
  {
    "service_request": "2023-975319",
    "request_type": "Trash/Recycling",
    "request_reason": "Request a Large Item Pick Up",
    "date_created": "2023-02-14T14:42:13.000",
    "date_modified": "2023-02-14T14:42:14.000",
    "request_status": "Pending",
    "responsible_agency": "Department of Sanitation",
    "final_address": "1422 Octavia St",
    "address_councildis": "A",
    "status": "Assigned to Contractor",
    "contractor": "Richards Disposal",
    "rowid": "975319",
    "final_x": "3666866.56487",
    "final_y": "521100.341945",
    "longitude": "-90.1146275509725",
    "latitude": "29.92728117013433",
    "geocoded_column": {
      "latitude": "29.92728117013433",
      "longitude": "-90.1146275509725"
    }
  },
  {
    "service_request": "2023-975318",
    "request_type": "Roads/Drainage",
    "request_reason": "Catch Basin - Broken/Damage",
    "date_created": "2023-02-14T14:40:57.000",
    "date_modified": "2023-02-14T14:40:57.000",
    "request_status": "Pending",
    "responsible_agency": "Department of Public Works",
    "final_address": "2022 Audubon St",
    "address_councildis": "A",
    "status": "Pending",
    "rowid": "975318",
    "final_x": "3666079.9984",
    "final_y": "528849.910016",
    "longitude": "-90.11685083574885",
    "latitude": "29.94861298354197",
    "geocoded_column": {
      "latitude": "29.94861298354197",
      "longitude": "-90.11685083574885"
    }
  },
  {
    "service_request": "2023-975317",
    "request_type": "Trash/Recycling",
    "request_reason": "MIssed Recycling Pick-Up",
    "date_created": "2023-02-14T14:32:51.000",
    "date_modified": "2023-02-14T14:32:52.000",
    "request_status": "Pending",
    "responsible_agency": "Department of Sanitation",
    "final_address": "7711 Means Ave",
    "address_councildis": "E",
    "status": "Assigned to Contractor",
    "contractor": "Waste Pro",
    "rowid": "975317",
    "final_x": "3708016.57483",
    "final_y": "564982.83581",
    "longitude": "-89.98309616967384",
    "latitude": "30.0466740042263",
    "geocoded_column": {
      "latitude": "30.0466740042263",
      "longitude": "-89.98309616967384"
    }
  },
  {
    "service_request": "2023-975316",
    "request_type": "Property Maintenance",
    "request_reason": "Property Maintenance",
    "date_created": "2023-02-14T14:27:14.000",
    "date_modified": "2023-02-14T14:27:14.000",
    "request_status": "Pending",
    "responsible_agency": "Department of Code Enforcement",
    "final_address": "6501 Center St",
    "address_councildis": "A",
    "status": "Pending",
    "rowid": "975316",
    "final_x": "3664978.27469",
    "final_y": "551258.059285",
    "longitude": "-90.11958000212604",
    "latitude": "30.010260000674354",
    "geocoded_column": {
      "latitude": "30.010260000674354",
      "longitude": "-90.11958000212604"
    }
  },
  {
    "service_request": "2023-975315",
    "request_type": "Trash/Recycling",
    "request_reason": "Missed Trash Pick-Up",
    "date_created": "2023-02-14T14:23:14.000",
    "date_modified": "2023-02-14T14:23:15.000",
    "request_status": "Pending",
    "responsible_agency": "Department of Sanitation",
    "final_address": "7501 Stonewood St",
    "address_councildis": "E",
    "status": "Assigned to Contractor",
    "contractor": "Waste Pro",
    "rowid": "975315",
    "final_x": "3720114.05682",
    "final_y": "572139.995816",
    "longitude": "-89.9445880880459",
    "latitude": "30.06595569841212",
    "geocoded_column": {
      "latitude": "30.06595569841212",
      "longitude": "-89.9445880880459"
    }
  },
  {
    "service_request": "2023-975314",
    "request_type": "Traffic Signals/Signs/Striping/Streetlights",
    "request_reason": "Traffic Signal Malfunctioning/Damaged",
    "date_created": "2023-02-14T14:21:12.000",
    "date_modified": "2023-02-14T14:21:13.000",
    "request_status": "Pending",
    "responsible_agency": "Department of Public Works",
    "final_address": "MORRISON RD & DOWNMAN RD",
    "address_councildis": "D",
    "status": "Pending",
    "rowid": "975314",
    "final_x": "3695031.8",
    "final_y": "557307.18",
    "longitude": "-90.0244118268032",
    "latitude": "30.025983227650283",
    "geocoded_column": {
      "latitude": "30.025983227650283",
      "longitude": "-90.0244118268032"
    }
  },
  {
    "service_request": "2023-975313",
    "request_type": "Property Maintenance",
    "request_reason": "Property Maintenance",
    "date_created": "2023-02-14T14:20:34.000",
    "date_modified": "2023-02-14T14:20:35.000",
    "request_status": "Pending",
    "responsible_agency": "Department of Code Enforcement",
    "final_address": "BIENVILLE ST & N JOHNSON ST",
    "address_councildis": "B",
    "status": "Pending",
    "rowid": "975313",
    "final_x": "3677713.91",
    "final_y": "534261.57",
    "longitude": "-90.07993074039157",
    "latitude": "29.96314848691165",
    "geocoded_column": {
      "latitude": "29.96314848691165",
      "longitude": "-90.07993074039157"
    }
  },
  {
    "service_request": "2023-975312",
    "request_type": "Trash/Recycling",
    "request_reason": "Repair Trash Cart",
    "date_created": "2023-02-14T14:18:45.000",
    "date_modified": "2023-02-14T14:18:46.000",
    "request_status": "Pending",
    "responsible_agency": "Department of Sanitation",
    "final_address": "1625 Lowerline St",
    "address_councildis": "A",
    "status": "Assigned to Contractor",
    "contractor": "Richards Disposal",
    "rowid": "975312",
    "final_x": "3664661.75463",
    "final_y": "528130.866751",
    "longitude": "-90.12135286311985",
    "latitude": "29.94667717133084",
    "geocoded_column": {
      "latitude": "29.94667717133084",
      "longitude": "-90.12135286311985"
    }
  },
  {
    "service_request": "2023-975311",
    "request_type": "Trash/Recycling",
    "request_reason": "Missed Trash Pick-Up",
    "date_created": "2023-02-14T14:17:01.000",
    "date_modified": "2023-02-14T14:17:02.000",
    "request_status": "Pending",
    "responsible_agency": "Department of Sanitation",
    "final_address": "10100 Chevy Chase Dr",
    "address_councildis": "E",
    "status": "Assigned to Contractor",
    "contractor": "Waste Pro",
    "rowid": "975311",
    "final_x": "3709774.92267",
    "final_y": "562949.806304",
    "longitude": "-89.97761493971325",
    "latitude": "30.04102689841945",
    "geocoded_column": {
      "latitude": "30.04102689841945",
      "longitude": "-89.97761493971325"
    }
  },
  {
    "service_request": "2023-975310",
    "request_type": "Tax and Revenue",
    "request_reason": "Occupational License Tax",
    "date_created": "2023-02-14T14:16:50.000",
    "date_modified": "2023-02-14T15:11:24.000",
    "request_status": "Pending",
    "responsible_agency": "Bureau of Revenue",
    "final_address": "New Orleans,LA",
    "rowid": "975310",
    "longitude": "0.0",
    "latitude": "0.0",
    "geocoded_column": {
      "latitude": "0.0",
      "longitude": "0.0"
    }
  },
  {
    "service_request": "2023-975308",
    "request_type": "Trash/Recycling",
    "request_reason": "Replace Trash Cart",
    "date_created": "2023-02-14T14:13:41.000",
    "date_modified": "2023-02-14T14:13:41.000",
    "request_status": "Pending",
    "responsible_agency": "Department of Sanitation",
    "final_address": "1129 Constantinople St",
    "address_councildis": "B",
    "status": "Assigned to Contractor",
    "contractor": "Richards Disposal",
    "rowid": "975308",
    "final_x": "3672480.21876",
    "final_y": "519836.457464",
    "longitude": "-90.09694967801863",
    "latitude": "29.923640526193257",
    "geocoded_column": {
      "latitude": "29.923640526193257",
      "longitude": "-90.09694967801863"
    }
  },
  {
    "service_request": "2023-975307",
    "request_type": "Trash/Recycling",
    "request_reason": "Order Recycling Cart",
    "date_created": "2023-02-14T14:12:45.000",
    "date_modified": "2023-02-14T14:12:46.000",
    "request_status": "Pending",
    "responsible_agency": "Department of Sanitation",
    "final_address": "240 Thayer St",
    "address_councildis": "C",
    "status": "Pending",
    "rowid": "975307",
    "final_x": "3689610.7007",
    "final_y": "530740.52749",
    "longitude": "-90.04248745844056",
    "latitude": "29.953103650149078",
    "geocoded_column": {
      "latitude": "29.953103650149078",
      "longitude": "-90.04248745844056"
    }
  },
  {
    "service_request": "2023-975306",
    "request_type": "Abandoned Vehicles",
    "request_reason": "Abandoned/Junk Vehicles",
    "date_created": "2023-02-14T14:12:31.000",
    "date_modified": "2023-02-14T14:12:31.000",
    "request_status": "Pending",
    "responsible_agency": "Department of Public Works",
    "final_address": "5342 Cameron Blvd",
    "address_councildis": "D",
    "status": "Pending",
    "rowid": "975306",
    "final_x": "3682451.37378",
    "final_y": "552791.134038",
    "longitude": "-90.06432236359403",
    "latitude": "30.013954903167026",
    "geocoded_column": {
      "latitude": "30.013954903167026",
      "longitude": "-90.06432236359403"
    }
  },
  {
    "service_request": "2023-975305",
    "request_type": "Trash/Recycling",
    "request_reason": "Order Trash Cart",
    "date_created": "2023-02-14T14:12:04.000",
    "date_modified": "2023-02-14T14:12:05.000",
    "request_status": "Pending",
    "responsible_agency": "Department of Sanitation",
    "final_address": "240 Thayer St",
    "address_councildis": "C",
    "status": "Assigned to Contractor",
    "contractor": "Richards Disposal",
    "rowid": "975305",
    "final_x": "3689610.7007",
    "final_y": "530740.52749",
    "longitude": "-90.04248745844056",
    "latitude": "29.953103650149078",
    "geocoded_column": {
      "latitude": "29.953103650149078",
      "longitude": "-90.04248745844056"
    }
  },
  {
    "service_request": "2023-975304",
    "request_type": "Trash/Recycling",
    "request_reason": "Start Trash Service",
    "date_created": "2023-02-14T14:11:33.000",
    "date_modified": "2023-02-14T14:11:34.000",
    "request_status": "Pending",
    "responsible_agency": "Department of Sanitation",
    "final_address": "240 Thayer St",
    "address_councildis": "C",
    "status": "Assigned to Contractor",
    "contractor": "Richards Disposal",
    "rowid": "975304",
    "final_x": "3689610.7007",
    "final_y": "530740.52749",
    "longitude": "-90.04248745844056",
    "latitude": "29.953103650149078",
    "geocoded_column": {
      "latitude": "29.953103650149078",
      "longitude": "-90.04248745844056"
    }
  },
  {
    "service_request": "2023-975303",
    "request_type": "Trash/Recycling",
    "request_reason": "Return Recycling Cart",
    "date_created": "2023-02-14T14:06:29.000",
    "date_modified": "2023-02-14T14:06:30.000",
    "request_status": "Pending",
    "responsible_agency": "Department of Sanitation",
    "final_address": "6200 Oxford St",
    "address_councildis": "C",
    "status": "Pending",
    "rowid": "975303",
    "final_x": "3707008.20414",
    "final_y": "519800.35724",
    "longitude": "-89.98795979404888",
    "latitude": "29.922471682340433",
    "geocoded_column": {
      "latitude": "29.922471682340433",
      "longitude": "-89.98795979404888"
    }
  },
  {
    "service_request": "2023-975302",
    "request_type": "Trash/Recycling",
    "request_reason": "Repair Recycling Cart",
    "date_created": "2023-02-14T13:57:36.000",
    "date_modified": "2023-02-14T13:57:37.000",
    "request_status": "Pending",
    "responsible_agency": "Department of Sanitation",
    "final_address": "4423 Kennon Ave",
    "address_councildis": "D",
    "status": "Pending",
    "rowid": "975302",
    "final_x": "3677538.08181",
    "final_y": "548658.841171",
    "longitude": "-90.07998868068817",
    "latitude": "30.00274127882721",
    "geocoded_column": {
      "latitude": "30.00274127882721",
      "longitude": "-90.07998868068817"
    }
  },
  {
    "service_request": "2023-975301",
    "request_type": "Trash/Recycling",
    "request_reason": "Return Trash Cart",
    "date_created": "2023-02-14T13:53:30.000",
    "date_modified": "2023-02-14T13:53:31.000",
    "request_status": "Pending",
    "responsible_agency": "Department of Sanitation",
    "final_address": "3149 Trafalgar St",
    "address_councildis": "A",
    "status": "Assigned to Contractor",
    "contractor": "IV Waste",
    "rowid": "975301",
    "final_x": "3678532.30466",
    "final_y": "543255.582414",
    "longitude": "-90.07703494651676",
    "latitude": "29.987854282135345",
    "geocoded_column": {
      "latitude": "29.987854282135345",
      "longitude": "-90.07703494651676"
    }
  },
  {
    "service_request": "2023-975300",
    "request_type": "Traffic Signals/Signs/Striping/Streetlights",
    "request_reason": "Street Light Outage/Malfunction",
    "date_created": "2023-02-14T13:53:04.000",
    "date_modified": "2023-02-14T13:53:05.000",
    "request_status": "Pending",
    "responsible_agency": "Department of Public Works",
    "final_address": "1125 Teche St",
    "address_councildis": "C",
    "status": "Assigned to Contractor",
    "contractor": "Legacy Professional Services",
    "rowid": "975300",
    "final_x": "3686566.75798",
    "final_y": "527303.369215",
    "longitude": "-90.05222022456581",
    "latitude": "29.94374657488546",
    "geocoded_column": {
      "latitude": "29.94374657488546",
      "longitude": "-90.05222022456581"
    }
  },
  {
    "service_request": "2023-975299",
    "request_type": "Trash/Recycling",
    "request_reason": "Missed Trash Pick-Up",
    "date_created": "2023-02-14T13:49:29.000",
    "date_modified": "2023-02-14T13:49:30.000",
    "request_status": "Pending",
    "responsible_agency": "Department of Sanitation",
    "final_address": "255 Belleville St",
    "address_councildis": "C",
    "status": "Assigned to Contractor",
    "contractor": "Richards Disposal",
    "rowid": "975299",
    "final_x": "3687856.53724",
    "final_y": "530994.247682",
    "longitude": "-90.0480173410112",
    "latitude": "29.95385551437567",
    "geocoded_column": {
      "latitude": "29.95385551437567",
      "longitude": "-90.0480173410112"
    }
  },
  {
    "service_request": "2023-975298",
    "request_type": "Property Maintenance",
    "request_reason": "Property Maintenance",
    "date_created": "2023-02-14T13:43:08.000",
    "date_modified": "2023-02-14T13:43:09.000",
    "request_status": "Pending",
    "responsible_agency": "Department of Code Enforcement",
    "final_address": "4913 Arts St",
    "address_councildis": "D",
    "status": "Pending",
    "rowid": "975298",
    "final_x": "3685935.62287",
    "final_y": "550986.302933",
    "longitude": "-90.05337763127609",
    "latitude": "30.008885714595966",
    "geocoded_column": {
      "latitude": "30.008885714595966",
      "longitude": "-90.05337763127609"
    }
  },
  {
    "service_request": "2023-975297",
    "request_type": "Trash/Recycling",
    "request_reason": "Repair Trash Cart",
    "date_created": "2023-02-14T13:40:33.000",
    "date_modified": "2023-02-14T13:40:34.000",
    "request_status": "Pending",
    "responsible_agency": "Department of Sanitation",
    "final_address": "5122 Laurel St",
    "address_councildis": "B",
    "status": "Assigned to Contractor",
    "contractor": "Richards Disposal",
    "rowid": "975297",
    "final_x": "3668120.89018",
    "final_y": "517779.429942",
    "longitude": "-90.11077980105419",
    "latitude": "29.918112968667774",
    "geocoded_column": {
      "latitude": "29.918112968667774",
      "longitude": "-90.11077980105419"
    }
  },
  {
    "service_request": "2023-975296",
    "request_type": "Trash/Recycling",
    "request_reason": "Replace Recycling Cart",
    "date_created": "2023-02-14T13:39:52.000",
    "date_modified": "2023-02-14T13:39:52.000",
    "request_status": "Pending",
    "responsible_agency": "Department of Sanitation",
    "final_address": "7660 Arbor Dr",
    "address_councildis": "E",
    "status": "Pending",
    "rowid": "975296",
    "final_x": "3702355.9546",
    "final_y": "558332.316764",
    "longitude": "-90.00123094569753",
    "latitude": "30.028569874305187",
    "geocoded_column": {
      "latitude": "30.028569874305187",
      "longitude": "-90.00123094569753"
    }
  },
  {
    "service_request": "2023-975295",
    "request_type": "Trash/Recycling",
    "request_reason": "Missed Trash Pick-Up",
    "date_created": "2023-02-14T13:34:14.000",
    "date_modified": "2023-02-14T13:34:14.000",
    "request_status": "Pending",
    "responsible_agency": "Department of Sanitation",
    "final_address": "426 S Clark St",
    "address_councildis": "B",
    "status": "Assigned to Contractor",
    "contractor": "Richards Disposal",
    "rowid": "975295",
    "final_x": "3672013.55668",
    "final_y": "535810.143943",
    "longitude": "-90.09787909598866",
    "latitude": "29.967576769050133",
    "geocoded_column": {
      "latitude": "29.967576769050133",
      "longitude": "-90.09787909598866"
    }
  },
  {
    "service_request": "2023-975293",
    "request_type": "Trash/Recycling",
    "request_reason": "Illegal Dumping",
    "date_created": "2023-02-14T13:26:21.000",
    "date_modified": "2023-02-14T13:29:43.000",
    "request_status": "Pending",
    "responsible_agency": "Department of Code Enforcement",
    "final_address": "4037 N Villere St",
    "address_councildis": "D",
    "status": "Pending",
    "rowid": "975293",
    "final_x": "3692353.43273",
    "final_y": "536374.955335",
    "longitude": "-90.03362534023061",
    "latitude": "29.968511108191564",
    "geocoded_column": {
      "latitude": "29.968511108191564",
      "longitude": "-90.03362534023061"
    }
  },
  {
    "service_request": "2023-975292",
    "request_type": "Traffic Signals/Signs/Striping/Streetlights",
    "request_reason": "Street Light Outage/Malfunction",
    "date_created": "2023-02-14T13:22:24.000",
    "date_modified": "2023-02-14T13:22:24.000",
    "request_status": "Pending",
    "responsible_agency": "Department of Public Works",
    "final_address": "5125 Magazine St",
    "address_councildis": "B",
    "status": "Assigned to Contractor",
    "contractor": "Legacy Professional Services",
    "rowid": "975292",
    "final_x": "3668124.03572",
    "final_y": "518691.283831",
    "longitude": "-90.11073916197412",
    "latitude": "29.9206201875399",
    "geocoded_column": {
      "latitude": "29.9206201875399",
      "longitude": "-90.11073916197412"
    }
  },
  {
    "service_request": "2023-975291",
    "request_type": "Roads/Drainage",
    "request_reason": "Pothole",
    "date_created": "2023-02-14T13:22:08.000",
    "date_modified": "2023-02-14T13:22:08.000",
    "request_status": "Pending",
    "responsible_agency": "Department of Public Works",
    "final_address": "5825 Fontainebleau Dr",
    "address_councildis": "B",
    "status": "Pending",
    "rowid": "975291",
    "final_x": "3668346.02958",
    "final_y": "529950.103169",
    "longitude": "-90.10965889813863",
    "latitude": "29.951571811600417",
    "geocoded_column": {
      "latitude": "29.951571811600417",
      "longitude": "-90.10965889813863"
    }
  },
  {
    "service_request": "2023-975290",
    "request_type": "Roads/Drainage",
    "request_reason": "Damaged Sidewalk",
    "date_created": "2023-02-14T13:20:55.000",
    "date_modified": "2023-02-14T13:20:55.000",
    "request_status": "Pending",
    "responsible_agency": "Department of Public Works",
    "final_address": "7016 W Tamaron Blvd",
    "address_councildis": "E",
    "status": "Pending",
    "rowid": "975290",
    "final_x": "3718778.62559",
    "final_y": "568007.516005",
    "longitude": "-89.94896734479637",
    "latitude": "30.054637535951493",
    "geocoded_column": {
      "latitude": "30.054637535951493",
      "longitude": "-89.94896734479637"
    }
  },
  {
    "service_request": "2023-975289",
    "request_type": "Abandoned Vehicles",
    "request_reason": "Abandoned/Junk Vehicles",
    "date_created": "2023-02-14T13:16:30.000",
    "date_modified": "2023-02-14T13:16:31.000",
    "request_status": "Pending",
    "responsible_agency": "Department of Public Works",
    "final_address": "2757 Palmyra St",
    "address_councildis": "B",
    "status": "Pending",
    "rowid": "975289",
    "final_x": "3674482.8859",
    "final_y": "534806.167238",
    "longitude": "-90.09011528865992",
    "latitude": "29.964742732462422",
    "geocoded_column": {
      "latitude": "29.964742732462422",
      "longitude": "-90.09011528865992"
    }
  },
  {
    "service_request": "2023-975288",
    "request_type": "Trash/Recycling",
    "request_reason": "Repair Trash Cart",
    "date_created": "2023-02-14T13:11:20.000",
    "date_modified": "2023-02-14T13:11:20.000",
    "request_status": "Pending",
    "responsible_agency": "Department of Sanitation",
    "final_address": "3 Caddo Pl",
    "address_councildis": "E",
    "status": "Assigned to Contractor",
    "contractor": "Waste Pro",
    "rowid": "975288",
    "final_x": "3725982.5326",
    "final_y": "564268.460961",
    "longitude": "-89.92634283885545",
    "latitude": "30.04411541705881",
    "geocoded_column": {
      "latitude": "30.04411541705881",
      "longitude": "-89.92634283885545"
    }
  },
  {
    "service_request": "2023-975287",
    "request_type": "Traffic Signals/Signs/Striping/Streetlights",
    "request_reason": "Street Name Sign Damaged or Missing",
    "date_created": "2023-02-14T13:08:29.000",
    "date_modified": "2023-02-14T13:08:30.000",
    "request_status": "Pending",
    "responsible_agency": "Department of Public Works",
    "final_address": "N JOHNSON ST & MUSIC ST",
    "address_councildis": "D",
    "status": "Pending",
    "rowid": "975287",
    "final_x": "3686585.6",
    "final_y": "539764.98",
    "longitude": "-90.05172066925284",
    "latitude": "29.9780111200299",
    "geocoded_column": {
      "latitude": "29.9780111200299",
      "longitude": "-90.05172066925284"
    }
  },
  {
    "service_request": "2023-975286",
    "request_type": "Trash/Recycling",
    "request_reason": "Request a Large Item Pick Up",
    "date_created": "2023-02-14T13:04:10.000",
    "date_modified": "2023-02-14T13:04:11.000",
    "request_status": "Pending",
    "responsible_agency": "Department of Sanitation",
    "final_address": "2157 Treasure St",
    "address_councildis": "D",
    "status": "Assigned to Contractor",
    "contractor": "IV Waste",
    "rowid": "975286",
    "final_x": "3684114.53052",
    "final_y": "544065.03643",
    "longitude": "-90.05937416973043",
    "latitude": "29.98991052465372",
    "geocoded_column": {
      "latitude": "29.98991052465372",
      "longitude": "-90.05937416973043"
    }
  },
  {
    "service_request": "2023-975283",
    "request_type": "Roads/Drainage",
    "request_reason": "Street Subsidence (Sinking)",
    "date_created": "2023-02-14T13:00:36.000",
    "date_modified": "2023-02-14T13:01:59.000",
    "request_status": "Pending",
    "responsible_agency": "Department of Public Works",
    "final_address": "1500 BLK Kabel Dr",
    "address_councildis": "C",
    "status": "Pending",
    "rowid": "975283",
    "final_x": "3700709.19763",
    "final_y": "522002.099484",
    "longitude": "-90.00776267444392",
    "latitude": "29.92872757486283",
    "geocoded_column": {
      "latitude": "29.92872757486283",
      "longitude": "-90.00776267444392"
    }
  },
  {
    "service_request": "2023-975282",
    "request_type": "Trash/Recycling",
    "request_reason": "Missed Trash Pick-Up",
    "date_created": "2023-02-14T13:00:05.000",
    "date_modified": "2023-02-14T13:00:06.000",
    "request_status": "Pending",
    "responsible_agency": "Department of Sanitation",
    "final_address": "4517 S Miro St",
    "address_councildis": "B",
    "status": "Assigned to Contractor",
    "contractor": "Richards Disposal",
    "rowid": "975282",
    "final_x": "3669605.8434",
    "final_y": "527817.366335",
    "longitude": "-90.10575315016352",
    "latitude": "29.94567042811314",
    "geocoded_column": {
      "latitude": "29.94567042811314",
      "longitude": "-90.10575315016352"
    }
  },
  {
    "service_request": "2023-975281",
    "request_type": "Trash/Recycling",
    "request_reason": "Missed Trash Pick-Up",
    "date_created": "2023-02-14T12:59:06.000",
    "date_modified": "2023-02-14T12:59:07.000",
    "request_status": "Pending",
    "responsible_agency": "Department of Sanitation",
    "final_address": "7790 Hayne Blvd",
    "address_councildis": "E",
    "status": "Assigned to Contractor",
    "contractor": "Waste Pro",
    "rowid": "975281",
    "final_x": "3700932.72337",
    "final_y": "562339.892831",
    "longitude": "-90.00558151813395",
    "latitude": "30.039634569624003",
    "geocoded_column": {
      "latitude": "30.039634569624003",
      "longitude": "-90.00558151813395"
    }
  },
  {
    "service_request": "2023-975280",
    "request_type": "Roads/Drainage",
    "request_reason": "Street Subsidence (Sinking)",
    "date_created": "2023-02-14T12:58:58.000",
    "date_modified": "2023-02-14T12:58:58.000",
    "request_status": "Pending",
    "responsible_agency": "Department of Public Works",
    "final_address": "1600 Kabel Dr",
    "address_councildis": "C",
    "status": "Pending",
    "rowid": "975280",
    "final_x": "3700822.99178",
    "final_y": "521996.491706",
    "longitude": "-90.00740365711032",
    "latitude": "29.928708535170298",
    "geocoded_column": {
      "latitude": "29.928708535170298",
      "longitude": "-90.00740365711032"
    }
  },
  {
    "service_request": "2023-975279",
    "request_type": "Trash/Recycling",
    "request_reason": "Replace Trash Cart",
    "date_created": "2023-02-14T12:58:01.000",
    "date_modified": "2023-02-14T12:58:01.000",
    "request_status": "Pending",
    "responsible_agency": "Department of Sanitation",
    "final_address": "1840 Touro St",
    "address_councildis": "D",
    "status": "Assigned to Contractor",
    "contractor": "IV Waste",
    "rowid": "975279",
    "final_x": "3683973.01666",
    "final_y": "539146.814602",
    "longitude": "-90.0599938126323",
    "latitude": "29.976391471712834",
    "geocoded_column": {
      "latitude": "29.976391471712834",
      "longitude": "-90.0599938126323"
    }
  },
  {
    "service_request": "2023-975278",
    "request_type": "Trash/Recycling",
    "request_reason": "Request a Large Item Pick Up",
    "date_created": "2023-02-14T12:57:29.000",
    "date_modified": "2023-02-14T12:57:29.000",
    "request_status": "Pending",
    "responsible_agency": "Department of Sanitation",
    "final_address": "4782 Marque Dr",
    "address_councildis": "E",
    "status": "Assigned to Contractor",
    "contractor": "Waste Pro",
    "rowid": "975278",
    "final_x": "3709963.21957",
    "final_y": "556011.848153",
    "longitude": "-89.97727935012318",
    "latitude": "30.021944129281856",
    "geocoded_column": {
      "latitude": "30.021944129281856",
      "longitude": "-89.97727935012318"
    }
  },
  {
    "service_request": "2023-975277",
    "request_type": "Trash/Recycling",
    "request_reason": "Request a Large Item Pick Up",
    "date_created": "2023-02-14T12:54:32.000",
    "date_modified": "2023-02-14T12:54:33.000",
    "request_status": "Pending",
    "responsible_agency": "Department of Sanitation",
    "final_address": "2823 Second St",
    "address_councildis": "B",
    "status": "Assigned to Contractor",
    "contractor": "Richards Disposal",
    "rowid": "975277",
    "final_x": "3674291.72552",
    "final_y": "526780.611518",
    "longitude": "-90.09099374698583",
    "latitude": "29.942680823820208",
    "geocoded_column": {
      "latitude": "29.942680823820208",
      "longitude": "-90.09099374698583"
    }
  },
  {
    "service_request": "2023-975276",
    "request_type": "Trash/Recycling",
    "request_reason": "Missed Trash Pick-Up",
    "date_created": "2023-02-14T12:52:13.000",
    "date_modified": "2023-02-14T12:52:14.000",
    "request_status": "Pending",
    "responsible_agency": "Department of Sanitation",
    "final_address": "2322 Camp St",
    "address_councildis": "B",
    "status": "Assigned to Contractor",
    "contractor": "Richards Disposal",
    "rowid": "975276",
    "final_x": "3678178.37538",
    "final_y": "521993.739898",
    "longitude": "-90.07888813542188",
    "latitude": "29.92940205926746",
    "geocoded_column": {
      "latitude": "29.92940205926746",
      "longitude": "-90.07888813542188"
    }
  },
  {
    "service_request": "2023-975275",
    "request_type": "Property Maintenance",
    "request_reason": "Property Maintenance",
    "date_created": "2023-02-14T12:51:35.000",
    "date_modified": "2023-02-14T12:51:35.000",
    "request_status": "Pending",
    "responsible_agency": "Department of Code Enforcement",
    "final_address": "1204 N Lopez St",
    "address_councildis": "A",
    "status": "Pending",
    "rowid": "975275",
    "final_x": "3676335.65966",
    "final_y": "539419.310538",
    "longitude": "-90.0841055247161",
    "latitude": "29.977371899623215",
    "geocoded_column": {
      "latitude": "29.977371899623215",
      "longitude": "-90.0841055247161"
    }
  },
  {
    "service_request": "2023-975274",
    "request_type": "Roads/Drainage",
    "request_reason": "Catch Basin - Clogged",
    "date_created": "2023-02-14T12:51:07.000",
    "date_modified": "2023-02-14T12:51:07.000",
    "request_status": "Pending",
    "responsible_agency": "Department of Public Works",
    "final_address": "1437 N Robertson St",
    "address_councildis": "C",
    "status": "Pending",
    "rowid": "975274",
    "final_x": "3681743.00783",
    "final_y": "536623.327623",
    "longitude": "-90.06712491837915",
    "latitude": "29.96952070789568",
    "geocoded_column": {
      "latitude": "29.96952070789568",
      "longitude": "-90.06712491837915"
    }
  },
  {
    "service_request": "2023-975273",
    "request_type": "Trash/Recycling",
    "request_reason": "Order Recycling Cart",
    "date_created": "2023-02-14T12:50:51.000",
    "date_modified": "2023-02-14T12:55:33.000",
    "request_status": "Pending",
    "responsible_agency": "Department of Sanitation",
    "final_address": "7119 Virgilian St",
    "address_councildis": "D",
    "status": "Pending",
    "rowid": "975273",
    "final_x": "3696859.37277",
    "final_y": "557057.085978",
    "longitude": "-90.01864602986434",
    "latitude": "30.02523803429347",
    "geocoded_column": {
      "latitude": "30.02523803429347",
      "longitude": "-90.01864602986434"
    }
  },
  {
    "service_request": "2023-975272",
    "request_type": "Trash/Recycling",
    "request_reason": "Order Trash Cart",
    "date_created": "2023-02-14T12:50:21.000",
    "date_modified": "2023-02-14T12:50:22.000",
    "request_status": "Pending",
    "responsible_agency": "Department of Sanitation",
    "final_address": "7119 Virgilian St",
    "address_councildis": "D",
    "status": "Assigned to Contractor",
    "contractor": "Waste Pro",
    "rowid": "975272",
    "final_x": "3696859.37277",
    "final_y": "557057.085978",
    "longitude": "-90.01864602986434",
    "latitude": "30.02523803429347",
    "geocoded_column": {
      "latitude": "30.02523803429347",
      "longitude": "-90.01864602986434"
    }
  },
  {
    "service_request": "2023-975271",
    "request_type": "Trash/Recycling",
    "request_reason": "Missed Trash Pick-Up",
    "date_created": "2023-02-14T12:48:47.000",
    "date_modified": "2023-02-14T12:48:48.000",
    "request_status": "Pending",
    "responsible_agency": "Department of Sanitation",
    "final_address": "7346 Shubrick Ave",
    "address_councildis": "E",
    "status": "Assigned to Contractor",
    "contractor": "Waste Pro",
    "rowid": "975271",
    "final_x": "3707060.17131",
    "final_y": "563065.599648",
    "longitude": "-89.98619012289149",
    "latitude": "30.041433322397516",
    "geocoded_column": {
      "latitude": "30.041433322397516",
      "longitude": "-89.98619012289149"
    }
  },
  {
    "service_request": "2023-975270",
    "request_type": "Trash/Recycling",
    "request_reason": "Return Recycling Cart",
    "date_created": "2023-02-14T12:45:31.000",
    "date_modified": "2023-02-14T12:45:31.000",
    "request_status": "Pending",
    "responsible_agency": "Department of Sanitation",
    "final_address": "5125 Paris Ave",
    "address_councildis": "D",
    "status": "Pending",
    "rowid": "975270",
    "final_x": "3679341.28731",
    "final_y": "551305.489877",
    "longitude": "-90.07420023232005",
    "latitude": "30.00996425887031",
    "geocoded_column": {
      "latitude": "30.00996425887031",
      "longitude": "-90.07420023232005"
    }
  },
  {
    "service_request": "2023-975268",
    "request_type": "Traffic Signals/Signs/Striping/Streetlights",
    "request_reason": "Street Light Outage/Malfunction",
    "date_created": "2023-02-14T12:41:51.000",
    "date_modified": "2023-02-14T12:41:52.000",
    "request_status": "Pending",
    "responsible_agency": "Department of Public Works",
    "final_address": "6479 Memphis St",
    "address_councildis": "A",
    "status": "Assigned to Contractor",
    "contractor": "Legacy Professional Services",
    "rowid": "975268",
    "final_x": "3669584.40474",
    "final_y": "550584.160916",
    "longitude": "-90.10505029704869",
    "latitude": "30.008272053735055",
    "geocoded_column": {
      "latitude": "30.008272053735055",
      "longitude": "-90.10505029704869"
    }
  },
  {
    "service_request": "2023-975267",
    "request_type": "Trash/Recycling",
    "request_reason": "Illegal Dumping",
    "date_created": "2023-02-14T12:29:41.000",
    "date_modified": "2023-02-14T12:29:41.000",
    "request_status": "Pending",
    "responsible_agency": "Department of Sanitation",
    "final_address": "544 Olivier St",
    "address_councildis": "C",
    "status": "Pending",
    "rowid": "975267",
    "final_x": "3687332.0189",
    "final_y": "529552.566657",
    "longitude": "-90.04972454533683",
    "latitude": "29.949907553112094",
    "geocoded_column": {
      "latitude": "29.949907553112094",
      "longitude": "-90.04972454533683"
    }
  },
  {
    "service_request": "2023-975266",
    "request_type": "Trash/Recycling",
    "request_reason": "Missed Trash Pick-Up",
    "date_created": "2023-02-14T12:26:04.000",
    "date_modified": "2023-02-14T12:26:05.000",
    "request_status": "Pending",
    "responsible_agency": "Department of Sanitation",
    "final_address": "1119 Nunez St A",
    "address_councildis": "C",
    "status": "Assigned to Contractor",
    "contractor": "Richards Disposal",
    "rowid": "975266",
    "final_x": "3686922.82287",
    "final_y": "527387.928895",
    "longitude": "-90.05109304728396",
    "latitude": "29.94396813409203",
    "geocoded_column": {
      "latitude": "29.94396813409203",
      "longitude": "-90.05109304728396"
    }
  },
  {
    "service_request": "2023-975265",
    "request_type": "Trash/Recycling",
    "request_reason": "Order Recycling Cart",
    "date_created": "2023-02-14T12:17:47.000",
    "date_modified": "2023-02-14T12:17:47.000",
    "request_status": "Pending",
    "responsible_agency": "Department of Sanitation",
    "final_address": "9814 E Rockton Cir",
    "address_councildis": "E",
    "status": "Pending",
    "rowid": "975265",
    "final_x": "3708358.41265",
    "final_y": "563052.616928",
    "longitude": "-89.98208773247097",
    "latitude": "30.041355593252113",
    "geocoded_column": {
      "latitude": "30.041355593252113",
      "longitude": "-89.98208773247097"
    }
  },