[
  {
    "service_request": "2024-1149619",
    "request_type": "Parks & Parkways",
    "request_reason": "Park Maintenance/Clean Up",
    "date_created": "2024-11-18T23:04:57.000",
    "date_modified": "2024-11-18T23:04:57.000",
    "request_status": "Pending",
    "responsible_agency": "Department of Parks & Parkway",
    "final_address": "LAKE FOREST BLVD & WRIGHT RD",
    "address_councildis": "E",
    "status": "Pending",
    "rowid": "1149619",
    "final_x": "3714889.0",
    "final_y": "560777.68",
    "longitude": "-89.9615350387999",
    "latitude": "30.034887060210966",
    "geocoded_column": {
      "latitude": "30.034887060210966",
      "longitude": "-89.9615350387999"
    }
  },
  {
    "service_request": "2024-1149618",
    "request_type": "Property Maintenance",
    "request_reason": "Property Maintenance",
    "date_created": "2024-11-18T22:25:03.000",
    "date_modified": "2024-11-18T22:25:03.000",
    "request_status": "Pending",
    "responsible_agency": "Department of Code Enforcement",
    "final_address": "3701 Red Oak Ct",
    "address_councildis": "C",
    "status": "Pending",
    "rowid": "1149618",
    "final_x": "3703093.5331",
    "final_y": "514215.966323",
    "longitude": "-90.0005217745581",
    "latitude": "29.907242325697673",
    "geocoded_column": {
      "latitude": "29.907242325697673",
      "longitude": "-90.0005217745581"
    }
  },
  {
    "service_request": "2024-1149617",
    "request_type": "Trash/Recycling",
    "request_reason": "Request a Large Item Pick Up",
    "date_created": "2024-11-18T22:22:50.000",
    "date_modified": "2024-11-18T22:22:51.000",
    "request_status": "Pending",
    "responsible_agency": "Department of Sanitation",
    "final_address": "1228 Bourbon St Unit D",
    "address_councildis": "C",
    "status": "Assigned to Contractor",
    "contractor": "Empire Services",
    "rowid": "1149617",
    "final_x": "3683578.23561",
    "final_y": "534259.803141",
    "longitude": "-90.06141197822643",
    "latitude": "29.962965939897977",
    "geocoded_column": {
      "latitude": "29.962965939897977",
      "longitude": "-90.06141197822643"
    }
  },
  {
    "service_request": "2024-1149616",
    "request_type": "Trash/Recycling",
    "request_reason": "Request a Large Item Pick Up",
    "date_created": "2024-11-18T22:13:46.000",
    "date_modified": "2024-11-18T22:13:48.000",
    "request_status": "Pending",
    "responsible_agency": "Department of Sanitation",
    "final_address": "617 David St",
    "address_councildis": "A",
    "status": "Assigned to Contractor",
    "contractor": "IV Waste",
    "rowid": "1149616",
    "final_x": "3672047.77876",
    "final_y": "540096.798859",
    "longitude": "-90.09762503075697",
    "latitude": "29.97936260530238",
    "geocoded_column": {
      "latitude": "29.97936260530238",
      "longitude": "-90.09762503075697"
    }
  },
  {
    "service_request": "2024-1149615",
    "request_type": "Roads and Streets",
    "request_reason": "Pothole",
    "date_created": "2024-11-18T21:34:29.000",
    "date_modified": "2024-11-18T21:34:29.000",
    "request_status": "Pending",
    "responsible_agency": "Department of Public Works",
    "final_address": "4974 Lonely Oak Dr",
    "address_councildis": "E",
    "status": "Pending",
    "rowid": "1149615",
    "final_x": "3702128.00023",
    "final_y": "555703.478553",
    "longitude": "-90.00204777989728",
    "latitude": "30.02134886735383",
    "geocoded_column": {
      "latitude": "30.02134886735383",
      "longitude": "-90.00204777989728"
    }
  },
  {
    "service_request": "2024-1149614",
    "request_type": "Abandoned Vehicles",
    "request_reason": "Abandoned/Junk Vehicles",
    "date_created": "2024-11-18T21:31:24.000",
    "date_modified": "2024-11-18T21:31:24.000",
    "request_status": "Pending",
    "responsible_agency": "Department of Public Works",
    "final_address": "1735 Jackson Ave",
    "address_councildis": "B",
    "status": "Pending",
    "rowid": "1149614",
    "final_x": "3677214.68763",
    "final_y": "524320.893628",
    "longitude": "-90.08185008359968",
    "latitude": "29.935829945739744",
    "geocoded_column": {
      "latitude": "29.935829945739744",
      "longitude": "-90.08185008359968"
    }
  },
  {
    "service_request": "2024-1149613",
    "request_type": "Trash/Recycling",
    "request_reason": "MIssed Recycling Pick-Up",
    "date_created": "2024-11-18T20:14:24.000",
    "date_modified": "2024-11-18T20:14:25.000",
    "request_status": "Pending",
    "responsible_agency": "Department of Sanitation",
    "final_address": "2139 Mediamolle Dr",
    "address_councildis": "C",
    "status": "Assigned to Contractor",
    "contractor": "Richards Disposal",
    "rowid": "1149613",
    "final_x": "3699143.68618",
    "final_y": "523432.406651",
    "longitude": "-90.01265259839734",
    "latitude": "29.932710131741107",
    "geocoded_column": {
      "latitude": "29.932710131741107",
      "longitude": "-90.01265259839734"
    }
  },
  {
    "service_request": "2024-1149612",
    "request_type": "Roads and Streets",
    "request_reason": "Road Shoulder Damage",
    "date_created": "2024-11-18T20:07:50.000",
    "date_modified": "2024-11-18T20:07:50.000",
    "request_status": "Pending",
    "responsible_agency": "Department of Public Works",
    "final_address": "242 Roselyn Park Pl",
    "address_councildis": "C",
    "status": "Pending",
    "rowid": "1149612",
    "final_x": "3702687.22359",
    "final_y": "523230.760507",
    "longitude": "-90.00147341843538",
    "latitude": "29.932042896740132",
    "geocoded_column": {
      "latitude": "29.932042896740132",
      "longitude": "-90.00147341843538"
    }
  },
  {
    "service_request": "2024-1149611",
    "request_type": "Trash/Recycling",
    "request_reason": "Replace Trash Cart",
    "date_created": "2024-11-18T20:03:56.000",
    "date_modified": "2024-11-18T20:03:57.000",
    "request_status": "Pending",
    "responsible_agency": "Department of Sanitation",
    "final_address": "1214 France St",
    "address_councildis": "D",
    "status": "Assigned to Contractor",
    "contractor": "IV Waste",
    "rowid": "1149611",
    "final_x": "3692362.97302",
    "final_y": "535679.565575",
    "longitude": "-90.03362012142799",
    "latitude": "29.96659873425555",
    "geocoded_column": {
      "latitude": "29.96659873425555",
      "longitude": "-90.03362012142799"
    }
  },
  {
    "service_request": "2024-1149610",
    "request_type": "Trash/Recycling",
    "request_reason": "Request a Large Item Pick Up",
    "date_created": "2024-11-18T20:03:56.000",
    "date_modified": "2024-11-18T20:03:57.000",
    "request_status": "Pending",
    "responsible_agency": "Department of Sanitation",
    "final_address": "6820 Rugby Ct",
    "address_councildis": "E",
    "status": "Assigned to Contractor",
    "contractor": "Waste Pro",
    "rowid": "1149610",
    "final_x": "3701320.24637",
    "final_y": "557287.826587",
    "longitude": "-90.00454198841871",
    "latitude": "30.025730995899913",
    "geocoded_column": {
      "latitude": "30.025730995899913",
      "longitude": "-90.00454198841871"
    }
  },
  {
    "service_request": "2024-1149609",
    "request_type": "Trash/Recycling",
    "request_reason": "Order Recycling Cart",
    "date_created": "2024-11-18T20:02:41.000",
    "date_modified": "2024-11-18T20:02:41.000",
    "request_status": "Pending",
    "responsible_agency": "Department of Sanitation",
    "final_address": "2139 Mediamolle Dr",
    "address_councildis": "C",
    "status": "Pending",
    "rowid": "1149609",
    "final_x": "3699143.68618",
    "final_y": "523432.406651",
    "longitude": "-90.01265259839734",
    "latitude": "29.932710131741107",
    "geocoded_column": {
      "latitude": "29.932710131741107",
      "longitude": "-90.01265259839734"
    }
  },
  {
    "service_request": "2024-1149608",
    "request_type": "Trash/Recycling",
    "request_reason": "Order Recycling Cart",
    "date_created": "2024-11-18T20:02:14.000",
    "date_modified": "2024-11-18T20:02:14.000",
    "request_status": "Pending",
    "responsible_agency": "Department of Sanitation",
    "final_address": "2139 Mediamolle Dr",
    "address_councildis": "C",
    "status": "Pending",
    "rowid": "1149608",
    "final_x": "3699143.68618",
    "final_y": "523432.406651",
    "longitude": "-90.01265259839734",
    "latitude": "29.932710131741107",
    "geocoded_column": {
      "latitude": "29.932710131741107",
      "longitude": "-90.01265259839734"
    }
  },
  {
    "service_request": "2024-1149607",
    "request_type": "Trash/Recycling",
    "request_reason": "Request a Large Item Pick Up",
    "date_created": "2024-11-18T19:54:10.000",
    "date_modified": "2024-11-18T19:54:10.000",
    "request_status": "Pending",
    "responsible_agency": "Department of Sanitation",
    "final_address": "2433 Lark St",
    "address_councildis": "D",
    "status": "Assigned to Contractor",
    "contractor": "IV Waste",
    "rowid": "1149607",
    "final_x": "3684873.90953",
    "final_y": "558006.319643",
    "longitude": "-90.05648478543553",
    "latitude": "30.028220746225468",
    "geocoded_column": {
      "latitude": "30.028220746225468",
      "longitude": "-90.05648478543553"
    }
  },
  {
    "service_request": "2024-1149606",
    "request_type": "Streetlights",
    "request_reason": "Streetlight Outage/Malfunction",
    "date_created": "2024-11-18T19:51:25.000",
    "date_modified": "2024-11-18T19:51:26.000",
    "request_status": "Pending",
    "responsible_agency": "Department of Public Works",
    "final_address": "2120 Jena St",
    "address_councildis": "B",
    "status": "Pending",
    "contractor": "Legacy Professional Services",
    "rowid": "1149606",
    "final_x": "3670171.16212",
    "final_y": "522776.829754",
    "longitude": "-90.10413897163542",
    "latitude": "29.931793917430884",
    "geocoded_column": {
      "latitude": "29.931793917430884",
      "longitude": "-90.10413897163542"
    }
  },
  {
    "service_request": "2024-1149605",
    "request_type": "Drainage",
    "request_reason": "Street Flooding",
    "date_created": "2024-11-18T19:17:09.000",
    "date_modified": "2024-11-18T19:17:09.000",
    "request_status": "Pending",
    "responsible_agency": "Department of Public Works",
    "final_address": "4000 BLK S Robertson St",
    "address_councildis": "B",
    "status": "Pending",
    "rowid": "1149605",
    "final_x": "3671709.50792",
    "final_y": "524511.217826",
    "longitude": "-90.09922360146376",
    "latitude": "29.9365174582266",
    "geocoded_column": {
      "latitude": "29.9365174582266",
      "longitude": "-90.09922360146376"
    }
  },
  {
    "service_request": "2024-1149604",
    "request_type": "Drainage",
    "request_reason": "Street Flooding",
    "date_created": "2024-11-18T19:11:02.000",
    "date_modified": "2024-11-18T19:11:02.000",
    "request_status": "Pending",
    "responsible_agency": "Department of Public Works",
    "final_address": "4000 BLK S Robertson St",
    "address_councildis": "B",
    "status": "Pending",
    "rowid": "1149604",
    "final_x": "3671709.50792",
    "final_y": "524511.217826",
    "longitude": "-90.09922360146376",
    "latitude": "29.9365174582266",
    "geocoded_column": {
      "latitude": "29.9365174582266",
      "longitude": "-90.09922360146376"
    }
  },
  {
    "service_request": "2024-1149603",
    "request_type": "Mosquito, Termite & Rodent Control",
    "request_reason": "Mosquito Complaint",
    "date_created": "2024-11-18T18:51:17.000",
    "date_modified": "2024-11-18T18:51:17.000",
    "request_status": "Pending",
    "responsible_agency": "Mosquito, Termite & Rodent Control Board",
    "final_address": "270 Oakmont Dr",
    "address_councildis": "E",
    "status": "Pending",
    "rowid": "1149603",
    "final_x": "3719898.2087",
    "final_y": "562577.0696",
    "longitude": "-89.94563650785209",
    "latitude": "30.03966880290823",
    "geocoded_column": {
      "latitude": "30.03966880290823",
      "longitude": "-89.94563650785209"
    }
  },
  {
    "service_request": "2024-1149602",
    "request_type": "Mosquito, Termite & Rodent Control",
    "request_reason": "Mosquito Complaint",
    "date_created": "2024-11-18T18:46:07.000",
    "date_modified": "2024-11-18T18:46:07.000",
    "request_status": "Pending",
    "responsible_agency": "Mosquito, Termite & Rodent Control Board",
    "final_address": "270 Oakmont Dr",
    "address_councildis": "E",
    "status": "Pending",
    "rowid": "1149602",
    "final_x": "3719898.2087",
    "final_y": "562577.0696",
    "longitude": "-89.94563650785209",
    "latitude": "30.03966880290823",
    "geocoded_column": {
      "latitude": "30.03966880290823",
      "longitude": "-89.94563650785209"
    }
  },
  {
    "service_request": "2024-1149601",
    "request_type": "Trash/Recycling",
    "request_reason": "Request a Large Item Pick Up",
    "date_created": "2024-11-18T18:28:44.000",
    "date_modified": "2024-11-18T18:28:45.000",
    "request_status": "Pending",
    "responsible_agency": "Department of Sanitation",
    "final_address": "10920 Roger Dr",
    "address_councildis": "E",
    "status": "Assigned to Contractor",
    "contractor": "Waste Pro",
    "rowid": "1149601",
    "final_x": "3712032.81765",
    "final_y": "563312.165728",
    "longitude": "-89.97046565773408",
    "latitude": "30.04194959295222",
    "geocoded_column": {
      "latitude": "30.04194959295222",
      "longitude": "-89.97046565773408"
    }
  },
  {
    "service_request": "2024-1149600",
    "request_type": "Trash/Recycling",
    "request_reason": "Request a Large Item Pick Up",
    "date_created": "2024-11-18T18:25:52.000",
    "date_modified": "2024-11-18T18:25:52.000",
    "request_status": "Pending",
    "responsible_agency": "Department of Sanitation",
    "final_address": "5411 Congress Dr",
    "address_councildis": "D",
    "status": "Assigned to Contractor",
    "contractor": "IV Waste",
    "rowid": "1149600",
    "final_x": "3691770.60707",
    "final_y": "553851.583447",
    "longitude": "-90.03484047786029",
    "latitude": "30.016583662330287",
    "geocoded_column": {
      "latitude": "30.016583662330287",
      "longitude": "-90.03484047786029"
    }
  },
  {
    "service_request": "2024-1149599",
    "request_type": "Trash/Recycling",
    "request_reason": "Request a Large Item Pick Up",
    "date_created": "2024-11-18T18:23:01.000",
    "date_modified": "2024-11-18T18:23:02.000",
    "request_status": "Pending",
    "responsible_agency": "Department of Sanitation",
    "final_address": "10841 Roger Dr",
    "address_councildis": "E",
    "status": "Assigned to Contractor",
    "contractor": "Waste Pro",
    "rowid": "1149599",
    "final_x": "3711812.37182",
    "final_y": "563244.70224",
    "longitude": "-89.97116487729235",
    "latitude": "30.04177130309243",
    "geocoded_column": {
      "latitude": "30.04177130309243",
      "longitude": "-89.97116487729235"
    }
  },
  {
    "service_request": "2024-1149598",
    "request_type": "Trash/Recycling",
    "request_reason": "Request a Large Item Pick Up",
    "date_created": "2024-11-18T18:18:13.000",
    "date_modified": "2024-11-18T18:18:14.000",
    "request_status": "Pending",
    "responsible_agency": "Department of Sanitation",
    "final_address": "10800 Roger Dr",
    "address_councildis": "E",
    "status": "Assigned to Contractor",
    "contractor": "Waste Pro",
    "rowid": "1149598",
    "final_x": "3711652.30936",
    "final_y": "563027.48848",
    "longitude": "-89.97167888673765",
    "latitude": "30.041179283472275",
    "geocoded_column": {
      "latitude": "30.041179283472275",
      "longitude": "-89.97167888673765"
    }
  },
  {
    "service_request": "2024-1149597",
    "request_type": "Streetlights",
    "request_reason": "Streetlight Outage/Malfunction",
    "date_created": "2024-11-18T18:00:21.000",
    "date_modified": "2024-11-18T18:00:22.000",
    "request_status": "Pending",
    "responsible_agency": "Department of Public Works",
    "final_address": "6100 BLK Bienvenue St",
    "address_councildis": "E",
    "status": "Pending",
    "contractor": "Legacy Professional Services",
    "rowid": "1149597",
    "final_x": "3698713.14322",
    "final_y": "530886.340246",
    "longitude": "-90.0137407828778",
    "latitude": "29.95321948504033",
    "geocoded_column": {
      "latitude": "29.95321948504033",
      "longitude": "-90.0137407828778"
    }
  },
  {
    "service_request": "2024-1149596",
    "request_type": "Trash/Recycling",
    "request_reason": "Request a Large Item Pick Up",
    "date_created": "2024-11-18T17:43:34.000",
    "date_modified": "2024-11-18T17:43:35.000",
    "request_status": "Pending",
    "responsible_agency": "Department of Sanitation",
    "final_address": "5540 Maple Ridge Dr",
    "address_councildis": "E",
    "status": "Assigned to Contractor",
    "contractor": "Waste Pro",
    "rowid": "1149596",
    "final_x": "3724381.38342",
    "final_y": "563882.763361",
    "longitude": "-89.93141802575504",
    "latitude": "30.043108870404946",
    "geocoded_column": {
      "latitude": "30.043108870404946",
      "longitude": "-89.93141802575504"
    }
  },
  {
    "service_request": "2024-1149595",
    "request_type": "Roads and Streets",
    "request_reason": "Pothole",
    "date_created": "2024-11-18T17:43:19.000",
    "date_modified": "2024-11-18T17:43:19.000",
    "request_status": "Pending",
    "responsible_agency": "Department of Public Works",
    "final_address": "3200 BLK Potomac St",
    "address_councildis": "C",
    "status": "Pending",
    "rowid": "1149595",
    "final_x": "3695006.48036",
    "final_y": "517483.894282",
    "longitude": "-90.02592762715788",
    "latitude": "29.916484209421842",
    "geocoded_column": {
      "latitude": "29.916484209421842",
      "longitude": "-90.02592762715788"
    }
  },
  {
    "service_request": "2024-1149594",
    "request_type": "Trash/Recycling",
    "request_reason": "Request a Large Item Pick Up",
    "date_created": "2024-11-18T17:41:32.000",
    "date_modified": "2024-11-18T17:41:33.000",
    "request_status": "Pending",
    "responsible_agency": "Department of Sanitation",
    "final_address": "1837 Halsey Ave",
    "address_councildis": "C",
    "status": "Assigned to Contractor",
    "contractor": "Richards Disposal",
    "rowid": "1149594",
    "final_x": "3697724.27383",
    "final_y": "523979.11942",
    "longitude": "-90.01711371709042",
    "latitude": "29.934258311514416",
    "geocoded_column": {
      "latitude": "29.934258311514416",
      "longitude": "-90.01711371709042"
    }
  },
  {
    "service_request": "2024-1149593",
    "request_type": "Drainage",
    "request_reason": "Ditch and Culvert Maintenance",
    "date_created": "2024-11-18T17:40:48.000",
    "date_modified": "2024-11-18T17:40:48.000",
    "request_status": "Pending",
    "responsible_agency": "Department of Public Works",
    "final_address": "3700 BLK Utah St",
    "address_councildis": "C",
    "status": "Pending",
    "rowid": "1149593",
    "final_x": "3695259.54908",
    "final_y": "517853.206863",
    "longitude": "-90.02511553458386",
    "latitude": "29.917491752536844",
    "geocoded_column": {
      "latitude": "29.917491752536844",
      "longitude": "-90.02511553458386"
    }
  },
  {
    "service_request": "2024-1149592",
    "request_type": "Trash/Recycling",
    "request_reason": "Illegal Dumping",
    "date_created": "2024-11-18T17:37:13.000",
    "date_modified": "2024-11-18T17:37:13.000",
    "request_status": "Pending",
    "responsible_agency": "Department of Sanitation",
    "final_address": "3300 BLK Behrman Hwy",
    "address_councildis": "C",
    "status": "Pending",
    "rowid": "1149592",
    "final_x": "3695970.55323",
    "final_y": "517835.827305",
    "longitude": "-90.02287193315694",
    "latitude": "29.917421624713445",
    "geocoded_column": {
      "latitude": "29.917421624713445",
      "longitude": "-90.02287193315694"
    }
  },
  {
    "service_request": "2024-1149591",
    "request_type": "Trash/Recycling",
    "request_reason": "Request a Large Item Pick Up",
    "date_created": "2024-11-18T17:29:21.000",
    "date_modified": "2024-11-18T17:29:23.000",
    "request_status": "Pending",
    "responsible_agency": "Department of Sanitation",
    "final_address": "2923 Pine St",
    "address_councildis": "B",
    "status": "Assigned to Contractor",
    "contractor": "IV Waste",
    "rowid": "1149591",
    "final_x": "3667428.92922",
    "final_y": "531914.770755",
    "longitude": "-90.1124885716927",
    "latitude": "29.957000903187712",
    "geocoded_column": {
      "latitude": "29.957000903187712",
      "longitude": "-90.1124885716927"
    }
  },
  {
    "service_request": "2024-1149590",
    "request_type": "Mosquito, Termite & Rodent Control",
    "request_reason": "Mosquito Complaint",
    "date_created": "2024-11-18T17:27:02.000",
    "date_modified": "2024-11-18T17:27:02.000",
    "request_status": "Pending",
    "responsible_agency": "Mosquito, Termite & Rodent Control Board",
    "final_address": "8019 Bass St",
    "address_councildis": "E",
    "status": "Pending",
    "rowid": "1149590",
    "final_x": "3719338.77042",
    "final_y": "574507.397227",
    "longitude": "-89.9469482978209",
    "latitude": "30.07249086831117",
    "geocoded_column": {
      "latitude": "30.07249086831117",
      "longitude": "-89.9469482978209"
    }
  },
  {
    "service_request": "2024-1149589",
    "request_type": "Drainage",
    "request_reason": "Street Flooding",
    "date_created": "2024-11-18T17:26:28.000",
    "date_modified": "2024-11-18T17:26:28.000",
    "request_status": "Pending",
    "responsible_agency": "Department of Public Works",
    "final_address": "2025 Dumaine St",
    "address_councildis": "D",
    "status": "Pending",
    "rowid": "1149589",
    "final_x": "3679200.72162",
    "final_y": "536009.613703",
    "longitude": "-90.07517495256164",
    "latitude": "29.967910207220616",
    "geocoded_column": {
      "latitude": "29.967910207220616",
      "longitude": "-90.07517495256164"
    }
  },
  {
    "service_request": "2024-1149588",
    "request_type": "Roads and Streets",
    "request_reason": "Street Subsidence (Sinking)",
    "date_created": "2024-11-18T17:07:30.000",
    "date_modified": "2024-11-18T17:07:30.000",
    "request_status": "Pending",
    "responsible_agency": "Department of Public Works",
    "final_address": "RHODES AVE & CHELSEA DR",
    "address_councildis": "C",
    "status": "Pending",
    "rowid": "1149588",
    "final_x": "3704135.3",
    "final_y": "519893.88",
    "longitude": "-89.99702487650734",
    "latitude": "29.922821276239247",
    "geocoded_column": {
      "latitude": "29.922821276239247",
      "longitude": "-89.99702487650734"
    }
  },
  {
    "service_request": "2024-1149587",
    "request_type": "Trash/Recycling",
    "request_reason": "Replace Trash Cart",
    "date_created": "2024-11-18T17:05:39.000",
    "date_modified": "2024-11-18T17:05:40.000",
    "request_status": "Pending",
    "responsible_agency": "Department of Sanitation",
    "final_address": "1932 Bayou Rd",
    "address_councildis": "D",
    "status": "Assigned to Contractor",
    "contractor": "IV Waste",
    "rowid": "1149587",
    "final_x": "3680289.28936",
    "final_y": "536935.580296",
    "longitude": "-90.07170502383752",
    "latitude": "29.970423386610097",
    "geocoded_column": {
      "latitude": "29.970423386610097",
      "longitude": "-90.07170502383752"
    }
  },
  {
    "service_request": "2024-1149586",
    "request_type": "Road Striping",
    "request_reason": "Bike Lane",
    "date_created": "2024-11-18T17:05:26.000",
    "date_modified": "2024-11-18T17:05:26.000",
    "request_status": "Pending",
    "responsible_agency": "Department of Public Works",
    "final_address": "855 Baronne St",
    "address_councildis": "B",
    "status": "Pending",
    "rowid": "1149586",
    "final_x": "3679441.20463",
    "final_y": "527746.857535",
    "longitude": "-90.07470212558336",
    "latitude": "29.945183155956215",
    "geocoded_column": {
      "latitude": "29.945183155956215",
      "longitude": "-90.07470212558336"
    }
  },
  {
    "service_request": "2024-1149585",
    "request_type": "Trash/Recycling",
    "request_reason": "Request a Large Item Pick Up",
    "date_created": "2024-11-18T16:56:00.000",
    "date_modified": "2024-11-18T18:30:56.000",
    "case_close_date": "2024-11-18T12:30:56.000",
    "request_status": "Closed",
    "responsible_agency": "Department of Sanitation",
    "final_address": "501 Andry St",
    "address_councildis": "E",
    "status": "Duplicate Request",
    "contractor": "Waste Pro",
    "contractor_action": "Duplicate",
    "rowid": "1149585",
    "final_x": "3696613.88682",
    "final_y": "531860.486083",
    "longitude": "-90.02033404524562",
    "latitude": "29.95596435183543",
    "geocoded_column": {
      "latitude": "29.95596435183543",
      "longitude": "-90.02033404524562"
    }
  },
  {
    "service_request": "2024-1149584",
    "request_type": "Trash/Recycling",
    "request_reason": "Request a Large Item Pick Up",
    "date_created": "2024-11-18T16:49:18.000",
    "date_modified": "2024-11-18T16:53:10.000",
    "request_status": "Pending",
    "responsible_agency": "Department of Sanitation",
    "final_address": "4023 Constance St",
    "address_councildis": "B",
    "status": "Assigned to Contractor",
    "contractor": "IV Waste",
    "rowid": "1149584",
    "final_x": "3672366.09415",
    "final_y": "518582.256823",
    "longitude": "-90.09735263319833",
    "latitude": "29.920195260223256",
    "geocoded_column": {
      "latitude": "29.920195260223256",
      "longitude": "-90.09735263319833"
    }
  },
  {
    "service_request": "2024-1149583",
    "request_type": "Trash/Recycling",
    "request_reason": "Missed Trash Pick-Up",
    "date_created": "2024-11-18T16:49:12.000",
    "date_modified": "2024-11-18T16:53:06.000",
    "request_status": "Pending",
    "responsible_agency": "Department of Sanitation",
    "final_address": "2800 Ursulines Ave",
    "address_councildis": "A",
    "status": "Assigned to Contractor",
    "contractor": "IV Waste",
    "rowid": "1149583",
    "final_x": "3677067.25096",
    "final_y": "538470.758217",
    "longitude": "-90.08182763592539",
    "latitude": "29.97474175494105",
    "geocoded_column": {
      "latitude": "29.97474175494105",
      "longitude": "-90.08182763592539"
    }
  },
  {
    "service_request": "2024-1149582",
    "request_type": "Trash/Recycling",
    "request_reason": "Request a Large Item Pick Up",
    "date_created": "2024-11-18T16:48:02.000",
    "date_modified": "2024-11-18T16:52:09.000",
    "request_status": "Pending",
    "responsible_agency": "Department of Sanitation",
    "final_address": "8632 Bill St",
    "address_councildis": "E",
    "status": "Assigned to Contractor",
    "contractor": "Waste Pro",
    "rowid": "1149582",
    "final_x": "3703931.4339",
    "final_y": "563238.147552",
    "longitude": "-89.99607162340092",
    "latitude": "30.042008531807397",
    "geocoded_column": {
      "latitude": "30.042008531807397",
      "longitude": "-89.99607162340092"
    }
  },
  {
    "service_request": "2024-1149581",
    "request_type": "Trash/Recycling",
    "request_reason": "Request a Large Item Pick Up",
    "date_created": "2024-11-18T16:36:06.000",
    "date_modified": "2024-11-18T16:40:33.000",
    "request_status": "Pending",
    "responsible_agency": "Department of Sanitation",
    "final_address": "2541 Myrtle St",
    "address_councildis": "D",
    "status": "Assigned to Contractor",
    "contractor": "IV Waste",
    "rowid": "1149581",
    "final_x": "3686887.81161",
    "final_y": "546077.043344",
    "longitude": "-90.05054299668932",
    "latitude": "29.99535774930739",
    "geocoded_column": {
      "latitude": "29.99535774930739",
      "longitude": "-90.05054299668932"
    }
  },
  {
    "service_request": "2024-1149580",
    "request_type": "Road Striping",
    "request_reason": "Bike Lane",
    "date_created": "2024-11-18T16:35:25.000",
    "date_modified": "2024-11-18T16:35:25.000",
    "request_status": "Pending",
    "responsible_agency": "Department of Public Works",
    "final_address": "905 S Broad St",
    "address_councildis": "B",
    "status": "Pending",
    "rowid": "1149580",
    "final_x": "3672902.63752",
    "final_y": "532104.511171",
    "longitude": "-90.09519780448815",
    "latitude": "29.957361130457908",
    "geocoded_column": {
      "latitude": "29.957361130457908",
      "longitude": "-90.09519780448815"
    }
  },
  {
    "service_request": "2024-1149579",
    "request_type": "Abandoned Vehicles",
    "request_reason": "Vehicle Blocking Your Driveway",
    "date_created": "2024-11-18T16:20:29.000",
    "date_modified": "2024-11-18T16:20:29.000",
    "request_status": "Pending",
    "responsible_agency": "Department of Public Works",
    "final_address": "2428 Burgundy St",
    "address_councildis": "C",
    "status": "Pending",
    "rowid": "1149579",
    "final_x": "3686086.6175",
    "final_y": "535606.504454",
    "longitude": "-90.05344333291241",
    "latitude": "29.966592102288296",
    "geocoded_column": {
      "latitude": "29.966592102288296",
      "longitude": "-90.05344333291241"
    }
  },
  {
    "service_request": "2024-1149578",
    "request_type": "Drainage",
    "request_reason": "Catch Basin Clogged",
    "date_created": "2024-11-18T16:17:14.000",
    "date_modified": "2024-11-18T16:22:58.000",
    "request_status": "Pending",
    "responsible_agency": "Department of Public Works",
    "final_address": "9317 Apricot St",
    "address_councildis": "A",
    "status": "Pending",
    "rowid": "1149578",
    "final_x": "3662612.33779",
    "final_y": "535606.695366",
    "longitude": "-90.12757526127872",
    "latitude": "29.96729272185434",
    "geocoded_column": {
      "latitude": "29.96729272185434",
      "longitude": "-90.12757526127872"
    }
  },
  {
    "service_request": "2024-1149577",
    "request_type": "Trash/Recycling",
    "request_reason": "Request a Large Item Pick Up",
    "date_created": "2024-11-18T16:15:03.000",
    "date_modified": "2024-11-18T16:21:39.000",
    "request_status": "Pending",
    "responsible_agency": "Department of Sanitation",
    "final_address": "1032 Pacific Ave",
    "address_councildis": "C",
    "status": "Assigned to Contractor",
    "contractor": "Richards Disposal",
    "rowid": "1149577",
    "final_x": "3688445.83068",
    "final_y": "527666.196991",
    "longitude": "-90.04627463763198",
    "latitude": "29.944686325995786",
    "geocoded_column": {
      "latitude": "29.944686325995786",
      "longitude": "-90.04627463763198"
    }
  },
  {
    "service_request": "2024-1149576",
    "request_type": "Abandoned Vehicles",
    "request_reason": "Abandoned/Junk Vehicles",
    "date_created": "2024-11-18T16:14:19.000",
    "date_modified": "2024-11-18T16:14:19.000",
    "request_status": "Pending",
    "responsible_agency": "Department of Public Works",
    "final_address": "4225 Dreux Ave",
    "address_councildis": "D",
    "status": "Pending",
    "rowid": "1149576",
    "final_x": "3689570.32195",
    "final_y": "552755.94383",
    "longitude": "-90.04183143755603",
    "latitude": "30.013639435308733",
    "geocoded_column": {
      "latitude": "30.013639435308733",
      "longitude": "-90.04183143755603"
    }
  },
  {
    "service_request": "2024-1149575",
    "request_type": "Trash/Recycling",
    "request_reason": "Request a Large Item Pick Up",
    "date_created": "2024-11-18T16:11:26.000",
    "date_modified": "2024-11-18T16:17:05.000",
    "request_status": "Pending",
    "responsible_agency": "Department of Sanitation",
    "final_address": "620 Opelousas Ave",
    "address_councildis": "C",
    "status": "Assigned to Contractor",
    "contractor": "Richards Disposal",
    "rowid": "1149575",
    "final_x": "3687434.51382",
    "final_y": "529211.46336",
    "longitude": "-90.04941299029124",
    "latitude": "29.948966478114226",
    "geocoded_column": {
      "latitude": "29.948966478114226",
      "longitude": "-90.04941299029124"
    }
  },
  {
    "service_request": "2024-1149574",
    "request_type": "Trash/Recycling",
    "request_reason": "Request a Large Item Pick Up",
    "date_created": "2024-11-18T16:10:07.000",
    "date_modified": "2024-11-18T16:15:01.000",
    "request_status": "Pending",
    "responsible_agency": "Department of Sanitation",
    "final_address": "7818 Belfast St",
    "address_councildis": "A",
    "status": "Assigned to Contractor",
    "contractor": "IV Waste",
    "rowid": "1149574",
    "final_x": "3666281.12641",
    "final_y": "531672.281091",
    "longitude": "-90.11612112227562",
    "latitude": "29.9563677126416",
    "geocoded_column": {
      "latitude": "29.9563677126416",
      "longitude": "-90.11612112227562"
    }
  },
  {
    "service_request": "2024-1149573",
    "request_type": "Trash/Recycling",
    "request_reason": "Request a Large Item Pick Up",
    "date_created": "2024-11-18T16:07:54.000",
    "date_modified": "2024-11-18T16:13:15.000",
    "request_status": "Pending",
    "responsible_agency": "Department of Sanitation",
    "final_address": "6838 Catina St",
    "address_councildis": "A",
    "status": "Assigned to Contractor",
    "contractor": "IV Waste",
    "rowid": "1149573",
    "final_x": "3667039.93447",
    "final_y": "553282.630999",
    "longitude": "-90.11299830256486",
    "latitude": "30.015766653757193",
    "geocoded_column": {
      "latitude": "30.015766653757193",
      "longitude": "-90.11299830256486"
    }
  },
  {
    "service_request": "2024-1149572",
    "request_type": "Trash/Recycling",
    "request_reason": "Illegal Dumping",
    "date_created": "2024-11-18T16:07:20.000",
    "date_modified": "2024-11-18T16:12:46.000",
    "request_status": "Pending",
    "responsible_agency": "Department of Sanitation",
    "final_address": "ST ANTHONY ST & URQUHART ST",
    "address_councildis": "C",
    "status": "Pending",
    "rowid": "1149572",
    "final_x": "3683458.6",
    "final_y": "536920.98",
    "longitude": "-90.06169650957196",
    "latitude": "29.970286909026132",
    "geocoded_column": {
      "latitude": "29.970286909026132",
      "longitude": "-90.06169650957196"
    }
  },
  {
    "service_request": "2024-1149571",
    "request_type": "Trash/Recycling",
    "request_reason": "Request a Large Item Pick Up",
    "date_created": "2024-11-18T16:06:45.000",
    "date_modified": "2024-11-18T16:12:25.000",
    "request_status": "Pending",
    "responsible_agency": "Department of Sanitation",
    "final_address": "6221 Curie St",
    "address_councildis": "D",
    "status": "Assigned to Contractor",
    "contractor": "IV Waste",
    "rowid": "1149571",
    "final_x": "3682538.03202",
    "final_y": "555963.891801",
    "longitude": "-90.06393751587042",
    "latitude": "30.02267618756175",
    "geocoded_column": {
      "latitude": "30.02267618756175",
      "longitude": "-90.06393751587042"
    }
  },
  {
    "service_request": "2024-1149570",
    "request_type": "Trash/Recycling",
    "request_reason": "Request a Large Item Pick Up",
    "date_created": "2024-11-18T16:05:39.000",
    "date_modified": "2024-11-18T16:11:46.000",
    "request_status": "Pending",
    "responsible_agency": "Department of Sanitation",
    "final_address": "5024 Magazine St",
    "address_councildis": "B",
    "status": "Assigned to Contractor",
    "contractor": "IV Waste",
    "rowid": "1149570",
    "final_x": "3668425.89806",
    "final_y": "518543.107255",
    "longitude": "-90.10979131375458",
    "latitude": "29.92020388900644",
    "geocoded_column": {
      "latitude": "29.92020388900644",
      "longitude": "-90.10979131375458"
    }
  },
  {
    "service_request": "2024-1149569",
    "request_type": "Trash/Recycling",
    "request_reason": "Repair Trash Cart",
    "date_created": "2024-11-18T16:00:52.000",
    "date_modified": "2024-11-18T16:07:38.000",
    "request_status": "Pending",
    "responsible_agency": "Department of Sanitation",
    "final_address": "13120 Maple Wood Dr",
    "address_councildis": "E",
    "status": "Assigned to Contractor",
    "contractor": "Waste Pro",
    "rowid": "1149569",
    "final_x": "3724020.04761",
    "final_y": "563664.832353",
    "longitude": "-89.93256840012371",
    "latitude": "30.04252180095735",
    "geocoded_column": {
      "latitude": "30.04252180095735",
      "longitude": "-89.93256840012371"
    }
  },
  {
    "service_request": "2024-1149568",
    "request_type": "Roads and Streets",
    "request_reason": "Sidewalk Damaged or Missing",
    "date_created": "2024-11-18T15:58:01.000",
    "date_modified": "2024-11-18T16:03:12.000",
    "request_status": "Pending",
    "responsible_agency": "Department of Public Works",
    "final_address": "4119 Laurel St",
    "address_councildis": "B",
    "status": "Pending",
    "rowid": "1149568",
    "final_x": "3672057.59521",
    "final_y": "518183.084342",
    "longitude": "-90.098339999725",
    "latitude": "29.91910680930641",
    "geocoded_column": {
      "latitude": "29.91910680930641",
      "longitude": "-90.098339999725"
    }
  },
  {
    "service_request": "2024-1149567",
    "request_type": "Trash/Recycling",
    "request_reason": "Request a Large Item Pick Up",
    "date_created": "2024-11-18T15:52:22.000",
    "date_modified": "2024-11-18T15:58:45.000",
    "request_status": "Pending",
    "responsible_agency": "Department of Sanitation",
    "final_address": "5710 Red Maple Dr",
    "address_councildis": "E",
    "status": "Assigned to Contractor",
    "contractor": "Waste Pro",
    "rowid": "1149567",
    "final_x": "3723280.56499",
    "final_y": "564627.934945",
    "longitude": "-89.93486827667749",
    "latitude": "30.04519477104792",
    "geocoded_column": {
      "latitude": "30.04519477104792",
      "longitude": "-89.93486827667749"
    }
  },
  {
    "service_request": "2024-1149566",
    "request_type": "Property Maintenance",
    "request_reason": "Property Maintenance",
    "date_created": "2024-11-18T15:50:42.000",
    "date_modified": "2024-11-18T15:50:42.000",
    "request_status": "Pending",
    "responsible_agency": "Department of Code Enforcement",
    "final_address": "622 S Pierce St",
    "address_councildis": "B",
    "status": "Pending",
    "rowid": "1149566",
    "final_x": "3670180.3577",
    "final_y": "536289.615303",
    "longitude": "-90.1036521449566",
    "latitude": "29.968949376417513",
    "geocoded_column": {
      "latitude": "29.968949376417513",
      "longitude": "-90.1036521449566"
    }
  },
  {
    "service_request": "2024-1149565",
    "request_type": "Mosquito, Termite & Rodent Control",
    "request_reason": "Mosquito Complaint",
    "date_created": "2024-11-18T15:49:37.000",
    "date_modified": "2024-11-18T15:56:09.000",
    "request_status": "Pending",
    "responsible_agency": "Mosquito, Termite & Rodent Control Board",
    "final_address": "8019 Bass St",
    "address_councildis": "E",
    "status": "Pending",
    "rowid": "1149565",
    "final_x": "3719338.77042",
    "final_y": "574507.397227",
    "longitude": "-89.9469482978209",
    "latitude": "30.07249086831117",
    "geocoded_column": {
      "latitude": "30.07249086831117",
      "longitude": "-89.9469482978209"
    }
  },
  {
    "service_request": "2024-1149564",
    "request_type": "Trash/Recycling",
    "request_reason": "Repair Trash Cart",
    "date_created": "2024-11-18T15:46:24.000",
    "date_modified": "2024-11-18T15:51:11.000",
    "request_status": "Pending",
    "responsible_agency": "Department of Sanitation",
    "final_address": "3058 St Ann St",
    "address_councildis": "A",
    "status": "Assigned to Contractor",
    "contractor": "IV Waste",
    "rowid": "1149564",
    "final_x": "3675503.37115",
    "final_y": "538256.042505",
    "longitude": "-90.08677414059244",
    "latitude": "29.974198234128824",
    "geocoded_column": {
      "latitude": "29.974198234128824",
      "longitude": "-90.08677414059244"
    }
  },
  {
    "service_request": "2024-1149563",
    "request_type": "Parks & Parkways",
    "request_reason": "Request Tree Service (Right of Way/Public Property)",
    "date_created": "2024-11-18T15:44:32.000",
    "date_modified": "2024-11-18T15:49:22.000",
    "request_status": "Pending",
    "responsible_agency": "Department of Parks & Parkway",
    "final_address": "4813 Virgilian St",
    "address_councildis": "D",
    "status": "Pending",
    "rowid": "1149563",
    "final_x": "3697525.76087",
    "final_y": "554127.387544",
    "longitude": "-90.01664673329421",
    "latitude": "30.017161436141905",
    "geocoded_column": {
      "latitude": "30.017161436141905",
      "longitude": "-90.01664673329421"
    }
  },
  {
    "service_request": "2024-1149562",
    "request_type": "Trash/Recycling",
    "request_reason": "Request a Large Item Pick Up",
    "date_created": "2024-11-18T15:44:21.000",
    "date_modified": "2024-11-18T15:49:09.000",
    "request_status": "Pending",
    "responsible_agency": "Department of Sanitation",
    "final_address": "529 Broadway St",
    "address_councildis": "A",
    "status": "Assigned to Contractor",
    "contractor": "IV Waste",
    "rowid": "1149562",
    "final_x": "3662602.59578",
    "final_y": "524067.749052",
    "longitude": "-90.12798935228591",
    "latitude": "29.935564618364825",
    "geocoded_column": {
      "latitude": "29.935564618364825",
      "longitude": "-90.12798935228591"
    }
  },
  {
    "service_request": "2024-1149561",
    "request_type": "Safety & Permits",
    "request_reason": "Construction permit",
    "date_created": "2024-11-18T15:42:47.000",
    "date_modified": "2024-11-18T15:42:47.000",
    "request_status": "Pending",
    "responsible_agency": "Safety and Permits",
    "final_address": "1672 Rousselin Dr",
    "address_councildis": "D",
    "status": "Pending",
    "rowid": "1149561",
    "final_x": "3679718.36635",
    "final_y": "540412.744779",
    "longitude": "-90.0733873143451",
    "latitude": "29.98000166061185",
    "geocoded_column": {
      "latitude": "29.98000166061185",
      "longitude": "-90.0733873143451"
    }
  },
  {
    "service_request": "2024-1149560",
    "request_type": "Trash/Recycling",
    "request_reason": "Order Second Trash Cart",
    "date_created": "2024-11-18T15:35:22.000",
    "date_modified": "2024-11-18T15:39:30.000",
    "request_status": "Pending",
    "responsible_agency": "Department of Sanitation",
    "final_address": "1509 Robert C. Blakes, Sr. Dr",
    "address_councildis": "B",
    "status": "Assigned to Contractor",
    "contractor": "IV Waste",
    "rowid": "1149560",
    "final_x": "3678731.13589",
    "final_y": "525731.296573",
    "longitude": "-90.07701380899395",
    "latitude": "29.93966245947315",
    "geocoded_column": {
      "latitude": "29.93966245947315",
      "longitude": "-90.07701380899395"
    }
  },
  {
    "service_request": "2024-1149559",
    "request_type": "Trash/Recycling",
    "request_reason": "Repair Trash Cart",
    "date_created": "2024-11-18T15:34:11.000",
    "date_modified": "2024-11-18T15:38:24.000",
    "request_status": "Pending",
    "responsible_agency": "Department of Sanitation",
    "final_address": "1509 Robert C. Blakes, Sr. Dr",
    "address_councildis": "B",
    "status": "Assigned to Contractor",
    "contractor": "IV Waste",
    "rowid": "1149559",
    "final_x": "3678731.13589",
    "final_y": "525731.296573",
    "longitude": "-90.07701380899395",
    "latitude": "29.93966245947315",
    "geocoded_column": {
      "latitude": "29.93966245947315",
      "longitude": "-90.07701380899395"
    }
  },
  {
    "service_request": "2024-1149558",
    "request_type": "Streetlights",
    "request_reason": "Streetlight Outage/Malfunction",
    "date_created": "2024-11-18T15:31:20.000",
    "date_modified": "2024-11-18T15:36:34.000",
    "request_status": "Pending",
    "responsible_agency": "Department of Public Works",
    "final_address": "3515 Republic St",
    "address_councildis": "D",
    "status": "Pending",
    "contractor": "Legacy Professional Services",
    "rowid": "1149558",
    "final_x": "3680528.11951",
    "final_y": "545334.384399",
    "longitude": "-90.0706584828168",
    "latitude": "29.99350993624557",
    "geocoded_column": {
      "latitude": "29.99350993624557",
      "longitude": "-90.0706584828168"
    }
  },
  {
    "service_request": "2024-1149557",
    "request_type": "Trash/Recycling",
    "request_reason": "Request a Large Item Pick Up",
    "date_created": "2024-11-18T15:29:19.000",
    "date_modified": "2024-11-18T15:34:17.000",
    "request_status": "Pending",
    "responsible_agency": "Department of Sanitation",
    "final_address": "4666 Redwood St",
    "address_councildis": "E",
    "status": "Assigned to Contractor",
    "contractor": "Waste Pro",
    "rowid": "1149557",
    "final_x": "3712453.69278",
    "final_y": "555743.528473",
    "longitude": "-89.96942026709158",
    "latitude": "30.021125078836622",
    "geocoded_column": {
      "latitude": "30.021125078836622",
      "longitude": "-89.96942026709158"
    }
  },
  {
    "service_request": "2024-1149556",
    "request_type": "Trash/Recycling",
    "request_reason": "Request a Large Item Pick Up",
    "date_created": "2024-11-18T15:27:16.000",
    "date_modified": "2024-11-18T15:30:51.000",
    "request_status": "Pending",
    "responsible_agency": "Department of Sanitation",
    "final_address": "7607 Nelson St",
    "address_councildis": "A",
    "status": "Assigned to Contractor",
    "contractor": "IV Waste",
    "rowid": "1149556",
    "final_x": "3666289.17185",
    "final_y": "530838.128386",
    "longitude": "-90.11612369774201",
    "latitude": "29.95407383004053",
    "geocoded_column": {
      "latitude": "29.95407383004053",
      "longitude": "-90.11612369774201"
    }
  },
  {
    "service_request": "2024-1149555",
    "request_type": "Trash/Recycling",
    "request_reason": "Replace Recycling Cart",
    "date_created": "2024-11-18T15:27:15.000",
    "date_modified": "2024-11-18T15:27:15.000",
    "request_status": "Pending",
    "responsible_agency": "Department of Sanitation",
    "final_address": "1314 Ursulines Ave",
    "address_councildis": "C",
    "status": "Pending",
    "rowid": "1149555",
    "final_x": "3681576.56335",
    "final_y": "535032.243974",
    "longitude": "-90.06770606427742",
    "latitude": "29.965150831154816",
    "geocoded_column": {
      "latitude": "29.965150831154816",
      "longitude": "-90.06770606427742"
    }
  },
  {
    "service_request": "2024-1149554",
    "request_type": "Trash/Recycling",
    "request_reason": "Request a Large Item Pick Up",
    "date_created": "2024-11-18T15:24:22.000",
    "date_modified": "2024-11-18T15:28:34.000",
    "request_status": "Pending",
    "responsible_agency": "Department of Sanitation",
    "final_address": "4965 Sandalwood St",
    "address_councildis": "E",
    "status": "Assigned to Contractor",
    "contractor": "Waste Pro",
    "rowid": "1149554",
    "final_x": "3712162.8067",
    "final_y": "557566.439003",
    "longitude": "-89.97027085761285",
    "latitude": "30.026146882159235",
    "geocoded_column": {
      "latitude": "30.026146882159235",
      "longitude": "-89.97027085761285"
    }
  },
  {
    "service_request": "2024-1149553",
    "request_type": "Trash/Recycling",
    "request_reason": "Order Trash Cart",
    "date_created": "2024-11-18T15:21:30.000",
    "date_modified": "2024-11-18T15:25:56.000",
    "request_status": "Pending",
    "responsible_agency": "Department of Sanitation",
    "final_address": "12980 Mcraven Ct",
    "address_councildis": "E",
    "status": "Assigned to Contractor",
    "contractor": "Waste Pro",
    "rowid": "1149553",
    "final_x": "3716713.01292",
    "final_y": "568375.015653",
    "longitude": "-89.9554822464823",
    "latitude": "30.05571646601886",
    "geocoded_column": {
      "latitude": "30.05571646601886",
      "longitude": "-89.9554822464823"
    }
  },
  {
    "service_request": "2024-1149552",
    "request_type": "Trash/Recycling",
    "request_reason": "Order Second Trash Cart",
    "date_created": "2024-11-18T15:21:18.000",
    "date_modified": "2024-11-18T15:25:47.000",
    "request_status": "Pending",
    "responsible_agency": "Department of Sanitation",
    "final_address": "12980 Mcraven Ct",
    "address_councildis": "E",
    "status": "Assigned to Contractor",
    "contractor": "Waste Pro",
    "rowid": "1149552",
    "final_x": "3716713.01292",
    "final_y": "568375.015653",
    "longitude": "-89.9554822464823",
    "latitude": "30.05571646601886",
    "geocoded_column": {
      "latitude": "30.05571646601886",
      "longitude": "-89.9554822464823"
    }
  },
  {
    "service_request": "2024-1149551",
    "request_type": "Street and Traffic Signs",
    "request_reason": "Stop Sign Missing or Damaged",
    "date_created": "2024-11-18T15:21:00.000",
    "date_modified": "2024-11-18T15:21:00.000",
    "request_status": "Pending",
    "responsible_agency": "Department of Public Works",
    "final_address": "CONSTANCE ST & PLEASANT ST",
    "address_councildis": "B",
    "status": "Pending",
    "rowid": "1149551",
    "final_x": "3675722.6",
    "final_y": "519535.48",
    "longitude": "-90.0867249982096",
    "latitude": "29.922716337082168",
    "geocoded_column": {
      "latitude": "29.922716337082168",
      "longitude": "-90.0867249982096"
    }
  },
  {
    "service_request": "2024-1149549",
    "request_type": "Trash/Recycling",
    "request_reason": "Request a Large Item Pick Up",
    "date_created": "2024-11-18T15:20:26.000",
    "date_modified": "2024-11-18T15:24:17.000",
    "request_status": "Pending",
    "responsible_agency": "Department of Sanitation",
    "final_address": "5161 Mckendall Pl",
    "address_councildis": "E",
    "status": "Assigned to Contractor",
    "contractor": "Waste Pro",
    "rowid": "1149549",
    "final_x": "3718040.40812",
    "final_y": "558988.36982",
    "longitude": "-89.9516444101616",
    "latitude": "30.02986306250867",
    "geocoded_column": {
      "latitude": "30.02986306250867",
      "longitude": "-89.9516444101616"
    }
  },
  {
    "service_request": "2024-1149550",
    "request_type": "Trash/Recycling",
    "request_reason": "Request a Large Item Pick Up",
    "date_created": "2024-11-18T15:20:26.000",
    "date_modified": "2024-11-18T15:24:17.000",
    "request_status": "Pending",
    "responsible_agency": "Department of Sanitation",
    "final_address": "8820 Dinkins St",
    "address_councildis": "E",
    "status": "Assigned to Contractor",
    "contractor": "Waste Pro",
    "rowid": "1149550",
    "final_x": "3704551.26922",
    "final_y": "563277.84368",
    "longitude": "-89.99411125772059",
    "latitude": "30.042097775607125",
    "geocoded_column": {
      "latitude": "30.042097775607125",
      "longitude": "-89.99411125772059"
    }
  },
  {
    "service_request": "2024-1149548",
    "request_type": "Abandoned Vehicles",
    "request_reason": "Abandoned/Junk Vehicles",
    "date_created": "2024-11-18T15:18:15.000",
    "date_modified": "2024-11-18T15:18:15.000",
    "request_status": "Pending",
    "responsible_agency": "Department of Public Works",
    "final_address": "S PRIEUR ST & CADIZ ST",
    "address_councildis": "B",
    "status": "Pending",
    "rowid": "1149548",
    "final_x": "3669499.0",
    "final_y": "526823.68",
    "longitude": "-90.10612409282948",
    "latitude": "29.942941260578554",
    "geocoded_column": {
      "latitude": "29.942941260578554",
      "longitude": "-90.10612409282948"
    }
  },
  {
    "service_request": "2024-1149547",
    "request_type": "Trash/Recycling",
    "request_reason": "Request a Large Item Pick Up",
    "date_created": "2024-11-18T15:17:31.000",
    "date_modified": "2024-11-18T15:20:56.000",
    "request_status": "Pending",
    "responsible_agency": "Department of Sanitation",
    "final_address": "7521 Chef Menteur Hwy",
    "address_councildis": "E",
    "status": "Assigned to Contractor",
    "contractor": "Waste Pro",
    "rowid": "1149547",
    "final_x": "3703015.85854",
    "final_y": "552497.21487",
    "longitude": "-89.99936035515056",
    "latitude": "30.01250447560911",
    "geocoded_column": {
      "latitude": "30.01250447560911",
      "longitude": "-89.99936035515056"
    }
  },
  {
    "service_request": "2024-1149546",
    "request_type": "Streetlights",
    "request_reason": "New Streetlight Request",
    "date_created": "2024-11-18T15:16:44.000",
    "date_modified": "2024-11-18T15:20:26.000",
    "request_status": "Pending",
    "responsible_agency": "Department of Public Works",
    "final_address": "PRYTANIA ST & 3RD ST",
    "address_councildis": "B",
    "status": "Pending",
    "contractor": "Legacy Professional Services",
    "rowid": "1149546",
    "final_x": "3676736.6",
    "final_y": "522437.38",
    "longitude": "-90.0834242793464",
    "latitude": "29.930665247988145",
    "geocoded_column": {
      "latitude": "29.930665247988145",
      "longitude": "-90.0834242793464"
    }
  },
  {
    "service_request": "2024-1149545",
    "request_type": "Trash/Recycling",
    "request_reason": "Replace Trash Cart",
    "date_created": "2024-11-18T15:15:40.000",
    "date_modified": "2024-11-18T15:19:46.000",
    "request_status": "Pending",
    "responsible_agency": "Department of Sanitation",
    "final_address": "2521 Dumaine St",
    "address_councildis": "D",
    "status": "Assigned to Contractor",
    "contractor": "IV Waste",
    "rowid": "1149545",
    "final_x": "3677852.35611",
    "final_y": "537053.763912",
    "longitude": "-90.07939705138595",
    "latitude": "29.97082190454626",
    "geocoded_column": {
      "latitude": "29.97082190454626",
      "longitude": "-90.07939705138595"
    }
  },
  {
    "service_request": "2024-1149544",
    "request_type": "Trash/Recycling",
    "request_reason": "Request a Large Item Pick Up",
    "date_created": "2024-11-18T15:12:21.000",
    "date_modified": "2024-11-18T15:15:19.000",
    "request_status": "Pending",
    "responsible_agency": "Department of Sanitation",
    "final_address": "10940 Harrow Rd",
    "address_councildis": "E",
    "status": "Assigned to Contractor",
    "contractor": "Waste Pro",
    "rowid": "1149544",
    "final_x": "3711778.88235",
    "final_y": "563817.623201",
    "longitude": "-89.97124919197346",
    "latitude": "30.043347700071017",
    "geocoded_column": {
      "latitude": "30.043347700071017",
      "longitude": "-89.97124919197346"
    }
  },
  {
    "service_request": "2024-1149543",
    "request_type": "Roads and Streets",
    "request_reason": "Street Subsidence (Sinking)",
    "date_created": "2024-11-18T15:12:05.000",
    "date_modified": "2024-11-18T15:12:05.000",
    "request_status": "Pending",
    "responsible_agency": "Department of Public Works",
    "final_address": "3231 Jena St",
    "address_councildis": "B",
    "status": "Pending",
    "rowid": "1149543",
    "final_x": "3669904.30465",
    "final_y": "526787.017086",
    "longitude": "-90.1048456851463",
    "latitude": "29.942828507307944",
    "geocoded_column": {
      "latitude": "29.942828507307944",
      "longitude": "-90.1048456851463"
    }
  },
  {
    "service_request": "2024-1149542",
    "request_type": "Streetlights",
    "request_reason": "Streetlight Outage/Malfunction",
    "date_created": "2024-11-18T15:11:24.000",
    "date_modified": "2024-11-18T15:14:27.000",
    "request_status": "Pending",
    "responsible_agency": "Department of Public Works",
    "final_address": "1617 Short St",
    "address_councildis": "A",
    "status": "Pending",
    "contractor": "Legacy Professional Services",
    "rowid": "1149542",
    "final_x": "3663375.22835",
    "final_y": "529195.088704",
    "longitude": "-90.12537948711137",
    "latitude": "29.949640794027534",
    "geocoded_column": {
      "latitude": "29.949640794027534",
      "longitude": "-90.12537948711137"
    }
  },
  {
    "service_request": "2024-1149541",
    "request_type": "Health Related Request",
    "request_reason": "Homeless Encampment Complaint",
    "date_created": "2024-11-18T15:09:43.000",
    "date_modified": "2024-11-18T15:09:43.000",
    "request_status": "Pending",
    "responsible_agency": "Health Department",
    "final_address": "2800 St Claude Ave",
    "address_councildis": "C",
    "status": "Pending",
    "rowid": "1149541",
    "final_x": "3687738.33046",
    "final_y": "536281.303239",
    "longitude": "-90.048203351263",
    "latitude": "29.968396730468832",
    "geocoded_column": {
      "latitude": "29.968396730468832",
      "longitude": "-90.048203351263"
    }
  },
  {
    "service_request": "2024-1149540",
    "request_type": "Abandoned Vehicles",
    "request_reason": "Abandoned/Junk Vehicles",
    "date_created": "2024-11-18T15:06:37.000",
    "date_modified": "2024-11-18T15:06:37.000",
    "request_status": "Pending",
    "responsible_agency": "Department of Public Works",
    "final_address": "2501 S Johnson St",
    "address_councildis": "B",
    "status": "Pending",
    "rowid": "1149540",
    "final_x": "3673130.11694",
    "final_y": "528389.00192",
    "longitude": "-90.09460632713592",
    "latitude": "29.947137948830918",
    "geocoded_column": {
      "latitude": "29.947137948830918",
      "longitude": "-90.09460632713592"
    }
  },
  {
    "service_request": "2024-1149539",
    "request_type": "Trash/Recycling",
    "request_reason": "Repair Trash Cart",
    "date_created": "2024-11-18T15:05:19.000",
    "date_modified": "2024-11-18T15:08:09.000",
    "request_status": "Pending",
    "responsible_agency": "Department of Sanitation",
    "final_address": "9010 Tilford Rd",
    "address_councildis": "E",
    "status": "Assigned to Contractor",
    "contractor": "Waste Pro",
    "rowid": "1149539",
    "final_x": "3708183.52171",
    "final_y": "557227.254619",
    "longitude": "-89.98285742612566",
    "latitude": "30.025343815227394",
    "geocoded_column": {
      "latitude": "30.025343815227394",
      "longitude": "-89.98285742612566"
    }
  },
  {
    "service_request": "2024-1149538",
    "request_type": "Health Related Request",
    "request_reason": "Homeless Encampment Complaint",
    "date_created": "2024-11-18T15:04:04.000",
    "date_modified": "2024-11-18T16:36:40.000",
    "case_close_date": "2024-11-18T10:36:40.000",
    "request_status": "Closed",
    "responsible_agency": "Health Department",
    "final_address": "1400 Camp St",
    "address_councildis": "B",
    "status": "Referred to External Agency",
    "rowid": "1149538",
    "final_x": "3680010.15701",
    "final_y": "524563.615292",
    "longitude": "-90.07301631089209",
    "latitude": "29.93641310106202",
    "geocoded_column": {
      "latitude": "29.93641310106202",
      "longitude": "-90.07301631089209"
    }
  },
  {
    "service_request": "2024-1149537",
    "request_type": "Trash/Recycling",
    "request_reason": "Return Trash Cart",
    "date_created": "2024-11-18T15:03:47.000",
    "date_modified": "2024-11-18T15:06:55.000",
    "request_status": "Pending",
    "responsible_agency": "Department of Sanitation",
    "final_address": "1621 Bordeaux St",
    "address_councildis": "B",
    "status": "Assigned to Contractor",
    "contractor": "IV Waste",
    "rowid": "1149537",
    "final_x": "3669403.42964",
    "final_y": "520900.215225",
    "longitude": "-90.10662604955981",
    "latitude": "29.92665645023131",
    "geocoded_column": {
      "latitude": "29.92665645023131",
      "longitude": "-90.10662604955981"
    }
  },
  {
    "service_request": "2024-1149536",
    "request_type": "Abandoned Vehicles",
    "request_reason": "Abandoned/Junk Vehicles",
    "date_created": "2024-11-18T15:03:22.000",
    "date_modified": "2024-11-18T15:03:22.000",
    "request_status": "Pending",
    "responsible_agency": "Department of Public Works",
    "final_address": "1801 General Pershing St",
    "address_councildis": "B",
    "status": "Inspected",
    "rowid": "1149536",
    "final_x": "3671208.96769",
    "final_y": "521689.424185",
    "longitude": "-90.10089964809026",
    "latitude": "29.928773248444376",
    "geocoded_column": {
      "latitude": "29.928773248444376",
      "longitude": "-90.10089964809026"
    }
  },
  {
    "service_request": "2024-1149535",
    "request_type": "Roads and Streets",
    "request_reason": "Pothole",
    "date_created": "2024-11-18T15:03:12.000",
    "date_modified": "2024-11-18T15:09:26.000",
    "request_status": "Pending",
    "responsible_agency": "Department of Public Works",
    "final_address": "2009 Baronne St",
    "address_councildis": "B",
    "status": "Pending",
    "rowid": "1149535",
    "final_x": "3677459.4509",
    "final_y": "524847.468604",
    "longitude": "-90.08105919297101",
    "latitude": "29.937270500932822",
    "geocoded_column": {
      "latitude": "29.937270500932822",
      "longitude": "-90.08105919297101"
    }
  },
  {
    "service_request": "2024-1149534",
    "request_type": "Trash/Recycling",
    "request_reason": "Request a Large Item Pick Up",
    "date_created": "2024-11-18T15:02:48.000",
    "date_modified": "2024-11-18T15:06:18.000",
    "request_status": "Pending",
    "responsible_agency": "Department of Sanitation",
    "final_address": "4819 Ken Ct",
    "address_councildis": "C",
    "status": "Assigned to Contractor",
    "contractor": "Richards Disposal",
    "rowid": "1149534",
    "final_x": "3701901.96234",
    "final_y": "518456.053046",
    "longitude": "-90.004127244202",
    "latitude": "29.918939174750143",
    "geocoded_column": {
      "latitude": "29.918939174750143",
      "longitude": "-90.004127244202"
    }
  },
  {
    "service_request": "2024-1149533",
    "request_type": "Trash/Recycling",
    "request_reason": "Request a Large Item Pick Up",
    "date_created": "2024-11-18T15:01:34.000",
    "date_modified": "2024-11-18T15:05:28.000",
    "request_status": "Pending",
    "responsible_agency": "Department of Sanitation",
    "final_address": "13056 Laval St",
    "address_councildis": "E",
    "status": "Assigned to Contractor",
    "contractor": "Waste Pro",
    "rowid": "1149533",
    "final_x": "3723995.74566",
    "final_y": "562389.665951",
    "longitude": "-89.9326944643854",
    "latitude": "30.039016435992693",
    "geocoded_column": {
      "latitude": "30.039016435992693",
      "longitude": "-89.9326944643854"
    }
  },
  {
    "service_request": "2024-1149532",
    "request_type": "Streetlights",
    "request_reason": "Streetlight Outage/Malfunction",
    "date_created": "2024-11-18T14:58:37.000",
    "date_modified": "2024-11-18T15:01:08.000",
    "request_status": "Pending",
    "responsible_agency": "Department of Public Works",
    "final_address": "4612 Prytania St",
    "address_councildis": "B",
    "status": "Pending",
    "contractor": "Legacy Professional Services",
    "rowid": "1149532",
    "final_x": "3670032.88398",
    "final_y": "520173.543864",
    "longitude": "-90.1046636254298",
    "latitude": "29.924639791020127",
    "geocoded_column": {
      "latitude": "29.924639791020127",
      "longitude": "-90.1046636254298"
    }
  },
  {
    "service_request": "2024-1149531",
    "request_type": "Streetlights",
    "request_reason": "Streetlight Outage/Malfunction",
    "date_created": "2024-11-18T14:56:52.000",
    "date_modified": "2024-11-18T14:59:48.000",
    "request_status": "Pending",
    "responsible_agency": "Department of Public Works",
    "final_address": "4612 Prytania St",
    "address_councildis": "B",
    "status": "Pending",
    "contractor": "Legacy Professional Services",
    "rowid": "1149531",
    "final_x": "3670032.88398",
    "final_y": "520173.543864",
    "longitude": "-90.1046636254298",
    "latitude": "29.924639791020127",
    "geocoded_column": {
      "latitude": "29.924639791020127",
      "longitude": "-90.1046636254298"
    }
  },
  {
    "service_request": "2024-1149530",
    "request_type": "Drainage",
    "request_reason": "Catch Basin Clogged",
    "date_created": "2024-11-18T14:56:29.000",
    "date_modified": "2024-11-18T14:59:32.000",
    "request_status": "Pending",
    "responsible_agency": "Department of Public Works",
    "final_address": "2612 S Carrollton Ave",
    "address_councildis": "A",
    "status": "Pending",
    "rowid": "1149530",
    "final_x": "3665424.58778",
    "final_y": "532200.644547",
    "longitude": "-90.1188081134764",
    "latitude": "29.957845530775696",
    "geocoded_column": {
      "latitude": "29.957845530775696",
      "longitude": "-90.1188081134764"
    }
  },
  {
    "service_request": "2024-1149529",
    "request_type": "Trash/Recycling",
    "request_reason": "Order Recycling Cart",
    "date_created": "2024-11-18T14:55:02.000",
    "date_modified": "2024-11-18T14:58:28.000",
    "request_status": "Pending",
    "responsible_agency": "Department of Sanitation",
    "final_address": "2612 S Carrollton Ave",
    "address_councildis": "A",
    "status": "Pending",
    "rowid": "1149529",
    "final_x": "3665424.58778",
    "final_y": "532200.644547",
    "longitude": "-90.1188081134764",
    "latitude": "29.957845530775696",
    "geocoded_column": {
      "latitude": "29.957845530775696",
      "longitude": "-90.1188081134764"
    }
  },
  {
    "service_request": "2024-1149528",
    "request_type": "Trash/Recycling",
    "request_reason": "Request a Large Item Pick Up",
    "date_created": "2024-11-18T14:54:41.000",
    "date_modified": "2024-11-18T14:57:56.000",
    "request_status": "Pending",
    "responsible_agency": "Department of Sanitation",
    "final_address": "7121 Boston Dr",
    "address_councildis": "E",
    "status": "Assigned to Contractor",
    "contractor": "Waste Pro",
    "rowid": "1149528",
    "final_x": "3706252.52663",
    "final_y": "561095.672734",
    "longitude": "-89.98881560168338",
    "latitude": "30.036042885884324",
    "geocoded_column": {
      "latitude": "30.036042885884324",
      "longitude": "-89.98881560168338"
    }
  },
  {
    "service_request": "2024-1149527",
    "request_type": "Trash/Recycling",
    "request_reason": "Request a Large Item Pick Up",
    "date_created": "2024-11-18T14:53:43.000",
    "date_modified": "2024-11-18T14:56:29.000",
    "request_status": "Pending",
    "responsible_agency": "Department of Sanitation",
    "final_address": "7013 Boston Dr",
    "address_councildis": "E",
    "status": "Assigned to Contractor",
    "contractor": "Waste Pro",
    "rowid": "1149527",
    "final_x": "3706497.22859",
    "final_y": "560621.305694",
    "longitude": "-89.98805990348134",
    "latitude": "30.03473066613722",
    "geocoded_column": {
      "latitude": "30.03473066613722",
      "longitude": "-89.98805990348134"
    }
  },
  {
    "service_request": "2024-1149526",
    "request_type": "Streetlights",
    "request_reason": "Streetlight Outage/Malfunction",
    "date_created": "2024-11-18T14:53:34.000",
    "date_modified": "2024-11-18T14:56:10.000",
    "request_status": "Pending",
    "responsible_agency": "Department of Public Works",
    "final_address": "5964 Marshal Foch St",
    "address_councildis": "A",
    "status": "Pending",
    "contractor": "Legacy Professional Services",
    "rowid": "1149526",
    "final_x": "3669714.22606",
    "final_y": "547011.966609",
    "longitude": "-90.10476115528573",
    "latitude": "29.998445937793903",
    "geocoded_column": {
      "latitude": "29.998445937793903",
      "longitude": "-90.10476115528573"
    }
  },
  {
    "service_request": "2024-1149525",
    "request_type": "Trash/Recycling",
    "request_reason": "Request a Large Item Pick Up",
    "date_created": "2024-11-18T14:53:14.000",
    "date_modified": "2024-11-18T14:55:35.000",
    "request_status": "Pending",
    "responsible_agency": "Department of Sanitation",
    "final_address": "7143 Boston Dr",
    "address_councildis": "E",
    "status": "Assigned to Contractor",
    "contractor": "Waste Pro",
    "rowid": "1149525",
    "final_x": "3706202.94679",
    "final_y": "561214.660126",
    "longitude": "-89.9889678703987",
    "latitude": "30.036371653859746",
    "geocoded_column": {
      "latitude": "30.036371653859746",
      "longitude": "-89.9889678703987"
    }
  },
  {
    "service_request": "2024-1149524",
    "request_type": "Trash/Recycling",
    "request_reason": "Replace Recycling Cart",
    "date_created": "2024-11-18T14:52:14.000",
    "date_modified": "2024-11-18T14:52:14.000",
    "request_status": "Pending",
    "responsible_agency": "Department of Sanitation",
    "final_address": "1123 Nashville Ave",
    "address_councildis": "A",
    "status": "Pending",
    "rowid": "1149524",
    "final_x": "3665849.82125",
    "final_y": "520149.92876",
    "longitude": "-90.11786899170706",
    "latitude": "29.92469752938855",
    "geocoded_column": {
      "latitude": "29.92469752938855",
      "longitude": "-90.11786899170706"
    }
  },
  {
    "service_request": "2024-1149523",
    "request_type": "Trash/Recycling",
    "request_reason": "Illegal Dumping",
    "date_created": "2024-11-18T14:50:20.000",
    "date_modified": "2024-11-18T14:50:20.000",
    "request_status": "Pending",
    "responsible_agency": "Department of Sanitation",
    "final_address": "4500 BLK Skyview Dr",
    "address_councildis": "D",
    "status": "Pending",
    "rowid": "1149523",
    "final_x": "3696792.51812",
    "final_y": "552937.219701",
    "longitude": "-90.01900660262271",
    "latitude": "30.01391207007468",
    "geocoded_column": {
      "latitude": "30.01391207007468",
      "longitude": "-90.01900660262271"
    }
  },
  {
    "service_request": "2024-1149522",
    "request_type": "Trash/Recycling",
    "request_reason": "Illegal Dumping",
    "date_created": "2024-11-18T14:50:01.000",
    "date_modified": "2024-11-18T14:53:10.000",
    "request_status": "Pending",
    "responsible_agency": "Department of Sanitation",
    "final_address": "4400 BLK Skyview Dr",
    "address_councildis": "D",
    "status": "Pending",
    "rowid": "1149522",
    "final_x": "3696817.98559",
    "final_y": "552676.579802",
    "longitude": "-90.0189355851164",
    "latitude": "30.013194605053545",
    "geocoded_column": {
      "latitude": "30.013194605053545",
      "longitude": "-90.0189355851164"
    }
  },
  {
    "service_request": "2024-1149521",
    "request_type": "Trash/Recycling",
    "request_reason": "Request a Large Item Pick Up",
    "date_created": "2024-11-18T14:49:01.000",
    "date_modified": "2024-11-18T14:51:56.000",
    "request_status": "Pending",
    "responsible_agency": "Department of Sanitation",
    "final_address": "1817 Dante St",
    "address_councildis": "A",
    "status": "Assigned to Contractor",
    "contractor": "IV Waste",
    "rowid": "1149521",
    "final_x": "3662996.34215",
    "final_y": "530520.696706",
    "longitude": "-90.12653172650889",
    "latitude": "29.95329676604839",
    "geocoded_column": {
      "latitude": "29.95329676604839",
      "longitude": "-90.12653172650889"
    }
  },
  {
    "service_request": "2024-1149520",
    "request_type": "Trash/Recycling",
    "request_reason": "Order Recycling Cart",
    "date_created": "2024-11-18T14:47:42.000",
    "date_modified": "2024-11-18T14:47:42.000",
    "request_status": "Pending",
    "responsible_agency": "Department of Sanitation",
    "final_address": "2512 Jefferson Ave",
    "address_councildis": "A",
    "status": "Pending",
    "rowid": "1149520",
    "final_x": "3668029.29818",
    "final_y": "524802.00774",
    "longitude": "-90.11083241324195",
    "latitude": "29.9374255132059",
    "geocoded_column": {
      "latitude": "29.9374255132059",
      "longitude": "-90.11083241324195"
    }
  },
  {
    "service_request": "2024-1149519",
    "request_type": "Trash/Recycling",
    "request_reason": "Request a Large Item Pick Up",
    "date_created": "2024-11-18T14:46:50.000",
    "date_modified": "2024-11-18T14:49:05.000",
    "request_status": "Pending",
    "responsible_agency": "Department of Sanitation",
    "final_address": "7251 Northgate Dr",
    "address_councildis": "E",
    "status": "Assigned to Contractor",
    "contractor": "Waste Pro",
    "rowid": "1149519",
    "final_x": "3713471.47167",
    "final_y": "565525.940002",
    "longitude": "-89.96583551935227",
    "latitude": "30.047989448193054",
    "geocoded_column": {
      "latitude": "30.047989448193054",
      "longitude": "-89.96583551935227"
    }
  },
  {
    "service_request": "2024-1149518",
    "request_type": "Trash/Recycling",
    "request_reason": "Request a Large Item Pick Up",
    "date_created": "2024-11-18T14:42:48.000",
    "date_modified": "2024-11-18T14:44:54.000",
    "request_status": "Pending",
    "responsible_agency": "Department of Sanitation",
    "final_address": "4820 Sherwood Dr",
    "address_councildis": "E",
    "status": "Assigned to Contractor",
    "contractor": "Waste Pro",
    "rowid": "1149518",
    "final_x": "3717890.56057",
    "final_y": "557344.090011",
    "longitude": "-89.95218055116217",
    "latitude": "30.025346919496194",
    "geocoded_column": {
      "latitude": "30.025346919496194",
      "longitude": "-89.95218055116217"
    }
  },
  {
    "service_request": "2024-1149517",
    "request_type": "Abandoned Vehicles",
    "request_reason": "Abandoned/Junk Vehicles",
    "date_created": "2024-11-18T14:40:22.000",
    "date_modified": "2024-11-18T14:40:22.000",
    "request_status": "Pending",
    "responsible_agency": "Department of Public Works",
    "final_address": "FRENCHMEN ST & FOY ST",
    "address_councildis": "D",
    "status": "Inspected",
    "rowid": "1149517",
    "final_x": "3683728.8",
    "final_y": "546949.48",
    "longitude": "-90.06049137602939",
    "latitude": "29.99785350327189",
    "geocoded_column": {
      "latitude": "29.99785350327189",
      "longitude": "-90.06049137602939"
    }
  },
  {
    "service_request": "2024-1149516",
    "request_type": "Abandoned Vehicles",
    "request_reason": "Abandoned/Junk Vehicles",
    "date_created": "2024-11-18T14:35:41.000",
    "date_modified": "2024-11-18T14:35:41.000",
    "request_status": "Pending",
    "responsible_agency": "Department of Public Works",
    "final_address": "3701 Frenchmen St",
    "address_councildis": "D",
    "status": "Pending",
    "rowid": "1149516",
    "final_x": "3683833.06236",
    "final_y": "546258.680976",
    "longitude": "-90.06018626042321",
    "latitude": "29.995950867997884",
    "geocoded_column": {
      "latitude": "29.995950867997884",
      "longitude": "-90.06018626042321"
    }
  },
  {
    "service_request": "2024-1149515",
    "request_type": "Trash/Recycling",
    "request_reason": "Illegal Dumping",
    "date_created": "2024-11-18T14:35:31.000",
    "date_modified": "2024-11-18T14:37:44.000",
    "request_status": "Pending",
    "responsible_agency": "Department of Sanitation",
    "final_address": "5803 Tall Timbers Dr",
    "address_councildis": "C",
    "status": "Pending",
    "rowid": "1149515",
    "final_x": "3705241.10103",
    "final_y": "513951.84453",
    "longitude": "-89.9937536061482",
    "latitude": "29.906447219720548",
    "geocoded_column": {
      "latitude": "29.906447219720548",
      "longitude": "-89.9937536061482"
    }
  },
  {
    "service_request": "2024-1149514",
    "request_type": "Trash/Recycling",
    "request_reason": "Request a Large Item Pick Up",
    "date_created": "2024-11-18T14:30:53.000",
    "date_modified": "2024-11-18T14:32:15.000",
    "request_status": "Pending",
    "responsible_agency": "Department of Sanitation",
    "final_address": "2425 N Johnson St",
    "address_councildis": "D",
    "status": "Assigned to Contractor",
    "contractor": "IV Waste",
    "rowid": "1149514",
    "final_x": "3686477.86543",
    "final_y": "539799.525834",
    "longitude": "-90.05205971220393",
    "latitude": "29.978109421804433",
    "geocoded_column": {
      "latitude": "29.978109421804433",
      "longitude": "-90.05205971220393"
    }
  },
  {
    "service_request": "2024-1149513",
    "request_type": "Roads and Streets",
    "request_reason": "Pothole",
    "date_created": "2024-11-18T14:30:18.000",
    "date_modified": "2024-11-18T14:30:18.000",
    "request_status": "Pending",
    "responsible_agency": "Department of Public Works",
    "final_address": "4000 BLK Tullis Dr",
    "address_councildis": "C",
    "status": "Pending",
    "rowid": "1149513",
    "final_x": "3698336.96156",
    "final_y": "513665.957692",
    "longitude": "-90.01555393070407",
    "latitude": "29.905881261591674",
    "geocoded_column": {
      "latitude": "29.905881261591674",
      "longitude": "-90.01555393070407"
    }
  },
  {
    "service_request": "2024-1149512",
    "request_type": "Trash/Recycling",
    "request_reason": "Illegal Dumping",
    "date_created": "2024-11-18T14:28:52.000",
    "date_modified": "2024-11-18T14:30:29.000",
    "request_status": "Pending",
    "responsible_agency": "Department of Sanitation",
    "final_address": "LEEDS ST & WERNER DR",
    "address_councildis": "E",
    "status": "Pending",
    "rowid": "1149512",
    "final_x": "3704803.3",
    "final_y": "554975.08",
    "longitude": "-89.99362154551208",
    "latitude": "30.019260314936187",
    "geocoded_column": {
      "latitude": "30.019260314936187",
      "longitude": "-89.99362154551208"
    }
  },
  {
    "service_request": "2024-1149511",
    "request_type": "Taxi Issues",
    "request_reason": "Taxi Complaint",
    "date_created": "2024-11-18T14:28:29.000",
    "date_modified": "2024-11-18T14:29:45.000",
    "request_status": "Pending",
    "responsible_agency": "Ground Transportation Bureau",
    "final_address": "0 BLK Poydras St",
    "address_councildis": "B",
    "status": "Pending",
    "rowid": "1149511",
    "final_x": "3682820.46766",
    "final_y": "528816.972666",
    "longitude": "-90.06399531569016",
    "latitude": "29.948023114681554",
    "geocoded_column": {
      "latitude": "29.948023114681554",
      "longitude": "-90.06399531569016"
    }
  },
  {
    "service_request": "2024-1149510",
    "request_type": "Roads and Streets",
    "request_reason": "Street Subsidence (Sinking)",
    "date_created": "2024-11-18T14:28:08.000",
    "date_modified": "2024-11-18T14:28:08.000",
    "request_status": "Pending",
    "responsible_agency": "Department of Public Works",
    "final_address": "300 BLK Poydras St",
    "address_councildis": "B",
    "status": "Pending",
    "rowid": "1149510",
    "final_x": "3681951.0547",
    "final_y": "529024.791148",
    "longitude": "-90.06673314770681",
    "latitude": "29.948620999391814",
    "geocoded_column": {
      "latitude": "29.948620999391814",
      "longitude": "-90.06673314770681"
    }
  },
  {
    "service_request": "2024-1149509",
    "request_type": "Roads and Streets",
    "request_reason": "Pothole",
    "date_created": "2024-11-18T14:27:09.000",
    "date_modified": "2024-11-18T14:27:09.000",
    "request_status": "Pending",
    "responsible_agency": "Department of Public Works",
    "final_address": "3300 BLK Jena St",
    "address_councildis": "B",
    "status": "Pending",
    "rowid": "1149509",
    "final_x": "3669833.70754",
    "final_y": "527015.660323",
    "longitude": "-90.10506083958605",
    "latitude": "29.943459282960408",
    "geocoded_column": {
      "latitude": "29.943459282960408",
      "longitude": "-90.10506083958605"
    }
  },
  {
    "service_request": "2024-1149508",
    "request_type": "Abandoned Vehicles",
    "request_reason": "Abandoned/Junk Vehicles",
    "date_created": "2024-11-18T14:27:04.000",
    "date_modified": "2024-11-18T14:32:18.000",
    "request_status": "Pending",
    "responsible_agency": "Department of Public Works",
    "final_address": "4038 General Ogden St",
    "address_councildis": "A",
    "status": "Pending",
    "rowid": "1149508",
    "final_x": "3666756.34433",
    "final_y": "537889.115081",
    "longitude": "-90.1144117089968",
    "latitude": "29.97344806133033",
    "geocoded_column": {
      "latitude": "29.97344806133033",
      "longitude": "-90.1144117089968"
    }
  },
  {
    "service_request": "2024-1149507",
    "request_type": "Trash/Recycling",
    "request_reason": "Request a Large Item Pick Up",
    "date_created": "2024-11-18T14:26:59.000",
    "date_modified": "2024-11-18T14:45:14.000",
    "case_close_date": "2024-11-18T08:45:14.000",
    "request_status": "Closed",
    "responsible_agency": "Department of Sanitation",
    "final_address": "LEEDS ST & BONITA DR",
    "address_councildis": "E",
    "status": "Invalid Request",
    "contractor": "Waste Pro",
    "contractor_action": "Additional information required from resident",
    "rowid": "1149507",
    "final_x": "3704512.4",
    "final_y": "554946.68",
    "longitude": "-89.99454173142792",
    "latitude": "30.019191574677095",
    "geocoded_column": {
      "latitude": "30.019191574677095",
      "longitude": "-89.99454173142792"
    }
  },
  {
    "service_request": "2024-1149506",
    "request_type": "Drainage",
    "request_reason": "Catch Basin Clogged",
    "date_created": "2024-11-18T14:23:26.000",
    "date_modified": "2024-11-18T14:24:19.000",
    "request_status": "Pending",
    "responsible_agency": "Department of Public Works",
    "final_address": "819 Burdette St",
    "address_councildis": "A",
    "status": "Pending",
    "rowid": "1149506",
    "final_x": "3662003.2265",
    "final_y": "526689.887038",
    "longitude": "-90.12979462665423",
    "latitude": "29.942791989464773",
    "geocoded_column": {
      "latitude": "29.942791989464773",
      "longitude": "-90.12979462665423"
    }
  },
  {
    "service_request": "2024-1149505",
    "request_type": "Trash/Recycling",
    "request_reason": "Order Trash Cart",
    "date_created": "2024-11-18T14:21:56.000",
    "date_modified": "2024-11-18T14:22:50.000",
    "request_status": "Pending",
    "responsible_agency": "Department of Sanitation",
    "final_address": "2720 St Philip St",
    "address_councildis": "A",
    "status": "Assigned to Contractor",
    "contractor": "IV Waste",
    "rowid": "1149505",
    "final_x": "3677197.09909",
    "final_y": "537966.318281",
    "longitude": "-90.08143494902578",
    "latitude": "29.973350817752102",
    "geocoded_column": {
      "latitude": "29.973350817752102",
      "longitude": "-90.08143494902578"
    }
  },
  {
    "service_request": "2024-1149504",
    "request_type": "Trash/Recycling",
    "request_reason": "Request a Large Item Pick Up",
    "date_created": "2024-11-18T14:21:07.000",
    "date_modified": "2024-11-18T14:21:59.000",
    "request_status": "Pending",
    "responsible_agency": "Department of Sanitation",
    "final_address": "4525 San Marco Rd",
    "address_councildis": "E",
    "status": "Assigned to Contractor",
    "contractor": "Waste Pro",
    "rowid": "1149504",
    "final_x": "3762719.25008",
    "final_y": "573142.839337",
    "longitude": "-89.80986874440805",
    "latitude": "30.067224400691675",
    "geocoded_column": {
      "latitude": "30.067224400691675",
      "longitude": "-89.80986874440805"
    }
  },
  {
    "service_request": "2024-1149503",
    "request_type": "Utility Poles",
    "request_reason": "Wires Sagging/Hanging Low",
    "date_created": "2024-11-18T14:19:58.000",
    "date_modified": "2024-11-18T14:20:39.000",
    "request_status": "Pending",
    "responsible_agency": "Utility Company Collective",
    "final_address": "WASHINGTON AVE & LIVAUDAIS ST",
    "address_councildis": "B",
    "status": "Pending",
    "rowid": "1149503",
    "final_x": "3678209.7",
    "final_y": "519085.28",
    "longitude": "-90.07888976629131",
    "latitude": "29.921403797354305",
    "geocoded_column": {
      "latitude": "29.921403797354305",
      "longitude": "-90.07888976629131"
    }
  },
  {
    "service_request": "2024-1149502",
    "request_type": "Trash/Recycling",
    "request_reason": "Request a Large Item Pick Up",
    "date_created": "2024-11-18T14:15:15.000",
    "date_modified": "2024-11-18T14:15:49.000",
    "request_status": "Pending",
    "responsible_agency": "Department of Sanitation",
    "final_address": "4416 Duplessis St",
    "address_councildis": "D",
    "status": "Assigned to Contractor",
    "contractor": "IV Waste",
    "rowid": "1149502",
    "final_x": "3678175.91886",
    "final_y": "548645.930707",
    "longitude": "-90.07797411322342",
    "latitude": "30.00268658050746",
    "geocoded_column": {
      "latitude": "30.00268658050746",
      "longitude": "-90.07797411322342"
    }
  },
  {
    "service_request": "2024-1149501",
    "request_type": "Trash/Recycling",
    "request_reason": "Repair Trash Cart",
    "date_created": "2024-11-18T14:14:14.000",
    "date_modified": "2024-11-18T14:14:48.000",
    "request_status": "Pending",
    "responsible_agency": "Department of Sanitation",
    "final_address": "3816 Vincennes Pl",
    "address_councildis": "A",
    "status": "Assigned to Contractor",
    "contractor": "IV Waste",
    "rowid": "1149501",
    "final_x": "3668240.00961",
    "final_y": "529607.054657",
    "longitude": "-90.11000522328568",
    "latitude": "29.950631652988392",
    "geocoded_column": {
      "latitude": "29.950631652988392",
      "longitude": "-90.11000522328568"
    }
  },
  {
    "service_request": "2024-1149500",
    "request_type": "Property Maintenance",
    "request_reason": "Property Maintenance",
    "date_created": "2024-11-18T14:13:33.000",
    "date_modified": "2024-11-18T14:43:07.000",
    "case_close_date": "2024-11-18T08:43:07.000",
    "request_status": "Closed",
    "responsible_agency": "Department of Code Enforcement",
    "final_address": "1800 BLK Saint Ferdinand St",
    "address_councildis": "D",
    "status": "Referred to Code Enforcement",
    "rowid": "1149500",
    "final_x": "3688434.65459",
    "final_y": "539127.324092",
    "longitude": "-90.04590334759166",
    "latitude": "29.976200795104006",
    "geocoded_column": {
      "latitude": "29.976200795104006",
      "longitude": "-90.04590334759166"
    }
  },
  {
    "service_request": "2024-1149499",
    "request_type": "Trash/Recycling",
    "request_reason": "Request a Large Item Pick Up",
    "date_created": "2024-11-18T14:12:25.000",
    "date_modified": "2024-11-18T14:12:54.000",
    "request_status": "Pending",
    "responsible_agency": "Department of Sanitation",
    "final_address": "11040 Roger Dr",
    "address_councildis": "E",
    "status": "Assigned to Contractor",
    "contractor": "Waste Pro",
    "rowid": "1149499",
    "final_x": "3712397.49253",
    "final_y": "563579.453024",
    "longitude": "-89.96930310364468",
    "latitude": "30.042672594059926",
    "geocoded_column": {
      "latitude": "30.042672594059926",
      "longitude": "-89.96930310364468"
    }
  },
  {
    "service_request": "2024-1149498",
    "request_type": "Trash/Recycling",
    "request_reason": "Repair Recycling Cart",
    "date_created": "2024-11-18T14:10:24.000",
    "date_modified": "2024-11-18T14:10:43.000",
    "request_status": "Pending",
    "responsible_agency": "Department of Sanitation",
    "final_address": "1320 N Rendon St",
    "address_councildis": "A",
    "status": "Pending",
    "rowid": "1149498",
    "final_x": "3676155.76757",
    "final_y": "540100.103115",
    "longitude": "-90.08465025268507",
    "latitude": "29.979249236781445",
    "geocoded_column": {
      "latitude": "29.979249236781445",
      "longitude": "-90.08465025268507"
    }
  },
  {
    "service_request": "2024-1149497",
    "request_type": "Property Maintenance",
    "request_reason": "Property Maintenance",
    "date_created": "2024-11-18T14:07:35.000",
    "date_modified": "2024-11-18T14:07:35.000",
    "request_status": "Pending",
    "responsible_agency": "Department of Code Enforcement",
    "final_address": "2100 St Andrew St Apt A",
    "address_councildis": "B",
    "status": "Pending",
    "rowid": "1149497",
    "final_x": "3676972.43733",
    "final_y": "525668.049853",
    "longitude": "-90.08256844818295",
    "latitude": "29.939541455642104",
    "geocoded_column": {
      "latitude": "29.939541455642104",
      "longitude": "-90.08256844818295"
    }
  },
  {
    "service_request": "2024-1149496",
    "request_type": "Roads and Streets",
    "request_reason": "Sidewalk Damaged or Missing",
    "date_created": "2024-11-18T14:07:19.000",
    "date_modified": "2024-11-18T14:07:36.000",
    "request_status": "Pending",
    "responsible_agency": "Department of Public Works",
    "final_address": "CAMPUS BLVD & PRESSBURG ST",
    "address_councildis": "D",
    "status": "Pending",
    "rowid": "1149496",
    "final_x": "3688605.2",
    "final_y": "554985.68",
    "longitude": "-90.04480149203269",
    "latitude": "30.01980025998405",
    "geocoded_column": {
      "latitude": "30.01980025998405",
      "longitude": "-90.04480149203269"
    }
  },
  {
    "service_request": "2024-1149495",
    "request_type": "Trash/Recycling",
    "request_reason": "Request a Large Item Pick Up",
    "date_created": "2024-11-18T14:00:45.000",
    "date_modified": "2024-11-18T14:01:07.000",
    "request_status": "Pending",
    "responsible_agency": "Department of Sanitation",
    "final_address": "501 Andry St",
    "address_councildis": "E",
    "status": "Assigned to Contractor",
    "contractor": "Waste Pro",
    "rowid": "1149495",
    "final_x": "3696613.88682",
    "final_y": "531860.486083",
    "longitude": "-90.02033404524562",
    "latitude": "29.95596435183543",
    "geocoded_column": {
      "latitude": "29.95596435183543",
      "longitude": "-90.02033404524562"
    }
  },
  {
    "service_request": "2024-1149494",
    "request_type": "Streetlights",
    "request_reason": "Streetlight Outage/Malfunction",
    "date_created": "2024-11-18T13:56:15.000",
    "date_modified": "2024-11-18T13:56:24.000",
    "request_status": "Pending",
    "responsible_agency": "Department of Public Works",
    "final_address": "6858 Canal Blvd",
    "address_councildis": "A",
    "status": "Pending",
    "contractor": "Legacy Professional Services",
    "rowid": "1149494",
    "final_x": "3668851.47969",
    "final_y": "553145.758487",
    "longitude": "-90.10727924787183",
    "latitude": "30.01533712891966",
    "geocoded_column": {
      "latitude": "30.01533712891966",
      "longitude": "-90.10727924787183"
    }
  },
  {
    "service_request": "2024-1149493",
    "request_type": "Trash/Recycling",
    "request_reason": "Request a Large Item Pick Up",
    "date_created": "2024-11-18T13:54:15.000",
    "date_modified": "2024-11-18T13:54:40.000",
    "request_status": "Pending",
    "responsible_agency": "Department of Sanitation",
    "final_address": "1632 Fourth St",
    "address_councildis": "B",
    "status": "Assigned to Contractor",
    "contractor": "IV Waste",
    "rowid": "1149493",
    "final_x": "3675991.85582",
    "final_y": "522947.140667",
    "longitude": "-90.08575780939195",
    "latitude": "29.93208924078341",
    "geocoded_column": {
      "latitude": "29.93208924078341",
      "longitude": "-90.08575780939195"
    }
  },
  {
    "service_request": "2024-1149492",
    "request_type": "Trash/Recycling",
    "request_reason": "Repair Trash Cart",
    "date_created": "2024-11-18T13:53:44.000",
    "date_modified": "2024-11-18T13:53:51.000",
    "request_status": "Pending",
    "responsible_agency": "Department of Sanitation",
    "final_address": "4725 Cleveland Ave",
    "address_councildis": "A",
    "status": "Assigned to Contractor",
    "contractor": "IV Waste",
    "rowid": "1149492",
    "final_x": "3668733.22247",
    "final_y": "539684.686346",
    "longitude": "-90.10810766033826",
    "latitude": "29.978327305633677",
    "geocoded_column": {
      "latitude": "29.978327305633677",
      "longitude": "-90.10810766033826"
    }
  },
  {
    "service_request": "2024-1149491",
    "request_type": "Safety & Permits",
    "request_reason": "Construction permit",
    "date_created": "2024-11-18T13:52:45.000",
    "date_modified": "2024-11-18T13:52:45.000",
    "request_status": "Pending",
    "responsible_agency": "Safety and Permits",
    "final_address": "904 Seventh St",
    "address_councildis": "B",
    "status": "Pending",
    "rowid": "1149491",
    "final_x": "3676706.5755",
    "final_y": "519786.272248",
    "longitude": "-90.08361034155581",
    "latitude": "29.923376462548653",
    "geocoded_column": {
      "latitude": "29.923376462548653",
      "longitude": "-90.08361034155581"
    }
  },
  {
    "service_request": "2024-1149490",
    "request_type": "Trash/Recycling",
    "request_reason": "Request a Large Item Pick Up",
    "date_created": "2024-11-18T13:49:41.000",
    "date_modified": "2024-11-18T13:49:42.000",
    "request_status": "Pending",
    "responsible_agency": "Department of Sanitation",
    "final_address": "8019 Trout St",
    "address_councildis": "E",
    "status": "Assigned to Contractor",
    "contractor": "Waste Pro",
    "rowid": "1149490",
    "final_x": "3699477.08976",
    "final_y": "561634.516511",
    "longitude": "-90.01020747551297",
    "latitude": "30.03774135761498",
    "geocoded_column": {
      "latitude": "30.03774135761498",
      "longitude": "-90.01020747551297"
    }
  },
  {
    "service_request": "2024-1149489",
    "request_type": "Streetlights",
    "request_reason": "Streetlight Outage/Malfunction",
    "date_created": "2024-11-18T13:47:44.000",
    "date_modified": "2024-11-18T13:47:45.000",
    "request_status": "Pending",
    "responsible_agency": "Department of Public Works",
    "final_address": "75 Neron Pl",
    "address_councildis": "A",
    "status": "Pending",
    "contractor": "Legacy Professional Services",
    "rowid": "1149489",
    "final_x": "3666004.96474",
    "final_y": "530049.928257",
    "longitude": "-90.11704753049966",
    "latitude": "29.951914834609678",
    "geocoded_column": {
      "latitude": "29.951914834609678",
      "longitude": "-90.11704753049966"
    }
  },
  {
    "service_request": "2024-1149488",
    "request_type": "Trash/Recycling",
    "request_reason": "Request a Large Item Pick Up",
    "date_created": "2024-11-18T13:47:27.000",
    "date_modified": "2024-11-18T13:47:29.000",
    "request_status": "Pending",
    "responsible_agency": "Department of Sanitation",
    "final_address": "7500 Jonlee Dr",
    "address_councildis": "E",
    "status": "Assigned to Contractor",
    "contractor": "Waste Pro",
    "rowid": "1149488",
    "final_x": "3717487.51224",
    "final_y": "569870.57783",
    "longitude": "-89.95297728110366",
    "latitude": "30.059803012119666",
    "geocoded_column": {
      "latitude": "30.059803012119666",
      "longitude": "-89.95297728110366"
    }
  },
  {
    "service_request": "2024-1149487",
    "request_type": "Trash/Recycling",
    "request_reason": "Request a Large Item Pick Up",
    "date_created": "2024-11-18T13:46:33.000",
    "date_modified": "2024-11-18T13:46:34.000",
    "request_status": "Pending",
    "responsible_agency": "Department of Sanitation",
    "final_address": "4912 Sherwood Dr",
    "address_councildis": "E",
    "status": "Assigned to Contractor",
    "contractor": "Waste Pro",
    "rowid": "1149487",
    "final_x": "3717846.21189",
    "final_y": "557790.741019",
    "longitude": "-89.95230367438529",
    "latitude": "30.02657650087112",
    "geocoded_column": {
      "latitude": "30.02657650087112",
      "longitude": "-89.95230367438529"
    }
  },
  {
    "service_request": "2024-1149486",
    "request_type": "Trash/Recycling",
    "request_reason": "Request a Large Item Pick Up",
    "date_created": "2024-11-18T13:46:17.000",
    "date_modified": "2024-11-18T13:46:18.000",
    "request_status": "Pending",
    "responsible_agency": "Department of Sanitation",
    "final_address": "5167 Lafaye St",
    "address_councildis": "D",
    "status": "Assigned to Contractor",
    "contractor": "IV Waste",
    "rowid": "1149486",
    "final_x": "3687363.71522",
    "final_y": "552135.275286",
    "longitude": "-90.04882513462027",
    "latitude": "30.01200102688312",
    "geocoded_column": {
      "latitude": "30.01200102688312",
      "longitude": "-90.04882513462027"
    }
  },
  {
    "service_request": "2024-1149485",
    "request_type": "Trash/Recycling",
    "request_reason": "Request a Large Item Pick Up",
    "date_created": "2024-11-18T13:45:19.000",
    "date_modified": "2024-11-18T13:45:21.000",
    "request_status": "Pending",
    "responsible_agency": "Department of Sanitation",
    "final_address": "11001 Roger Dr",
    "address_councildis": "E",
    "status": "Assigned to Contractor",
    "contractor": "Waste Pro",
    "rowid": "1149485",
    "final_x": "3712149.17496",
    "final_y": "563485.914208",
    "longitude": "-89.97009139558035",
    "latitude": "30.04242352553014",
    "geocoded_column": {
      "latitude": "30.04242352553014",
      "longitude": "-89.97009139558035"
    }
  },
  {
    "service_request": "2024-1149484",
    "request_type": "Trash/Recycling",
    "request_reason": "Request a Large Item Pick Up",
    "date_created": "2024-11-18T13:40:19.000",
    "date_modified": "2024-11-18T13:40:20.000",
    "request_status": "Pending",
    "responsible_agency": "Department of Sanitation",
    "final_address": "423 S Cortez St",
    "address_councildis": "B",
    "status": "Assigned to Contractor",
    "contractor": "IV Waste",
    "rowid": "1149484",
    "final_x": "3671188.96161",
    "final_y": "536492.751559",
    "longitude": "-90.10045999749659",
    "latitude": "29.969478131938494",
    "geocoded_column": {
      "latitude": "29.969478131938494",
      "longitude": "-90.10045999749659"
    }
  },
  {
    "service_request": "2024-1149483",
    "request_type": "Trash/Recycling",
    "request_reason": "Request a Large Item Pick Up",
    "date_created": "2024-11-18T13:36:27.000",
    "date_modified": "2024-11-18T13:38:29.000",
    "request_status": "Pending",
    "responsible_agency": "Department of Sanitation",
    "final_address": "1650 Sere St",
    "address_councildis": "D",
    "status": "Assigned to Contractor",
    "contractor": "IV Waste",
    "rowid": "1149483",
    "final_x": "3680215.32591",
    "final_y": "545519.410448",
    "longitude": "-90.07164011282063",
    "latitude": "29.994028166487894",
    "geocoded_column": {
      "latitude": "29.994028166487894",
      "longitude": "-90.07164011282063"
    }
  },
  {
    "service_request": "2024-1149482",
    "request_type": "Parks & Parkways",
    "request_reason": "Request Tree Service (Right of Way/Public Property)",
    "date_created": "2024-11-18T13:34:07.000",
    "date_modified": "2024-11-18T13:34:07.000",
    "request_status": "Pending",
    "responsible_agency": "Department of Parks & Parkway",
    "final_address": "3638 Trafalgar St",
    "address_councildis": "A",
    "status": "Pending",
    "rowid": "1149482",
    "final_x": "3677102.81736",
    "final_y": "543147.757261",
    "longitude": "-90.08155394032129",
    "latitude": "29.987600818022333",
    "geocoded_column": {
      "latitude": "29.987600818022333",
      "longitude": "-90.08155394032129"
    }
  },