[
  {
    "service_request": "2026-1253415",
    "request_type": "Roads and Streets",
    "request_reason": "Street Subsidence (Sinking)",
    "date_created": "2026-01-20T23:47:54.000",
    "date_modified": "2026-01-20T23:47:56.000",
    "request_status": "Pending",
    "responsible_agency": "Sewerage & Water Board",
    "final_address": "8335 Hickory St",
    "address_councildis": "A",
    "status": "Pending",
    "rowid": "1253415",
    "final_x": "3662661.89805",
    "final_y": "530643.60493",
    "longitude": "-90.1275836786205",
    "latitude": "29.953644405092493",
    "geocoded_column": {
      "latitude": "29.953644405092493",
      "longitude": "-90.1275836786205"
    }
  },
  {
    "service_request": "2026-1253414",
    "request_type": "Trash/Recycling",
    "request_reason": "Order Recycling Cart",
    "date_created": "2026-01-20T23:42:07.000",
    "date_modified": "2026-01-20T23:42:09.000",
    "request_status": "Pending",
    "responsible_agency": "Department of Sanitation",
    "final_address": "1712 Soniat St",
    "address_councildis": "B",
    "status": "Pending",
    "rowid": "1253414",
    "final_x": "3668390.54657",
    "final_y": "521928.420538",
    "longitude": "-90.10978879710751",
    "latitude": "29.929513465466307",
    "geocoded_column": {
      "latitude": "29.929513465466307",
      "longitude": "-90.10978879710751"
    }
  },
  {
    "service_request": "2026-1253413",
    "request_type": "Streetlights",
    "request_reason": "Streetlight Outage/Malfunction",
    "date_created": "2026-01-20T22:56:48.000",
    "date_modified": "2026-01-20T22:56:50.000",
    "request_status": "Pending",
    "responsible_agency": "Department of Public Works",
    "final_address": "100 BLK S Genois St",
    "address_councildis": "B",
    "status": "Pending",
    "rowid": "1253413",
    "final_x": "3672461.58188",
    "final_y": "537018.332575",
    "longitude": "-90.09642303221013",
    "latitude": "29.97088559046566",
    "geocoded_column": {
      "latitude": "29.97088559046566",
      "longitude": "-90.09642303221013"
    }
  },
  {
    "service_request": "2026-1253412",
    "request_type": "Roads and Streets",
    "request_reason": "Pothole",
    "date_created": "2026-01-20T21:54:33.000",
    "date_modified": "2026-01-20T21:54:36.000",
    "request_status": "Pending",
    "responsible_agency": "Department of Public Works",
    "final_address": "5950 Bullard Ave HM",
    "address_councildis": "E",
    "status": "Pending",
    "rowid": "1253412",
    "final_x": "3715742.31909",
    "final_y": "563605.561185",
    "longitude": "-89.95873124399796",
    "latitude": "30.04263447397217",
    "geocoded_column": {
      "latitude": "30.04263447397217",
      "longitude": "-89.95873124399796"
    }
  },
  {
    "service_request": "2026-1253411",
    "request_type": "Trash/Recycling",
    "request_reason": "Request a Large Item Pick Up",
    "date_created": "2026-01-20T21:48:52.000",
    "date_modified": "2026-01-20T21:48:55.000",
    "request_status": "Pending",
    "responsible_agency": "Department of Sanitation",
    "final_address": "327 Arabella St",
    "address_councildis": "A",
    "status": "Assigned to Contractor",
    "contractor": "IV Waste",
    "rowid": "1253411",
    "final_x": "3665526.45287",
    "final_y": "517394.312245",
    "longitude": "-90.11898194842252",
    "latitude": "29.917129875054222",
    "geocoded_column": {
      "latitude": "29.917129875054222",
      "longitude": "-90.11898194842252"
    }
  },
  {
    "service_request": "2026-1253410",
    "request_type": "Street and Traffic Signs",
    "request_reason": "Street Name Sign Damaged or Missing",
    "date_created": "2026-01-20T21:38:51.000",
    "date_modified": "2026-01-20T21:38:53.000",
    "request_status": "Pending",
    "responsible_agency": "Department of Public Works",
    "final_address": "3900 Cambronne St",
    "address_councildis": "A",
    "status": "Pending",
    "rowid": "1253410",
    "final_x": "3667633.32589",
    "final_y": "536271.449479",
    "longitude": "-90.11169647802981",
    "latitude": "29.96897433977061",
    "geocoded_column": {
      "latitude": "29.96897433977061",
      "longitude": "-90.11169647802981"
    }
  },
  {
    "service_request": "2026-1253409",
    "request_type": "Trash/Recycling",
    "request_reason": "Damaged Caused By Contractor",
    "date_created": "2026-01-20T21:26:51.000",
    "date_modified": "2026-01-20T21:26:53.000",
    "request_status": "Pending",
    "responsible_agency": "Department of Sanitation",
    "final_address": "6901 Manchester St",
    "address_councildis": "E",
    "status": "Assigned to Contractor",
    "contractor": "Waste Pro",
    "rowid": "1253409",
    "final_x": "3698646.29501",
    "final_y": "560087.517917",
    "longitude": "-90.01288931268316",
    "latitude": "30.033514062397767",
    "geocoded_column": {
      "latitude": "30.033514062397767",
      "longitude": "-90.01288931268316"
    }
  },
  {
    "service_request": "2026-1253408",
    "request_type": "Trash/Recycling",
    "request_reason": "Request a Large Item Pick Up",
    "date_created": "2026-01-20T21:23:08.000",
    "date_modified": "2026-01-20T21:23:11.000",
    "request_status": "Pending",
    "responsible_agency": "Department of Sanitation",
    "final_address": "7216 Walmsley Ave",
    "address_councildis": "B",
    "status": "Assigned to Contractor",
    "contractor": "IV Waste",
    "rowid": "1253408",
    "final_x": "3667194.15034",
    "final_y": "531326.02893",
    "longitude": "-90.1132497278938",
    "latitude": "29.955388932154666",
    "geocoded_column": {
      "latitude": "29.955388932154666",
      "longitude": "-90.1132497278938"
    }
  },
  {
    "service_request": "2026-1253407",
    "request_type": "General Services",
    "request_reason": "General Service Request",
    "date_created": "2026-01-20T20:56:56.000",
    "date_modified": "2026-01-20T20:56:58.000",
    "request_status": "Pending",
    "responsible_agency": "Orleans Parish Communication District",
    "final_address": "607 Webster St",
    "address_councildis": "A",
    "status": "Pending",
    "rowid": "1253407",
    "final_x": "3663956.76691",
    "final_y": "518835.797303",
    "longitude": "-90.12388854395607",
    "latitude": "29.921139158835498",
    "geocoded_column": {
      "latitude": "29.921139158835498",
      "longitude": "-90.12388854395607"
    }
  },
  {
    "service_request": "2026-1253406",
    "request_type": "General Services",
    "request_reason": "General Service Request",
    "date_created": "2026-01-20T20:42:01.000",
    "date_modified": "2026-01-20T20:42:03.000",
    "request_status": "Pending",
    "responsible_agency": "Orleans Parish Communication District",
    "final_address": "7816 Willow St",
    "address_councildis": "A",
    "status": "Pending",
    "rowid": "1253406",
    "final_x": "3663124.34304",
    "final_y": "528209.302016",
    "longitude": "-90.12620444054713",
    "latitude": "29.946937467474587",
    "geocoded_column": {
      "latitude": "29.946937467474587",
      "longitude": "-90.12620444054713"
    }
  },
  {
    "service_request": "2026-1253405",
    "request_type": "Trash/Recycling",
    "request_reason": "Order Recycling Cart",
    "date_created": "2026-01-20T20:21:51.000",
    "date_modified": "2026-01-20T20:21:52.000",
    "request_status": "Pending",
    "responsible_agency": "Department of Sanitation",
    "final_address": "1822 Broadway St",
    "address_councildis": "A",
    "status": "Pending",
    "rowid": "1253405",
    "final_x": "3665368.46624",
    "final_y": "528544.825792",
    "longitude": "-90.11910766009585",
    "latitude": "29.947794852280172",
    "geocoded_column": {
      "latitude": "29.947794852280172",
      "longitude": "-90.11910766009585"
    }
  },
  {
    "service_request": "2026-1253404",
    "request_type": "Trash/Recycling",
    "request_reason": "Order Trash Cart",
    "date_created": "2026-01-20T20:20:30.000",
    "date_modified": "2026-01-20T20:20:32.000",
    "request_status": "Pending",
    "responsible_agency": "Department of Sanitation",
    "final_address": "1822 Broadway St",
    "address_councildis": "A",
    "status": "Assigned to Contractor",
    "contractor": "IV Waste",
    "rowid": "1253404",
    "final_x": "3665368.46624",
    "final_y": "528544.825792",
    "longitude": "-90.11910766009585",
    "latitude": "29.947794852280172",
    "geocoded_column": {
      "latitude": "29.947794852280172",
      "longitude": "-90.11910766009585"
    }
  },
  {
    "service_request": "2026-1253403",
    "request_type": "Trash/Recycling",
    "request_reason": "Replace Trash Cart",
    "date_created": "2026-01-20T19:59:54.000",
    "date_modified": "2026-01-20T19:59:55.000",
    "request_status": "Pending",
    "responsible_agency": "Department of Sanitation",
    "final_address": "222 Bermuda St",
    "address_councildis": "C",
    "status": "Assigned to Contractor",
    "contractor": "Richards Disposal",
    "rowid": "1253403",
    "final_x": "3686189.28252",
    "final_y": "530959.197314",
    "longitude": "-90.05328306967309",
    "latitude": "29.953810456675818",
    "geocoded_column": {
      "latitude": "29.953810456675818",
      "longitude": "-90.05328306967309"
    }
  },
  {
    "service_request": "2026-1253402",
    "request_type": "Trash/Recycling",
    "request_reason": "Illegal Dumping",
    "date_created": "2026-01-20T19:40:14.000",
    "date_modified": "2026-01-20T19:40:16.000",
    "request_status": "Pending",
    "responsible_agency": "Department of Sanitation",
    "final_address": "1234 Simon Bolivar Ave",
    "address_councildis": "B",
    "status": "Pending",
    "rowid": "1253402",
    "final_x": "3677747.10862",
    "final_y": "527280.282431",
    "longitude": "-90.08006703271779",
    "latitude": "29.943951287813185",
    "geocoded_column": {
      "latitude": "29.943951287813185",
      "longitude": "-90.08006703271779"
    }
  },
  {
    "service_request": "2026-1253401",
    "request_type": "Trash/Recycling",
    "request_reason": "Replace Trash Cart",
    "date_created": "2026-01-20T19:27:39.000",
    "date_modified": "2026-01-20T19:27:42.000",
    "request_status": "Pending",
    "responsible_agency": "Department of Sanitation",
    "final_address": "7017 S Claiborne Ave",
    "address_councildis": "A",
    "status": "Assigned to Contractor",
    "contractor": "IV Waste",
    "rowid": "1253401",
    "final_x": "3666623.66426",
    "final_y": "529407.706369",
    "longitude": "-90.11511552222288",
    "latitude": "29.950130860662092",
    "geocoded_column": {
      "latitude": "29.950130860662092",
      "longitude": "-90.11511552222288"
    }
  },
  {
    "service_request": "2026-1253399",
    "request_type": "Trash/Recycling",
    "request_reason": "Request a Large Item Pick Up",
    "date_created": "2026-01-20T19:09:42.000",
    "date_modified": "2026-01-20T19:09:44.000",
    "request_status": "Pending",
    "responsible_agency": "Department of Sanitation",
    "final_address": "5011 Warren Dr",
    "address_councildis": "E",
    "status": "Assigned to Contractor",
    "contractor": "Waste Pro",
    "rowid": "1253399",
    "final_x": "3713398.4309",
    "final_y": "557565.618011",
    "longitude": "-89.96636651028481",
    "latitude": "30.02610415105788",
    "geocoded_column": {
      "latitude": "30.02610415105788",
      "longitude": "-89.96636651028481"
    }
  },
  {
    "service_request": "2026-1253398",
    "request_type": "Safety & Permits",
    "request_reason": "Licenses & Permits",
    "date_created": "2026-01-20T18:58:52.000",
    "date_modified": "2026-01-20T18:58:54.000",
    "request_status": "Pending",
    "responsible_agency": "Safety and Permits",
    "final_address": "2600 Dauphine St",
    "address_councildis": "C",
    "status": "Pending",
    "rowid": "1253398",
    "final_x": "3686856.99055",
    "final_y": "535289.894918",
    "longitude": "-90.05102169673253",
    "latitude": "29.96569785294495",
    "geocoded_column": {
      "latitude": "29.96569785294495",
      "longitude": "-90.05102169673253"
    }
  },
  {
    "service_request": "2026-1253397",
    "request_type": "Trash/Recycling",
    "request_reason": "Order Second Trash Cart",
    "date_created": "2026-01-20T18:25:42.000",
    "date_modified": "2026-01-20T18:25:44.000",
    "request_status": "Pending",
    "responsible_agency": "Department of Sanitation",
    "final_address": "4216 N Robertson St B",
    "address_councildis": "D",
    "status": "Assigned to Contractor",
    "contractor": "IV Waste",
    "rowid": "1253397",
    "final_x": "3692926.0888",
    "final_y": "536562.498439",
    "longitude": "-90.03181014294735",
    "latitude": "29.969008912426016",
    "geocoded_column": {
      "latitude": "29.969008912426016",
      "longitude": "-90.03181014294735"
    }
  },
  {
    "service_request": "2026-1253396",
    "request_type": "Trash/Recycling",
    "request_reason": "Request a Large Item Pick Up",
    "date_created": "2026-01-20T18:20:22.000",
    "date_modified": "2026-01-20T18:20:25.000",
    "request_status": "Pending",
    "responsible_agency": "Department of Sanitation",
    "final_address": "7101 Warfield St",
    "address_councildis": "E",
    "status": "Assigned to Contractor",
    "contractor": "Waste Pro",
    "rowid": "1253396",
    "final_x": "3701416.96778",
    "final_y": "553135.001879",
    "longitude": "-90.00438855672648",
    "latitude": "30.01430923264679",
    "geocoded_column": {
      "latitude": "30.01430923264679",
      "longitude": "-90.00438855672648"
    }
  },
  {
    "service_request": "2026-1253395",
    "request_type": "Property Maintenance",
    "request_reason": "Property Maintenance",
    "date_created": "2026-01-20T18:13:59.000",
    "date_modified": "2026-01-20T18:14:02.000",
    "request_status": "Pending",
    "responsible_agency": "Department of Code Enforcement",
    "final_address": "1449 N Dorgenois St",
    "address_councildis": "D",
    "status": "Pending",
    "rowid": "1253395",
    "final_x": "3678977.20443",
    "final_y": "539099.048138",
    "longitude": "-90.07577374926335",
    "latitude": "29.97641183725242",
    "geocoded_column": {
      "latitude": "29.97641183725242",
      "longitude": "-90.07577374926335"
    }
  },
  {
    "service_request": "2026-1253394",
    "request_type": "Property Maintenance",
    "request_reason": "Property Maintenance",
    "date_created": "2026-01-20T18:03:23.000",
    "date_modified": "2026-01-20T18:03:24.000",
    "request_status": "Pending",
    "responsible_agency": "Department of Code Enforcement",
    "final_address": "4801 General Meyer Ave",
    "address_councildis": "C",
    "status": "Pending",
    "rowid": "1253394",
    "final_x": "3701829.81098",
    "final_y": "523228.361979",
    "longitude": "-90.00418025137867",
    "latitude": "29.93206367715014",
    "geocoded_column": {
      "latitude": "29.93206367715014",
      "longitude": "-90.00418025137867"
    }
  },
  {
    "service_request": "2026-1253393",
    "request_type": "Trash/Recycling",
    "request_reason": "Request a Large Item Pick Up",
    "date_created": "2026-01-20T17:59:12.000",
    "date_modified": "2026-01-20T17:59:14.000",
    "request_status": "Pending",
    "responsible_agency": "Department of Sanitation",
    "final_address": "7400 Weaver Ave",
    "address_councildis": "E",
    "status": "Assigned to Contractor",
    "contractor": "Waste Pro",
    "rowid": "1253393",
    "final_x": "3707732.72158",
    "final_y": "563699.540321",
    "longitude": "-89.98404104793707",
    "latitude": "30.043154648280723",
    "geocoded_column": {
      "latitude": "30.043154648280723",
      "longitude": "-89.98404104793707"
    }
  },
  {
    "service_request": "2026-1253392",
    "request_type": "Property Maintenance",
    "request_reason": "Property Maintenance",
    "date_created": "2026-01-20T17:53:43.000",
    "date_modified": "2026-01-20T17:53:45.000",
    "request_status": "Pending",
    "responsible_agency": "Department of Code Enforcement",
    "final_address": "4830 General Meyer Ave",
    "address_councildis": "C",
    "status": "Pending",
    "rowid": "1253392",
    "final_x": "3702011.14346",
    "final_y": "523493.235899",
    "longitude": "-90.00359810342218",
    "latitude": "29.93278620328698",
    "geocoded_column": {
      "latitude": "29.93278620328698",
      "longitude": "-90.00359810342218"
    }
  },
  {
    "service_request": "2026-1253391",
    "request_type": "Abandoned Vehicles",
    "request_reason": "Abandoned/Junk Vehicles",
    "date_created": "2026-01-20T17:53:27.000",
    "date_modified": "2026-01-20T17:53:30.000",
    "request_status": "Pending",
    "responsible_agency": "Department of Public Works",
    "final_address": "221 S Salcedo St",
    "address_councildis": "B",
    "status": "Pending",
    "rowid": "1253391",
    "final_x": "3673647.95182",
    "final_y": "535630.306694",
    "longitude": "-90.09272378023793",
    "latitude": "29.96703372103492",
    "geocoded_column": {
      "latitude": "29.96703372103492",
      "longitude": "-90.09272378023793"
    }
  },
  {
    "service_request": "2026-1253390",
    "request_type": "Abandoned Vehicles",
    "request_reason": "Abandoned/Junk Vehicles",
    "date_created": "2026-01-20T17:47:02.000",
    "date_modified": "2026-01-20T17:47:03.000",
    "request_status": "Pending",
    "responsible_agency": "Department of Public Works",
    "final_address": "3132 General Taylor St",
    "address_councildis": "B",
    "status": "Pending",
    "rowid": "1253390",
    "final_x": "3671277.16315",
    "final_y": "526619.305726",
    "longitude": "-90.1005169292271",
    "latitude": "29.942326812458756",
    "geocoded_column": {
      "latitude": "29.942326812458756",
      "longitude": "-90.1005169292271"
    }
  },
  {
    "service_request": "2026-1253389",
    "request_type": "Graffiti Removal",
    "request_reason": "Graffiti Removal",
    "date_created": "2026-01-20T17:30:24.000",
    "date_modified": "2026-01-20T17:30:29.000",
    "request_status": "Pending",
    "responsible_agency": "Department of Code Enforcement",
    "final_address": "1600 BLK Brooklyn Ave",
    "status": "Pending",
    "rowid": "1253389",
    "final_x": "3686343.91894",
    "final_y": "525542.657364",
    "longitude": "-90.05298590159806",
    "latitude": "29.938912060901153",
    "geocoded_column": {
      "latitude": "29.938912060901153",
      "longitude": "-90.05298590159806"
    }
  },
  {
    "service_request": "2026-1253388",
    "request_type": "Trash/Recycling",
    "request_reason": "Return Trash Cart",
    "date_created": "2026-01-20T17:28:59.000",
    "date_modified": "2026-01-20T17:29:01.000",
    "request_status": "Pending",
    "responsible_agency": "Department of Sanitation",
    "final_address": "1521 Lowerline St",
    "address_councildis": "A",
    "status": "Assigned to Contractor",
    "contractor": "IV Waste",
    "rowid": "1253388",
    "final_x": "3664439.59015",
    "final_y": "527798.926783",
    "longitude": "-90.12206539863567",
    "latitude": "29.945770902700563",
    "geocoded_column": {
      "latitude": "29.945770902700563",
      "longitude": "-90.12206539863567"
    }
  },
  {
    "service_request": "2026-1253387",
    "request_type": "Trash/Recycling",
    "request_reason": "Order Recycling Cart",
    "date_created": "2026-01-20T17:27:35.000",
    "date_modified": "2026-01-20T17:27:37.000",
    "request_status": "Pending",
    "responsible_agency": "Department of Sanitation",
    "final_address": "1521 Lowerline St",
    "address_councildis": "A",
    "status": "Pending",
    "rowid": "1253387",
    "final_x": "3664439.59015",
    "final_y": "527798.926783",
    "longitude": "-90.12206539863567",
    "latitude": "29.945770902700563",
    "geocoded_column": {
      "latitude": "29.945770902700563",
      "longitude": "-90.12206539863567"
    }
  },
  {
    "service_request": "2026-1253385",
    "request_type": "Streetlights",
    "request_reason": "Streetlight Outage/Malfunction",
    "date_created": "2026-01-20T17:22:21.000",
    "date_modified": "2026-01-20T17:22:23.000",
    "request_status": "Pending",
    "responsible_agency": "Department of Public Works",
    "final_address": "6146 Canal Blvd",
    "address_councildis": "A",
    "status": "Pending",
    "rowid": "1253385",
    "final_x": "3668452.96359",
    "final_y": "548357.364498",
    "longitude": "-90.10870007184367",
    "latitude": "30.00218243996041",
    "geocoded_column": {
      "latitude": "30.00218243996041",
      "longitude": "-90.10870007184367"
    }
  },
  {
    "service_request": "2026-1253384",
    "request_type": "Health Related Request",
    "request_reason": "Homeless Encampment Complaint",
    "date_created": "2026-01-20T17:21:35.000",
    "date_modified": "2026-01-20T17:21:37.000",
    "request_status": "Pending",
    "responsible_agency": "Office Of Homeless Services And Strategy",
    "final_address": "2800 Chartres St",
    "address_councildis": "C",
    "status": "Pending",
    "rowid": "1253384",
    "final_x": "3687392.67823",
    "final_y": "534231.840837",
    "longitude": "-90.04936745991506",
    "latitude": "29.962772077062155",
    "geocoded_column": {
      "latitude": "29.962772077062155",
      "longitude": "-90.04936745991506"
    }
  },
  {
    "service_request": "2026-1253383",
    "request_type": "Trash/Recycling",
    "request_reason": "Request a Large Item Pick Up",
    "date_created": "2026-01-20T17:17:14.000",
    "date_modified": "2026-01-20T17:17:17.000",
    "request_status": "Pending",
    "responsible_agency": "Department of Sanitation",
    "final_address": "927 Pine St",
    "address_councildis": "A",
    "status": "Assigned to Contractor",
    "contractor": "IV Waste",
    "rowid": "1253383",
    "final_x": "3663480.7625",
    "final_y": "525941.303805",
    "longitude": "-90.12515459250058",
    "latitude": "29.940690868613327",
    "geocoded_column": {
      "latitude": "29.940690868613327",
      "longitude": "-90.12515459250058"
    }
  },
  {
    "service_request": "2026-1253382",
    "request_type": "Property Maintenance",
    "request_reason": "Property Maintenance",
    "date_created": "2026-01-20T17:06:07.000",
    "date_modified": "2026-01-20T17:06:09.000",
    "request_status": "Pending",
    "responsible_agency": "Department of Code Enforcement",
    "final_address": "600 BLK Mazant St",
    "address_councildis": "C",
    "status": "Pending",
    "rowid": "1253382",
    "final_x": "3691687.75504",
    "final_y": "533556.004854",
    "longitude": "-90.03582838387165",
    "latitude": "29.960780729513026",
    "geocoded_column": {
      "latitude": "29.960780729513026",
      "longitude": "-90.03582838387165"
    }
  },
  {
    "service_request": "2026-1253381",
    "request_type": "Safety & Permits",
    "request_reason": "Zoning Enforcement",
    "date_created": "2026-01-20T16:56:53.000",
    "date_modified": "2026-01-20T16:56:54.000",
    "request_status": "Pending",
    "responsible_agency": "Safety and Permits",
    "final_address": "DABADIE ST & N DUPRE ST",
    "address_councildis": "D",
    "status": "Pending",
    "rowid": "1253381",
    "final_x": "3678968.3",
    "final_y": "541195.98",
    "longitude": "-90.07572918497063",
    "latitude": "29.98217794235479",
    "geocoded_column": {
      "latitude": "29.98217794235479",
      "longitude": "-90.07572918497063"
    }
  },
  {
    "service_request": "2026-1253380",
    "request_type": "Trash/Recycling",
    "request_reason": "Replace Trash Cart",
    "date_created": "2026-01-20T16:44:30.000",
    "date_modified": "2026-01-20T16:47:09.000",
    "request_status": "Pending",
    "responsible_agency": "Department of Sanitation",
    "final_address": "6617 Lake Willow Dr Apt C",
    "address_councildis": "E",
    "status": "Assigned to Contractor",
    "contractor": "Waste Pro",
    "rowid": "1253380",
    "final_x": "3704128.6001",
    "final_y": "559699.088157",
    "longitude": "-89.99557908865951",
    "latitude": "30.032271179720613",
    "geocoded_column": {
      "latitude": "30.032271179720613",
      "longitude": "-89.99557908865951"
    }
  },
  {
    "service_request": "2026-1253379",
    "request_type": "Abandoned Vehicles",
    "request_reason": "Abandoned/Junk Vehicles",
    "date_created": "2026-01-20T16:38:53.000",
    "date_modified": "2026-01-20T16:38:54.000",
    "request_status": "Pending",
    "responsible_agency": "Department of Public Works",
    "final_address": "221 10Th St",
    "address_councildis": "A",
    "status": "Pending",
    "rowid": "1253379",
    "final_x": "3665395.85344",
    "final_y": "547569.35861",
    "longitude": "-90.11838427821283",
    "latitude": "30.000105180843427",
    "geocoded_column": {
      "latitude": "30.000105180843427",
      "longitude": "-90.11838427821283"
    }
  },
  {
    "service_request": "2026-1253378",
    "request_type": "Abandoned Vehicles",
    "request_reason": "Abandoned/Junk Vehicles",
    "date_created": "2026-01-20T16:33:49.000",
    "date_modified": "2026-01-20T16:33:50.000",
    "request_status": "Pending",
    "responsible_agency": "Department of Public Works",
    "final_address": "2110 Royal St",
    "address_councildis": "C",
    "status": "Pending",
    "rowid": "1253378",
    "final_x": "3684809.73826",
    "final_y": "534800.66823",
    "longitude": "-90.05750403441212",
    "latitude": "29.96441548673089",
    "geocoded_column": {
      "latitude": "29.96441548673089",
      "longitude": "-90.05750403441212"
    }
  },
  {
    "service_request": "2026-1253377",
    "request_type": "Trash/Recycling",
    "request_reason": "Request a Large Item Pick Up",
    "date_created": "2026-01-20T16:33:32.000",
    "date_modified": "2026-01-20T16:33:34.000",
    "request_status": "Pending",
    "responsible_agency": "Department of Sanitation",
    "final_address": "4409 Skyview Dr",
    "address_councildis": "D",
    "status": "Assigned to Contractor",
    "contractor": "Waste Pro",
    "rowid": "1253377",
    "final_x": "3696898.62589",
    "final_y": "552607.031318",
    "longitude": "-90.01868332725606",
    "latitude": "30.013000829117143",
    "geocoded_column": {
      "latitude": "30.013000829117143",
      "longitude": "-90.01868332725606"
    }
  },
  {
    "service_request": "2026-1253376",
    "request_type": "Trash/Recycling",
    "request_reason": "Request a Large Item Pick Up",
    "date_created": "2026-01-20T16:27:17.000",
    "date_modified": "2026-01-20T16:27:19.000",
    "request_status": "Pending",
    "responsible_agency": "Department of Sanitation",
    "final_address": "7422 Alabama St",
    "address_councildis": "D",
    "status": "Assigned to Contractor",
    "contractor": "Waste Pro",
    "rowid": "1253376",
    "final_x": "3695033.67606",
    "final_y": "557977.640795",
    "longitude": "-90.02438169726076",
    "latitude": "30.027826681049838",
    "geocoded_column": {
      "latitude": "30.027826681049838",
      "longitude": "-90.02438169726076"
    }
  },
  {
    "service_request": "2026-1253375",
    "request_type": "Trash/Recycling",
    "request_reason": "Repair Trash Cart",
    "date_created": "2026-01-20T16:25:47.000",
    "date_modified": "2026-01-20T16:25:48.000",
    "request_status": "Pending",
    "responsible_agency": "Department of Sanitation",
    "final_address": "2427 Tricou St",
    "address_councildis": "E",
    "status": "Assigned to Contractor",
    "contractor": "Waste Pro",
    "rowid": "1253375",
    "final_x": "3702132.76733",
    "final_y": "537881.597065",
    "longitude": "-90.00268666107597",
    "latitude": "29.97234519667301",
    "geocoded_column": {
      "latitude": "29.97234519667301",
      "longitude": "-90.00268666107597"
    }
  },
  {
    "service_request": "2026-1253374",
    "request_type": "Trash/Recycling",
    "request_reason": "Request a Large Item Pick Up",
    "date_created": "2026-01-20T16:23:33.000",
    "date_modified": "2026-01-20T16:23:35.000",
    "request_status": "Pending",
    "responsible_agency": "Department of Sanitation",
    "final_address": "4837 Virgilian St",
    "address_councildis": "D",
    "status": "Assigned to Contractor",
    "contractor": "Waste Pro",
    "rowid": "1253374",
    "final_x": "3697505.53367",
    "final_y": "554332.309208",
    "longitude": "-90.01670320289696",
    "latitude": "30.01772553231827",
    "geocoded_column": {
      "latitude": "30.01772553231827",
      "longitude": "-90.01670320289696"
    }
  },
  {
    "service_request": "2026-1253373",
    "request_type": "Trash/Recycling",
    "request_reason": "Request a Large Item Pick Up",
    "date_created": "2026-01-20T16:20:50.000",
    "date_modified": "2026-01-20T16:21:37.000",
    "request_status": "Pending",
    "responsible_agency": "Department of Sanitation",
    "final_address": "4511 Francis Dr",
    "address_councildis": "D",
    "status": "Assigned to Contractor",
    "contractor": "Waste Pro",
    "rowid": "1253373",
    "final_x": "3698395.26564",
    "final_y": "553081.445399",
    "longitude": "-90.01393752206488",
    "latitude": "30.014257989162356",
    "geocoded_column": {
      "latitude": "30.014257989162356",
      "longitude": "-90.01393752206488"
    }
  },
  {
    "service_request": "2026-1253372",
    "request_type": "Trash/Recycling",
    "request_reason": "Return Trash Cart",
    "date_created": "2026-01-20T16:20:00.000",
    "date_modified": "2026-01-20T16:20:01.000",
    "request_status": "Pending",
    "responsible_agency": "Department of Sanitation",
    "final_address": "5500 Samovar Dr",
    "address_councildis": "E",
    "status": "Assigned to Contractor",
    "contractor": "Waste Pro",
    "rowid": "1253372",
    "final_x": "3703738.17066",
    "final_y": "556309.091034",
    "longitude": "-89.99693780526998",
    "latitude": "30.02296253077885",
    "geocoded_column": {
      "latitude": "30.02296253077885",
      "longitude": "-89.99693780526998"
    }
  },
  {
    "service_request": "2026-1253371",
    "request_type": "Trash/Recycling",
    "request_reason": "Request a Large Item Pick Up",
    "date_created": "2026-01-20T16:16:40.000",
    "date_modified": "2026-01-20T16:16:41.000",
    "request_status": "Pending",
    "responsible_agency": "Department of Sanitation",
    "final_address": "6310 Eastover Dr",
    "address_councildis": "E",
    "status": "Assigned to Contractor",
    "contractor": "Waste Pro",
    "rowid": "1253371",
    "final_x": "3717762.56748",
    "final_y": "563944.264609",
    "longitude": "-89.95233362906258",
    "latitude": "30.04349897639093",
    "geocoded_column": {
      "latitude": "30.04349897639093",
      "longitude": "-89.95233362906258"
    }
  },
  {
    "service_request": "2026-1253370",
    "request_type": "Trash/Recycling",
    "request_reason": "Request a Large Item Pick Up",
    "date_created": "2026-01-20T16:15:48.000",
    "date_modified": "2026-01-20T16:15:50.000",
    "request_status": "Pending",
    "responsible_agency": "Department of Sanitation",
    "final_address": "1527 Valmont St",
    "address_councildis": "B",
    "status": "Assigned to Contractor",
    "contractor": "IV Waste",
    "rowid": "1253370",
    "final_x": "3667844.85607",
    "final_y": "520659.496761",
    "longitude": "-90.11155416096132",
    "latitude": "29.926040339007677",
    "geocoded_column": {
      "latitude": "29.926040339007677",
      "longitude": "-90.11155416096132"
    }
  },
  {
    "service_request": "2026-1253369",
    "request_type": "Trash/Recycling",
    "request_reason": "Repair Trash Cart",
    "date_created": "2026-01-20T16:09:33.000",
    "date_modified": "2026-01-20T17:47:26.000",
    "request_status": "Pending",
    "responsible_agency": "Department of Sanitation",
    "final_address": "3931 Perrier St",
    "address_councildis": "B",
    "status": "Assigned to Contractor",
    "contractor": "IV Waste",
    "rowid": "1253369",
    "final_x": "3672507.46267",
    "final_y": "520258.607864",
    "longitude": "-90.09684929894098",
    "latitude": "29.924800496332942",
    "geocoded_column": {
      "latitude": "29.924800496332942",
      "longitude": "-90.09684929894098"
    }
  },
  {
    "service_request": "2026-1253368",
    "request_type": "Trash/Recycling",
    "request_reason": "Return Trash Cart",
    "date_created": "2026-01-20T16:06:32.000",
    "date_modified": "2026-01-20T16:06:34.000",
    "request_status": "Pending",
    "responsible_agency": "Department of Sanitation",
    "final_address": "2020 Chestnut St",
    "address_councildis": "B",
    "status": "Assigned to Contractor",
    "contractor": "IV Waste",
    "rowid": "1253368",
    "final_x": "3678919.00712",
    "final_y": "523020.204411",
    "longitude": "-90.07651455624993",
    "latitude": "29.93220218433621",
    "geocoded_column": {
      "latitude": "29.93220218433621",
      "longitude": "-90.07651455624993"
    }
  },
  {
    "service_request": "2026-1253367",
    "request_type": "Streetlights",
    "request_reason": "Streetlight Knocked Down/Leaning",
    "date_created": "2026-01-20T16:05:23.000",
    "date_modified": "2026-01-20T16:05:25.000",
    "request_status": "Pending",
    "responsible_agency": "Department of Public Works",
    "final_address": "1913 Esplanade Ave",
    "address_councildis": "D",
    "status": "Pending",
    "rowid": "1253367",
    "final_x": "3680365.65781",
    "final_y": "537355.902472",
    "longitude": "-90.0714492252029",
    "latitude": "29.971576815645047",
    "geocoded_column": {
      "latitude": "29.971576815645047",
      "longitude": "-90.0714492252029"
    }
  },
  {
    "service_request": "2026-1253366",
    "request_type": "Trash/Recycling",
    "request_reason": "Repair Trash Cart",
    "date_created": "2026-01-20T16:04:29.000",
    "date_modified": "2026-01-20T16:04:32.000",
    "request_status": "Pending",
    "responsible_agency": "Department of Sanitation",
    "final_address": "4708 General Meyer Ave",
    "address_councildis": "C",
    "status": "Assigned to Contractor",
    "contractor": "Richards Disposal",
    "rowid": "1253366",
    "final_x": "3701502.18129",
    "final_y": "523633.502075",
    "longitude": "-90.00519971335476",
    "latitude": "29.933188117429264",
    "geocoded_column": {
      "latitude": "29.933188117429264",
      "longitude": "-90.00519971335476"
    }
  },
  {
    "service_request": "2026-1253365",
    "request_type": "Trash/Recycling",
    "request_reason": "Request a Large Item Pick Up",
    "date_created": "2026-01-20T16:01:44.000",
    "date_modified": "2026-01-20T16:01:54.000",
    "request_status": "Pending",
    "responsible_agency": "Department of Sanitation",
    "final_address": "708 Opelousas Ave",
    "address_councildis": "C",
    "status": "Assigned to Contractor",
    "contractor": "Richards Disposal",
    "rowid": "1253365",
    "final_x": "3687591.3007",
    "final_y": "529191.32928",
    "longitude": "-90.04891866004225",
    "latitude": "29.948906284720604",
    "geocoded_column": {
      "latitude": "29.948906284720604",
      "longitude": "-90.04891866004225"
    }
  },
  {
    "service_request": "2026-1253364",
    "request_type": "Trash/Recycling",
    "request_reason": "Request a Large Item Pick Up",
    "date_created": "2026-01-20T16:01:37.000",
    "date_modified": "2026-01-20T16:01:38.000",
    "request_status": "Pending",
    "responsible_agency": "Department of Sanitation",
    "final_address": "2509 Constance St",
    "address_councildis": "B",
    "status": "Assigned to Contractor",
    "contractor": "IV Waste",
    "rowid": "1253364",
    "final_x": "3677922.29282",
    "final_y": "520999.067513",
    "longitude": "-90.07973089388652",
    "latitude": "29.926674740718756",
    "geocoded_column": {
      "latitude": "29.926674740718756",
      "longitude": "-90.07973089388652"
    }
  },
  {
    "service_request": "2026-1253363",
    "request_type": "Trash/Recycling",
    "request_reason": "Order Trash Cart",
    "date_created": "2026-01-20T15:59:37.000",
    "date_modified": "2026-01-20T18:01:24.000",
    "request_status": "Pending",
    "responsible_agency": "Department of Sanitation",
    "final_address": "1765 Pleasure St",
    "address_councildis": "D",
    "status": "Assigned to Contractor",
    "contractor": "IV Waste",
    "rowid": "1253363",
    "final_x": "3681037.91778",
    "final_y": "544926.107151",
    "longitude": "-90.06906234073679",
    "latitude": "29.992371861393888",
    "geocoded_column": {
      "latitude": "29.992371861393888",
      "longitude": "-90.06906234073679"
    }
  },
  {
    "service_request": "2026-1253362",
    "request_type": "Trash/Recycling",
    "request_reason": "Order Trash Cart",
    "date_created": "2026-01-20T15:59:08.000",
    "date_modified": "2026-01-20T15:59:09.000",
    "request_status": "Pending",
    "responsible_agency": "Department of Sanitation",
    "final_address": "9933 E Rockton Cir",
    "address_councildis": "E",
    "status": "Assigned to Contractor",
    "contractor": "Waste Pro",
    "rowid": "1253362",
    "final_x": "3708542.166",
    "final_y": "562847.089184",
    "longitude": "-89.98151467429612",
    "latitude": "30.040784514317735",
    "geocoded_column": {
      "latitude": "30.040784514317735",
      "longitude": "-89.98151467429612"
    }
  },
  {
    "service_request": "2026-1253361",
    "request_type": "Trash/Recycling",
    "request_reason": "Repair Recycling Cart",
    "date_created": "2026-01-20T15:57:53.000",
    "date_modified": "2026-01-20T15:57:55.000",
    "request_status": "Pending",
    "responsible_agency": "Department of Sanitation",
    "final_address": "834 City Park Ave",
    "address_councildis": "A",
    "status": "Pending",
    "rowid": "1253361",
    "final_x": "3671341.55003",
    "final_y": "541638.937484",
    "longitude": "-90.09980315112905",
    "latitude": "29.983623883719275",
    "geocoded_column": {
      "latitude": "29.983623883719275",
      "longitude": "-90.09980315112905"
    }
  },
  {
    "service_request": "2026-1253360",
    "request_type": "Trash/Recycling",
    "request_reason": "Order Recycling Cart",
    "date_created": "2026-01-20T15:57:34.000",
    "date_modified": "2026-01-20T15:57:36.000",
    "request_status": "Pending",
    "responsible_agency": "Department of Sanitation",
    "final_address": "8000 Lincoln Beach Blvd",
    "address_councildis": "E",
    "status": "Pending",
    "rowid": "1253360",
    "final_x": "3701675.66519",
    "final_y": "562630.367136",
    "longitude": "-90.00322295614406",
    "latitude": "30.040409568011217",
    "geocoded_column": {
      "latitude": "30.040409568011217",
      "longitude": "-90.00322295614406"
    }
  },
  {
    "service_request": "2026-1253359",
    "request_type": "Trash/Recycling",
    "request_reason": "Request a Large Item Pick Up",
    "date_created": "2026-01-20T15:53:33.000",
    "date_modified": "2026-01-20T15:53:34.000",
    "request_status": "Pending",
    "responsible_agency": "Department of Sanitation",
    "final_address": "3529 Mimosa Ct",
    "address_councildis": "C",
    "status": "Assigned to Contractor",
    "contractor": "Richards Disposal",
    "rowid": "1253359",
    "final_x": "3703487.17649",
    "final_y": "512959.242737",
    "longitude": "-89.99932557757127",
    "latitude": "29.903774166990836",
    "geocoded_column": {
      "latitude": "29.903774166990836",
      "longitude": "-89.99932557757127"
    }
  },
  {
    "service_request": "2026-1253358",
    "request_type": "Abandoned Vehicles",
    "request_reason": "Abandoned/Junk Vehicles",
    "date_created": "2026-01-20T15:52:43.000",
    "date_modified": "2026-01-20T15:52:46.000",
    "request_status": "Pending",
    "responsible_agency": "Department of Public Works",
    "final_address": "6800 BLK Argonne Blvd",
    "address_councildis": "A",
    "status": "Pending",
    "rowid": "1253358",
    "final_x": "3670698.84295",
    "final_y": "552846.778608",
    "longitude": "-90.10145258073942",
    "latitude": "30.0144605590517",
    "geocoded_column": {
      "latitude": "30.0144605590517",
      "longitude": "-90.10145258073942"
    }
  },
  {
    "service_request": "2026-1253357",
    "request_type": "Trash/Recycling",
    "request_reason": "Request a Large Item Pick Up",
    "date_created": "2026-01-20T15:52:07.000",
    "date_modified": "2026-01-20T15:52:09.000",
    "request_status": "Pending",
    "responsible_agency": "Department of Sanitation",
    "final_address": "7100 Whitmore Pl",
    "address_councildis": "E",
    "status": "Assigned to Contractor",
    "contractor": "Waste Pro",
    "rowid": "1253357",
    "final_x": "3718758.37228",
    "final_y": "569527.438438",
    "longitude": "-89.94897331872507",
    "latitude": "30.058817364847194",
    "geocoded_column": {
      "latitude": "30.058817364847194",
      "longitude": "-89.94897331872507"
    }
  },
  {
    "service_request": "2026-1253356",
    "request_type": "Trash/Recycling",
    "request_reason": "Request a Large Item Pick Up",
    "date_created": "2026-01-20T15:50:11.000",
    "date_modified": "2026-01-20T15:50:14.000",
    "request_status": "Pending",
    "responsible_agency": "Department of Sanitation",
    "final_address": "6120 S Hermes St",
    "address_councildis": "D",
    "status": "Assigned to Contractor",
    "contractor": "Waste Pro",
    "rowid": "1253356",
    "final_x": "3696668.79191",
    "final_y": "554968.052056",
    "longitude": "-90.01932393134663",
    "latitude": "30.01949999496659",
    "geocoded_column": {
      "latitude": "30.01949999496659",
      "longitude": "-90.01932393134663"
    }
  },
  {
    "service_request": "2026-1253355",
    "request_type": "Trash/Recycling",
    "request_reason": "Order Trash Cart",
    "date_created": "2026-01-20T15:48:00.000",
    "date_modified": "2026-01-20T18:01:00.000",
    "request_status": "Pending",
    "responsible_agency": "Department of Sanitation",
    "final_address": "1251 Columbus St",
    "address_councildis": "C",
    "status": "Assigned to Contractor",
    "contractor": "IV Waste",
    "rowid": "1253355",
    "final_x": "3682734.11432",
    "final_y": "536351.427719",
    "longitude": "-90.06400443668593",
    "latitude": "29.96874292506862",
    "geocoded_column": {
      "latitude": "29.96874292506862",
      "longitude": "-90.06400443668593"
    }
  },
  {
    "service_request": "2026-1253354",
    "request_type": "Trash/Recycling",
    "request_reason": "Request a Large Item Pick Up",
    "date_created": "2026-01-20T15:39:16.000",
    "date_modified": "2026-01-20T15:39:37.000",
    "request_status": "Pending",
    "responsible_agency": "Department of Sanitation",
    "final_address": "7431 Hansbrough Ave",
    "address_councildis": "E",
    "status": "Assigned to Contractor",
    "contractor": "Waste Pro",
    "rowid": "1253354",
    "final_x": "3707961.22424",
    "final_y": "563985.953889",
    "longitude": "-89.98330822616263",
    "latitude": "30.043934770802807",
    "geocoded_column": {
      "latitude": "30.043934770802807",
      "longitude": "-89.98330822616263"
    }
  },
  {
    "service_request": "2026-1253353",
    "request_type": "Roads and Streets",
    "request_reason": "Pothole",
    "date_created": "2026-01-20T15:37:44.000",
    "date_modified": "2026-01-20T15:37:46.000",
    "request_status": "Pending",
    "responsible_agency": "Department of Public Works",
    "final_address": "2601 Somerset Dr",
    "address_councildis": "C",
    "status": "Pending",
    "rowid": "1253353",
    "final_x": "3702827.94756",
    "final_y": "521486.093305",
    "longitude": "-90.00109320739932",
    "latitude": "29.927241170307255",
    "geocoded_column": {
      "latitude": "29.927241170307255",
      "longitude": "-90.00109320739932"
    }
  },
  {
    "service_request": "2026-1253352",
    "request_type": "Trash/Recycling",
    "request_reason": "Request a Large Item Pick Up",
    "date_created": "2026-01-20T15:34:58.000",
    "date_modified": "2026-01-20T16:00:04.000",
    "request_status": "Pending",
    "responsible_agency": "Department of Sanitation",
    "final_address": "5090 E St Andrews Cir",
    "address_councildis": "E",
    "status": "Assigned to Contractor",
    "contractor": "Waste Pro",
    "rowid": "1253352",
    "final_x": "3719361.60057",
    "final_y": "560351.195997",
    "longitude": "-89.9474174143551",
    "latitude": "30.033566412661138",
    "geocoded_column": {
      "latitude": "30.033566412661138",
      "longitude": "-89.9474174143551"
    }
  },
  {
    "service_request": "2026-1253351",
    "request_type": "Trash/Recycling",
    "request_reason": "Request a Large Item Pick Up",
    "date_created": "2026-01-20T15:34:35.000",
    "date_modified": "2026-01-20T15:34:37.000",
    "request_status": "Pending",
    "responsible_agency": "Department of Sanitation",
    "final_address": "7707 Alabama St",
    "address_councildis": "D",
    "status": "Assigned to Contractor",
    "contractor": "Waste Pro",
    "rowid": "1253351",
    "final_x": "3694867.02518",
    "final_y": "558831.421788",
    "longitude": "-90.02487749223623",
    "latitude": "30.030179487079568",
    "geocoded_column": {
      "latitude": "30.030179487079568",
      "longitude": "-90.02487749223623"
    }
  },
  {
    "service_request": "2026-1253350",
    "request_type": "Traffic Signals",
    "request_reason": "Traffic Signal Malfunctioning or Damaged",
    "date_created": "2026-01-20T15:33:08.000",
    "date_modified": "2026-01-20T15:35:25.000",
    "request_status": "Pending",
    "responsible_agency": "Department of Public Works",
    "final_address": "LAKE FOREST BLVD & CROWDER BLVD",
    "address_councildis": "E",
    "status": "Pending",
    "rowid": "1253350",
    "final_x": "3705269.9",
    "final_y": "557836.38",
    "longitude": "-89.992041432524",
    "latitude": "30.02711277253483",
    "geocoded_column": {
      "latitude": "30.02711277253483",
      "longitude": "-89.992041432524"
    }
  },
  {
    "service_request": "2026-1253349",
    "request_type": "Trash/Recycling",
    "request_reason": "Request a Large Item Pick Up",
    "date_created": "2026-01-20T15:32:56.000",
    "date_modified": "2026-01-20T15:32:58.000",
    "request_status": "Pending",
    "responsible_agency": "Department of Sanitation",
    "final_address": "5131 Mckendall Pl",
    "address_councildis": "E",
    "status": "Assigned to Contractor",
    "contractor": "Waste Pro",
    "rowid": "1253349",
    "final_x": "3718150.74911",
    "final_y": "558838.71382",
    "longitude": "-89.95130144143958",
    "latitude": "30.02944790976015",
    "geocoded_column": {
      "latitude": "30.02944790976015",
      "longitude": "-89.95130144143958"
    }
  },
  {
    "service_request": "2026-1253348",
    "request_type": "Streetlights",
    "request_reason": "Streetlight Outage/Malfunction",
    "date_created": "2026-01-20T15:31:41.000",
    "date_modified": "2026-01-20T15:31:43.000",
    "request_status": "Pending",
    "responsible_agency": "Department of Public Works",
    "final_address": "114 Oaktree Dr",
    "address_councildis": "A",
    "status": "Pending",
    "rowid": "1253348",
    "final_x": "3665443.29728",
    "final_y": "544741.040591",
    "longitude": "-90.11832914131857",
    "latitude": "29.992326890863623",
    "geocoded_column": {
      "latitude": "29.992326890863623",
      "longitude": "-90.11832914131857"
    }
  },
  {
    "service_request": "2026-1253347",
    "request_type": "Drainage",
    "request_reason": "Drainage Manhole Cover Missing or Damaged",
    "date_created": "2026-01-20T15:28:54.000",
    "date_modified": "2026-01-20T15:42:29.000",
    "request_status": "Pending",
    "responsible_agency": "Sewerage & Water Board",
    "final_address": "100 BLK Oaktree Dr",
    "address_councildis": "A",
    "status": "Pending",
    "rowid": "1253347",
    "final_x": "3665491.75822",
    "final_y": "544876.895926",
    "longitude": "-90.1181715109647",
    "latitude": "29.992699033720765",
    "geocoded_column": {
      "latitude": "29.992699033720765",
      "longitude": "-90.1181715109647"
    }
  },
  {
    "service_request": "2026-1253346",
    "request_type": "Roads and Streets",
    "request_reason": "Pothole",
    "date_created": "2026-01-20T15:27:21.000",
    "date_modified": "2026-01-20T15:27:23.000",
    "request_status": "Pending",
    "responsible_agency": "Department of Public Works",
    "final_address": "540 Burgundy St",
    "address_councildis": "C",
    "status": "Pending",
    "rowid": "1253346",
    "final_x": "3681428.20802",
    "final_y": "532730.959428",
    "longitude": "-90.06825479779992",
    "latitude": "29.958827589490276",
    "geocoded_column": {
      "latitude": "29.958827589490276",
      "longitude": "-90.06825479779992"
    }
  },
  {
    "service_request": "2026-1253345",
    "request_type": "Streetlights",
    "request_reason": "Streetlight Outage/Malfunction",
    "date_created": "2026-01-20T15:26:43.000",
    "date_modified": "2026-01-20T15:26:45.000",
    "request_status": "Pending",
    "responsible_agency": "Department of Public Works",
    "final_address": "540 Burgundy St",
    "address_councildis": "C",
    "status": "Pending",
    "rowid": "1253345",
    "final_x": "3681428.20802",
    "final_y": "532730.959428",
    "longitude": "-90.06825479779992",
    "latitude": "29.958827589490276",
    "geocoded_column": {
      "latitude": "29.958827589490276",
      "longitude": "-90.06825479779992"
    }
  },
  {
    "service_request": "2026-1253344",
    "request_type": "Streetlights",
    "request_reason": "Streetlight Outage/Malfunction",
    "date_created": "2026-01-20T15:25:31.000",
    "date_modified": "2026-01-20T15:25:33.000",
    "request_status": "Pending",
    "responsible_agency": "Department of Public Works",
    "final_address": "5690 Evelyn Ct",
    "address_councildis": "A",
    "status": "Pending",
    "rowid": "1253344",
    "final_x": "3664699.5728",
    "final_y": "545516.753488",
    "longitude": "-90.12065249993057",
    "latitude": "29.994481500480713",
    "geocoded_column": {
      "latitude": "29.994481500480713",
      "longitude": "-90.12065249993057"
    }
  },
  {
    "service_request": "2026-1253343",
    "request_type": "Drainage",
    "request_reason": "Catch Basin Frame and Cover Missing or Damaged",
    "date_created": "2026-01-20T15:23:14.000",
    "date_modified": "2026-01-20T15:26:26.000",
    "request_status": "Pending",
    "responsible_agency": "Sewerage & Water Board",
    "final_address": "7818 Scottwood Dr",
    "address_councildis": "E",
    "status": "Pending",
    "rowid": "1253343",
    "final_x": "3716539.41951",
    "final_y": "571582.033128",
    "longitude": "-89.95590908181961",
    "latitude": "30.06454017336463",
    "geocoded_column": {
      "latitude": "30.06454017336463",
      "longitude": "-89.95590908181961"
    }
  },
  {
    "service_request": "2026-1253342",
    "request_type": "Trash/Recycling",
    "request_reason": "Replace Trash Cart",
    "date_created": "2026-01-20T15:22:41.000",
    "date_modified": "2026-01-20T17:43:39.000",
    "request_status": "Pending",
    "responsible_agency": "Department of Sanitation",
    "final_address": "4319 Marais St",
    "address_councildis": "D",
    "status": "Assigned to Contractor",
    "contractor": "IV Waste",
    "rowid": "1253342",
    "final_x": "3692961.52368",
    "final_y": "535423.884422",
    "longitude": "-90.03173908360736",
    "latitude": "29.96587701955792",
    "geocoded_column": {
      "latitude": "29.96587701955792",
      "longitude": "-90.03173908360736"
    }
  },
  {
    "service_request": "2026-1253341",
    "request_type": "Trash/Recycling",
    "request_reason": "Request a Large Item Pick Up",
    "date_created": "2026-01-20T15:11:24.000",
    "date_modified": "2026-01-20T15:12:46.000",
    "request_status": "Pending",
    "responsible_agency": "Department of Sanitation",
    "final_address": "1239 N Tonti St",
    "address_councildis": "D",
    "status": "Assigned to Contractor",
    "contractor": "IV Waste",
    "rowid": "1253341",
    "final_x": "3679063.04104",
    "final_y": "537860.418185",
    "longitude": "-90.07554559294655",
    "latitude": "29.973003441061472",
    "geocoded_column": {
      "latitude": "29.973003441061472",
      "longitude": "-90.07554559294655"
    }
  },
  {
    "service_request": "2026-1253340",
    "request_type": "Property Maintenance",
    "request_reason": "Property Maintenance",
    "date_created": "2026-01-20T15:06:19.000",
    "date_modified": "2026-01-20T15:06:20.000",
    "request_status": "Pending",
    "responsible_agency": "Department of Code Enforcement",
    "final_address": "1826 Hollygrove St",
    "address_councildis": "A",
    "status": "Pending",
    "rowid": "1253340",
    "final_x": "3661148.85056",
    "final_y": "532261.155587",
    "longitude": "-90.13230773917518",
    "latitude": "29.958135839772",
    "geocoded_column": {
      "latitude": "29.958135839772",
      "longitude": "-90.13230773917518"
    }
  },
  {
    "service_request": "2026-1253339",
    "request_type": "Parks & Parkways",
    "request_reason": "Request Tree Service (Right of Way/Public Property)",
    "date_created": "2026-01-20T15:05:18.000",
    "date_modified": "2026-01-20T15:05:20.000",
    "request_status": "Pending",
    "responsible_agency": "Department of Parks & Parkway",
    "final_address": "4511 Lonely Oak Dr",
    "address_councildis": "E",
    "status": "Pending",
    "rowid": "1253339",
    "final_x": "3702486.25495",
    "final_y": "553338.273687",
    "longitude": "-90.00100269874417",
    "latitude": "30.014834009486815",
    "geocoded_column": {
      "latitude": "30.014834009486815",
      "longitude": "-90.00100269874417"
    }
  },
  {
    "service_request": "2026-1253338",
    "request_type": "Trash/Recycling",
    "request_reason": "Replace Trash Cart",
    "date_created": "2026-01-20T15:04:39.000",
    "date_modified": "2026-01-20T15:05:31.000",
    "request_status": "Pending",
    "responsible_agency": "Department of Sanitation",
    "final_address": "7425 Edward St",
    "address_councildis": "E",
    "status": "Assigned to Contractor",
    "contractor": "Waste Pro",
    "rowid": "1253338",
    "final_x": "3701322.5585",
    "final_y": "560443.036382",
    "longitude": "-90.00441905300798",
    "latitude": "30.03440652796033",
    "geocoded_column": {
      "latitude": "30.03440652796033",
      "longitude": "-90.00441905300798"
    }
  },
  {
    "service_request": "2026-1253337",
    "request_type": "Trash/Recycling",
    "request_reason": "Request a Large Item Pick Up",
    "date_created": "2026-01-20T15:00:36.000",
    "date_modified": "2026-01-20T15:00:38.000",
    "request_status": "Pending",
    "responsible_agency": "Department of Sanitation",
    "final_address": "13080 Maple Wood Dr",
    "address_councildis": "E",
    "status": "Assigned to Contractor",
    "contractor": "Waste Pro",
    "rowid": "1253337",
    "final_x": "3723820.73247",
    "final_y": "563644.669153",
    "longitude": "-89.93319908453847",
    "latitude": "30.042473058641562",
    "geocoded_column": {
      "latitude": "30.042473058641562",
      "longitude": "-89.93319908453847"
    }
  },
  {
    "service_request": "2026-1253336",
    "request_type": "Roads and Streets",
    "request_reason": "Debris in Driving Lanes",
    "date_created": "2026-01-20T15:00:14.000",
    "date_modified": "2026-01-20T15:00:17.000",
    "request_status": "Pending",
    "responsible_agency": "Department of Public Works",
    "final_address": "0 BLK Across St",
    "address_councildis": "E",
    "status": "Pending",
    "rowid": "1253336",
    "final_x": "3711887.63918",
    "final_y": "553972.247814",
    "longitude": "-89.97127534652184",
    "latitude": "30.01627326470007",
    "geocoded_column": {
      "latitude": "30.01627326470007",
      "longitude": "-89.97127534652184"
    }
  },
  {
    "service_request": "2026-1253335",
    "request_type": "Trash/Recycling",
    "request_reason": "Request a Large Item Pick Up",
    "date_created": "2026-01-20T14:58:44.000",
    "date_modified": "2026-01-20T14:58:47.000",
    "request_status": "Pending",
    "responsible_agency": "Department of Sanitation",
    "final_address": "2921 General Taylor St",
    "address_councildis": "B",
    "status": "Assigned to Contractor",
    "contractor": "IV Waste",
    "rowid": "1253335",
    "final_x": "3671559.54855",
    "final_y": "525742.163069",
    "longitude": "-90.09965518971151",
    "latitude": "29.939906598542432",
    "geocoded_column": {
      "latitude": "29.939906598542432",
      "longitude": "-90.09965518971151"
    }
  },
  {
    "service_request": "2026-1253334",
    "request_type": "Trash/Recycling",
    "request_reason": "Dead Animal Pick Up",
    "date_created": "2026-01-20T14:55:52.000",
    "date_modified": "2026-01-20T14:55:54.000",
    "request_status": "Pending",
    "responsible_agency": "Department of Sanitation",
    "final_address": "CINDY PL & I 10 E SERVICE RD",
    "address_councildis": "E",
    "status": "Assigned to Contractor",
    "contractor": "Waste Pro",
    "rowid": "1253334",
    "final_x": "3706752.4",
    "final_y": "559684.88",
    "longitude": "-89.98728829359678",
    "latitude": "30.03214762391755",
    "geocoded_column": {
      "latitude": "30.03214762391755",
      "longitude": "-89.98728829359678"
    }
  },
  {
    "service_request": "2026-1253333",
    "request_type": "Street and Traffic Signs",
    "request_reason": "Stop Sign Missing or Damaged",
    "date_created": "2026-01-20T14:55:05.000",
    "date_modified": "2026-01-20T14:55:07.000",
    "request_status": "Pending",
    "responsible_agency": "Department of Public Works",
    "final_address": "6810 Pontchartrain Blvd",
    "address_councildis": "A",
    "status": "Pending",
    "rowid": "1253333",
    "final_x": "3666313.90887",
    "final_y": "553415.049687",
    "longitude": "-90.11528777670253",
    "latitude": "30.016151999610805",
    "geocoded_column": {
      "latitude": "30.016151999610805",
      "longitude": "-90.11528777670253"
    }
  },
  {
    "service_request": "2026-1253332",
    "request_type": "Trash/Recycling",
    "request_reason": "Request a Large Item Pick Up",
    "date_created": "2026-01-20T14:53:16.000",
    "date_modified": "2026-01-20T16:38:49.000",
    "request_status": "Pending",
    "responsible_agency": "Department of Sanitation",
    "final_address": "2121 Robin St",
    "address_councildis": "D",
    "status": "Assigned to Contractor",
    "contractor": "IV Waste",
    "rowid": "1253332",
    "final_x": "3683168.96328",
    "final_y": "551849.116374",
    "longitude": "-90.06208816927378",
    "latitude": "30.01134282565246",
    "geocoded_column": {
      "latitude": "30.01134282565246",
      "longitude": "-90.06208816927378"
    }
  },
  {
    "service_request": "2026-1253331",
    "request_type": "Trash/Recycling",
    "request_reason": "Request a Large Item Pick Up",
    "date_created": "2026-01-20T14:48:45.000",
    "date_modified": "2026-01-20T14:48:47.000",
    "request_status": "Pending",
    "responsible_agency": "Department of Sanitation",
    "final_address": "5220 Norgate Dr",
    "address_councildis": "E",
    "status": "Assigned to Contractor",
    "contractor": "Waste Pro",
    "rowid": "1253331",
    "final_x": "3707359.77003",
    "final_y": "557375.156187",
    "longitude": "-89.9854548386491",
    "latitude": "30.025777156241666",
    "geocoded_column": {
      "latitude": "30.025777156241666",
      "longitude": "-89.9854548386491"
    }
  },
  {
    "service_request": "2026-1253330",
    "request_type": "Property Maintenance",
    "request_reason": "Property Maintenance",
    "date_created": "2026-01-20T14:44:15.000",
    "date_modified": "2026-01-20T14:45:23.000",
    "request_status": "Pending",
    "responsible_agency": "Department of Code Enforcement",
    "final_address": "4360 Majestic Oaks Dr",
    "address_councildis": "D",
    "status": "Pending",
    "rowid": "1253330",
    "final_x": "3697831.1416",
    "final_y": "552271.241686",
    "longitude": "-90.01574929698901",
    "latitude": "30.012048082741046",
    "geocoded_column": {
      "latitude": "30.012048082741046",
      "longitude": "-90.01574929698901"
    }
  },
  {
    "service_request": "2026-1253329",
    "request_type": "Trash/Recycling",
    "request_reason": "Replace Trash Cart",
    "date_created": "2026-01-20T14:42:29.000",
    "date_modified": "2026-01-20T17:43:16.000",
    "request_status": "Pending",
    "responsible_agency": "Department of Sanitation",
    "final_address": "3701 Constance St",
    "address_councildis": "B",
    "status": "Assigned to Contractor",
    "contractor": "IV Waste",
    "rowid": "1253329",
    "final_x": "3673708.29953",
    "final_y": "518787.867831",
    "longitude": "-90.09310889881522",
    "latitude": "29.920720746888186",
    "geocoded_column": {
      "latitude": "29.920720746888186",
      "longitude": "-90.09310889881522"
    }
  },
  {
    "service_request": "2026-1253328",
    "request_type": "Trash/Recycling",
    "request_reason": "Replace Trash Cart",
    "date_created": "2026-01-20T14:36:22.000",
    "date_modified": "2026-01-20T14:36:24.000",
    "request_status": "Pending",
    "responsible_agency": "Department of Sanitation",
    "final_address": "11141 Whiteside Rd",
    "address_councildis": "E",
    "status": "Assigned to Contractor",
    "contractor": "Waste Pro",
    "rowid": "1253328",
    "final_x": "3711863.09266",
    "final_y": "565086.99069",
    "longitude": "-89.97093535542096",
    "latitude": "30.046835196134964",
    "geocoded_column": {
      "latitude": "30.046835196134964",
      "longitude": "-89.97093535542096"
    }
  },
  {
    "service_request": "2026-1253327",
    "request_type": "Streetlights",
    "request_reason": "Streetlight Outage/Malfunction",
    "date_created": "2026-01-20T14:34:02.000",
    "date_modified": "2026-01-20T14:34:04.000",
    "request_status": "Pending",
    "responsible_agency": "Department of Public Works",
    "final_address": "13101 Laval St",
    "address_councildis": "E",
    "status": "Pending",
    "rowid": "1253327",
    "final_x": "3724045.1751",
    "final_y": "562569.73776",
    "longitude": "-89.93253129851091",
    "latitude": "30.039509897896764",
    "geocoded_column": {
      "latitude": "30.039509897896764",
      "longitude": "-89.93253129851091"
    }
  },
  {
    "service_request": "2026-1253326",
    "request_type": "Trash/Recycling",
    "request_reason": "Illegal Dumping",
    "date_created": "2026-01-20T14:33:22.000",
    "date_modified": "2026-01-20T14:33:23.000",
    "request_status": "Pending",
    "responsible_agency": "Department of Sanitation",
    "final_address": "4724 Conti St",
    "address_councildis": "A",
    "status": "Pending",
    "rowid": "1253326",
    "final_x": "3669632.54356",
    "final_y": "540870.101707",
    "longitude": "-90.10522714248256",
    "latitude": "29.981560324034508",
    "geocoded_column": {
      "latitude": "29.981560324034508",
      "longitude": "-90.10522714248256"
    }
  },
  {
    "service_request": "2026-1253325",
    "request_type": "Trash/Recycling",
    "request_reason": "Repair Trash Cart",
    "date_created": "2026-01-20T14:32:55.000",
    "date_modified": "2026-01-20T14:32:57.000",
    "request_status": "Pending",
    "responsible_agency": "Department of Sanitation",
    "final_address": "13101 Laval St",
    "address_councildis": "E",
    "status": "Assigned to Contractor",
    "contractor": "Waste Pro",
    "rowid": "1253325",
    "final_x": "3724045.1751",
    "final_y": "562569.73776",
    "longitude": "-89.93253129851091",
    "latitude": "30.039509897896764",
    "geocoded_column": {
      "latitude": "30.039509897896764",
      "longitude": "-89.93253129851091"
    }
  },
  {
    "service_request": "2026-1253324",
    "request_type": "Trash/Recycling",
    "request_reason": "Request a Large Item Pick Up",
    "date_created": "2026-01-20T14:30:29.000",
    "date_modified": "2026-01-20T14:30:31.000",
    "request_status": "Pending",
    "responsible_agency": "Department of Sanitation",
    "final_address": "11251 S Idlewood Ct",
    "address_councildis": "E",
    "status": "Assigned to Contractor",
    "contractor": "Waste Pro",
    "rowid": "1253324",
    "final_x": "3716646.03839",
    "final_y": "559729.755741",
    "longitude": "-89.95602239854368",
    "latitude": "30.031947734069494",
    "geocoded_column": {
      "latitude": "30.031947734069494",
      "longitude": "-89.95602239854368"
    }
  },
  {
    "service_request": "2026-1253323",
    "request_type": "Trash/Recycling",
    "request_reason": "Return Trash Cart",
    "date_created": "2026-01-20T14:29:11.000",
    "date_modified": "2026-01-20T14:29:13.000",
    "request_status": "Pending",
    "responsible_agency": "Department of Sanitation",
    "final_address": "1541 Steeple Chase Ln",
    "address_councildis": "C",
    "status": "Assigned to Contractor",
    "contractor": "Richards Disposal",
    "rowid": "1253323",
    "final_x": "3699941.63076",
    "final_y": "525435.651517",
    "longitude": "-90.01006053469055",
    "latitude": "29.938193046500064",
    "geocoded_column": {
      "latitude": "29.938193046500064",
      "longitude": "-90.01006053469055"
    }
  },
  {
    "service_request": "2026-1253322",
    "request_type": "Streetlights",
    "request_reason": "Streetlight Outage/Malfunction",
    "date_created": "2026-01-20T14:24:55.000",
    "date_modified": "2026-01-20T14:24:57.000",
    "request_status": "Pending",
    "responsible_agency": "Department of Public Works",
    "final_address": "1407 Gallier St",
    "address_councildis": "C",
    "status": "Pending",
    "rowid": "1253322",
    "final_x": "3690793.01276",
    "final_y": "536815.40372",
    "longitude": "-90.03853749198201",
    "latitude": "29.96977076157803",
    "geocoded_column": {
      "latitude": "29.96977076157803",
      "longitude": "-90.03853749198201"
    }
  },
  {
    "service_request": "2026-1253321",
    "request_type": "Trash/Recycling",
    "request_reason": "Repair Recycling Cart",
    "date_created": "2026-01-20T14:23:30.000",
    "date_modified": "2026-01-20T14:23:31.000",
    "request_status": "Pending",
    "responsible_agency": "Department of Sanitation",
    "final_address": "7341 Onyx St",
    "address_councildis": "D",
    "status": "Pending",
    "rowid": "1253321",
    "final_x": "3668999.64622",
    "final_y": "555892.057561",
    "longitude": "-90.106718222054",
    "latitude": "30.022884116753144",
    "geocoded_column": {
      "latitude": "30.022884116753144",
      "longitude": "-90.106718222054"
    }
  },
  {
    "service_request": "2026-1253320",
    "request_type": "Trash/Recycling",
    "request_reason": "Replace Trash Cart",
    "date_created": "2026-01-20T14:21:14.000",
    "date_modified": "2026-01-20T17:23:03.000",
    "request_status": "Pending",
    "responsible_agency": "Department of Sanitation",
    "final_address": "7341 Onyx St",
    "address_councildis": "D",
    "status": "Assigned to Contractor",
    "contractor": "IV Waste",
    "rowid": "1253320",
    "final_x": "3668999.64622",
    "final_y": "555892.057561",
    "longitude": "-90.106718222054",
    "latitude": "30.022884116753144",
    "geocoded_column": {
      "latitude": "30.022884116753144",
      "longitude": "-90.106718222054"
    }
  },
  {
    "service_request": "2026-1253319",
    "request_type": "Trash/Recycling",
    "request_reason": "Replace Trash Cart",
    "date_created": "2026-01-20T14:20:37.000",
    "date_modified": "2026-01-20T17:42:34.000",
    "request_status": "Pending",
    "responsible_agency": "Department of Sanitation",
    "final_address": "2833 S Derbigny St",
    "address_councildis": "B",
    "status": "Assigned to Contractor",
    "contractor": "IV Waste",
    "rowid": "1253319",
    "final_x": "3672649.99118",
    "final_y": "526922.755262",
    "longitude": "-90.0961722519577",
    "latitude": "29.943120514535345",
    "geocoded_column": {
      "latitude": "29.943120514535345",
      "longitude": "-90.0961722519577"
    }
  },
  {
    "service_request": "2026-1253318",
    "request_type": "Trash/Recycling",
    "request_reason": "Missed Trash Pick-Up",
    "date_created": "2026-01-20T14:18:19.000",
    "date_modified": "2026-01-20T14:52:24.000",
    "case_close_date": "2026-01-20T08:52:23.000",
    "request_status": "Closed",
    "responsible_agency": "Department of Sanitation",
    "final_address": "712 N Dupre St",
    "address_councildis": "A",
    "status": "Invalid Request",
    "contractor": "IV Waste",
    "contractor_action": "Invalid Request",
    "rowid": "1253318",
    "final_x": "3676046.92341",
    "final_y": "537479.685",
    "longitude": "-90.08508418549205",
    "latitude": "29.972047245317654",
    "geocoded_column": {
      "latitude": "29.972047245317654",
      "longitude": "-90.08508418549205"
    }
  },
  {
    "service_request": "2026-1253317",
    "request_type": "Trash/Recycling",
    "request_reason": "Replace Trash Cart",
    "date_created": "2026-01-20T14:16:18.000",
    "date_modified": "2026-01-20T17:42:00.000",
    "request_status": "Pending",
    "responsible_agency": "Department of Sanitation",
    "final_address": "1526 Eagle St",
    "address_councildis": "A",
    "status": "Assigned to Contractor",
    "contractor": "IV Waste",
    "rowid": "1253317",
    "final_x": "3660952.85869",
    "final_y": "531009.105346",
    "longitude": "-90.132968048332",
    "latitude": "29.95469875284019",
    "geocoded_column": {
      "latitude": "29.95469875284019",
      "longitude": "-90.132968048332"
    }
  },
  {
    "service_request": "2026-1253316",
    "request_type": "Trash/Recycling",
    "request_reason": "Request a Large Item Pick Up",
    "date_created": "2026-01-20T14:15:50.000",
    "date_modified": "2026-01-20T14:15:51.000",
    "request_status": "Pending",
    "responsible_agency": "Department of Sanitation",
    "final_address": "4667 Lurline St",
    "address_councildis": "E",
    "status": "Assigned to Contractor",
    "contractor": "Waste Pro",
    "rowid": "1253316",
    "final_x": "3712093.73816",
    "final_y": "555705.472025",
    "longitude": "-89.97055904046204",
    "latitude": "30.021032214684656",
    "geocoded_column": {
      "latitude": "30.021032214684656",
      "longitude": "-89.97055904046204"
    }
  },
  {
    "service_request": "2026-1253315",
    "request_type": "Healthy Homes",
    "request_reason": "Healthy Homes",
    "date_created": "2026-01-20T14:15:25.000",
    "date_modified": "2026-01-20T15:33:23.000",
    "request_status": "Pending",
    "responsible_agency": "Department of Code Enforcement",
    "final_address": "6822 W Coronet Ct Apt A",
    "address_councildis": "E",
    "status": "Pending",
    "rowid": "1253315",
    "final_x": "3702303.59581",
    "final_y": "557377.517595",
    "longitude": "-90.00143146618852",
    "latitude": "30.025946219343687",
    "geocoded_column": {
      "latitude": "30.025946219343687",
      "longitude": "-90.00143146618852"
    }
  },
  {
    "service_request": "2026-1253314",
    "request_type": "Trash/Recycling",
    "request_reason": "Order Recycling Cart",
    "date_created": "2026-01-20T14:11:22.000",
    "date_modified": "2026-01-20T14:11:24.000",
    "request_status": "Pending",
    "responsible_agency": "Department of Sanitation",
    "final_address": "2585 St Nick Dr",
    "address_councildis": "C",
    "status": "Pending",
    "rowid": "1253314",
    "final_x": "3699293.06212",
    "final_y": "521491.805625",
    "longitude": "-90.0122516660285",
    "latitude": "29.927369413148238",
    "geocoded_column": {
      "latitude": "29.927369413148238",
      "longitude": "-90.0122516660285"
    }
  },
  {
    "service_request": "2026-1253313",
    "request_type": "Safety & Permits",
    "request_reason": "Licenses & Permits",
    "date_created": "2026-01-20T14:10:03.000",
    "date_modified": "2026-01-20T14:10:04.000",
    "request_status": "Pending",
    "responsible_agency": "Safety and Permits",
    "final_address": "2101 Easter Ln",
    "address_councildis": "C",
    "status": "Pending",
    "rowid": "1253313",
    "final_x": "3699437.75178",
    "final_y": "523661.041787",
    "longitude": "-90.01171593785695",
    "latitude": "29.93332947636682",
    "geocoded_column": {
      "latitude": "29.93332947636682",
      "longitude": "-90.01171593785695"
    }
  },
  {
    "service_request": "2026-1253312",
    "request_type": "Abandoned Vehicles",
    "request_reason": "Abandoned/Junk Vehicles",
    "date_created": "2026-01-20T14:09:14.000",
    "date_modified": "2026-01-20T14:09:15.000",
    "request_status": "Pending",
    "responsible_agency": "Department of Public Works",
    "final_address": "POCAHONTAS ST & MCFARLAND ST",
    "address_councildis": "D",
    "status": "Pending",
    "rowid": "1253312",
    "final_x": "3689383.9",
    "final_y": "548394.88",
    "longitude": "-90.04257564535027",
    "latitude": "30.001653886021494",
    "geocoded_column": {
      "latitude": "30.001653886021494",
      "longitude": "-90.04257564535027"
    }
  },
  {
    "service_request": "2026-1253311",
    "request_type": "Trash/Recycling",
    "request_reason": "Request a Large Item Pick Up",
    "date_created": "2026-01-20T14:08:30.000",
    "date_modified": "2026-01-20T14:08:32.000",
    "request_status": "Pending",
    "responsible_agency": "Department of Sanitation",
    "final_address": "17 S Park Pl",
    "address_councildis": "A",
    "status": "Assigned to Contractor",
    "contractor": "IV Waste",
    "rowid": "1253311",
    "final_x": "3670184.76116",
    "final_y": "543890.941838",
    "longitude": "-90.10338056176622",
    "latitude": "29.98985031638973",
    "geocoded_column": {
      "latitude": "29.98985031638973",
      "longitude": "-90.10338056176622"
    }
  },
  {
    "service_request": "2026-1253310",
    "request_type": "Abandoned Vehicles",
    "request_reason": "Abandoned/Junk Vehicles",
    "date_created": "2026-01-20T14:08:09.000",
    "date_modified": "2026-01-20T14:08:11.000",
    "request_status": "Pending",
    "responsible_agency": "Department of Public Works",
    "final_address": "3900 Cambronne St",
    "address_councildis": "A",
    "status": "Pending",
    "rowid": "1253310",
    "final_x": "3667633.32589",
    "final_y": "536271.449479",
    "longitude": "-90.11169647802981",
    "latitude": "29.96897433977061",
    "geocoded_column": {
      "latitude": "29.96897433977061",
      "longitude": "-90.11169647802981"
    }
  },
  {
    "service_request": "2026-1253309",
    "request_type": "Abandoned Vehicles",
    "request_reason": "Abandoned/Junk Vehicles",
    "date_created": "2026-01-20T14:06:23.000",
    "date_modified": "2026-01-20T14:06:25.000",
    "request_status": "Pending",
    "responsible_agency": "Department of Public Works",
    "final_address": "3900 Cambronne St",
    "address_councildis": "A",
    "status": "Pending",
    "rowid": "1253309",
    "final_x": "3667633.32589",
    "final_y": "536271.449479",
    "longitude": "-90.11169647802981",
    "latitude": "29.96897433977061",
    "geocoded_column": {
      "latitude": "29.96897433977061",
      "longitude": "-90.11169647802981"
    }
  },
  {
    "service_request": "2026-1253308",
    "request_type": "Trash/Recycling",
    "request_reason": "Request a Large Item Pick Up",
    "date_created": "2026-01-20T14:05:29.000",
    "date_modified": "2026-01-20T16:35:44.000",
    "request_status": "Pending",
    "responsible_agency": "Department of Sanitation",
    "final_address": "4667 Dart St",
    "address_councildis": "B",
    "status": "Assigned to Contractor",
    "contractor": "IV Waste",
    "rowid": "1253308",
    "final_x": "3668812.16052",
    "final_y": "531871.696323",
    "longitude": "-90.10812220028207",
    "latitude": "29.956841866316033",
    "geocoded_column": {
      "latitude": "29.956841866316033",
      "longitude": "-90.10812220028207"
    }
  },
  {
    "service_request": "2026-1253307",
    "request_type": "Trash/Recycling",
    "request_reason": "Return Trash Cart",
    "date_created": "2026-01-20T13:59:57.000",
    "date_modified": "2026-01-20T14:00:00.000",
    "request_status": "Pending",
    "responsible_agency": "Department of Sanitation",
    "final_address": "8425 Oak St",
    "address_councildis": "A",
    "status": "Assigned to Contractor",
    "contractor": "IV Waste",
    "rowid": "1253307",
    "final_x": "3661043.6631",
    "final_y": "529267.491777",
    "longitude": "-90.13273894285986",
    "latitude": "29.94990725895876",
    "geocoded_column": {
      "latitude": "29.94990725895876",
      "longitude": "-90.13273894285986"
    }
  },
  {
    "service_request": "2026-1253306",
    "request_type": "Trash/Recycling",
    "request_reason": "Repair Trash Cart",
    "date_created": "2026-01-20T13:57:35.000",
    "date_modified": "2026-01-20T17:47:09.000",
    "request_status": "Pending",
    "responsible_agency": "Department of Sanitation",
    "final_address": "703 State St",
    "address_councildis": "A",
    "status": "Assigned to Contractor",
    "contractor": "IV Waste",
    "rowid": "1253306",
    "final_x": "3664668.43053",
    "final_y": "518921.827511",
    "longitude": "-90.1216392585229",
    "latitude": "29.921355041134543",
    "geocoded_column": {
      "latitude": "29.921355041134543",
      "longitude": "-90.1216392585229"
    }
  },
  {
    "service_request": "2026-1253305",
    "request_type": "Roads and Streets",
    "request_reason": "Pothole",
    "date_created": "2026-01-20T13:52:49.000",
    "date_modified": "2026-01-20T13:52:51.000",
    "request_status": "Pending",
    "responsible_agency": "Department of Public Works",
    "final_address": "2443 Louisa St",
    "address_councildis": "D",
    "status": "Pending",
    "rowid": "1253305",
    "final_x": "3690906.62947",
    "final_y": "541082.862604",
    "longitude": "-90.03802633141551",
    "latitude": "29.98150122813686",
    "geocoded_column": {
      "latitude": "29.98150122813686",
      "longitude": "-90.03802633141551"
    }
  },
  {
    "service_request": "2026-1253304",
    "request_type": "Trash/Recycling",
    "request_reason": "Repair Recycling Cart",
    "date_created": "2026-01-20T13:52:42.000",
    "date_modified": "2026-01-20T13:52:44.000",
    "request_status": "Pending",
    "responsible_agency": "Department of Sanitation",
    "final_address": "6716 Pontchartrain Blvd",
    "address_councildis": "A",
    "status": "Pending",
    "rowid": "1253304",
    "final_x": "3666312.37242",
    "final_y": "552780.626838",
    "longitude": "-90.11531393890388",
    "latitude": "30.014407604376746",
    "geocoded_column": {
      "latitude": "30.014407604376746",
      "longitude": "-90.11531393890388"
    }
  },
  {
    "service_request": "2026-1253303",
    "request_type": "Trash/Recycling",
    "request_reason": "Request a Large Item Pick Up",
    "date_created": "2026-01-20T13:51:54.000",
    "date_modified": "2026-01-20T13:51:57.000",
    "request_status": "Pending",
    "responsible_agency": "Department of Sanitation",
    "final_address": "3717 Tall Pines Dr",
    "address_councildis": "C",
    "status": "Assigned to Contractor",
    "contractor": "Richards Disposal",
    "rowid": "1253303",
    "final_x": "3703745.78775",
    "final_y": "513474.531634",
    "longitude": "-89.9984904606439",
    "latitude": "29.905182755148758",
    "geocoded_column": {
      "latitude": "29.905182755148758",
      "longitude": "-89.9984904606439"
    }
  },
  {
    "service_request": "2026-1253302",
    "request_type": "Trash/Recycling",
    "request_reason": "Request a Large Item Pick Up",
    "date_created": "2026-01-20T13:50:41.000",
    "date_modified": "2026-01-20T13:50:44.000",
    "request_status": "Pending",
    "responsible_agency": "Department of Sanitation",
    "final_address": "816 Arabella St",
    "address_councildis": "A",
    "status": "Assigned to Contractor",
    "contractor": "IV Waste",
    "rowid": "1253302",
    "final_x": "3665828.52199",
    "final_y": "519104.515895",
    "longitude": "-90.11797122907564",
    "latitude": "29.92182359383001",
    "geocoded_column": {
      "latitude": "29.92182359383001",
      "longitude": "-90.11797122907564"
    }
  },
  {
    "service_request": "2026-1253301",
    "request_type": "Health Related Request",
    "request_reason": "Homeless Encampment Complaint",
    "date_created": "2026-01-20T13:49:55.000",
    "date_modified": "2026-01-20T13:49:57.000",
    "request_status": "Pending",
    "responsible_agency": "Office Of Homeless Services And Strategy",
    "final_address": "4600 Marais St",
    "address_councildis": "D",
    "status": "Pending",
    "rowid": "1253301",
    "final_x": "3693829.83523",
    "final_y": "535084.924806",
    "longitude": "-90.02900918026137",
    "latitude": "29.964917850860672",
    "geocoded_column": {
      "latitude": "29.964917850860672",
      "longitude": "-90.02900918026137"
    }
  },
  {
    "service_request": "2026-1253300",
    "request_type": "Safety & Permits",
    "request_reason": "Zoning Enforcement",
    "date_created": "2026-01-20T13:46:07.000",
    "date_modified": "2026-01-20T13:47:10.000",
    "request_status": "Pending",
    "responsible_agency": "Safety and Permits",
    "final_address": "4501 Lonely Oak Dr",
    "address_councildis": "E",
    "status": "Pending",
    "rowid": "1253300",
    "final_x": "3702500.10826",
    "final_y": "553199.513687",
    "longitude": "-90.00096402709364",
    "latitude": "30.01445202947477",
    "geocoded_column": {
      "latitude": "30.01445202947477",
      "longitude": "-90.00096402709364"
    }
  },
  {
    "service_request": "2026-1253299",
    "request_type": "Trash/Recycling",
    "request_reason": "Return Trash Cart",
    "date_created": "2026-01-20T13:41:15.000",
    "date_modified": "2026-01-20T13:41:17.000",
    "request_status": "Pending",
    "responsible_agency": "Department of Sanitation",
    "final_address": "1432 First St",
    "address_councildis": "B",
    "status": "Assigned to Contractor",
    "contractor": "IV Waste",
    "rowid": "1253299",
    "final_x": "3677305.62574",
    "final_y": "522612.107258",
    "longitude": "-90.08162192135536",
    "latitude": "29.931128611257588",
    "geocoded_column": {
      "latitude": "29.931128611257588",
      "longitude": "-90.08162192135536"
    }
  },
  {
    "service_request": "2026-1253298",
    "request_type": "Trash/Recycling",
    "request_reason": "Request a Large Item Pick Up",
    "date_created": "2026-01-20T13:40:41.000",
    "date_modified": "2026-01-20T13:40:43.000",
    "request_status": "Pending",
    "responsible_agency": "Department of Sanitation",
    "final_address": "5409 Zeno Pl",
    "address_councildis": "E",
    "status": "Assigned to Contractor",
    "contractor": "Waste Pro",
    "rowid": "1253298",
    "final_x": "3718266.92057",
    "final_y": "561799.330015",
    "longitude": "-89.95082146825258",
    "latitude": "30.037584555659418",
    "geocoded_column": {
      "latitude": "30.037584555659418",
      "longitude": "-89.95082146825258"
    }
  },
  {
    "service_request": "2026-1253297",
    "request_type": "Trash/Recycling",
    "request_reason": "Missed Trash Pick-Up",
    "date_created": "2026-01-20T13:38:16.000",
    "date_modified": "2026-01-20T13:44:28.000",
    "case_close_date": "2026-01-20T07:44:26.000",
    "request_status": "Closed",
    "responsible_agency": "Department of Sanitation",
    "final_address": "I 10 W & ORLEANS AVE",
    "address_councildis": "D",
    "status": "Invalid Request",
    "contractor": "IV Waste",
    "contractor_action": "Invalid Request",
    "rowid": "1253297",
    "final_x": "3679851.4",
    "final_y": "534745.38",
    "longitude": "-90.07316399782698",
    "latitude": "29.964414335467445",
    "geocoded_column": {
      "latitude": "29.964414335467445",
      "longitude": "-90.07316399782698"
    }
  },
  {
    "service_request": "2026-1253296",
    "request_type": "Trash/Recycling",
    "request_reason": "Repair Recycling Cart",
    "date_created": "2026-01-20T13:36:31.000",
    "date_modified": "2026-01-20T13:36:33.000",
    "request_status": "Pending",
    "responsible_agency": "Department of Sanitation",
    "final_address": "4900 Stephen Girard Ave",
    "address_councildis": "D",
    "status": "Pending",
    "rowid": "1253296",
    "final_x": "3692174.55312",
    "final_y": "550785.875157",
    "longitude": "-90.03367405172519",
    "latitude": "30.008141509882577",
    "geocoded_column": {
      "latitude": "30.008141509882577",
      "longitude": "-90.03367405172519"
    }
  },
  {
    "service_request": "2026-1253295",
    "request_type": "Trash/Recycling",
    "request_reason": "Illegal Dumping",
    "date_created": "2026-01-20T13:35:24.000",
    "date_modified": "2026-01-20T13:35:26.000",
    "request_status": "Pending",
    "responsible_agency": "Department of Sanitation",
    "final_address": "3500 Cleveland Ave",
    "address_councildis": "B",
    "status": "Pending",
    "rowid": "1253295",
    "final_x": "3672542.06695",
    "final_y": "536631.357063",
    "longitude": "-90.09618204471398",
    "latitude": "29.969819149192254",
    "geocoded_column": {
      "latitude": "29.969819149192254",
      "longitude": "-90.09618204471398"
    }
  },
  {
    "service_request": "2026-1253294",
    "request_type": "Trash/Recycling",
    "request_reason": "Request a Large Item Pick Up",
    "date_created": "2026-01-20T13:33:13.000",
    "date_modified": "2026-01-20T13:34:29.000",
    "request_status": "Pending",
    "responsible_agency": "Department of Sanitation",
    "final_address": "421 S Lopez St",
    "address_councildis": "B",
    "status": "Assigned to Contractor",
    "contractor": "IV Waste",
    "rowid": "1253294",
    "final_x": "3673003.21972",
    "final_y": "535146.542086",
    "longitude": "-90.09477636473713",
    "latitude": "29.96572270945389",
    "geocoded_column": {
      "latitude": "29.96572270945389",
      "longitude": "-90.09477636473713"
    }
  },
  {
    "service_request": "2026-1253293",
    "request_type": "Utility Poles",
    "request_reason": "Wires Sagging/Hanging Low",
    "date_created": "2026-01-20T13:32:47.000",
    "date_modified": "2026-01-20T13:32:50.000",
    "request_status": "Pending",
    "responsible_agency": "Utility Company Collective",
    "final_address": "4401 S Robertson St",
    "address_councildis": "B",
    "status": "Pending",
    "rowid": "1253293",
    "final_x": "3670384.3051",
    "final_y": "524407.389116",
    "longitude": "-90.10341084863492",
    "latitude": "29.93627114203475",
    "geocoded_column": {
      "latitude": "29.93627114203475",
      "longitude": "-90.10341084863492"
    }
  },
  {
    "service_request": "2026-1253292",
    "request_type": "Trash/Recycling",
    "request_reason": "Request a Large Item Pick Up",
    "date_created": "2026-01-20T13:31:38.000",
    "date_modified": "2026-01-20T13:31:41.000",
    "request_status": "Pending",
    "responsible_agency": "Department of Sanitation",
    "final_address": "827 Poland Ave",
    "address_councildis": "C",
    "status": "Assigned to Contractor",
    "contractor": "IV Waste",
    "rowid": "1253292",
    "final_x": "3692863.02985",
    "final_y": "534058.086277",
    "longitude": "-90.03209910340858",
    "latitude": "29.962124631446876",
    "geocoded_column": {
      "latitude": "29.962124631446876",
      "longitude": "-90.03209910340858"
    }
  },
  {
    "service_request": "2026-1253291",
    "request_type": "Trash/Recycling",
    "request_reason": "Request a Large Item Pick Up",
    "date_created": "2026-01-20T13:31:13.000",
    "date_modified": "2026-01-20T13:31:16.000",
    "request_status": "Pending",
    "responsible_agency": "Department of Sanitation",
    "final_address": "7448 Burke Ave",
    "address_councildis": "E",
    "status": "Assigned to Contractor",
    "contractor": "Waste Pro",
    "rowid": "1253291",
    "final_x": "3705697.02711",
    "final_y": "562389.227039",
    "longitude": "-89.99052316575678",
    "latitude": "30.039617560880604",
    "geocoded_column": {
      "latitude": "30.039617560880604",
      "longitude": "-89.99052316575678"
    }
  },
  {
    "service_request": "2026-1253290",
    "request_type": "Trash/Recycling",
    "request_reason": "Request a Large Item Pick Up",
    "date_created": "2026-01-20T13:30:57.000",
    "date_modified": "2026-01-20T13:30:59.000",
    "request_status": "Pending",
    "responsible_agency": "Department of Sanitation",
    "final_address": "113 Vallette St",
    "address_councildis": "C",
    "status": "Assigned to Contractor",
    "contractor": "Richards Disposal",
    "rowid": "1253290",
    "final_x": "3687561.00713",
    "final_y": "531324.80845",
    "longitude": "-90.04893880109601",
    "latitude": "29.954773554760987",
    "geocoded_column": {
      "latitude": "29.954773554760987",
      "longitude": "-90.04893880109601"
    }
  },
  {
    "service_request": "2026-1253289",
    "request_type": "Abandoned Vehicles",
    "request_reason": "Abandoned/Junk Vehicles",
    "date_created": "2026-01-20T13:29:39.000",
    "date_modified": "2026-01-20T13:29:41.000",
    "request_status": "Pending",
    "responsible_agency": "Department of Public Works",
    "final_address": "5821 Louis Xiv St",
    "address_councildis": "A",
    "status": "Pending",
    "rowid": "1253289",
    "final_x": "3668031.38324",
    "final_y": "546202.425232",
    "longitude": "-90.11010457326609",
    "latitude": "29.99626948398471",
    "geocoded_column": {
      "latitude": "29.99626948398471",
      "longitude": "-90.11010457326609"
    }
  },
  {
    "service_request": "2026-1253288",
    "request_type": "Trash/Recycling",
    "request_reason": "Repair Trash Cart",
    "date_created": "2026-01-20T13:28:35.000",
    "date_modified": "2026-01-20T17:46:50.000",
    "request_status": "Pending",
    "responsible_agency": "Department of Sanitation",
    "final_address": "1531 N Rocheblave St",
    "address_councildis": "D",
    "status": "Assigned to Contractor",
    "contractor": "IV Waste",
    "rowid": "1253288",
    "final_x": "3679635.41333",
    "final_y": "539171.33665",
    "longitude": "-90.07369241731004",
    "latitude": "29.976590726181442",
    "geocoded_column": {
      "latitude": "29.976590726181442",
      "longitude": "-90.07369241731004"
    }
  },
  {
    "service_request": "2026-1253287",
    "request_type": "Trash/Recycling",
    "request_reason": "Replace Trash Cart",
    "date_created": "2026-01-20T13:27:15.000",
    "date_modified": "2026-01-20T17:41:41.000",
    "request_status": "Pending",
    "responsible_agency": "Department of Sanitation",
    "final_address": "4419 Elba St",
    "address_councildis": "B",
    "status": "Assigned to Contractor",
    "contractor": "IV Waste",
    "rowid": "1253287",
    "final_x": "3669677.01742",
    "final_y": "530503.993218",
    "longitude": "-90.10543752949762",
    "latitude": "29.953055676657893",
    "geocoded_column": {
      "latitude": "29.953055676657893",
      "longitude": "-90.10543752949762"
    }
  },
  {
    "service_request": "2026-1253286",
    "request_type": "Utility Poles",
    "request_reason": "Wires Sagging/Hanging Low",
    "date_created": "2026-01-20T13:26:00.000",
    "date_modified": "2026-01-20T13:26:03.000",
    "request_status": "Pending",
    "responsible_agency": "Utility Company Collective",
    "final_address": "4501 Lonely Oak Dr",
    "address_councildis": "E",
    "status": "Pending",
    "rowid": "1253286",
    "final_x": "3702500.10826",
    "final_y": "553199.513687",
    "longitude": "-90.00096402709364",
    "latitude": "30.01445202947477",
    "geocoded_column": {
      "latitude": "30.01445202947477",
      "longitude": "-90.00096402709364"
    }
  },
  {
    "service_request": "2026-1253285",
    "request_type": "Trash/Recycling",
    "request_reason": "Request a Large Item Pick Up",
    "date_created": "2026-01-20T13:23:19.000",
    "date_modified": "2026-01-20T13:23:20.000",
    "request_status": "Pending",
    "responsible_agency": "Department of Sanitation",
    "final_address": "8600 Lake Forest Blvd",
    "address_councildis": "E",
    "status": "Assigned to Contractor",
    "contractor": "Waste Pro",
    "rowid": "1253285",
    "final_x": "3706233.01867",
    "final_y": "557882.382491",
    "longitude": "-89.98899638685525",
    "latitude": "30.027208226926486",
    "geocoded_column": {
      "latitude": "30.027208226926486",
      "longitude": "-89.98899638685525"
    }
  },
  {
    "service_request": "2026-1253284",
    "request_type": "Traffic Safety",
    "request_reason": "Request for Traffic Calming due to Speeding",
    "date_created": "2026-01-20T13:21:55.000",
    "date_modified": "2026-01-20T13:21:57.000",
    "request_status": "Pending",
    "responsible_agency": "Department of Public Works",
    "final_address": "5561 New England Dr",
    "address_councildis": "E",
    "status": "Pending",
    "rowid": "1253284",
    "final_x": "3723762.16383",
    "final_y": "563918.816417",
    "longitude": "-89.93337359632196",
    "latitude": "30.04322881805274",
    "geocoded_column": {
      "latitude": "30.04322881805274",
      "longitude": "-89.93337359632196"
    }
  },
  {
    "service_request": "2026-1253283",
    "request_type": "Trash/Recycling",
    "request_reason": "Repair Trash Cart",
    "date_created": "2026-01-20T13:21:43.000",
    "date_modified": "2026-01-20T17:46:32.000",
    "request_status": "Pending",
    "responsible_agency": "Department of Sanitation",
    "final_address": "6716 Pontchartrain Blvd",
    "address_councildis": "A",
    "status": "Assigned to Contractor",
    "contractor": "IV Waste",
    "rowid": "1253283",
    "final_x": "3666312.37242",
    "final_y": "552780.626838",
    "longitude": "-90.11531393890388",
    "latitude": "30.014407604376746",
    "geocoded_column": {
      "latitude": "30.014407604376746",
      "longitude": "-90.11531393890388"
    }
  },
  {
    "service_request": "2026-1253282",
    "request_type": "Trash/Recycling",
    "request_reason": "Request a Large Item Pick Up",
    "date_created": "2026-01-20T13:18:32.000",
    "date_modified": "2026-01-20T13:18:34.000",
    "request_status": "Pending",
    "responsible_agency": "Department of Sanitation",
    "final_address": "3445 River Oaks Dr",
    "address_councildis": "C",
    "status": "Assigned to Contractor",
    "contractor": "Richards Disposal",
    "rowid": "1253282",
    "final_x": "3701346.94372",
    "final_y": "518335.53855",
    "longitude": "-90.00588354626782",
    "latitude": "29.91862549288933",
    "geocoded_column": {
      "latitude": "29.91862549288933",
      "longitude": "-90.00588354626782"
    }
  },
  {
    "service_request": "2026-1253281",
    "request_type": "Trash/Recycling",
    "request_reason": "Missed Trash Pick-Up",
    "date_created": "2026-01-20T13:18:17.000",
    "date_modified": "2026-01-20T14:54:23.000",
    "case_close_date": "2026-01-20T08:54:22.000",
    "request_status": "Closed",
    "responsible_agency": "Department of Sanitation",
    "final_address": "7045 Wuerpel St",
    "address_councildis": "A",
    "status": "Invalid Request",
    "contractor": "IV Waste",
    "contractor_action": "Invalid Request",
    "rowid": "1253281",
    "final_x": "3667422.92788",
    "final_y": "554420.639064",
    "longitude": "-90.11174987947518",
    "latitude": "30.018884553294285",
    "geocoded_column": {
      "latitude": "30.018884553294285",
      "longitude": "-90.11174987947518"
    }
  },
  {
    "service_request": "2026-1253280",
    "request_type": "Roads and Streets",
    "request_reason": "Street Subsidence (Sinking)",
    "date_created": "2026-01-20T13:17:40.000",
    "date_modified": "2026-01-20T13:17:41.000",
    "request_status": "Pending",
    "responsible_agency": "Sewerage & Water Board",
    "final_address": "5106 Danneel St",
    "address_councildis": "B",
    "status": "Pending",
    "rowid": "1253280",
    "final_x": "3668332.0306",
    "final_y": "522119.250426",
    "longitude": "-90.10996709023073",
    "latitude": "29.930039904828558",
    "geocoded_column": {
      "latitude": "29.930039904828558",
      "longitude": "-90.10996709023073"
    }
  },
  {
    "service_request": "2026-1253279",
    "request_type": "Trash/Recycling",
    "request_reason": "Request a Large Item Pick Up",
    "date_created": "2026-01-20T13:16:31.000",
    "date_modified": "2026-01-20T16:34:57.000",
    "request_status": "Pending",
    "responsible_agency": "Department of Sanitation",
    "final_address": "309 Audubon St",
    "address_councildis": "A",
    "status": "Assigned to Contractor",
    "contractor": "IV Waste",
    "rowid": "1253279",
    "final_x": "3661629.56621",
    "final_y": "522104.72825",
    "longitude": "-90.13112625320937",
    "latitude": "29.9301950370689",
    "geocoded_column": {
      "latitude": "29.9301950370689",
      "longitude": "-90.13112625320937"
    }
  },
  {
    "service_request": "2026-1253278",
    "request_type": "Trash/Recycling",
    "request_reason": "Request a Large Item Pick Up",
    "date_created": "2026-01-20T13:15:18.000",
    "date_modified": "2026-01-20T17:26:05.000",
    "case_close_date": "2026-01-20T11:26:03.000",
    "request_status": "Closed",
    "responsible_agency": "Department of Sanitation",
    "final_address": "11010 Yardley Rd",
    "address_councildis": "E",
    "status": "Duplicate Request",
    "contractor": "Waste Pro",
    "contractor_action": "Duplicate",
    "rowid": "1253278",
    "final_x": "3712014.41496",
    "final_y": "563703.492897",
    "longitude": "-89.97050910724337",
    "latitude": "30.043026187121722",
    "geocoded_column": {
      "latitude": "30.043026187121722",
      "longitude": "-89.97050910724337"
    }
  },
  {
    "service_request": "2026-1253277",
    "request_type": "Trash/Recycling",
    "request_reason": "Change Size of Trash Cart",
    "date_created": "2026-01-20T13:13:54.000",
    "date_modified": "2026-01-20T13:13:56.000",
    "request_status": "Pending",
    "responsible_agency": "Department of Sanitation",
    "final_address": "2851 Hyman Pl",
    "address_councildis": "C",
    "status": "Assigned to Contractor",
    "contractor": "Richards Disposal",
    "rowid": "1253277",
    "final_x": "3700955.87453",
    "final_y": "520506.449592",
    "longitude": "-90.00703862185206",
    "latitude": "29.924607204722527",
    "geocoded_column": {
      "latitude": "29.924607204722527",
      "longitude": "-90.00703862185206"
    }
  },
  {
    "service_request": "2026-1253276",
    "request_type": "Trash/Recycling",
    "request_reason": "Repair Recycling Cart",
    "date_created": "2026-01-20T13:12:31.000",
    "date_modified": "2026-01-20T13:12:33.000",
    "request_status": "Pending",
    "responsible_agency": "Department of Sanitation",
    "final_address": "2851 Hyman Pl",
    "address_councildis": "C",
    "status": "Pending",
    "rowid": "1253276",
    "final_x": "3700955.87453",
    "final_y": "520506.449592",
    "longitude": "-90.00703862185206",
    "latitude": "29.924607204722527",
    "geocoded_column": {
      "latitude": "29.924607204722527",
      "longitude": "-90.00703862185206"
    }
  },