[
  {
    "service_request": "2023-1040240",
    "request_type": "Trash/Recycling",
    "request_reason": "Replace Recycling Cart",
    "date_created": "2023-10-03T00:11:05.000",
    "date_modified": "2023-10-03T00:11:05.000",
    "request_status": "Pending",
    "responsible_agency": "Department of Sanitation",
    "final_address": "724 Bordeaux St",
    "address_councildis": "B",
    "status": "Pending",
    "rowid": "1040240",
    "final_x": "3669608.32705",
    "final_y": "518098.200886",
    "longitude": "-90.10607397947392",
    "latitude": "29.918945766391875",
    "geocoded_column": {
      "latitude": "29.918945766391875",
      "longitude": "-90.10607397947392"
    }
  },
  {
    "service_request": "2023-1040239",
    "request_type": "Traffic Signals/Signs/Striping/Streetlights",
    "request_reason": "Street Light Outage/Malfunction",
    "date_created": "2023-10-02T23:39:59.000",
    "date_modified": "2023-10-02T23:40:00.000",
    "request_status": "Pending",
    "responsible_agency": "Department of Public Works",
    "final_address": "5800 BLK Saint Charles Ave",
    "address_councildis": "A",
    "status": "Assigned to Contractor",
    "contractor": "Legacy Professional Services",
    "rowid": "1040239",
    "final_x": "3666086.68255",
    "final_y": "522215.183048",
    "longitude": "-90.1170520958242",
    "latitude": "29.930369415166318",
    "geocoded_column": {
      "latitude": "29.930369415166318",
      "longitude": "-90.1170520958242"
    }
  },
  {
    "service_request": "2023-1040238",
    "request_type": "Parks & Parkways",
    "request_reason": "Request Grass Cutting Service (City Owned Property)",
    "date_created": "2023-10-02T23:28:56.000",
    "date_modified": "2023-10-02T23:28:56.000",
    "request_status": "Pending",
    "responsible_agency": "Department of Parks & Parkway",
    "final_address": "MURL ST & VESPASIAN ST",
    "address_councildis": "C",
    "status": "Pending",
    "rowid": "1040238",
    "final_x": "3695087.6",
    "final_y": "522669.98",
    "longitude": "-90.02548474392688",
    "latitude": "29.930741642549066",
    "geocoded_column": {
      "latitude": "29.930741642549066",
      "longitude": "-90.02548474392688"
    }
  },
  {
    "service_request": "2023-1040236",
    "request_type": "Parks & Parkways",
    "request_reason": "Request Tree Service (Right of Way/Public Property)",
    "date_created": "2023-10-02T23:26:49.000",
    "date_modified": "2023-10-02T23:26:49.000",
    "request_status": "Pending",
    "responsible_agency": "Department of Parks & Parkway",
    "final_address": "2024 Murl St",
    "address_councildis": "C",
    "status": "Pending",
    "rowid": "1040236",
    "final_x": "3695353.31274",
    "final_y": "523065.444347",
    "longitude": "-90.0246316723875",
    "latitude": "29.931820692417762",
    "geocoded_column": {
      "latitude": "29.931820692417762",
      "longitude": "-90.0246316723875"
    }
  },
  {
    "service_request": "2023-1040235",
    "request_type": "Trash/Recycling",
    "request_reason": "Illegal Dumping",
    "date_created": "2023-10-02T23:16:02.000",
    "date_modified": "2023-10-02T23:16:02.000",
    "request_status": "Pending",
    "responsible_agency": "Department of Sanitation",
    "final_address": "2650 Vespasian St",
    "address_councildis": "C",
    "status": "Pending",
    "rowid": "1040235",
    "final_x": "3693603.30275",
    "final_y": "523442.090427",
    "longitude": "-90.0301427155403",
    "latitude": "29.932911183593248",
    "geocoded_column": {
      "latitude": "29.932911183593248",
      "longitude": "-90.0301427155403"
    }
  },
  {
    "service_request": "2023-1040234",
    "request_type": "Trash/Recycling",
    "request_reason": "Illegal Dumping",
    "date_created": "2023-10-02T23:13:06.000",
    "date_modified": "2023-10-02T23:13:06.000",
    "request_status": "Pending",
    "responsible_agency": "Department of Sanitation",
    "final_address": "2024 Murl St",
    "address_councildis": "C",
    "status": "Pending",
    "rowid": "1040234",
    "final_x": "3695353.31274",
    "final_y": "523065.444347",
    "longitude": "-90.0246316723875",
    "latitude": "29.931820692417762",
    "geocoded_column": {
      "latitude": "29.931820692417762",
      "longitude": "-90.0246316723875"
    }
  },
  {
    "service_request": "2023-1040233",
    "request_type": "Trash/Recycling",
    "request_reason": "Illegal Dumping",
    "date_created": "2023-10-02T23:10:41.000",
    "date_modified": "2023-10-02T23:10:41.000",
    "request_status": "Pending",
    "responsible_agency": "Department of Sanitation",
    "final_address": "3041 Sandra Dr",
    "address_councildis": "C",
    "status": "Pending",
    "rowid": "1040233",
    "final_x": "3695148.45712",
    "final_y": "521799.257018",
    "longitude": "-90.02532400533711",
    "latitude": "29.92834554118638",
    "geocoded_column": {
      "latitude": "29.92834554118638",
      "longitude": "-90.02532400533711"
    }
  },
  {
    "service_request": "2023-1040232",
    "request_type": "Trash/Recycling",
    "request_reason": "Illegal Dumping",
    "date_created": "2023-10-02T23:07:11.000",
    "date_modified": "2023-10-02T23:07:11.000",
    "request_status": "Pending",
    "responsible_agency": "Department of Sanitation",
    "final_address": "2900 Vespasian St",
    "address_councildis": "C",
    "status": "Pending",
    "rowid": "1040232",
    "final_x": "3694710.36374",
    "final_y": "522758.065402",
    "longitude": "-90.02667244810101",
    "latitude": "29.930995681290383",
    "geocoded_column": {
      "latitude": "29.930995681290383",
      "longitude": "-90.02667244810101"
    }
  },
  {
    "service_request": "2023-1040231",
    "request_type": "Trash/Recycling",
    "request_reason": "Start Trash Service",
    "date_created": "2023-10-02T22:06:28.000",
    "date_modified": "2023-10-02T22:06:29.000",
    "request_status": "Pending",
    "responsible_agency": "Department of Sanitation",
    "final_address": "816 Joseph St",
    "address_councildis": "A",
    "status": "Assigned to Contractor",
    "contractor": "Richards Disposal",
    "rowid": "1040231",
    "final_x": "3666125.31968",
    "final_y": "519100.846711",
    "longitude": "-90.11703448425271",
    "latitude": "29.921804845255107",
    "geocoded_column": {
      "latitude": "29.921804845255107",
      "longitude": "-90.11703448425271"
    }
  },
  {
    "service_request": "2023-1040230",
    "request_type": "Roads/Drainage",
    "request_reason": "Pothole",
    "date_created": "2023-10-02T21:48:50.000",
    "date_modified": "2023-10-02T21:48:50.000",
    "request_status": "Pending",
    "responsible_agency": "Department of Public Works",
    "status": "Pending",
    "rowid": "1040230",
    "longitude": "0.0",
    "latitude": "0.0",
    "geocoded_column": {
      "latitude": "0.0",
      "longitude": "0.0"
    }
  },
  {
    "service_request": "2023-1040229",
    "request_type": "Property Maintenance",
    "request_reason": "Property Maintenance",
    "date_created": "2023-10-02T21:19:42.000",
    "date_modified": "2023-10-02T21:19:42.000",
    "request_status": "Pending",
    "responsible_agency": "Department of Code Enforcement",
    "final_address": "4941 Madrid St",
    "address_councildis": "D",
    "status": "Pending",
    "rowid": "1040229",
    "final_x": "3691078.81961",
    "final_y": "556276.786074",
    "longitude": "-90.03693952956444",
    "latitude": "30.023273600982428",
    "geocoded_column": {
      "latitude": "30.023273600982428",
      "longitude": "-90.03693952956444"
    }
  },
  {
    "service_request": "2023-1040228",
    "request_type": "Property Maintenance",
    "request_reason": "Property Maintenance",
    "date_created": "2023-10-02T21:13:21.000",
    "date_modified": "2023-10-02T21:13:21.000",
    "request_status": "Pending",
    "responsible_agency": "Department of Code Enforcement",
    "final_address": "5000 Madrid St",
    "address_councildis": "D",
    "status": "Pending",
    "rowid": "1040228",
    "final_x": "3691189.35043",
    "final_y": "556150.290266",
    "longitude": "-90.0365948004848",
    "latitude": "30.022922345986164",
    "geocoded_column": {
      "latitude": "30.022922345986164",
      "longitude": "-90.0365948004848"
    }
  },
  {
    "service_request": "2023-1040227",
    "request_type": "Trash/Recycling",
    "request_reason": "Illegal Dumping",
    "date_created": "2023-10-02T21:10:30.000",
    "date_modified": "2023-10-02T21:10:30.000",
    "request_status": "Pending",
    "responsible_agency": "Department of Sanitation",
    "final_address": "1500 BLK Prentiss Ave",
    "address_councildis": "D",
    "status": "Pending",
    "rowid": "1040227",
    "final_x": "3678706.07267",
    "final_y": "553453.278052",
    "longitude": "-90.07613265587312",
    "latitude": "30.01588908057375",
    "geocoded_column": {
      "latitude": "30.01588908057375",
      "longitude": "-90.07613265587312"
    }
  },
  {
    "service_request": "2023-1040226",
    "request_type": "Traffic Signals/Signs/Striping/Streetlights",
    "request_reason": "Street Light Outage/Malfunction",
    "date_created": "2023-10-02T21:09:14.000",
    "date_modified": "2023-10-02T21:09:14.000",
    "request_status": "Pending",
    "responsible_agency": "Department of Public Works",
    "final_address": "6026 St Anthony Ave",
    "address_councildis": "D",
    "status": "Assigned to Contractor",
    "contractor": "Legacy Professional Services",
    "rowid": "1040226",
    "final_x": "3681897.87586",
    "final_y": "554972.71228",
    "longitude": "-90.06599489836552",
    "latitude": "30.01997029154478",
    "geocoded_column": {
      "latitude": "30.01997029154478",
      "longitude": "-90.06599489836552"
    }
  },
  {
    "service_request": "2023-1040225",
    "request_type": "Traffic Signals/Signs/Striping/Streetlights",
    "request_reason": "Street Light Outage/Malfunction",
    "date_created": "2023-10-02T21:07:33.000",
    "date_modified": "2023-10-02T21:07:34.000",
    "request_status": "Pending",
    "responsible_agency": "Department of Public Works",
    "final_address": "5740 St Anthony Ave",
    "address_councildis": "D",
    "status": "Assigned to Contractor",
    "contractor": "Legacy Professional Services",
    "rowid": "1040225",
    "final_x": "3681953.23829",
    "final_y": "554234.180248",
    "longitude": "-90.06584578349597",
    "latitude": "30.017937914579147",
    "geocoded_column": {
      "latitude": "30.017937914579147",
      "longitude": "-90.06584578349597"
    }
  },
  {
    "service_request": "2023-1040223",
    "request_type": "Abandoned Vehicles",
    "request_reason": "Abandoned/Junk Vehicles",
    "date_created": "2023-10-02T20:56:09.000",
    "date_modified": "2023-10-02T20:56:09.000",
    "request_status": "Pending",
    "responsible_agency": "Department of Public Works",
    "final_address": "4801 Mithra St",
    "address_councildis": "D",
    "status": "Pending",
    "rowid": "1040223",
    "final_x": "3691396.89801",
    "final_y": "553657.470039",
    "longitude": "-90.03602817872658",
    "latitude": "30.01606156202592",
    "geocoded_column": {
      "latitude": "30.01606156202592",
      "longitude": "-90.03602817872658"
    }
  },
  {
    "service_request": "2023-1040222",
    "request_type": "Trash/Recycling",
    "request_reason": "Replace Trash Cart",
    "date_created": "2023-10-02T20:54:52.000",
    "date_modified": "2023-10-02T20:54:53.000",
    "request_status": "Pending",
    "responsible_agency": "Department of Sanitation",
    "final_address": "5029 Magnolia St",
    "address_councildis": "B",
    "status": "Assigned to Contractor",
    "contractor": "Richards Disposal",
    "rowid": "1040222",
    "final_x": "3668613.10113",
    "final_y": "524666.92102",
    "longitude": "-90.10899385861515",
    "latitude": "29.937036928615715",
    "geocoded_column": {
      "latitude": "29.937036928615715",
      "longitude": "-90.10899385861515"
    }
  },
  {
    "service_request": "2023-1040221",
    "request_type": "Roads/Drainage",
    "request_reason": "Accessibility Ramps, Curbs and Sidewalk Repair",
    "date_created": "2023-10-02T20:34:41.000",
    "date_modified": "2023-10-02T20:34:41.000",
    "request_status": "Pending",
    "responsible_agency": "Department of Public Works",
    "final_address": "3611 Rue Nichole",
    "address_councildis": "C",
    "status": "Pending",
    "rowid": "1040221",
    "final_x": "3703936.42058",
    "final_y": "517311.340725",
    "longitude": "-89.99774767545854",
    "latitude": "29.915726560347572",
    "geocoded_column": {
      "latitude": "29.915726560347572",
      "longitude": "-89.99774767545854"
    }
  },
  {
    "service_request": "2023-1040219",
    "request_type": "Traffic Signals/Signs/Striping/Streetlights",
    "request_reason": "Street Light Outage/Malfunction",
    "date_created": "2023-10-02T20:10:57.000",
    "date_modified": "2023-10-02T20:10:57.000",
    "request_status": "Pending",
    "responsible_agency": "Department of Public Works",
    "final_address": "1 Everglades Dr",
    "address_councildis": "C",
    "status": "Assigned to Contractor",
    "contractor": "Legacy Professional Services",
    "rowid": "1040219",
    "final_x": "3699951.20176",
    "final_y": "516789.883061",
    "longitude": "-90.01034547152078",
    "latitude": "29.914419853974543",
    "geocoded_column": {
      "latitude": "29.914419853974543",
      "longitude": "-90.01034547152078"
    }
  },
  {
    "service_request": "2023-1040218",
    "request_type": "Property Maintenance",
    "request_reason": "Property Maintenance",
    "date_created": "2023-10-02T20:02:15.000",
    "date_modified": "2023-10-02T20:02:15.000",
    "request_status": "Pending",
    "responsible_agency": "Department of Code Enforcement",
    "final_address": "2715 Chartres St",
    "address_councildis": "C",
    "status": "Pending",
    "rowid": "1040218",
    "final_x": "3687140.15017",
    "final_y": "534536.234565",
    "longitude": "-90.05015414433042",
    "latitude": "29.96361683251162",
    "geocoded_column": {
      "latitude": "29.96361683251162",
      "longitude": "-90.05015414433042"
    }
  },
  {
    "service_request": "2023-1040217",
    "request_type": "Traffic Signals/Signs/Striping/Streetlights",
    "request_reason": "Street Light Outage/Malfunction",
    "date_created": "2023-10-02T20:01:11.000",
    "date_modified": "2023-10-02T20:01:12.000",
    "request_status": "Pending",
    "responsible_agency": "Department of Public Works",
    "final_address": "EVERGLADES DR & KABEL DR & LENNOX BLVD",
    "address_councildis": "C",
    "status": "Assigned to Contractor",
    "contractor": "Legacy Professional Services",
    "rowid": "1040217",
    "final_x": "3700581.6",
    "final_y": "516834.08",
    "longitude": "-90.00835411997342",
    "latitude": "29.914521351754576",
    "geocoded_column": {
      "latitude": "29.914521351754576",
      "longitude": "-90.00835411997342"
    }
  },
  {
    "service_request": "2023-1040216",
    "request_type": "Trash/Recycling",
    "request_reason": "Order Recycling Cart",
    "date_created": "2023-10-02T19:56:19.000",
    "date_modified": "2023-10-02T19:56:19.000",
    "request_status": "Pending",
    "responsible_agency": "Department of Sanitation",
    "final_address": "540 Napoleon Ave",
    "address_councildis": "B",
    "status": "Pending",
    "rowid": "1040216",
    "final_x": "3671042.87828",
    "final_y": "517676.611894",
    "longitude": "-90.10156013601231",
    "latitude": "29.91774420388406",
    "geocoded_column": {
      "latitude": "29.91774420388406",
      "longitude": "-90.10156013601231"
    }
  },
  {
    "service_request": "2023-1040215",
    "request_type": "Roads/Drainage",
    "request_reason": "Pothole",
    "date_created": "2023-10-02T19:51:02.000",
    "date_modified": "2023-10-02T19:51:02.000",
    "request_status": "Pending",
    "responsible_agency": "Department of Public Works",
    "final_address": "1502 Eleonore St",
    "address_councildis": "A",
    "status": "Pending",
    "rowid": "1040215",
    "final_x": "3665786.09434",
    "final_y": "521795.186042",
    "longitude": "-90.11801507263215",
    "latitude": "29.92922332626592",
    "geocoded_column": {
      "latitude": "29.92922332626592",
      "longitude": "-90.11801507263215"
    }
  },
  {
    "service_request": "2023-1040214",
    "request_type": "Roads/Drainage",
    "request_reason": "Pothole",
    "date_created": "2023-10-02T19:49:37.000",
    "date_modified": "2023-10-02T19:49:37.000",
    "request_status": "Pending",
    "responsible_agency": "Department of Public Works",
    "final_address": "1525 Eleonore St",
    "address_councildis": "A",
    "status": "Pending",
    "rowid": "1040214",
    "final_x": "3665916.94823",
    "final_y": "521918.417722",
    "longitude": "-90.11759786279285",
    "latitude": "29.929558357498486",
    "geocoded_column": {
      "latitude": "29.929558357498486",
      "longitude": "-90.11759786279285"
    }
  },
  {
    "service_request": "2023-1040213",
    "request_type": "Roads/Drainage",
    "request_reason": "Pothole",
    "date_created": "2023-10-02T19:47:34.000",
    "date_modified": "2023-10-02T19:47:34.000",
    "request_status": "Pending",
    "responsible_agency": "Department of Public Works",
    "final_address": "1526 Henry Clay Ave",
    "address_councildis": "A",
    "status": "Pending",
    "rowid": "1040213",
    "final_x": "3664776.96359",
    "final_y": "522348.279482",
    "longitude": "-90.12118224858517",
    "latitude": "29.930773550247995",
    "geocoded_column": {
      "latitude": "29.930773550247995",
      "longitude": "-90.12118224858517"
    }
  },
  {
    "service_request": "2023-1040212",
    "request_type": "Property Maintenance",
    "request_reason": "Property Maintenance",
    "date_created": "2023-10-02T19:43:34.000",
    "date_modified": "2023-10-02T19:43:34.000",
    "request_status": "Pending",
    "responsible_agency": "Department of Code Enforcement",
    "final_address": "2334 Martin Luther King, Jr. Blvd",
    "address_councildis": "B",
    "status": "Pending",
    "rowid": "1040212",
    "final_x": "3676676.97493",
    "final_y": "527043.43923",
    "longitude": "-90.08345389803952",
    "latitude": "29.94333218773667",
    "geocoded_column": {
      "latitude": "29.94333218773667",
      "longitude": "-90.08345389803952"
    }
  },
  {
    "service_request": "2023-1040211",
    "request_type": "Property Maintenance",
    "request_reason": "Property Maintenance",
    "date_created": "2023-10-02T19:42:03.000",
    "date_modified": "2023-10-02T19:42:03.000",
    "request_status": "Pending",
    "responsible_agency": "Department of Code Enforcement",
    "final_address": "1514 Rev. John Raphael, Jr. Way",
    "address_councildis": "B",
    "status": "Pending",
    "rowid": "1040211",
    "final_x": "3676610.06984",
    "final_y": "526976.91891",
    "longitude": "-90.08366742515913",
    "latitude": "29.943151285368664",
    "geocoded_column": {
      "latitude": "29.943151285368664",
      "longitude": "-90.08366742515913"
    }
  },
  {
    "service_request": "2023-1040210",
    "request_type": "Trash/Recycling",
    "request_reason": "Replace Trash Cart",
    "date_created": "2023-10-02T19:34:43.000",
    "date_modified": "2023-10-02T19:34:44.000",
    "request_status": "Pending",
    "responsible_agency": "Department of Sanitation",
    "final_address": "6450 Bellaire Dr",
    "address_councildis": "A",
    "status": "Assigned to Contractor",
    "contractor": "IV Waste",
    "rowid": "1040210",
    "final_x": "3664402.54132",
    "final_y": "550879.024853",
    "longitude": "-90.12141163272345",
    "latitude": "30.00923454387101",
    "geocoded_column": {
      "latitude": "30.00923454387101",
      "longitude": "-90.12141163272345"
    }
  },
  {
    "service_request": "2023-1040208",
    "request_type": "Trash/Recycling",
    "request_reason": "Order Recycling Cart",
    "date_created": "2023-10-02T19:22:25.000",
    "date_modified": "2023-10-02T19:22:25.000",
    "request_status": "Pending",
    "responsible_agency": "Department of Sanitation",
    "final_address": "3125 N Galvez St",
    "address_councildis": "D",
    "status": "Pending",
    "rowid": "1040208",
    "final_x": "3690211.31638",
    "final_y": "539730.906698",
    "longitude": "-90.04027063202363",
    "latitude": "29.977805424882973",
    "geocoded_column": {
      "latitude": "29.977805424882973",
      "longitude": "-90.04027063202363"
    }
  },
  {
    "service_request": "2023-1040207",
    "request_type": "Trash/Recycling",
    "request_reason": "Request a Large Item Pick Up",
    "date_created": "2023-10-02T18:57:37.000",
    "date_modified": "2023-10-02T18:57:38.000",
    "request_status": "Pending",
    "responsible_agency": "Department of Sanitation",
    "final_address": "7852 Arcadia Ln",
    "address_councildis": "E",
    "status": "Assigned to Contractor",
    "contractor": "Waste Pro",
    "rowid": "1040207",
    "final_x": "3711880.27192",
    "final_y": "567759.980452",
    "longitude": "-89.97078060219611",
    "latitude": "30.05418427181588",
    "geocoded_column": {
      "latitude": "30.05418427181588",
      "longitude": "-89.97078060219611"
    }
  },
  {
    "service_request": "2023-1040206",
    "request_type": "Trash/Recycling",
    "request_reason": "Replace Trash Cart",
    "date_created": "2023-10-02T18:49:38.000",
    "date_modified": "2023-10-02T18:49:38.000",
    "request_status": "Pending",
    "responsible_agency": "Department of Sanitation",
    "final_address": "1318 Ursulines Ave",
    "address_councildis": "C",
    "status": "Assigned to Contractor",
    "contractor": "Richards Disposal",
    "rowid": "1040206",
    "final_x": "3681552.65954",
    "final_y": "535047.92935",
    "longitude": "-90.06778100406544",
    "latitude": "29.96519468652391",
    "geocoded_column": {
      "latitude": "29.96519468652391",
      "longitude": "-90.06778100406544"
    }
  },
  {
    "service_request": "2023-1040205",
    "request_type": "Trash/Recycling",
    "request_reason": "Request a Large Item Pick Up",
    "date_created": "2023-10-02T18:43:25.000",
    "date_modified": "2023-10-02T18:43:26.000",
    "request_status": "Pending",
    "responsible_agency": "Department of Sanitation",
    "final_address": "2132 Burdette St",
    "address_councildis": "A",
    "status": "Assigned to Contractor",
    "contractor": "Richards Disposal",
    "rowid": "1040205",
    "final_x": "3665073.27488",
    "final_y": "530167.393985",
    "longitude": "-90.11998545083887",
    "latitude": "29.952264987752237",
    "geocoded_column": {
      "latitude": "29.952264987752237",
      "longitude": "-90.11998545083887"
    }
  },
  {
    "service_request": "2023-1040204",
    "request_type": "Roads/Drainage",
    "request_reason": "Street Subsidence (Sinking)",
    "date_created": "2023-10-02T18:32:46.000",
    "date_modified": "2023-10-02T18:32:46.000",
    "request_status": "Pending",
    "responsible_agency": "Department of Public Works",
    "final_address": " & FOREST ISLE DR",
    "address_councildis": "C",
    "status": "Pending",
    "rowid": "1040204",
    "final_x": "3705876.93",
    "final_y": "512778.89",
    "longitude": "-89.99179023228741",
    "latitude": "29.903201541007117",
    "geocoded_column": {
      "latitude": "29.903201541007117",
      "longitude": "-89.99179023228741"
    }
  },
  {
    "service_request": "2023-1040203",
    "request_type": "Trash/Recycling",
    "request_reason": "Replace Trash Cart",
    "date_created": "2023-10-02T18:25:28.000",
    "date_modified": "2023-10-02T18:25:29.000",
    "request_status": "Pending",
    "responsible_agency": "Department of Sanitation",
    "final_address": "1704 S Norman C Francis Prkwy",
    "address_councildis": "B",
    "status": "Assigned to Contractor",
    "contractor": "Richards Disposal",
    "rowid": "1040203",
    "final_x": "3669357.86318",
    "final_y": "530949.281794",
    "longitude": "-90.1064302270089",
    "latitude": "29.954289474275186",
    "geocoded_column": {
      "latitude": "29.954289474275186",
      "longitude": "-90.1064302270089"
    }
  },
  {
    "service_request": "2023-1040202",
    "request_type": "Traffic Signals/Signs/Striping/Streetlights",
    "request_reason": "Street Light Outage/Malfunction",
    "date_created": "2023-10-02T18:25:14.000",
    "date_modified": "2023-10-02T18:25:15.000",
    "request_status": "Pending",
    "responsible_agency": "Department of Public Works",
    "final_address": "4699 Majestic Oaks Dr",
    "address_councildis": "D",
    "status": "Assigned to Contractor",
    "contractor": "Legacy Professional Services",
    "rowid": "1040202",
    "final_x": "3697786.79517",
    "final_y": "553967.639064",
    "longitude": "-90.01582777965373",
    "latitude": "30.016713937990684",
    "geocoded_column": {
      "latitude": "30.016713937990684",
      "longitude": "-90.01582777965373"
    }
  },
  {
    "service_request": "2023-1040201",
    "request_type": "Roads/Drainage",
    "request_reason": "Street Subsidence (Sinking)",
    "date_created": "2023-10-02T18:04:50.000",
    "date_modified": "2023-10-02T18:04:50.000",
    "request_status": "Pending",
    "responsible_agency": "Department of Public Works",
    "final_address": "5318 Bancroft Dr",
    "address_councildis": "D",
    "status": "Pending",
    "rowid": "1040201",
    "final_x": "3676304.43867",
    "final_y": "551555.080917",
    "longitude": "-90.08378615270077",
    "latitude": "30.010741954086402",
    "geocoded_column": {
      "latitude": "30.010741954086402",
      "longitude": "-90.08378615270077"
    }
  },
  {
    "service_request": "2023-1040200",
    "request_type": "Property Maintenance",
    "request_reason": "Property Maintenance",
    "date_created": "2023-10-02T17:57:17.000",
    "date_modified": "2023-10-02T17:57:17.000",
    "request_status": "Pending",
    "responsible_agency": "Department of Code Enforcement",
    "final_address": "1329 Mandolin St",
    "address_councildis": "D",
    "status": "Pending",
    "rowid": "1040200",
    "final_x": "3677456.01672",
    "final_y": "548108.25301",
    "longitude": "-90.08026695708274",
    "latitude": "30.00122982448429",
    "geocoded_column": {
      "latitude": "30.00122982448429",
      "longitude": "-90.08026695708274"
    }
  },
  {
    "service_request": "2023-1040199",
    "request_type": "Property Maintenance",
    "request_reason": "Property Maintenance",
    "date_created": "2023-10-02T17:49:25.000",
    "date_modified": "2023-10-02T17:49:25.000",
    "request_status": "Pending",
    "responsible_agency": "Department of Code Enforcement",
    "final_address": "1335 Mandolin St",
    "address_councildis": "D",
    "status": "Pending",
    "rowid": "1040199",
    "final_x": "3677559.21774",
    "final_y": "548098.12341",
    "longitude": "-90.07994128589225",
    "latitude": "30.001198868062996",
    "geocoded_column": {
      "latitude": "30.001198868062996",
      "longitude": "-90.07994128589225"
    }
  },
  {
    "service_request": "2023-1040198",
    "request_type": "Trash/Recycling",
    "request_reason": "Missed Trash Pick-Up",
    "date_created": "2023-10-02T17:48:52.000",
    "date_modified": "2023-10-02T17:48:53.000",
    "request_status": "Pending",
    "responsible_agency": "Department of Sanitation",
    "final_address": "4702 Camelia St",
    "address_councildis": "E",
    "status": "Assigned to Contractor",
    "contractor": "Waste Pro",
    "rowid": "1040198",
    "final_x": "3701488.64497",
    "final_y": "553965.531672",
    "longitude": "-90.00413165443346",
    "latitude": "30.01659058737048",
    "geocoded_column": {
      "latitude": "30.01659058737048",
      "longitude": "-90.00413165443346"
    }
  },
  {
    "service_request": "2023-1040197",
    "request_type": "Trash/Recycling",
    "request_reason": "Request a Large Item Pick Up",
    "date_created": "2023-10-02T17:44:45.000",
    "date_modified": "2023-10-02T17:44:46.000",
    "request_status": "Pending",
    "responsible_agency": "Department of Sanitation",
    "final_address": "320 Homer St",
    "address_councildis": "C",
    "status": "Assigned to Contractor",
    "contractor": "Richards Disposal",
    "rowid": "1040197",
    "final_x": "3686341.59356",
    "final_y": "528326.881792",
    "longitude": "-90.05289501653172",
    "latitude": "29.946567807514725",
    "geocoded_column": {
      "latitude": "29.946567807514725",
      "longitude": "-90.05289501653172"
    }
  },
  {
    "service_request": "2023-1040196",
    "request_type": "Trash/Recycling",
    "request_reason": "Order Recycling Cart",
    "date_created": "2023-10-02T17:43:37.000",
    "date_modified": "2023-10-02T17:43:38.000",
    "request_status": "Pending",
    "responsible_agency": "Department of Sanitation",
    "final_address": "2006 Pine St",
    "address_councildis": "A",
    "status": "Pending",
    "rowid": "1040196",
    "final_x": "3665531.21978",
    "final_y": "529125.204928",
    "longitude": "-90.11857435351389",
    "latitude": "29.94938596396019",
    "geocoded_column": {
      "latitude": "29.94938596396019",
      "longitude": "-90.11857435351389"
    }
  },
  {
    "service_request": "2023-1040195",
    "request_type": "Traffic Signals/Signs/Striping/Streetlights",
    "request_reason": "Street Light Knocked Down/Leaning",
    "date_created": "2023-10-02T17:41:51.000",
    "date_modified": "2023-10-02T17:41:52.000",
    "request_status": "Pending",
    "responsible_agency": "Department of Public Works",
    "final_address": "7707 Downman Rd",
    "address_councildis": "D",
    "status": "Pending",
    "contractor": "Legacy Professional Services",
    "rowid": "1040195",
    "final_x": "3694625.9848",
    "final_y": "558779.065052",
    "longitude": "-90.0256410655267",
    "latitude": "30.03004309211574",
    "geocoded_column": {
      "latitude": "30.03004309211574",
      "longitude": "-90.0256410655267"
    }
  },
  {
    "service_request": "2023-1040194",
    "request_type": "Traffic Signals/Signs/Striping/Streetlights",
    "request_reason": "Street Light Outage/Malfunction",
    "date_created": "2023-10-02T17:41:33.000",
    "date_modified": "2023-10-02T17:41:34.000",
    "request_status": "Pending",
    "responsible_agency": "Department of Public Works",
    "final_address": "4521 Baronne St",
    "address_councildis": "B",
    "status": "Assigned to Contractor",
    "contractor": "Legacy Professional Services",
    "rowid": "1040194",
    "final_x": "3670207.96564",
    "final_y": "521577.813817",
    "longitude": "-90.10406339430816",
    "latitude": "29.928495922035182",
    "geocoded_column": {
      "latitude": "29.928495922035182",
      "longitude": "-90.10406339430816"
    }
  },
  {
    "service_request": "2023-1040193",
    "request_type": "Trash/Recycling",
    "request_reason": "Request a Large Item Pick Up",
    "date_created": "2023-10-02T17:37:29.000",
    "date_modified": "2023-10-02T17:37:30.000",
    "request_status": "Pending",
    "responsible_agency": "Department of Sanitation",
    "final_address": "BULLARD AVE & E BARRINGTON DR",
    "address_councildis": "E",
    "status": "Assigned to Contractor",
    "contractor": "Waste Pro",
    "rowid": "1040193",
    "final_x": "3714340.2",
    "final_y": "565805.38",
    "longitude": "-89.96307931226046",
    "latitude": "30.04872925841226",
    "geocoded_column": {
      "latitude": "30.04872925841226",
      "longitude": "-89.96307931226046"
    }
  },
  {
    "service_request": "2023-1040192",
    "request_type": "Trash/Recycling",
    "request_reason": "Request a Large Item Pick Up",
    "date_created": "2023-10-02T17:36:24.000",
    "date_modified": "2023-10-02T17:36:36.000",
    "request_status": "Pending",
    "responsible_agency": "Department of Sanitation",
    "final_address": "3056 Grand-Route St John St",
    "address_councildis": "A",
    "status": "Assigned to Contractor",
    "contractor": "IV Waste",
    "rowid": "1040192",
    "final_x": "3676726.11413",
    "final_y": "540266.351435",
    "longitude": "-90.08284314318564",
    "latitude": "29.979689259940486",
    "geocoded_column": {
      "latitude": "29.979689259940486",
      "longitude": "-90.08284314318564"
    }
  },
  {
    "service_request": "2023-1040191",
    "request_type": "Trash/Recycling",
    "request_reason": "Repair Trash Cart",
    "date_created": "2023-10-02T17:34:09.000",
    "date_modified": "2023-10-02T17:34:10.000",
    "request_status": "Pending",
    "responsible_agency": "Department of Sanitation",
    "final_address": "2539 Leonidas St",
    "address_councildis": "A",
    "status": "Assigned to Contractor",
    "contractor": "Richards Disposal",
    "rowid": "1040191",
    "final_x": "3664038.17728",
    "final_y": "533242.230404",
    "longitude": "-90.12315128414805",
    "latitude": "29.960749886001423",
    "geocoded_column": {
      "latitude": "29.960749886001423",
      "longitude": "-90.12315128414805"
    }
  },
  {
    "service_request": "2023-1040190",
    "request_type": "Trash/Recycling",
    "request_reason": "MIssed Recycling Pick-Up",
    "date_created": "2023-10-02T17:32:49.000",
    "date_modified": "2023-10-02T17:32:49.000",
    "request_status": "Pending",
    "responsible_agency": "Department of Sanitation",
    "final_address": "7680 Vincent Rd",
    "address_councildis": "E",
    "status": "Assigned to Contractor",
    "contractor": "Waste Pro",
    "rowid": "1040190",
    "final_x": "3718262.38277",
    "final_y": "571717.571304",
    "longitude": "-89.95045752989452",
    "latitude": "30.0648557845783",
    "geocoded_column": {
      "latitude": "30.0648557845783",
      "longitude": "-89.95045752989452"
    }
  },
  {
    "service_request": "2023-1040189",
    "request_type": "Trash/Recycling",
    "request_reason": "Request a Large Item Pick Up",
    "date_created": "2023-10-02T17:31:41.000",
    "date_modified": "2023-10-02T17:31:41.000",
    "request_status": "Pending",
    "responsible_agency": "Department of Sanitation",
    "final_address": "7251 Briarheath Dr",
    "address_councildis": "E",
    "status": "Assigned to Contractor",
    "contractor": "Waste Pro",
    "rowid": "1040189",
    "final_x": "3714386.21291",
    "final_y": "566284.235875",
    "longitude": "-89.96291578489813",
    "latitude": "30.05004440390318",
    "geocoded_column": {
      "latitude": "30.05004440390318",
      "longitude": "-89.96291578489813"
    }
  },
  {
    "service_request": "2023-1040188",
    "request_type": "Roads/Drainage",
    "request_reason": "Catch Basin - Clogged",
    "date_created": "2023-10-02T17:28:49.000",
    "date_modified": "2023-10-02T17:28:49.000",
    "request_status": "Pending",
    "responsible_agency": "Department of Public Works",
    "final_address": "6201 Memphis St",
    "address_councildis": "A",
    "status": "Pending",
    "rowid": "1040188",
    "final_x": "3669379.9842",
    "final_y": "548569.609491",
    "longitude": "-90.10576431258646",
    "latitude": "30.00273876467606",
    "geocoded_column": {
      "latitude": "30.00273876467606",
      "longitude": "-90.10576431258646"
    }
  },
  {
    "service_request": "2023-1040187",
    "request_type": "Trash/Recycling",
    "request_reason": "Order Trash Cart",
    "date_created": "2023-10-02T17:27:30.000",
    "date_modified": "2023-10-02T17:27:31.000",
    "request_status": "Pending",
    "responsible_agency": "Department of Sanitation",
    "final_address": "8 Annandale Ct",
    "address_councildis": "C",
    "status": "Assigned to Contractor",
    "contractor": "Richards Disposal",
    "rowid": "1040187",
    "final_x": "3723057.16767",
    "final_y": "512217.588209",
    "longitude": "-89.93759197451591",
    "latitude": "29.901093901151842",
    "geocoded_column": {
      "latitude": "29.901093901151842",
      "longitude": "-89.93759197451591"
    }
  },
  {
    "service_request": "2023-1040186",
    "request_type": "Trash/Recycling",
    "request_reason": "Missed Trash Pick-Up",
    "date_created": "2023-10-02T17:26:56.000",
    "date_modified": "2023-10-02T17:26:57.000",
    "request_status": "Pending",
    "responsible_agency": "Department of Sanitation",
    "final_address": "8011 Michigan St",
    "address_councildis": "E",
    "status": "Assigned to Contractor",
    "contractor": "Waste Pro",
    "rowid": "1040186",
    "final_x": "3711026.76773",
    "final_y": "567704.877604",
    "longitude": "-89.97348036880456",
    "latitude": "30.05406064031886",
    "geocoded_column": {
      "latitude": "30.05406064031886",
      "longitude": "-89.97348036880456"
    }
  },
  {
    "service_request": "2023-1040185",
    "request_type": "Trash/Recycling",
    "request_reason": "Request a Large Item Pick Up",
    "date_created": "2023-10-02T17:17:56.000",
    "date_modified": "2023-10-02T17:18:32.000",
    "request_status": "Pending",
    "responsible_agency": "Department of Sanitation",
    "final_address": "1803 St Roch Ave",
    "address_councildis": "D",
    "status": "Assigned to Contractor",
    "contractor": "IV Waste",
    "rowid": "1040185",
    "final_x": "3686488.36527",
    "final_y": "539059.334858",
    "longitude": "-90.05205269119415",
    "latitude": "29.97607383414975",
    "geocoded_column": {
      "latitude": "29.97607383414975",
      "longitude": "-90.05205269119415"
    }
  },
  {
    "service_request": "2023-1040184",
    "request_type": "Trash/Recycling",
    "request_reason": "Order Recycling Cart",
    "date_created": "2023-10-02T17:17:39.000",
    "date_modified": "2023-10-02T17:17:39.000",
    "request_status": "Pending",
    "responsible_agency": "Department of Sanitation",
    "final_address": "6200 Erin Dr",
    "address_councildis": "E",
    "status": "Pending",
    "rowid": "1040184",
    "final_x": "3696149.78634",
    "final_y": "558607.340892",
    "longitude": "-90.02083209298245",
    "latitude": "30.029523011152424",
    "geocoded_column": {
      "latitude": "30.029523011152424",
      "longitude": "-90.02083209298245"
    }
  },
  {
    "service_request": "2023-1040183",
    "request_type": "Trash/Recycling",
    "request_reason": "Return Recycling Cart",
    "date_created": "2023-10-02T17:17:36.000",
    "date_modified": "2023-10-02T17:17:36.000",
    "request_status": "Pending",
    "responsible_agency": "Department of Sanitation",
    "final_address": "7 Heritage Ln Unit 28",
    "address_councildis": "C",
    "status": "Pending",
    "rowid": "1040183",
    "final_x": "3695954.93923",
    "final_y": "520324.27436",
    "longitude": "-90.02283138403433",
    "latitude": "29.924264502499828",
    "geocoded_column": {
      "latitude": "29.924264502499828",
      "longitude": "-90.02283138403433"
    }
  },
  {
    "service_request": "2023-1040182",
    "request_type": "Trash/Recycling",
    "request_reason": "Request a Large Item Pick Up",
    "date_created": "2023-10-02T17:13:33.000",
    "date_modified": "2023-10-02T17:13:34.000",
    "request_status": "Pending",
    "responsible_agency": "Department of Sanitation",
    "final_address": "4701 Redwood St",
    "address_councildis": "E",
    "status": "Assigned to Contractor",
    "contractor": "Waste Pro",
    "rowid": "1040182",
    "final_x": "3712593.86885",
    "final_y": "555887.373721",
    "longitude": "-89.96897194305464",
    "latitude": "30.02151600810519",
    "geocoded_column": {
      "latitude": "30.02151600810519",
      "longitude": "-89.96897194305464"
    }
  },
  {
    "service_request": "2023-1040181",
    "request_type": "Traffic Signals/Signs/Striping/Streetlights",
    "request_reason": "Traffic Sign Missing/Damaged",
    "date_created": "2023-10-02T17:05:33.000",
    "date_modified": "2023-10-02T17:08:13.000",
    "request_status": "Pending",
    "responsible_agency": "Department of Public Works",
    "final_address": "3210 Gravier St",
    "address_councildis": "B",
    "rowid": "1040181",
    "final_x": "3672187.92769",
    "final_y": "534175.720965",
    "longitude": "-90.09738410181727",
    "latitude": "29.963077482958436",
    "geocoded_column": {
      "latitude": "29.963077482958436",
      "longitude": "-90.09738410181727"
    }
  },
  {
    "service_request": "2023-1040180",
    "request_type": "Roads/Drainage",
    "request_reason": "Pothole",
    "date_created": "2023-10-02T17:02:38.000",
    "date_modified": "2023-10-02T17:02:38.000",
    "request_status": "Pending",
    "responsible_agency": "Department of Public Works",
    "final_address": "4739 Dryades St",
    "address_councildis": "B",
    "status": "Pending",
    "rowid": "1040180",
    "final_x": "3669310.42426",
    "final_y": "521851.683194",
    "longitude": "-90.10688749493693",
    "latitude": "29.92927542130942",
    "geocoded_column": {
      "latitude": "29.92927542130942",
      "longitude": "-90.10688749493693"
    }
  },
  {
    "service_request": "2023-1040179",
    "request_type": "Trash/Recycling",
    "request_reason": "Request a Large Item Pick Up",
    "date_created": "2023-10-02T16:55:47.000",
    "date_modified": "2023-10-02T16:55:48.000",
    "request_status": "Pending",
    "responsible_agency": "Department of Sanitation",
    "final_address": "1476 Constance St",
    "address_councildis": "B",
    "status": "Assigned to Contractor",
    "contractor": "Richards Disposal",
    "rowid": "1040179",
    "final_x": "3680602.55157",
    "final_y": "523791.914619",
    "longitude": "-90.07117293665539",
    "latitude": "29.934273249923518",
    "geocoded_column": {
      "latitude": "29.934273249923518",
      "longitude": "-90.07117293665539"
    }
  },
  {
    "service_request": "2023-1040178",
    "request_type": "Trash/Recycling",
    "request_reason": "Repair Trash Cart",
    "date_created": "2023-10-02T16:55:27.000",
    "date_modified": "2023-10-02T16:55:27.000",
    "request_status": "Pending",
    "responsible_agency": "Department of Sanitation",
    "final_address": "236 S Pierce St",
    "address_councildis": "A",
    "status": "Assigned to Contractor",
    "contractor": "Richards Disposal",
    "rowid": "1040178",
    "final_x": "3671063.76327",
    "final_y": "537437.760072",
    "longitude": "-90.10082328359341",
    "latitude": "29.972080290846268",
    "geocoded_column": {
      "latitude": "29.972080290846268",
      "longitude": "-90.10082328359341"
    }
  },
  {
    "service_request": "2023-1040177",
    "request_type": "Roads/Drainage",
    "request_reason": "Street Subsidence (Sinking)",
    "date_created": "2023-10-02T16:52:31.000",
    "date_modified": "2023-10-02T16:53:48.000",
    "request_status": "Pending",
    "responsible_agency": "Department of Public Works",
    "final_address": "5316 Michoud Blvd",
    "address_councildis": "E",
    "status": "Pending",
    "rowid": "1040177",
    "final_x": "3724591.7422",
    "final_y": "563496.421856",
    "longitude": "-89.93076816003688",
    "latitude": "30.042039512735908",
    "geocoded_column": {
      "latitude": "30.042039512735908",
      "longitude": "-89.93076816003688"
    }
  },
  {
    "service_request": "2023-1040176",
    "request_type": "Roads/Drainage",
    "request_reason": "Pothole",
    "date_created": "2023-10-02T16:50:48.000",
    "date_modified": "2023-10-02T16:50:48.000",
    "request_status": "Pending",
    "responsible_agency": "Department of Public Works",
    "final_address": "5241 Laurel St",
    "address_councildis": "B",
    "status": "Pending",
    "rowid": "1040176",
    "final_x": "3667637.65953",
    "final_y": "517916.995254",
    "longitude": "-90.11230047618886",
    "latitude": "29.918505398100972",
    "geocoded_column": {
      "latitude": "29.918505398100972",
      "longitude": "-90.11230047618886"
    }
  },
  {
    "service_request": "2023-1040175",
    "request_type": "Roads/Drainage",
    "request_reason": "Damaged Sidewalk",
    "date_created": "2023-10-02T16:47:52.000",
    "date_modified": "2023-10-02T17:14:32.000",
    "request_status": "Pending",
    "responsible_agency": "Department of Public Works",
    "final_address": "6011 Wright Rd",
    "address_councildis": "E",
    "status": "Pending",
    "rowid": "1040175",
    "final_x": "3713414.66891",
    "final_y": "562650.346592",
    "longitude": "-89.96612348965677",
    "latitude": "30.040084592309512",
    "geocoded_column": {
      "latitude": "30.040084592309512",
      "longitude": "-89.96612348965677"
    }
  },
  {
    "service_request": "2023-1040173",
    "request_type": "Roads/Drainage",
    "request_reason": "Pothole",
    "date_created": "2023-10-02T16:44:38.000",
    "date_modified": "2023-10-02T16:44:38.000",
    "request_status": "Pending",
    "responsible_agency": "Department of Public Works",
    "final_address": "5122 Baronne St",
    "address_councildis": "B",
    "status": "Pending",
    "rowid": "1040173",
    "final_x": "3668267.38433",
    "final_y": "521409.044985",
    "longitude": "-90.11019510096125",
    "latitude": "29.92808896363954",
    "geocoded_column": {
      "latitude": "29.92808896363954",
      "longitude": "-90.11019510096125"
    }
  },
  {
    "service_request": "2023-1040172",
    "request_type": "Roads/Drainage",
    "request_reason": "Pothole",
    "date_created": "2023-10-02T16:44:22.000",
    "date_modified": "2023-10-02T16:44:22.000",
    "request_status": "Pending",
    "responsible_agency": "Department of Public Works",
    "final_address": "4334 Stemway Dr",
    "address_councildis": "D",
    "status": "Pending",
    "rowid": "1040172",
    "final_x": "3697153.73565",
    "final_y": "551880.561686",
    "longitude": "-90.01790367207157",
    "latitude": "30.01099525991169",
    "geocoded_column": {
      "latitude": "30.01099525991169",
      "longitude": "-90.01790367207157"
    }
  },
  {
    "service_request": "2023-1040171",
    "request_type": "Roads/Drainage",
    "request_reason": "Pothole",
    "date_created": "2023-10-02T16:43:56.000",
    "date_modified": "2023-10-02T17:15:10.000",
    "request_status": "Pending",
    "responsible_agency": "Department of Public Works",
    "final_address": "LAKE FOREST BLVD & W LOUIS PRIMA DR",
    "address_councildis": "E",
    "status": "Pending",
    "rowid": "1040171",
    "final_x": "3715986.6",
    "final_y": "561573.48",
    "longitude": "-89.95803630986471",
    "latitude": "30.037039012763273",
    "geocoded_column": {
      "latitude": "30.037039012763273",
      "longitude": "-89.95803630986471"
    }
  },
  {
    "service_request": "2023-1040170",
    "request_type": "Trash/Recycling",
    "request_reason": "Request a Large Item Pick Up",
    "date_created": "2023-10-02T16:40:55.000",
    "date_modified": "2023-10-02T16:40:55.000",
    "request_status": "Pending",
    "responsible_agency": "Department of Sanitation",
    "final_address": "20 N Blue Ridge Ct",
    "address_councildis": "E",
    "status": "Assigned to Contractor",
    "contractor": "Waste Pro",
    "rowid": "1040170",
    "final_x": "3713859.75743",
    "final_y": "567584.19786",
    "longitude": "-89.96453061818929",
    "latitude": "30.05363607087028",
    "geocoded_column": {
      "latitude": "30.05363607087028",
      "longitude": "-89.96453061818929"
    }
  },
  {
    "service_request": "2023-1040169",
    "request_type": "Abandoned Vehicles",
    "request_reason": "Abandoned/Junk Vehicles",
    "date_created": "2023-10-02T16:39:37.000",
    "date_modified": "2023-10-02T16:39:37.000",
    "request_status": "Pending",
    "responsible_agency": "Department of Public Works",
    "final_address": "4610 S Robertson St",
    "address_councildis": "B",
    "status": "Pending",
    "rowid": "1040169",
    "final_x": "3669651.29274",
    "final_y": "524275.852348",
    "longitude": "-90.10572944750602",
    "latitude": "29.935931072380416",
    "geocoded_column": {
      "latitude": "29.935931072380416",
      "longitude": "-90.10572944750602"
    }
  },
  {
    "service_request": "2023-1040168",
    "request_type": "Trash/Recycling",
    "request_reason": "Illegal Dumping",
    "date_created": "2023-10-02T16:37:35.000",
    "date_modified": "2023-10-02T16:37:36.000",
    "request_status": "Pending",
    "responsible_agency": "Department of Sanitation",
    "final_address": "1814 Bayou Rd",
    "address_councildis": "D",
    "status": "Pending",
    "rowid": "1040168",
    "final_x": "3680604.18133",
    "final_y": "536563.947847",
    "longitude": "-90.07072349266309",
    "latitude": "29.96939198804841",
    "geocoded_column": {
      "latitude": "29.96939198804841",
      "longitude": "-90.07072349266309"
    }
  },
  {
    "service_request": "2023-1040167",
    "request_type": "Trash/Recycling",
    "request_reason": "Request a Large Item Pick Up",
    "date_created": "2023-10-02T16:34:22.000",
    "date_modified": "2023-10-02T16:34:22.000",
    "request_status": "Pending",
    "responsible_agency": "Department of Sanitation",
    "final_address": "4610 S Robertson St",
    "address_councildis": "B",
    "status": "Assigned to Contractor",
    "contractor": "Richards Disposal",
    "rowid": "1040167",
    "final_x": "3669651.29274",
    "final_y": "524275.852348",
    "longitude": "-90.10572944750602",
    "latitude": "29.935931072380416",
    "geocoded_column": {
      "latitude": "29.935931072380416",
      "longitude": "-90.10572944750602"
    }
  },
  {
    "service_request": "2023-1040166",
    "request_type": "Trash/Recycling",
    "request_reason": "Request a Large Item Pick Up",
    "date_created": "2023-10-02T16:29:58.000",
    "date_modified": "2023-10-02T16:29:59.000",
    "request_status": "Pending",
    "responsible_agency": "Department of Sanitation",
    "final_address": "1617 Duels St",
    "address_councildis": "D",
    "status": "Assigned to Contractor",
    "contractor": "IV Waste",
    "rowid": "1040166",
    "final_x": "3680129.60239",
    "final_y": "542253.405197",
    "longitude": "-90.07202446630043",
    "latitude": "29.985050395097968",
    "geocoded_column": {
      "latitude": "29.985050395097968",
      "longitude": "-90.07202446630043"
    }
  },
  {
    "service_request": "2023-1040165",
    "request_type": "Trash/Recycling",
    "request_reason": "MIssed Recycling Pick-Up",
    "date_created": "2023-10-02T16:29:56.000",
    "date_modified": "2023-10-02T16:29:57.000",
    "request_status": "Pending",
    "responsible_agency": "Department of Sanitation",
    "final_address": "7544 Plum St",
    "address_councildis": "A",
    "status": "Assigned to Contractor",
    "contractor": "Richards Disposal",
    "rowid": "1040165",
    "final_x": "3663594.91661",
    "final_y": "527316.303935",
    "longitude": "-90.12474839841894",
    "latitude": "29.944468369454647",
    "geocoded_column": {
      "latitude": "29.944468369454647",
      "longitude": "-90.12474839841894"
    }
  },
  {
    "service_request": "2023-1040164",
    "request_type": "Trash/Recycling",
    "request_reason": "Request a Large Item Pick Up",
    "date_created": "2023-10-02T16:26:57.000",
    "date_modified": "2023-10-02T16:26:57.000",
    "request_status": "Pending",
    "responsible_agency": "Department of Sanitation",
    "final_address": "7833 Means Ave",
    "address_councildis": "E",
    "status": "Assigned to Contractor",
    "contractor": "Waste Pro",
    "rowid": "1040164",
    "final_x": "3707739.4259",
    "final_y": "565420.449954",
    "longitude": "-89.98395581098059",
    "latitude": "30.047886244829495",
    "geocoded_column": {
      "latitude": "30.047886244829495",
      "longitude": "-89.98395581098059"
    }
  },
  {
    "service_request": "2023-1040163",
    "request_type": "Mosquito, Termite & Rodent Control",
    "request_reason": "Rodent Complaint (Rats)",
    "date_created": "2023-10-02T16:25:08.000",
    "date_modified": "2023-10-02T16:25:08.000",
    "request_status": "Pending",
    "responsible_agency": "Mosquito, Termite & Rodent Control Board",
    "final_address": "1453 N Derbigny St",
    "address_councildis": "D",
    "status": "Pending",
    "rowid": "1040163",
    "final_x": "3681242.41461",
    "final_y": "537224.010312",
    "longitude": "-90.06868489570905",
    "latitude": "29.97118757930084",
    "geocoded_column": {
      "latitude": "29.97118757930084",
      "longitude": "-90.06868489570905"
    }
  },
  {
    "service_request": "2023-1040162",
    "request_type": "Roads/Drainage",
    "request_reason": "Street Subsidence (Sinking)",
    "date_created": "2023-10-02T16:23:04.000",
    "date_modified": "2023-10-02T16:23:04.000",
    "request_status": "Pending",
    "responsible_agency": "Department of Public Works",
    "final_address": "1415 Leontine St",
    "address_councildis": "B",
    "status": "Pending",
    "rowid": "1040162",
    "final_x": "3667432.11777",
    "final_y": "520392.842104",
    "longitude": "-90.11286602563857",
    "latitude": "29.92531921774142",
    "geocoded_column": {
      "latitude": "29.92531921774142",
      "longitude": "-90.11286602563857"
    }
  },
  {
    "service_request": "2023-1040161",
    "request_type": "Trash/Recycling",
    "request_reason": "MIssed Recycling Pick-Up",
    "date_created": "2023-10-02T16:21:26.000",
    "date_modified": "2023-10-02T16:21:27.000",
    "request_status": "Pending",
    "responsible_agency": "Department of Sanitation",
    "final_address": "3400 Washington Ave",
    "address_councildis": "B",
    "status": "Assigned to Contractor",
    "contractor": "Richards Disposal",
    "rowid": "1040161",
    "final_x": "3672331.36283",
    "final_y": "527874.415935",
    "longitude": "-90.09714582747414",
    "latitude": "29.945746725523218",
    "geocoded_column": {
      "latitude": "29.945746725523218",
      "longitude": "-90.09714582747414"
    }
  },
  {
    "service_request": "2023-1040160",
    "request_type": "Trash/Recycling",
    "request_reason": "Request a Large Item Pick Up",
    "date_created": "2023-10-02T16:18:45.000",
    "date_modified": "2023-10-02T16:18:46.000",
    "request_status": "Pending",
    "responsible_agency": "Department of Sanitation",
    "final_address": "6001 Erin Dr",
    "address_councildis": "E",
    "status": "Assigned to Contractor",
    "contractor": "Waste Pro",
    "rowid": "1040160",
    "final_x": "3695278.86371",
    "final_y": "558429.211676",
    "longitude": "-90.02359061485211",
    "latitude": "30.029060625193047",
    "geocoded_column": {
      "latitude": "30.029060625193047",
      "longitude": "-90.02359061485211"
    }
  },
  {
    "service_request": "2023-1040159",
    "request_type": "Trash/Recycling",
    "request_reason": "Repair Trash Cart",
    "date_created": "2023-10-02T16:08:50.000",
    "date_modified": "2023-10-02T16:11:23.000",
    "request_status": "Pending",
    "responsible_agency": "Department of Sanitation",
    "final_address": "4710 Wright Rd, New Orleans, Louisiana, 70128",
    "address_councildis": "E",
    "contractor": "Waste Pro",
    "rowid": "1040159",
    "final_x": "3716586.93624",
    "final_y": "556827.970202",
    "longitude": "-89.95631936060117",
    "latitude": "30.023970937074626",
    "geocoded_column": {
      "latitude": "30.023970937074626",
      "longitude": "-89.95631936060117"
    }
  },
  {
    "service_request": "2023-1040158",
    "request_type": "Trash/Recycling",
    "request_reason": "Missed Trash Pick-Up",
    "date_created": "2023-10-02T16:08:04.000",
    "date_modified": "2023-10-02T16:08:05.000",
    "request_status": "Pending",
    "responsible_agency": "Department of Sanitation",
    "final_address": "4702 Camelia St",
    "address_councildis": "E",
    "status": "Assigned to Contractor",
    "contractor": "Waste Pro",
    "rowid": "1040158",
    "final_x": "3701488.64497",
    "final_y": "553965.531672",
    "longitude": "-90.00413165443346",
    "latitude": "30.01659058737048",
    "geocoded_column": {
      "latitude": "30.01659058737048",
      "longitude": "-90.00413165443346"
    }
  },
  {
    "service_request": "2023-1040157",
    "request_type": "Trash/Recycling",
    "request_reason": "Request a Large Item Pick Up",
    "date_created": "2023-10-02T16:07:20.000",
    "date_modified": "2023-10-02T16:07:21.000",
    "request_status": "Pending",
    "responsible_agency": "Department of Sanitation",
    "final_address": "3842 Mimosa Dr",
    "address_councildis": "C",
    "status": "Assigned to Contractor",
    "contractor": "Richards Disposal",
    "rowid": "1040157",
    "final_x": "3704218.54231",
    "final_y": "513146.916658",
    "longitude": "-89.99701049434523",
    "latitude": "29.904266773584823",
    "geocoded_column": {
      "latitude": "29.904266773584823",
      "longitude": "-89.99701049434523"
    }
  },
  {
    "service_request": "2023-1040156",
    "request_type": "Trash/Recycling",
    "request_reason": "Missed Trash Pick-Up",
    "date_created": "2023-10-02T16:06:08.000",
    "date_modified": "2023-10-02T16:06:09.000",
    "request_status": "Pending",
    "responsible_agency": "Department of Sanitation",
    "final_address": "1315 Marigny St",
    "address_councildis": "C",
    "status": "Assigned to Contractor",
    "contractor": "IV Waste",
    "rowid": "1040156",
    "final_x": "3685436.87509",
    "final_y": "537238.586376",
    "longitude": "-90.05543772878123",
    "latitude": "29.971099700040252",
    "geocoded_column": {
      "latitude": "29.971099700040252",
      "longitude": "-90.05543772878123"
    }
  },
  {
    "service_request": "2023-1040155",
    "request_type": "Trash/Recycling",
    "request_reason": "Order Trash Cart",
    "date_created": "2023-10-02T16:05:14.000",
    "date_modified": "2023-10-02T16:05:16.000",
    "request_status": "Pending",
    "responsible_agency": "Department of Sanitation",
    "final_address": "1315 Marigny St",
    "address_councildis": "C",
    "status": "Assigned to Contractor",
    "contractor": "IV Waste",
    "rowid": "1040155",
    "final_x": "3685436.87509",
    "final_y": "537238.586376",
    "longitude": "-90.05543772878123",
    "latitude": "29.971099700040252",
    "geocoded_column": {
      "latitude": "29.971099700040252",
      "longitude": "-90.05543772878123"
    }
  },
  {
    "service_request": "2023-1040151",
    "request_type": "Trash/Recycling",
    "request_reason": "Request a Large Item Pick Up",
    "date_created": "2023-10-02T16:02:11.000",
    "date_modified": "2023-10-02T16:02:12.000",
    "request_status": "Pending",
    "responsible_agency": "Department of Sanitation",
    "final_address": "3026 Short St",
    "address_councildis": "B",
    "status": "Assigned to Contractor",
    "contractor": "Richards Disposal",
    "rowid": "1040151",
    "final_x": "3666728.53447",
    "final_y": "533047.69786",
    "longitude": "-90.11466215947783",
    "latitude": "29.960136581523482",
    "geocoded_column": {
      "latitude": "29.960136581523482",
      "longitude": "-90.11466215947783"
    }
  },
  {
    "service_request": "2023-1040152",
    "request_type": "Roads/Drainage",
    "request_reason": "Debris in Roadway",
    "date_created": "2023-10-02T16:02:11.000",
    "date_modified": "2023-10-02T16:02:11.000",
    "request_status": "Pending",
    "responsible_agency": "Department of Public Works",
    "final_address": "883 Navarre St",
    "address_councildis": "A",
    "status": "Pending",
    "rowid": "1040152",
    "final_x": "3669372.46785",
    "final_y": "543816.225614",
    "longitude": "-90.10594891040328",
    "latitude": "29.989668822165346",
    "geocoded_column": {
      "latitude": "29.989668822165346",
      "longitude": "-90.10594891040328"
    }
  },
  {
    "service_request": "2023-1040150",
    "request_type": "Trash/Recycling",
    "request_reason": "Missed Trash Pick-Up",
    "date_created": "2023-10-02T16:02:00.000",
    "date_modified": "2023-10-02T16:02:01.000",
    "request_status": "Pending",
    "responsible_agency": "Department of Sanitation",
    "final_address": "2606 Gordon St",
    "address_councildis": "E",
    "status": "Assigned to Contractor",
    "contractor": "Waste Pro",
    "rowid": "1040150",
    "final_x": "3701309.80452",
    "final_y": "538869.135625",
    "longitude": "-90.00524955372448",
    "latitude": "29.975086821609285",
    "geocoded_column": {
      "latitude": "29.975086821609285",
      "longitude": "-90.00524955372448"
    }
  },
  {
    "service_request": "2023-1040149",
    "request_type": "Trash/Recycling",
    "request_reason": "Illegal Dumping",
    "date_created": "2023-10-02T16:00:22.000",
    "date_modified": "2023-10-02T16:00:22.000",
    "request_status": "Pending",
    "responsible_agency": "Department of Sanitation",
    "final_address": "1500 Prentiss Ave",
    "address_councildis": "D",
    "status": "Pending",
    "rowid": "1040149",
    "final_x": "3678447.74114",
    "final_y": "553383.780055",
    "longitude": "-90.07695127561928",
    "latitude": "30.015705777169636",
    "geocoded_column": {
      "latitude": "30.015705777169636",
      "longitude": "-90.07695127561928"
    }
  },
  {
    "service_request": "2023-1040148",
    "request_type": "Property Maintenance",
    "request_reason": "Property Maintenance",
    "date_created": "2023-10-02T15:59:26.000",
    "date_modified": "2023-10-02T15:59:27.000",
    "request_status": "Pending",
    "responsible_agency": "Department of Code Enforcement",
    "final_address": "2004 Marengo St",
    "address_councildis": "B",
    "status": "Pending",
    "rowid": "1040148",
    "final_x": "3671656.2834",
    "final_y": "522516.56697",
    "longitude": "-90.09945944377388",
    "latitude": "29.93103438842804",
    "geocoded_column": {
      "latitude": "29.93103438842804",
      "longitude": "-90.09945944377388"
    }
  },
  {
    "service_request": "2023-1040147",
    "request_type": "Trash/Recycling",
    "request_reason": "Replace Trash Cart",
    "date_created": "2023-10-02T15:59:08.000",
    "date_modified": "2023-10-02T15:59:09.000",
    "request_status": "Pending",
    "responsible_agency": "Department of Sanitation",
    "final_address": "2832 Ramsey Dr",
    "address_councildis": "C",
    "status": "Assigned to Contractor",
    "contractor": "Richards Disposal",
    "rowid": "1040147",
    "final_x": "3703268.01969",
    "final_y": "520273.622392",
    "longitude": "-89.99974856756317",
    "latitude": "29.923893219338932",
    "geocoded_column": {
      "latitude": "29.923893219338932",
      "longitude": "-89.99974856756317"
    }
  },
  {
    "service_request": "2023-1040146",
    "request_type": "Trash/Recycling",
    "request_reason": "Missed Trash Pick-Up",
    "date_created": "2023-10-02T15:59:05.000",
    "date_modified": "2023-10-02T15:59:06.000",
    "request_status": "Pending",
    "responsible_agency": "Department of Sanitation",
    "final_address": "7621 Kingsport Blvd",
    "address_councildis": "E",
    "status": "Assigned to Contractor",
    "contractor": "Waste Pro",
    "rowid": "1040146",
    "final_x": "3719998.24626",
    "final_y": "573002.615081",
    "longitude": "-89.94492113539853",
    "latitude": "30.068331397131047",
    "geocoded_column": {
      "latitude": "30.068331397131047",
      "longitude": "-89.94492113539853"
    }
  },
  {
    "service_request": "2023-1040145",
    "request_type": "Trash/Recycling",
    "request_reason": "Request a Large Item Pick Up",
    "date_created": "2023-10-02T15:58:27.000",
    "date_modified": "2023-10-02T15:59:31.000",
    "request_status": "Pending",
    "responsible_agency": "Department of Sanitation",
    "final_address": "1235 Bartholomew St",
    "address_councildis": "D",
    "status": "Assigned to Contractor",
    "contractor": "IV Waste",
    "rowid": "1040145",
    "final_x": "3691983.06019",
    "final_y": "535919.063559",
    "longitude": "-90.03481130699097",
    "latitude": "29.967269112945285",
    "geocoded_column": {
      "latitude": "29.967269112945285",
      "longitude": "-90.03481130699097"
    }
  },
  {
    "service_request": "2023-1040143",
    "request_type": "Parks & Parkways",
    "request_reason": "Request Tree Service (Right of Way/Public Property)",
    "date_created": "2023-10-02T15:58:17.000",
    "date_modified": "2023-10-02T16:03:25.000",
    "case_close_date": "2023-10-02T11:03:25.000",
    "request_status": "Closed",
    "responsible_agency": "Department of Parks & Parkway",
    "final_address": "3001 Octavia St",
    "address_councildis": "A",
    "status": "Duplicate Request",
    "rowid": "1040143",
    "final_x": "3668231.28084",
    "final_y": "526721.019262",
    "longitude": "-90.1101300631078",
    "latitude": "29.942696249318537",
    "geocoded_column": {
      "latitude": "29.942696249318537",
      "longitude": "-90.1101300631078"
    }
  },
  {
    "service_request": "2023-1040142",
    "request_type": "Property Maintenance",
    "request_reason": "Property Maintenance",
    "date_created": "2023-10-02T15:56:53.000",
    "date_modified": "2023-10-02T15:56:53.000",
    "request_status": "Pending",
    "responsible_agency": "Department of Code Enforcement",
    "final_address": "6636 Chef Menteur Hwy",
    "address_councildis": "E",
    "status": "Pending",
    "rowid": "1040142",
    "final_x": "3699419.84829",
    "final_y": "551857.618838",
    "longitude": "-90.01074500430995",
    "latitude": "30.01086044912289",
    "geocoded_column": {
      "latitude": "30.01086044912289",
      "longitude": "-90.01074500430995"
    }
  },
  {
    "service_request": "2023-1040140",
    "request_type": "Parks & Parkways",
    "request_reason": "Request Tree Service (Right of Way/Public Property)",
    "date_created": "2023-10-02T15:56:50.000",
    "date_modified": "2023-10-02T15:56:50.000",
    "request_status": "Pending",
    "responsible_agency": "Department of Parks & Parkway",
    "final_address": "3001 Octavia St",
    "address_councildis": "A",
    "status": "Pending",
    "rowid": "1040140",
    "final_x": "3668231.28084",
    "final_y": "526721.019262",
    "longitude": "-90.1101300631078",
    "latitude": "29.942696249318537",
    "geocoded_column": {
      "latitude": "29.942696249318537",
      "longitude": "-90.1101300631078"
    }
  },
  {
    "service_request": "2023-1040139",
    "request_type": "Trash/Recycling",
    "request_reason": "Request a Large Item Pick Up",
    "date_created": "2023-10-02T15:53:24.000",
    "date_modified": "2023-10-02T16:53:25.000",
    "case_close_date": "2023-10-02T11:53:25.000",
    "request_status": "Closed",
    "responsible_agency": "Department of Sanitation",
    "final_address": "1109 Eleonore St",
    "address_councildis": "A",
    "status": "Resolved",
    "contractor": "Richards Disposal",
    "contractor_action": "Completed",
    "rowid": "1040139",
    "final_x": "3665506.22061",
    "final_y": "520133.279928",
    "longitude": "-90.11895418546763",
    "latitude": "29.924661767853244",
    "geocoded_column": {
      "latitude": "29.924661767853244",
      "longitude": "-90.11895418546763"
    }
  },
  {
    "service_request": "2023-1040138",
    "request_type": "Trash/Recycling",
    "request_reason": "Missed Trash Pick-Up",
    "date_created": "2023-10-02T15:52:37.000",
    "date_modified": "2023-10-02T15:52:38.000",
    "request_status": "Pending",
    "responsible_agency": "Department of Sanitation",
    "final_address": "7537 Dominique Pl",
    "address_councildis": "E",
    "status": "Assigned to Contractor",
    "contractor": "Waste Pro",
    "rowid": "1040138",
    "final_x": "3725522.928",
    "final_y": "570091.408679",
    "longitude": "-89.92756959716746",
    "latitude": "30.06014159303055",
    "geocoded_column": {
      "latitude": "30.06014159303055",
      "longitude": "-89.92756959716746"
    }
  },
  {
    "service_request": "2023-1040137",
    "request_type": "Trash/Recycling",
    "request_reason": "Request a Large Item Pick Up",
    "date_created": "2023-10-02T15:52:02.000",
    "date_modified": "2023-10-02T15:52:02.000",
    "request_status": "Closed",
    "responsible_agency": "Department of Sanitation",
    "final_address": "1109 Eleonore St",
    "address_councildis": "A",
    "status": "Resolved",
    "rowid": "1040137",
    "final_x": "3665506.22061",
    "final_y": "520133.279928",
    "longitude": "-90.11895418546763",
    "latitude": "29.924661767853244",
    "geocoded_column": {
      "latitude": "29.924661767853244",
      "longitude": "-90.11895418546763"
    }
  },
  {
    "service_request": "2023-1040136",
    "request_type": "Property Maintenance",
    "request_reason": "Property Maintenance",
    "date_created": "2023-10-02T15:51:47.000",
    "date_modified": "2023-10-02T15:51:47.000",
    "request_status": "Pending",
    "responsible_agency": "Department of Code Enforcement",
    "final_address": "1882 Thayer St",
    "address_councildis": "C",
    "status": "Pending",
    "rowid": "1040136",
    "final_x": "3689481.16803",
    "final_y": "524888.226876",
    "longitude": "-90.04310454037947",
    "latitude": "29.937015836056847",
    "geocoded_column": {
      "latitude": "29.937015836056847",
      "longitude": "-90.04310454037947"
    }
  },
  {
    "service_request": "2023-1040135",
    "request_type": "Roads/Drainage",
    "request_reason": "Pothole",
    "date_created": "2023-10-02T15:47:23.000",
    "date_modified": "2023-10-02T15:47:23.000",
    "request_status": "Pending",
    "responsible_agency": "Department of Public Works",
    "final_address": "1315 Peniston St",
    "address_councildis": "B",
    "status": "Pending",
    "rowid": "1040135",
    "final_x": "3673101.31451",
    "final_y": "520423.11276",
    "longitude": "-90.09496908964098",
    "latitude": "29.925235197927364",
    "geocoded_column": {
      "latitude": "29.925235197927364",
      "longitude": "-90.09496908964098"
    }
  },
  {
    "service_request": "2023-1040134",
    "request_type": "Roads/Drainage",
    "request_reason": "Pothole",
    "date_created": "2023-10-02T15:39:22.000",
    "date_modified": "2023-10-02T15:42:23.000",
    "request_status": "Pending",
    "responsible_agency": "Department of Public Works",
    "final_address": "928 Felicity St",
    "address_councildis": "B",
    "status": "Pending",
    "rowid": "1040134",
    "final_x": "3680343.27963",
    "final_y": "522629.571962",
    "longitude": "-90.0720318420857",
    "latitude": "29.93108504100539",
    "geocoded_column": {
      "latitude": "29.93108504100539",
      "longitude": "-90.0720318420857"
    }
  },
  {
    "service_request": "2023-1040133",
    "request_type": "Roads/Drainage",
    "request_reason": "Pothole",
    "date_created": "2023-10-02T15:36:18.000",
    "date_modified": "2023-10-02T15:36:18.000",
    "request_status": "Pending",
    "responsible_agency": "Department of Public Works",
    "final_address": "4216 Chestnut St",
    "address_councildis": "B",
    "status": "Pending",
    "rowid": "1040133",
    "final_x": "3671574.31393",
    "final_y": "519539.203703",
    "longitude": "-90.09981939416457",
    "latitude": "29.922850019854593",
    "geocoded_column": {
      "latitude": "29.922850019854593",
      "longitude": "-90.09981939416457"
    }
  },
  {
    "service_request": "2023-1040132",
    "request_type": "Roads/Drainage",
    "request_reason": "Leaking Hydrant",
    "date_created": "2023-10-02T15:33:09.000",
    "date_modified": "2023-10-02T15:33:09.000",
    "request_status": "Pending",
    "responsible_agency": "Department of Public Works",
    "final_address": "2700 Lasalle St. and Fourth st",
    "status": "Pending",
    "rowid": "1040132",
    "longitude": "0.0",
    "latitude": "0.0",
    "geocoded_column": {
      "latitude": "0.0",
      "longitude": "0.0"
    }
  },
  {
    "service_request": "2023-1040131",
    "request_type": "Roads/Drainage",
    "request_reason": "Pothole",
    "date_created": "2023-10-02T15:28:52.000",
    "date_modified": "2023-10-02T15:28:52.000",
    "request_status": "Pending",
    "responsible_agency": "Department of Public Works",
    "final_address": "1421 Constantinople St",
    "address_councildis": "B",
    "status": "Pending",
    "rowid": "1040131",
    "final_x": "3672433.24257",
    "final_y": "520667.657465",
    "longitude": "-90.09706965638372",
    "latitude": "29.925927453713577",
    "geocoded_column": {
      "latitude": "29.925927453713577",
      "longitude": "-90.09706965638372"
    }
  },
  {
    "service_request": "2023-1040130",
    "request_type": "Traffic Signals/Signs/Striping/Streetlights",
    "request_reason": "Traffic Sign Missing/Damaged",
    "date_created": "2023-10-02T15:27:03.000",
    "date_modified": "2023-10-02T15:27:03.000",
    "request_status": "Pending",
    "responsible_agency": "Department of Public Works",
    "final_address": "3333 S Carrollton Ave",
    "address_councildis": "B",
    "status": "Pending",
    "rowid": "1040130",
    "final_x": "3667334.01556",
    "final_y": "534014.814533",
    "longitude": "-90.11271764008801",
    "latitude": "29.96277811268953",
    "geocoded_column": {
      "latitude": "29.96277811268953",
      "longitude": "-90.11271764008801"
    }
  },
  {
    "service_request": "2023-1040129",
    "request_type": "Property Maintenance",
    "request_reason": "Property Maintenance",
    "date_created": "2023-10-02T15:25:36.000",
    "date_modified": "2023-10-02T15:25:36.000",
    "request_status": "Pending",
    "responsible_agency": "Department of Code Enforcement",
    "final_address": "427 Leboeuf St",
    "address_councildis": "C",
    "status": "Pending",
    "rowid": "1040129",
    "final_x": "3689790.86364",
    "final_y": "530029.864769",
    "longitude": "-90.0419438742041",
    "latitude": "29.95114399069553",
    "geocoded_column": {
      "latitude": "29.95114399069553",
      "longitude": "-90.0419438742041"
    }
  },
  {
    "service_request": "2023-1040128",
    "request_type": "Trash/Recycling",
    "request_reason": "Order Trash Cart",
    "date_created": "2023-10-02T15:23:12.000",
    "date_modified": "2023-10-02T15:23:12.000",
    "request_status": "Pending",
    "responsible_agency": "Department of Sanitation",
    "final_address": "2531 Ap Tureaud Ave",
    "address_councildis": "D",
    "status": "Assigned to Contractor",
    "contractor": "IV Waste",
    "rowid": "1040128",
    "final_x": "3681645.70396",
    "final_y": "541480.13262",
    "longitude": "-90.06726273600785",
    "latitude": "29.982878190968517",
    "geocoded_column": {
      "latitude": "29.982878190968517",
      "longitude": "-90.06726273600785"
    }
  },
  {
    "service_request": "2023-1040127",
    "request_type": "Trash/Recycling",
    "request_reason": "Order Trash Cart",
    "date_created": "2023-10-02T15:22:58.000",
    "date_modified": "2023-10-02T15:22:59.000",
    "request_status": "Pending",
    "responsible_agency": "Department of Sanitation",
    "final_address": "907 S Genois St",
    "address_councildis": "B",
    "status": "Assigned to Contractor",
    "contractor": "Richards Disposal",
    "rowid": "1040127",
    "final_x": "3670337.43348",
    "final_y": "534267.400197",
    "longitude": "-90.1032246476033",
    "latitude": "29.963384324301074",
    "geocoded_column": {
      "latitude": "29.963384324301074",
      "longitude": "-90.1032246476033"
    }
  },
  {
    "service_request": "2023-1040126",
    "request_type": "Trash/Recycling",
    "request_reason": "Request a Large Item Pick Up",
    "date_created": "2023-10-02T15:21:36.000",
    "date_modified": "2023-10-02T15:21:37.000",
    "request_status": "Pending",
    "responsible_agency": "Department of Sanitation",
    "final_address": "4737 Bancroft Dr",
    "address_councildis": "D",
    "status": "Assigned to Contractor",
    "contractor": "IV Waste",
    "rowid": "1040126",
    "final_x": "3676400.2724",
    "final_y": "549702.118292",
    "longitude": "-90.08354722943483",
    "latitude": "30.005644092969806",
    "geocoded_column": {
      "latitude": "30.005644092969806",
      "longitude": "-90.08354722943483"
    }
  },
  {
    "service_request": "2023-1040125",
    "request_type": "Roads/Drainage",
    "request_reason": "Pothole",
    "date_created": "2023-10-02T15:21:22.000",
    "date_modified": "2023-10-02T15:21:22.000",
    "request_status": "Pending",
    "responsible_agency": "Department of Public Works",
    "final_address": "1312 Milan St",
    "address_councildis": "B",
    "status": "Pending",
    "rowid": "1040125",
    "final_x": "3671625.82823",
    "final_y": "520286.919608",
    "longitude": "-90.09963137110304",
    "latitude": "29.92490447494246",
    "geocoded_column": {
      "latitude": "29.92490447494246",
      "longitude": "-90.09963137110304"
    }
  },
  {
    "service_request": "2023-1040124",
    "request_type": "Trash/Recycling",
    "request_reason": "Replace Recycling Cart",
    "date_created": "2023-10-02T15:19:44.000",
    "date_modified": "2023-10-02T15:19:44.000",
    "request_status": "Pending",
    "responsible_agency": "Department of Sanitation",
    "final_address": "916 N Rocheblave St",
    "address_councildis": "D",
    "status": "Pending",
    "rowid": "1040124",
    "final_x": "3678088.75214",
    "final_y": "537024.881096",
    "longitude": "-90.07865148174136",
    "latitude": "29.9707353712858",
    "geocoded_column": {
      "latitude": "29.9707353712858",
      "longitude": "-90.07865148174136"
    }
  },
  {
    "service_request": "2023-1040123",
    "request_type": "Trash/Recycling",
    "request_reason": "Replace Recycling Cart",
    "date_created": "2023-10-02T15:19:19.000",
    "date_modified": "2023-10-02T15:19:20.000",
    "request_status": "Pending",
    "responsible_agency": "Department of Sanitation",
    "final_address": "914 N Rocheblave St",
    "address_councildis": "D",
    "status": "Pending",
    "rowid": "1040123",
    "final_x": "3678079.72437",
    "final_y": "537011.6866",
    "longitude": "-90.07868044882096",
    "latitude": "29.970699362745286",
    "geocoded_column": {
      "latitude": "29.970699362745286",
      "longitude": "-90.07868044882096"
    }
  },
  {
    "service_request": "2023-1040122",
    "request_type": "Trash/Recycling",
    "request_reason": "Replace Trash Cart",
    "date_created": "2023-10-02T15:17:46.000",
    "date_modified": "2023-10-02T15:17:47.000",
    "request_status": "Pending",
    "responsible_agency": "Department of Sanitation",
    "final_address": "3610 Tasha Pl",
    "address_councildis": "C",
    "status": "Assigned to Contractor",
    "contractor": "Richards Disposal",
    "rowid": "1040122",
    "final_x": "3710096.74622",
    "final_y": "516913.251829",
    "longitude": "-89.978318381552",
    "latitude": "29.914433079161405",
    "geocoded_column": {
      "latitude": "29.914433079161405",
      "longitude": "-89.978318381552"
    }
  },
  {
    "service_request": "2023-1040121",
    "request_type": "Trash/Recycling",
    "request_reason": "Missed Trash Pick-Up",
    "date_created": "2023-10-02T15:16:39.000",
    "date_modified": "2023-10-02T15:16:40.000",
    "request_status": "Pending",
    "responsible_agency": "Department of Sanitation",
    "final_address": "1500 BLK Agriculture St",
    "address_councildis": "D",
    "status": "Assigned to Contractor",
    "contractor": "IV Waste",
    "rowid": "1040121",
    "final_x": "3679727.04701",
    "final_y": "542923.206592",
    "longitude": "-90.0732727025061",
    "latitude": "29.986904292877348",
    "geocoded_column": {
      "latitude": "29.986904292877348",
      "longitude": "-90.0732727025061"
    }
  },
  {
    "service_request": "2023-1040120",
    "request_type": "Roads/Drainage",
    "request_reason": "Pothole",
    "date_created": "2023-10-02T15:14:44.000",
    "date_modified": "2023-10-02T15:14:44.000",
    "request_status": "Pending",
    "responsible_agency": "Department of Public Works",
    "final_address": "1423 General Pershing St",
    "address_councildis": "B",
    "status": "Pending",
    "rowid": "1040120",
    "final_x": "3671330.69185",
    "final_y": "520571.244024",
    "longitude": "-90.1005533659415",
    "latitude": "29.925695010510914",
    "geocoded_column": {
      "latitude": "29.925695010510914",
      "longitude": "-90.1005533659415"
    }
  },
  {
    "service_request": "2023-1040119",
    "request_type": "Abandoned Vehicles",
    "request_reason": "Abandoned/Junk Vehicles",
    "date_created": "2023-10-02T15:10:23.000",
    "date_modified": "2023-10-02T15:10:25.000",
    "request_status": "Pending",
    "responsible_agency": "Department of Public Works",
    "final_address": "3644 Annunciation St",
    "address_councildis": "B",
    "status": "Pending",
    "rowid": "1040119",
    "final_x": "3674146.55278",
    "final_y": "518125.524214",
    "longitude": "-90.09174818692992",
    "latitude": "29.918886463349764",
    "geocoded_column": {
      "latitude": "29.918886463349764",
      "longitude": "-90.09174818692992"
    }
  },
  {
    "service_request": "2023-1040118",
    "request_type": "Property Maintenance",
    "request_reason": "Property Maintenance",
    "date_created": "2023-10-02T15:07:21.000",
    "date_modified": "2023-10-02T15:07:23.000",
    "request_status": "Pending",
    "responsible_agency": "Department of Code Enforcement",
    "final_address": "3912 Louisiana Avenue Prkwy",
    "address_councildis": "B",
    "status": "Pending",
    "rowid": "1040118",
    "final_x": "3671104.12692",
    "final_y": "529160.953664",
    "longitude": "-90.10097694010916",
    "latitude": "29.949320631541116",
    "geocoded_column": {
      "latitude": "29.949320631541116",
      "longitude": "-90.10097694010916"
    }
  },
  {
    "service_request": "2023-1040117",
    "request_type": "Trash/Recycling",
    "request_reason": "Replace Trash Cart",
    "date_created": "2023-10-02T15:05:34.000",
    "date_modified": "2023-10-02T15:05:35.000",
    "request_status": "Pending",
    "responsible_agency": "Department of Sanitation",
    "final_address": "3539 St Charles Ave",
    "address_councildis": "B",
    "status": "Assigned to Contractor",
    "contractor": "Richards Disposal",
    "rowid": "1040117",
    "final_x": "3673541.31304",
    "final_y": "521322.244025",
    "longitude": "-90.09354944179029",
    "latitude": "29.92769443684785",
    "geocoded_column": {
      "latitude": "29.92769443684785",
      "longitude": "-90.09354944179029"
    }
  },
  {
    "service_request": "2023-1040116",
    "request_type": "Abandoned Vehicles",
    "request_reason": "Abandoned/Junk Vehicles",
    "date_created": "2023-10-02T15:04:41.000",
    "date_modified": "2023-10-02T15:04:41.000",
    "request_status": "Pending",
    "responsible_agency": "Department of Public Works",
    "final_address": "3521 Baudin St",
    "address_councildis": "B",
    "status": "Pending",
    "rowid": "1040116",
    "final_x": "3671758.52155",
    "final_y": "535859.599239",
    "longitude": "-90.09868282153003",
    "latitude": "29.96772031308505",
    "geocoded_column": {
      "latitude": "29.96772031308505",
      "longitude": "-90.09868282153003"
    }
  },
  {
    "service_request": "2023-1040115",
    "request_type": "Trash/Recycling",
    "request_reason": "Missed Trash Pick-Up",
    "date_created": "2023-10-02T15:04:30.000",
    "date_modified": "2023-10-02T15:04:31.000",
    "request_status": "Pending",
    "responsible_agency": "Department of Sanitation",
    "final_address": "6800 W Coronet Ct Apt C",
    "address_councildis": "E",
    "status": "Assigned to Contractor",
    "contractor": "Waste Pro",
    "rowid": "1040115",
    "final_x": "3702293.87357",
    "final_y": "557210.156507",
    "longitude": "-90.00146833392579",
    "latitude": "30.025486351673795",
    "geocoded_column": {
      "latitude": "30.025486351673795",
      "longitude": "-90.00146833392579"
    }
  },
  {
    "service_request": "2023-1040114",
    "request_type": "Trash/Recycling",
    "request_reason": "Order Trash Cart",
    "date_created": "2023-10-02T15:04:07.000",
    "date_modified": "2023-10-02T15:04:09.000",
    "request_status": "Pending",
    "responsible_agency": "Department of Sanitation",
    "final_address": "5415 Montegut Dr",
    "address_councildis": "D",
    "status": "Assigned to Contractor",
    "contractor": "IV Waste",
    "rowid": "1040114",
    "final_x": "3689765.53891",
    "final_y": "553330.689623",
    "longitude": "-90.04119417787132",
    "latitude": "30.0152137219527",
    "geocoded_column": {
      "latitude": "30.0152137219527",
      "longitude": "-90.04119417787132"
    }
  },
  {
    "service_request": "2023-1040113",
    "request_type": "Trash/Recycling",
    "request_reason": "Repair Trash Cart",
    "date_created": "2023-10-02T15:03:08.000",
    "date_modified": "2023-10-02T15:03:09.000",
    "request_status": "Pending",
    "responsible_agency": "Department of Sanitation",
    "final_address": "6300 Stratford Pl",
    "address_councildis": "C",
    "status": "Assigned to Contractor",
    "contractor": "Richards Disposal",
    "rowid": "1040113",
    "final_x": "3707257.9244",
    "final_y": "516236.67218",
    "longitude": "-89.98730367914291",
    "latitude": "29.912664721844667",
    "geocoded_column": {
      "latitude": "29.912664721844667",
      "longitude": "-89.98730367914291"
    }
  },
  {
    "service_request": "2023-1040112",
    "request_type": "Trash/Recycling",
    "request_reason": "Request a Large Item Pick Up",
    "date_created": "2023-10-02T14:58:04.000",
    "date_modified": "2023-10-02T14:58:05.000",
    "request_status": "Pending",
    "responsible_agency": "Department of Sanitation",
    "final_address": "5111 Baccich St",
    "address_councildis": "D",
    "status": "Assigned to Contractor",
    "contractor": "IV Waste",
    "rowid": "1040112",
    "final_x": "3687669.31503",
    "final_y": "551817.053654",
    "longitude": "-90.04787089534223",
    "latitude": "30.011116610881647",
    "geocoded_column": {
      "latitude": "30.011116610881647",
      "longitude": "-90.04787089534223"
    }
  },
  {
    "service_request": "2023-1040111",
    "request_type": "Trash/Recycling",
    "request_reason": "Request a Large Item Pick Up",
    "date_created": "2023-10-02T14:57:47.000",
    "date_modified": "2023-10-02T14:57:48.000",
    "request_status": "Pending",
    "responsible_agency": "Department of Sanitation",
    "final_address": "2018 General Taylor St",
    "address_councildis": "B",
    "status": "Assigned to Contractor",
    "contractor": "Richards Disposal",
    "rowid": "1040111",
    "final_x": "3672223.2555",
    "final_y": "522610.06745",
    "longitude": "-90.09766640194043",
    "latitude": "29.931274684799817",
    "geocoded_column": {
      "latitude": "29.931274684799817",
      "longitude": "-90.09766640194043"
    }
  },
  {
    "service_request": "2023-1040110",
    "request_type": "Abandoned Vehicles",
    "request_reason": "Abandoned/Junk Vehicles",
    "date_created": "2023-10-02T14:54:48.000",
    "date_modified": "2023-10-02T14:54:49.000",
    "request_status": "Pending",
    "responsible_agency": "Department of Public Works",
    "final_address": "7150 Edgefield Dr",
    "address_councildis": "E",
    "status": "Pending",
    "rowid": "1040110",
    "final_x": "3718321.43327",
    "final_y": "569643.09015",
    "longitude": "-89.95035001532653",
    "latitude": "30.059149866735087",
    "geocoded_column": {
      "latitude": "30.059149866735087",
      "longitude": "-89.95035001532653"
    }
  },
  {
    "service_request": "2023-1040109",
    "request_type": "Trash/Recycling",
    "request_reason": "Order Trash Cart",
    "date_created": "2023-10-02T14:51:56.000",
    "date_modified": "2023-10-02T14:51:57.000",
    "request_status": "Pending",
    "responsible_agency": "Department of Sanitation",
    "final_address": "2528 Tricou St",
    "address_councildis": "E",
    "status": "Assigned to Contractor",
    "contractor": "Waste Pro",
    "rowid": "1040109",
    "final_x": "3702204.9713",
    "final_y": "538269.919625",
    "longitude": "-90.00244438563807",
    "latitude": "29.973410636739086",
    "geocoded_column": {
      "latitude": "29.973410636739086",
      "longitude": "-90.00244438563807"
    }
  },
  {
    "service_request": "2023-1040108",
    "request_type": "Trash/Recycling",
    "request_reason": "Request a Large Item Pick Up",
    "date_created": "2023-10-02T14:51:53.000",
    "date_modified": "2023-10-02T14:51:53.000",
    "request_status": "Closed",
    "responsible_agency": "Department of Sanitation",
    "final_address": "8334 Green St",
    "address_councildis": "A",
    "status": "Resolved",
    "rowid": "1040108",
    "final_x": "3662372.05779",
    "final_y": "530321.855234",
    "longitude": "-90.12850955987366",
    "latitude": "29.952768080367704",
    "geocoded_column": {
      "latitude": "29.952768080367704",
      "longitude": "-90.12850955987366"
    }
  },
  {
    "service_request": "2023-1040107",
    "request_type": "Property Maintenance",
    "request_reason": "Property Maintenance",
    "date_created": "2023-10-02T14:51:13.000",
    "date_modified": "2023-10-02T14:51:14.000",
    "request_status": "Pending",
    "responsible_agency": "Department of Code Enforcement",
    "final_address": "7310 Voyageur Dr",
    "address_councildis": "E",
    "status": "Pending",
    "rowid": "1040107",
    "final_x": "3726295.22925",
    "final_y": "569161.087782",
    "longitude": "-89.92516456422425",
    "latitude": "30.05755752907608",
    "geocoded_column": {
      "latitude": "30.05755752907608",
      "longitude": "-89.92516456422425"
    }
  },
  {
    "service_request": "2023-1040106",
    "request_type": "Trash/Recycling",
    "request_reason": "Order Trash Cart",
    "date_created": "2023-10-02T14:50:44.000",
    "date_modified": "2023-10-02T14:50:46.000",
    "request_status": "Pending",
    "responsible_agency": "Department of Sanitation",
    "final_address": "2526 Tricou St",
    "address_councildis": "E",
    "status": "Assigned to Contractor",
    "contractor": "Waste Pro",
    "rowid": "1040106",
    "final_x": "3702200.63101",
    "final_y": "538260.805001",
    "longitude": "-90.00245842741586",
    "latitude": "29.97338571345488",
    "geocoded_column": {
      "latitude": "29.97338571345488",
      "longitude": "-90.00245842741586"
    }
  },
  {
    "service_request": "2023-1040105",
    "request_type": "Trash/Recycling",
    "request_reason": "Order Recycling Cart",
    "date_created": "2023-10-02T14:50:36.000",
    "date_modified": "2023-10-02T14:50:36.000",
    "request_status": "Pending",
    "responsible_agency": "Department of Sanitation",
    "final_address": "6031 Eastover Dr",
    "address_councildis": "E",
    "status": "Pending",
    "rowid": "1040105",
    "final_x": "3718627.49561",
    "final_y": "565515.468834",
    "longitude": "-89.94954015267035",
    "latitude": "30.047790453084723",
    "geocoded_column": {
      "latitude": "30.047790453084723",
      "longitude": "-89.94954015267035"
    }
  },
  {
    "service_request": "2023-1040104",
    "request_type": "Trash/Recycling",
    "request_reason": "Request a Large Item Pick Up",
    "date_created": "2023-10-02T14:50:01.000",
    "date_modified": "2023-10-02T14:50:02.000",
    "request_status": "Pending",
    "responsible_agency": "Department of Sanitation",
    "final_address": "1408 Tennessee St",
    "address_councildis": "E",
    "status": "Assigned to Contractor",
    "contractor": "Waste Pro",
    "rowid": "1040104",
    "final_x": "3695927.76656",
    "final_y": "535543.357702",
    "longitude": "-90.02236751405016",
    "latitude": "29.96611254717628",
    "geocoded_column": {
      "latitude": "29.96611254717628",
      "longitude": "-90.02236751405016"
    }
  },
  {
    "service_request": "2023-1040103",
    "request_type": "Abandoned Vehicles",
    "request_reason": "Abandoned/Junk Vehicles",
    "date_created": "2023-10-02T14:48:53.000",
    "date_modified": "2023-10-02T14:48:53.000",
    "request_status": "Pending",
    "responsible_agency": "Department of Public Works",
    "final_address": "1683 St Thomas St",
    "address_councildis": "B",
    "status": "Pending",
    "rowid": "1040103",
    "final_x": "3681334.58012",
    "final_y": "522081.53049",
    "longitude": "-90.06892153082875",
    "latitude": "29.92954806622691",
    "geocoded_column": {
      "latitude": "29.92954806622691",
      "longitude": "-90.06892153082875"
    }
  },
  {
    "service_request": "2023-1040102",
    "request_type": "Trash/Recycling",
    "request_reason": "Repair Recycling Cart",
    "date_created": "2023-10-02T14:47:56.000",
    "date_modified": "2023-10-02T14:47:56.000",
    "request_status": "Pending",
    "responsible_agency": "Department of Sanitation",
    "final_address": "916 Spain St",
    "address_councildis": "C",
    "status": "Pending",
    "rowid": "1040102",
    "final_x": "3686141.49922",
    "final_y": "535833.603335",
    "longitude": "-90.05326200539788",
    "latitude": "29.967214859598815",
    "geocoded_column": {
      "latitude": "29.967214859598815",
      "longitude": "-90.05326200539788"
    }
  },
  {
    "service_request": "2023-1040101",
    "request_type": "Roads/Drainage",
    "request_reason": "Pothole",
    "date_created": "2023-10-02T14:45:54.000",
    "date_modified": "2023-10-02T14:45:55.000",
    "request_status": "Pending",
    "responsible_agency": "Department of Public Works",
    "final_address": "900 BLK Felicity St",
    "address_councildis": "B",
    "status": "Pending",
    "rowid": "1040101",
    "final_x": "3680453.94089",
    "final_y": "522580.148853",
    "longitude": "-90.07168421717077",
    "latitude": "29.930945793823682",
    "geocoded_column": {
      "latitude": "29.930945793823682",
      "longitude": "-90.07168421717077"
    }
  },
  {
    "service_request": "2023-1040100",
    "request_type": "Trash/Recycling",
    "request_reason": "Repair Recycling Cart",
    "date_created": "2023-10-02T14:43:35.000",
    "date_modified": "2023-10-02T14:43:35.000",
    "request_status": "Pending",
    "responsible_agency": "Department of Sanitation",
    "final_address": "1916 Spain St",
    "address_councildis": "D",
    "status": "Pending",
    "rowid": "1040100",
    "final_x": "3685844.09551",
    "final_y": "539498.876746",
    "longitude": "-90.05407198013617",
    "latitude": "29.977302213454834",
    "geocoded_column": {
      "latitude": "29.977302213454834",
      "longitude": "-90.05407198013617"
    }
  },
  {
    "service_request": "2023-1040099",
    "request_type": "Abandoned Vehicles",
    "request_reason": "Abandoned/Junk Vehicles",
    "date_created": "2023-10-02T14:42:35.000",
    "date_modified": "2023-10-02T14:42:35.000",
    "request_status": "Pending",
    "responsible_agency": "Department of Public Works",
    "final_address": "ST PETER ST & N ST PATRICK ST",
    "address_councildis": "A",
    "status": "Pending",
    "rowid": "1040099",
    "final_x": "3670414.2",
    "final_y": "541545.68",
    "longitude": "-90.1027353853311",
    "latitude": "29.9833948751656",
    "geocoded_column": {
      "latitude": "29.9833948751656",
      "longitude": "-90.1027353853311"
    }
  },
  {
    "service_request": "2023-1040097",
    "request_type": "Traffic Signals/Signs/Striping/Streetlights",
    "request_reason": "Street Light Outage/Malfunction",
    "date_created": "2023-10-02T14:32:44.000",
    "date_modified": "2023-10-02T14:32:45.000",
    "request_status": "Pending",
    "responsible_agency": "Department of Public Works",
    "final_address": "3112 Jackson Ave",
    "address_councildis": "B",
    "status": "Assigned to Contractor",
    "contractor": "Legacy Professional Services",
    "rowid": "1040097",
    "final_x": "3674035.50888",
    "final_y": "528305.551872",
    "longitude": "-90.0917505153757",
    "latitude": "29.946881544274063",
    "geocoded_column": {
      "latitude": "29.946881544274063",
      "longitude": "-90.0917505153757"
    }
  },
  {
    "service_request": "2023-1040096",
    "request_type": "Trash/Recycling",
    "request_reason": "Missed Trash Pick-Up",
    "date_created": "2023-10-02T14:26:32.000",
    "date_modified": "2023-10-02T14:26:33.000",
    "request_status": "Pending",
    "responsible_agency": "Department of Sanitation",
    "final_address": "4600 BLK Conti St",
    "address_councildis": "A",
    "status": "Assigned to Contractor",
    "contractor": "Richards Disposal",
    "rowid": "1040096",
    "final_x": "3669969.745",
    "final_y": "540661.938149",
    "longitude": "-90.10416915353538",
    "latitude": "29.980978003106543",
    "geocoded_column": {
      "latitude": "29.980978003106543",
      "longitude": "-90.10416915353538"
    }
  },
  {
    "service_request": "2023-1040095",
    "request_type": "Trash/Recycling",
    "request_reason": "MIssed Recycling Pick-Up",
    "date_created": "2023-10-02T14:25:14.000",
    "date_modified": "2023-10-02T14:25:15.000",
    "request_status": "Pending",
    "responsible_agency": "Department of Sanitation",
    "final_address": "4 Cromwell Pl",
    "address_councildis": "A",
    "status": "Assigned to Contractor",
    "contractor": "Richards Disposal",
    "rowid": "1040095",
    "final_x": "3665872.74388",
    "final_y": "523773.415227",
    "longitude": "-90.11767528142107",
    "latitude": "29.934660301156775",
    "geocoded_column": {
      "latitude": "29.934660301156775",
      "longitude": "-90.11767528142107"
    }
  },
  {
    "service_request": "2023-1040094",
    "request_type": "Trash/Recycling",
    "request_reason": "Request a Large Item Pick Up",
    "date_created": "2023-10-02T14:25:06.000",
    "date_modified": "2023-10-02T14:25:07.000",
    "request_status": "Pending",
    "responsible_agency": "Department of Sanitation",
    "final_address": "2455 Laharpe St",
    "address_councildis": "D",
    "status": "Assigned to Contractor",
    "contractor": "IV Waste",
    "rowid": "1040094",
    "final_x": "3679386.69557",
    "final_y": "539505.495178",
    "longitude": "-90.07446634965271",
    "latitude": "29.97751706233542",
    "geocoded_column": {
      "latitude": "29.97751706233542",
      "longitude": "-90.07446634965271"
    }
  },
  {
    "service_request": "2023-1040093",
    "request_type": "Trash/Recycling",
    "request_reason": "Request a Large Item Pick Up",
    "date_created": "2023-10-02T14:24:26.000",
    "date_modified": "2023-10-02T14:24:27.000",
    "request_status": "Pending",
    "responsible_agency": "Department of Sanitation",
    "final_address": "6 Cromwell Pl",
    "address_councildis": "A",
    "status": "Assigned to Contractor",
    "contractor": "Richards Disposal",
    "rowid": "1040093",
    "final_x": "3665865.72781",
    "final_y": "523774.983483",
    "longitude": "-90.11769737858178",
    "latitude": "29.934664818033376",
    "geocoded_column": {
      "latitude": "29.934664818033376",
      "longitude": "-90.11769737858178"
    }
  },
  {
    "service_request": "2023-1040092",
    "request_type": "Trash/Recycling",
    "request_reason": "Repair Trash Cart",
    "date_created": "2023-10-02T14:24:10.000",
    "date_modified": "2023-10-02T14:24:11.000",
    "request_status": "Pending",
    "responsible_agency": "Department of Sanitation",
    "final_address": "337 N Bernadotte St",
    "address_councildis": "A",
    "status": "Assigned to Contractor",
    "contractor": "Richards Disposal",
    "rowid": "1040092",
    "final_x": "3669467.38394",
    "final_y": "540992.646283",
    "longitude": "-90.10574464818468",
    "latitude": "29.98190214634509",
    "geocoded_column": {
      "latitude": "29.98190214634509",
      "longitude": "-90.10574464818468"
    }
  },