[
  {
    "service_request": "2023-969770",
    "request_type": "Trash/Recycling",
    "request_reason": "Request a Large Item Pick Up",
    "date_created": "2023-01-23T23:34:59.000",
    "date_modified": "2023-01-23T23:35:00.000",
    "request_status": "Pending",
    "responsible_agency": "Department of Sanitation",
    "final_address": "1141 Eighth St",
    "address_councildis": "B",
    "status": "Assigned to Contractor",
    "contractor": "Richards Disposal",
    "rowid": "969770",
    "final_x": "3675959.3563",
    "final_y": "520507.36492",
    "longitude": "-90.08594425441291",
    "latitude": "29.925381622184727",
    "geocoded_column": {
      "latitude": "29.925381622184727",
      "longitude": "-90.08594425441291"
    }
  },
  {
    "service_request": "2023-969769",
    "request_type": "Trash/Recycling",
    "request_reason": "Request a Large Item Pick Up",
    "date_created": "2023-01-23T23:09:05.000",
    "date_modified": "2023-01-23T23:09:06.000",
    "request_status": "Pending",
    "responsible_agency": "Department of Sanitation",
    "final_address": "927 Broadway St",
    "address_councildis": "A",
    "status": "Assigned to Contractor",
    "contractor": "Richards Disposal",
    "rowid": "969769",
    "final_x": "3663721.82829",
    "final_y": "525743.096829",
    "longitude": "-90.12440010526595",
    "latitude": "29.94013887128922",
    "geocoded_column": {
      "latitude": "29.94013887128922",
      "longitude": "-90.12440010526595"
    }
  },
  {
    "service_request": "2023-969768",
    "request_type": "Trash/Recycling",
    "request_reason": "Order Recycling Cart",
    "date_created": "2023-01-23T23:06:41.000",
    "date_modified": "2023-01-23T23:06:41.000",
    "request_status": "Pending",
    "responsible_agency": "Department of Sanitation",
    "final_address": "2135 St Roch Ave",
    "address_councildis": "D",
    "status": "Pending",
    "rowid": "969768",
    "final_x": "3686245.59113",
    "final_y": "540434.609483",
    "longitude": "-90.05277089893542",
    "latitude": "29.979862817663925",
    "geocoded_column": {
      "latitude": "29.979862817663925",
      "longitude": "-90.05277089893542"
    }
  },
  {
    "service_request": "2023-969767",
    "request_type": "Trash/Recycling",
    "request_reason": "Missed Trash Pick-Up",
    "date_created": "2023-01-23T22:58:33.000",
    "date_modified": "2023-01-23T22:58:33.000",
    "request_status": "Pending",
    "responsible_agency": "Department of Sanitation",
    "final_address": "745 S Genois St",
    "address_councildis": "B",
    "status": "Assigned to Contractor",
    "contractor": "Richards Disposal",
    "rowid": "969767",
    "final_x": "3670907.48359",
    "final_y": "535033.38247",
    "longitude": "-90.1013984815006",
    "latitude": "29.965473680370117",
    "geocoded_column": {
      "latitude": "29.965473680370117",
      "longitude": "-90.1013984815006"
    }
  },
  {
    "service_request": "2023-969763",
    "request_type": "Trash/Recycling",
    "request_reason": "Illegal Dumping",
    "date_created": "2023-01-23T22:40:49.000",
    "date_modified": "2023-01-23T22:40:49.000",
    "request_status": "Pending",
    "responsible_agency": "Department of Sanitation",
    "final_address": "WRIGHT RD & ROGER DR",
    "address_councildis": "E",
    "status": "Pending",
    "rowid": "969763",
    "final_x": "3712421.4",
    "final_y": "563647.28",
    "longitude": "-89.96922499532756",
    "latitude": "30.042858308373265",
    "geocoded_column": {
      "latitude": "30.042858308373265",
      "longitude": "-89.96922499532756"
    }
  },
  {
    "service_request": "2023-969762",
    "request_type": "Abandoned Vehicles",
    "request_reason": "Abandoned/Junk Vehicles",
    "date_created": "2023-01-23T22:22:14.000",
    "date_modified": "2023-01-23T22:22:14.000",
    "request_status": "Pending",
    "responsible_agency": "Department of Public Works",
    "final_address": "10841 Roger Dr",
    "address_councildis": "E",
    "status": "Pending",
    "rowid": "969762",
    "final_x": "3711812.37182",
    "final_y": "563244.70224",
    "longitude": "-89.97116487729235",
    "latitude": "30.04177130309243",
    "geocoded_column": {
      "latitude": "30.04177130309243",
      "longitude": "-89.97116487729235"
    }
  },
  {
    "service_request": "2023-969761",
    "request_type": "Roads/Drainage",
    "request_reason": "Street Subsidence (Sinking)",
    "date_created": "2023-01-23T21:46:46.000",
    "date_modified": "2023-01-23T21:46:46.000",
    "request_status": "Pending",
    "responsible_agency": "Department of Public Works",
    "final_address": "1419 New York St",
    "address_councildis": "D",
    "status": "Pending",
    "rowid": "969761",
    "final_x": "3677931.74901",
    "final_y": "555680.949017",
    "longitude": "-90.07850209334664",
    "latitude": "30.022037706600187",
    "geocoded_column": {
      "latitude": "30.022037706600187",
      "longitude": "-90.07850209334664"
    }
  },
  {
    "service_request": "2023-969760",
    "request_type": "Trash/Recycling",
    "request_reason": "Missed Trash Pick-Up",
    "date_created": "2023-01-23T21:34:09.000",
    "date_modified": "2023-01-23T21:34:10.000",
    "request_status": "Pending",
    "responsible_agency": "Department of Sanitation",
    "final_address": "820 N Prieur St",
    "address_councildis": "D",
    "status": "Assigned to Contractor",
    "contractor": "Richards Disposal",
    "rowid": "969760",
    "final_x": "3679266.60744",
    "final_y": "535661.640966",
    "longitude": "-90.0749789511362",
    "latitude": "29.966951411768832",
    "geocoded_column": {
      "latitude": "29.966951411768832",
      "longitude": "-90.0749789511362"
    }
  },
  {
    "service_request": "2023-969759",
    "request_type": "Health Related Request",
    "request_reason": "Noise Ordinance Complaint",
    "date_created": "2023-01-23T21:28:08.000",
    "date_modified": "2023-01-23T21:28:09.000",
    "request_status": "Pending",
    "responsible_agency": "Health Department",
    "final_address": "3741 Willow St",
    "address_councildis": "B",
    "status": "Pending",
    "rowid": "969759",
    "final_x": "3671662.117",
    "final_y": "525615.317693",
    "longitude": "-90.09933567813955",
    "latitude": "29.93955477809414",
    "geocoded_column": {
      "latitude": "29.93955477809414",
      "longitude": "-90.09933567813955"
    }
  },
  {
    "service_request": "2023-969758",
    "request_type": "Roads/Drainage",
    "request_reason": "WaterMain Break",
    "date_created": "2023-01-23T21:20:48.000",
    "date_modified": "2023-01-23T21:20:48.000",
    "request_status": "Closed",
    "responsible_agency": "Department of Public Works",
    "final_address": "2601 Gentilly Blvd",
    "address_councildis": "D",
    "status": "Invalid Case",
    "rowid": "969758",
    "final_x": "3682825.37519",
    "final_y": "546225.325328",
    "longitude": "-90.0633706283652",
    "latitude": "29.995889899621528",
    "geocoded_column": {
      "latitude": "29.995889899621528",
      "longitude": "-90.0633706283652"
    }
  },
  {
    "service_request": "2023-969757",
    "request_type": "Trash/Recycling",
    "request_reason": "Illegal Dumping",
    "date_created": "2023-01-23T20:51:59.000",
    "date_modified": "2023-01-23T20:51:59.000",
    "request_status": "Pending",
    "responsible_agency": "Department of Sanitation",
    "final_address": "3411 Marais St",
    "address_councildis": "C",
    "status": "Pending",
    "rowid": "969757",
    "final_x": "3690428.80694",
    "final_y": "536063.471943",
    "longitude": "-90.0397144926417",
    "latitude": "29.967714524926173",
    "geocoded_column": {
      "latitude": "29.967714524926173",
      "longitude": "-90.0397144926417"
    }
  },
  {
    "service_request": "2023-969756",
    "request_type": "Roads/Drainage",
    "request_reason": "Catch Basin - Clogged",
    "date_created": "2023-01-23T20:45:04.000",
    "date_modified": "2023-01-23T20:45:04.000",
    "request_status": "Pending",
    "responsible_agency": "Department of Public Works",
    "final_address": "1301 Desire St",
    "address_councildis": "C",
    "status": "Pending",
    "rowid": "969756",
    "final_x": "3690422.09353",
    "final_y": "536497.467079",
    "longitude": "-90.03972022048657",
    "latitude": "29.96890806735299",
    "geocoded_column": {
      "latitude": "29.96890806735299",
      "longitude": "-90.03972022048657"
    }
  },
  {
    "service_request": "2023-969755",
    "request_type": "Traffic Signals/Signs/Striping/Streetlights",
    "request_reason": "Street Light Outage/Malfunction",
    "date_created": "2023-01-23T20:39:37.000",
    "date_modified": "2023-01-23T20:39:38.000",
    "request_status": "Pending",
    "responsible_agency": "Department of Public Works",
    "final_address": "3338 Octavia St",
    "address_councildis": "A",
    "status": "Assigned to Contractor",
    "contractor": "Legacy Professional Services",
    "rowid": "969755",
    "final_x": "3668402.83879",
    "final_y": "527986.363711",
    "longitude": "-90.1095457450252",
    "latitude": "29.94617049955007",
    "geocoded_column": {
      "latitude": "29.94617049955007",
      "longitude": "-90.1095457450252"
    }
  },
  {
    "service_request": "2023-969754",
    "request_type": "Trash/Recycling",
    "request_reason": "Replace Trash Cart",
    "date_created": "2023-01-23T20:31:29.000",
    "date_modified": "2023-01-23T20:31:29.000",
    "request_status": "Pending",
    "responsible_agency": "Department of Sanitation",
    "final_address": "6021 West End Blvd",
    "address_councildis": "A",
    "status": "Assigned to Contractor",
    "contractor": "IV Waste",
    "rowid": "969754",
    "final_x": "3666535.82612",
    "final_y": "547752.167762",
    "longitude": "-90.11477689007326",
    "latitude": "30.000574557964843",
    "geocoded_column": {
      "latitude": "30.000574557964843",
      "longitude": "-90.11477689007326"
    }
  },
  {
    "service_request": "2023-969753",
    "request_type": "Trash/Recycling",
    "request_reason": "Request a Large Item Pick Up",
    "date_created": "2023-01-23T20:29:28.000",
    "date_modified": "2023-01-23T20:29:29.000",
    "request_status": "Pending",
    "responsible_agency": "Department of Sanitation",
    "final_address": "1001 St Ann St",
    "address_councildis": "C",
    "status": "Assigned to Contractor",
    "contractor": "Empire Services",
    "rowid": "969753",
    "final_x": "3681906.2838",
    "final_y": "533465.710084",
    "longitude": "-90.06671951045274",
    "latitude": "29.960833381118672",
    "geocoded_column": {
      "latitude": "29.960833381118672",
      "longitude": "-90.06671951045274"
    }
  },
  {
    "service_request": "2023-969752",
    "request_type": "Trash/Recycling",
    "request_reason": "Request a Large Item Pick Up",
    "date_created": "2023-01-23T20:28:20.000",
    "date_modified": "2023-01-23T20:28:20.000",
    "request_status": "Pending",
    "responsible_agency": "Department of Sanitation",
    "final_address": "11211 N Idlewood Ct, New Orleans, Louisiana, 70128",
    "address_councildis": "E",
    "status": "Assigned to Contractor",
    "contractor": "Waste Pro",
    "rowid": "969752",
    "final_x": "3716025.86207",
    "final_y": "560277.469149",
    "longitude": "-89.9579613954362",
    "latitude": "30.03347420878148",
    "geocoded_column": {
      "latitude": "30.03347420878148",
      "longitude": "-89.9579613954362"
    }
  },
  {
    "service_request": "2023-969751",
    "request_type": "Trash/Recycling",
    "request_reason": "Missed Trash Pick-Up",
    "date_created": "2023-01-23T20:21:58.000",
    "date_modified": "2023-01-23T20:21:58.000",
    "request_status": "Pending",
    "responsible_agency": "Department of Sanitation",
    "final_address": "1107 Napoleon Ave",
    "address_councildis": "B",
    "status": "Assigned to Contractor",
    "contractor": "Richards Disposal",
    "rowid": "969751",
    "final_x": "3671051.84206",
    "final_y": "519633.057976",
    "longitude": "-90.10146545166515",
    "latitude": "29.9231235443977",
    "geocoded_column": {
      "latitude": "29.9231235443977",
      "longitude": "-90.10146545166515"
    }
  },
  {
    "service_request": "2023-969750",
    "request_type": "Traffic Signals/Signs/Striping/Streetlights",
    "request_reason": "Street Light Outage/Malfunction",
    "date_created": "2023-01-23T20:11:22.000",
    "date_modified": "2023-01-23T20:11:23.000",
    "request_status": "Pending",
    "responsible_agency": "Department of Public Works",
    "final_address": "1567 Maura Pl, New Orleans, Louisiana, 70131",
    "address_councildis": "C",
    "status": "Assigned to Contractor",
    "contractor": "Legacy Professional Services",
    "rowid": "969750",
    "final_x": "3699194.83517",
    "final_y": "525179.729725",
    "longitude": "-90.01242753696253",
    "latitude": "29.93751304349365",
    "geocoded_column": {
      "latitude": "29.93751304349365",
      "longitude": "-90.01242753696253"
    }
  },
  {
    "service_request": "2023-969749",
    "request_type": "Trash/Recycling",
    "request_reason": "Repair Trash Cart",
    "date_created": "2023-01-23T19:50:31.000",
    "date_modified": "2023-01-23T19:50:32.000",
    "request_status": "Pending",
    "responsible_agency": "Department of Sanitation",
    "final_address": "3612 Upperline St",
    "address_councildis": "B",
    "status": "Assigned to Contractor",
    "contractor": "Richards Disposal",
    "rowid": "969749",
    "final_x": "3669257.15047",
    "final_y": "528162.601152",
    "longitude": "-90.10684242432613",
    "latitude": "29.94662997876134",
    "geocoded_column": {
      "latitude": "29.94662997876134",
      "longitude": "-90.10684242432613"
    }
  },
  {
    "service_request": "2023-969748",
    "request_type": "Trash/Recycling",
    "request_reason": "Repair Trash Cart",
    "date_created": "2023-01-23T19:49:32.000",
    "date_modified": "2023-01-23T19:49:33.000",
    "request_status": "Pending",
    "responsible_agency": "Department of Sanitation",
    "final_address": "3612 Upperline St",
    "address_councildis": "B",
    "status": "Assigned to Contractor",
    "contractor": "Richards Disposal",
    "rowid": "969748",
    "final_x": "3669257.15047",
    "final_y": "528162.601152",
    "longitude": "-90.10684242432613",
    "latitude": "29.94662997876134",
    "geocoded_column": {
      "latitude": "29.94662997876134",
      "longitude": "-90.10684242432613"
    }
  },
  {
    "service_request": "2023-969747",
    "request_type": "Traffic Signals/Signs/Striping/Streetlights",
    "request_reason": "Street Light Outage/Malfunction",
    "date_created": "2023-01-23T19:46:05.000",
    "date_modified": "2023-01-23T19:46:06.000",
    "request_status": "Pending",
    "responsible_agency": "Department of Public Works",
    "final_address": "5600 BLK Oxford Pl",
    "address_councildis": "C",
    "status": "Assigned to Contractor",
    "contractor": "Legacy Professional Services",
    "rowid": "969747",
    "final_x": "3704851.42294",
    "final_y": "519906.626313",
    "longitude": "-89.99476390633053",
    "latitude": "29.922833340604345",
    "geocoded_column": {
      "latitude": "29.922833340604345",
      "longitude": "-89.99476390633053"
    }
  },
  {
    "service_request": "2023-969746",
    "request_type": "Traffic Signals/Signs/Striping/Streetlights",
    "request_reason": "Road Surface Marking Maintenance-Parking Lane",
    "date_created": "2023-01-23T19:43:45.000",
    "date_modified": "2023-01-23T19:43:45.000",
    "request_status": "Pending",
    "responsible_agency": "Department of Public Works",
    "final_address": "3152 Dauphine St",
    "address_councildis": "C",
    "status": "Pending",
    "rowid": "969746",
    "final_x": "3689129.45321",
    "final_y": "534680.114694",
    "longitude": "-90.04386703646082",
    "latitude": "29.963951047594133",
    "geocoded_column": {
      "latitude": "29.963951047594133",
      "longitude": "-90.04386703646082"
    }
  },
  {
    "service_request": "2023-969745",
    "request_type": "Trash/Recycling",
    "request_reason": "Replace Trash Cart",
    "date_created": "2023-01-23T19:40:49.000",
    "date_modified": "2023-01-23T19:40:51.000",
    "request_status": "Pending",
    "responsible_agency": "Department of Sanitation",
    "final_address": "5331 Magazine St",
    "address_councildis": "B",
    "status": "Assigned to Contractor",
    "contractor": "Richards Disposal",
    "rowid": "969745",
    "final_x": "3667256.96436",
    "final_y": "518747.601015",
    "longitude": "-90.1134742218522",
    "latitude": "29.920800452309216",
    "geocoded_column": {
      "latitude": "29.920800452309216",
      "longitude": "-90.1134742218522"
    }
  },
  {
    "service_request": "2023-969744",
    "request_type": "Traffic Signals/Signs/Striping/Streetlights",
    "request_reason": "Street Light Outage/Malfunction",
    "date_created": "2023-01-23T19:37:49.000",
    "date_modified": "2023-01-23T19:37:50.000",
    "request_status": "Pending",
    "responsible_agency": "Department of Public Works",
    "final_address": "819 St Louis St",
    "address_councildis": "C",
    "status": "Assigned to Contractor",
    "contractor": "Legacy Professional Services",
    "rowid": "969744",
    "final_x": "3681732.08834",
    "final_y": "532255.725251",
    "longitude": "-90.06731180252456",
    "latitude": "29.957511628543656",
    "geocoded_column": {
      "latitude": "29.957511628543656",
      "longitude": "-90.06731180252456"
    }
  },
  {
    "service_request": "2023-969743",
    "request_type": "Trash/Recycling",
    "request_reason": "Order Recycling Cart",
    "date_created": "2023-01-23T19:29:52.000",
    "date_modified": "2023-01-23T19:29:52.000",
    "request_status": "Pending",
    "responsible_agency": "Department of Sanitation",
    "final_address": "5150 Venus St",
    "address_councildis": "D",
    "status": "Pending",
    "rowid": "969743",
    "final_x": "3686298.54697",
    "final_y": "551949.035542",
    "longitude": "-90.05219702946559",
    "latitude": "30.01152172543358",
    "geocoded_column": {
      "latitude": "30.01152172543358",
      "longitude": "-90.05219702946559"
    }
  },
  {
    "service_request": "2023-969741",
    "request_type": "Trash/Recycling",
    "request_reason": "Order Trash Cart",
    "date_created": "2023-01-23T19:16:45.000",
    "date_modified": "2023-01-23T19:16:45.000",
    "request_status": "Pending",
    "responsible_agency": "Department of Sanitation",
    "final_address": "6755 Deanne St",
    "address_councildis": "D",
    "status": "Assigned to Contractor",
    "contractor": "Waste Pro",
    "rowid": "969741",
    "final_x": "3695960.49411",
    "final_y": "555621.257177",
    "longitude": "-90.02153827621687",
    "latitude": "30.021318376981743",
    "geocoded_column": {
      "latitude": "30.021318376981743",
      "longitude": "-90.02153827621687"
    }
  },
  {
    "service_request": "2023-969740",
    "request_type": "Traffic Signals/Signs/Striping/Streetlights",
    "request_reason": "Street Light Outage/Malfunction",
    "date_created": "2023-01-23T19:05:08.000",
    "date_modified": "2023-01-23T19:05:10.000",
    "request_status": "Pending",
    "responsible_agency": "Department of Public Works",
    "final_address": "2627 N Rocheblave St",
    "address_councildis": "D",
    "status": "Assigned to Contractor",
    "contractor": "Legacy Professional Services",
    "rowid": "969740",
    "final_x": "3686672.64118",
    "final_y": "541294.973452",
    "longitude": "-90.0513917009271",
    "latitude": "29.98221538453191",
    "geocoded_column": {
      "latitude": "29.98221538453191",
      "longitude": "-90.0513917009271"
    }
  },
  {
    "service_request": "2023-969739",
    "request_type": "Traffic Signals/Signs/Striping/Streetlights",
    "request_reason": "Street Light Outage/Malfunction",
    "date_created": "2023-01-23T18:50:39.000",
    "date_modified": "2023-01-23T18:50:40.000",
    "request_status": "Pending",
    "responsible_agency": "Department of Public Works",
    "final_address": "2536 Eton St",
    "address_councildis": "C",
    "status": "Assigned to Contractor",
    "contractor": "Legacy Professional Services",
    "rowid": "969739",
    "final_x": "3704132.47543",
    "final_y": "521816.021306",
    "longitude": "-89.99696302932628",
    "latitude": "29.92810658762805",
    "geocoded_column": {
      "latitude": "29.92810658762805",
      "longitude": "-89.99696302932628"
    }
  },
  {
    "service_request": "2023-969738",
    "request_type": "Traffic Signals/Signs/Striping/Streetlights",
    "request_reason": "Street Light Outage/Malfunction",
    "date_created": "2023-01-23T18:49:26.000",
    "date_modified": "2023-01-23T18:49:27.000",
    "request_status": "Pending",
    "responsible_agency": "Department of Public Works",
    "final_address": "2536 Eton St",
    "address_councildis": "C",
    "status": "Assigned to Contractor",
    "contractor": "Legacy Professional Services",
    "rowid": "969738",
    "final_x": "3704132.47543",
    "final_y": "521816.021306",
    "longitude": "-89.99696302932628",
    "latitude": "29.92810658762805",
    "geocoded_column": {
      "latitude": "29.92810658762805",
      "longitude": "-89.99696302932628"
    }
  },
  {
    "service_request": "2023-969737",
    "request_type": "Traffic Signals/Signs/Striping/Streetlights",
    "request_reason": "Street Light Outage/Malfunction",
    "date_created": "2023-01-23T18:44:37.000",
    "date_modified": "2023-01-23T18:44:38.000",
    "request_status": "Pending",
    "responsible_agency": "Department of Public Works",
    "final_address": "701 S Carrollton Ave",
    "address_councildis": "A",
    "status": "Assigned to Contractor",
    "contractor": "Legacy Professional Services",
    "rowid": "969737",
    "final_x": "3660976.65171",
    "final_y": "527019.346686",
    "longitude": "-90.13302488874545",
    "latitude": "29.943727507717504",
    "geocoded_column": {
      "latitude": "29.943727507717504",
      "longitude": "-90.13302488874545"
    }
  },
  {
    "service_request": "2023-969736",
    "request_type": "Health Related Request",
    "request_reason": "Noise Ordinance Complaint",
    "date_created": "2023-01-23T18:43:49.000",
    "date_modified": "2023-01-23T18:43:50.000",
    "request_status": "Pending",
    "responsible_agency": "Health Department",
    "final_address": "8000 BLK Birch St",
    "address_councildis": "A",
    "status": "Pending",
    "rowid": "969736",
    "final_x": "3663120.70259",
    "final_y": "529219.88098",
    "longitude": "-90.12618231979759",
    "latitude": "29.949716340348846",
    "geocoded_column": {
      "latitude": "29.949716340348846",
      "longitude": "-90.12618231979759"
    }
  },
  {
    "service_request": "2023-969735",
    "request_type": "Abandoned Vehicles",
    "request_reason": "Abandoned/Junk Vehicles",
    "date_created": "2023-01-23T18:39:19.000",
    "date_modified": "2023-01-23T18:39:19.000",
    "request_status": "Pending",
    "responsible_agency": "Department of Public Works",
    "final_address": "PATTERSON DR & LENNOX CT",
    "address_councildis": "C",
    "status": "Pending",
    "rowid": "969735",
    "final_x": "3706656.7",
    "final_y": "521559.28",
    "longitude": "-89.98900420112363",
    "latitude": "29.927319448856764",
    "geocoded_column": {
      "latitude": "29.927319448856764",
      "longitude": "-89.98900420112363"
    }
  },
  {
    "service_request": "2023-969734",
    "request_type": "Trash/Recycling",
    "request_reason": "Order Recycling Cart",
    "date_created": "2023-01-23T18:32:14.000",
    "date_modified": "2023-01-23T18:32:14.000",
    "request_status": "Pending",
    "responsible_agency": "Department of Sanitation",
    "final_address": "6321 Alhambra St",
    "address_councildis": "E",
    "status": "Pending",
    "rowid": "969734",
    "final_x": "3699246.35536",
    "final_y": "530358.92045",
    "longitude": "-90.01207634291401",
    "latitude": "29.95175237132345",
    "geocoded_column": {
      "latitude": "29.95175237132345",
      "longitude": "-90.01207634291401"
    }
  },
  {
    "service_request": "2023-969733",
    "request_type": "Trash/Recycling",
    "request_reason": "Replace Trash Cart",
    "date_created": "2023-01-23T18:31:44.000",
    "date_modified": "2023-01-23T18:31:45.000",
    "request_status": "Pending",
    "responsible_agency": "Department of Sanitation",
    "final_address": "1633 Constantinople St",
    "address_councildis": "B",
    "status": "Assigned to Contractor",
    "contractor": "Richards Disposal",
    "rowid": "969733",
    "final_x": "3672326.07796",
    "final_y": "521292.084217",
    "longitude": "-90.09738668272621",
    "latitude": "29.927647605718374",
    "geocoded_column": {
      "latitude": "29.927647605718374",
      "longitude": "-90.09738668272621"
    }
  },
  {
    "service_request": "2023-969732",
    "request_type": "Trash/Recycling",
    "request_reason": "Missed Trash Pick-Up",
    "date_created": "2023-01-23T18:29:11.000",
    "date_modified": "2023-01-23T18:29:12.000",
    "request_status": "Pending",
    "responsible_agency": "Department of Sanitation",
    "final_address": "438 S Pierce St",
    "address_councildis": "B",
    "status": "Assigned to Contractor",
    "contractor": "Richards Disposal",
    "rowid": "969732",
    "final_x": "3670551.45723",
    "final_y": "536775.831048",
    "longitude": "-90.10246369077076",
    "latitude": "29.97027535075929",
    "geocoded_column": {
      "latitude": "29.97027535075929",
      "longitude": "-90.10246369077076"
    }
  },
  {
    "service_request": "2023-969731",
    "request_type": "Trash/Recycling",
    "request_reason": "Request a Large Item Pick Up",
    "date_created": "2023-01-23T18:26:53.000",
    "date_modified": "2023-01-23T18:26:54.000",
    "request_status": "Pending",
    "responsible_agency": "Department of Sanitation",
    "final_address": "2928 Ursulines Ave",
    "address_councildis": "A",
    "status": "Assigned to Contractor",
    "contractor": "Richards Disposal",
    "rowid": "969731",
    "final_x": "3676594.07797",
    "final_y": "538858.358793",
    "longitude": "-90.08330868078811",
    "latitude": "29.975821725612974",
    "geocoded_column": {
      "latitude": "29.975821725612974",
      "longitude": "-90.08330868078811"
    }
  },
  {
    "service_request": "2023-969730",
    "request_type": "Property Maintenance",
    "request_reason": "Property Maintenance",
    "date_created": "2023-01-23T18:24:15.000",
    "date_modified": "2023-01-23T18:24:15.000",
    "request_status": "Pending",
    "responsible_agency": "Department of Code Enforcement",
    "final_address": "5730 Providence Pl",
    "address_councildis": "D",
    "status": "Pending",
    "rowid": "969730",
    "final_x": "3688174.04316",
    "final_y": "554449.181912",
    "longitude": "-90.0461828462937",
    "latitude": "30.01833841368749",
    "geocoded_column": {
      "latitude": "30.01833841368749",
      "longitude": "-90.0461828462937"
    }
  },
  {
    "service_request": "2023-969729",
    "request_type": "Roads/Drainage",
    "request_reason": "Street Subsidence (Sinking)",
    "date_created": "2023-01-23T18:09:28.000",
    "date_modified": "2023-01-23T18:09:28.000",
    "request_status": "Pending",
    "responsible_agency": "Department of Public Works",
    "final_address": "13067 Calais St",
    "address_councildis": "E",
    "status": "Pending",
    "rowid": "969729",
    "final_x": "3724314.02464",
    "final_y": "560598.980126",
    "longitude": "-89.93175784736457",
    "latitude": "30.0340820840945",
    "geocoded_column": {
      "latitude": "30.0340820840945",
      "longitude": "-89.93175784736457"
    }
  },
  {
    "service_request": "2023-969728",
    "request_type": "Abandoned Vehicles",
    "request_reason": "Abandoned/Junk Vehicles",
    "date_created": "2023-01-23T17:58:06.000",
    "date_modified": "2023-01-23T17:58:07.000",
    "request_status": "Pending",
    "responsible_agency": "Department of Public Works",
    "final_address": "2031 Dumaine St",
    "address_councildis": "D",
    "status": "Pending",
    "rowid": "969728",
    "final_x": "3679180.86767",
    "final_y": "536027.075527",
    "longitude": "-90.07523704651196",
    "latitude": "29.967958820677758",
    "geocoded_column": {
      "latitude": "29.967958820677758",
      "longitude": "-90.07523704651196"
    }
  },
  {
    "service_request": "2023-969727",
    "request_type": "Property Maintenance",
    "request_reason": "Property Maintenance",
    "date_created": "2023-01-23T17:55:49.000",
    "date_modified": "2023-01-23T17:55:49.000",
    "request_status": "Pending",
    "responsible_agency": "Department of Code Enforcement",
    "final_address": "3400 Paris Ave",
    "address_councildis": "D",
    "status": "Pending",
    "rowid": "969727",
    "final_x": "3679663.44667",
    "final_y": "544803.317007",
    "longitude": "-90.0734082941748",
    "latitude": "29.992075859438955",
    "geocoded_column": {
      "latitude": "29.992075859438955",
      "longitude": "-90.0734082941748"
    }
  },
  {
    "service_request": "2023-969726",
    "request_type": "Abandoned Vehicles",
    "request_reason": "Abandoned/Junk Vehicles",
    "date_created": "2023-01-23T17:41:54.000",
    "date_modified": "2023-01-23T17:41:54.000",
    "request_status": "Pending",
    "responsible_agency": "Department of Public Works",
    "final_address": "300 BLK S Rampart St",
    "address_councildis": "B",
    "status": "Pending",
    "rowid": "969726",
    "final_x": "3679473.37428",
    "final_y": "530255.442886",
    "longitude": "-90.07451354254661",
    "latitude": "29.952079954176757",
    "geocoded_column": {
      "latitude": "29.952079954176757",
      "longitude": "-90.07451354254661"
    }
  },
  {
    "service_request": "2023-969725",
    "request_type": "Abandoned Vehicles",
    "request_reason": "Abandoned/Junk Vehicles",
    "date_created": "2023-01-23T17:40:13.000",
    "date_modified": "2023-01-23T17:40:13.000",
    "request_status": "Pending",
    "responsible_agency": "Department of Public Works",
    "final_address": "3917 Palmyra St",
    "address_councildis": "A",
    "status": "Pending",
    "rowid": "969725",
    "final_x": "3671225.57313",
    "final_y": "537361.216136",
    "longitude": "-90.10031486148165",
    "latitude": "29.97186503407625",
    "geocoded_column": {
      "latitude": "29.97186503407625",
      "longitude": "-90.10031486148165"
    }
  },
  {
    "service_request": "2023-969724",
    "request_type": "Roads/Drainage",
    "request_reason": "Pothole",
    "date_created": "2023-01-23T17:30:39.000",
    "date_modified": "2023-01-23T17:30:40.000",
    "request_status": "Pending",
    "responsible_agency": "Department of Public Works",
    "final_address": "9021 Fig St",
    "address_councildis": "A",
    "status": "Pending",
    "rowid": "969724",
    "final_x": "3663847.52237",
    "final_y": "535425.223878",
    "longitude": "-90.1236805643238",
    "latitude": "29.966757937771327",
    "geocoded_column": {
      "latitude": "29.966757937771327",
      "longitude": "-90.1236805643238"
    }
  },
  {
    "service_request": "2023-969723",
    "request_type": "Trash/Recycling",
    "request_reason": "Order Trash Cart",
    "date_created": "2023-01-23T17:30:07.000",
    "date_modified": "2023-01-23T17:30:08.000",
    "request_status": "Pending",
    "responsible_agency": "Department of Sanitation",
    "final_address": "114 Atlantic Ave",
    "address_councildis": "C",
    "status": "Assigned to Contractor",
    "contractor": "Richards Disposal",
    "rowid": "969723",
    "final_x": "3688910.2031",
    "final_y": "531136.04109",
    "longitude": "-90.04468527296723",
    "latitude": "29.95421285646406",
    "geocoded_column": {
      "latitude": "29.95421285646406",
      "longitude": "-90.04468527296723"
    }
  },
  {
    "service_request": "2023-969722",
    "request_type": "Traffic Signals/Signs/Striping/Streetlights",
    "request_reason": "Traffic Signal Malfunctioning/Damaged",
    "date_created": "2023-01-23T17:29:34.000",
    "date_modified": "2023-01-23T17:29:35.000",
    "request_status": "Pending",
    "responsible_agency": "Department of Public Works",
    "final_address": "NAPOLEON AVE & TCHOUPITOULAS ST",
    "address_councildis": "B",
    "status": "Pending",
    "rowid": "969722",
    "final_x": "3671152.2",
    "final_y": "517462.38",
    "longitude": "-90.10122233833027",
    "latitude": "29.91715190210986",
    "geocoded_column": {
      "latitude": "29.91715190210986",
      "longitude": "-90.10122233833027"
    }
  },
  {
    "service_request": "2023-969721",
    "request_type": "Trash/Recycling",
    "request_reason": "Request a Large Item Pick Up",
    "date_created": "2023-01-23T17:29:07.000",
    "date_modified": "2023-01-23T17:29:08.000",
    "request_status": "Pending",
    "responsible_agency": "Department of Sanitation",
    "final_address": "401 S Norman C Francis Prkwy",
    "address_councildis": "B",
    "status": "Assigned to Contractor",
    "contractor": "Richards Disposal",
    "rowid": "969721",
    "final_x": "3672328.77505",
    "final_y": "535807.993799",
    "longitude": "-90.09688370059384",
    "latitude": "29.9675615078165",
    "geocoded_column": {
      "latitude": "29.9675615078165",
      "longitude": "-90.09688370059384"
    }
  },
  {
    "service_request": "2023-969720",
    "request_type": "Trash/Recycling",
    "request_reason": "Illegal Dumping",
    "date_created": "2023-01-23T17:09:56.000",
    "date_modified": "2023-01-23T17:09:56.000",
    "request_status": "Pending",
    "responsible_agency": "Department of Sanitation",
    "final_address": "2123 Forstall St",
    "address_councildis": "E",
    "status": "Pending",
    "rowid": "969720",
    "final_x": "3697432.74224",
    "final_y": "538103.127433",
    "longitude": "-90.01752203617131",
    "latitude": "29.973103566227216",
    "geocoded_column": {
      "latitude": "29.973103566227216",
      "longitude": "-90.01752203617131"
    }
  },
  {
    "service_request": "2023-969719",
    "request_type": "Trash/Recycling",
    "request_reason": "Replace Trash Cart",
    "date_created": "2023-01-23T17:08:16.000",
    "date_modified": "2023-01-23T17:08:17.000",
    "request_status": "Pending",
    "responsible_agency": "Department of Sanitation",
    "final_address": "2425 Nashville Ave",
    "address_councildis": "A",
    "status": "Assigned to Contractor",
    "contractor": "Richards Disposal",
    "rowid": "969719",
    "final_x": "3667187.41633",
    "final_y": "525075.646397",
    "longitude": "-90.11348110423542",
    "latitude": "29.938202602652083",
    "geocoded_column": {
      "latitude": "29.938202602652083",
      "longitude": "-90.11348110423542"
    }
  },
  {
    "service_request": "2023-969717",
    "request_type": "Traffic Signals/Signs/Striping/Streetlights",
    "request_reason": "Traffic Signal Malfunctioning/Damaged",
    "date_created": "2023-01-23T16:54:58.000",
    "date_modified": "2023-01-23T16:54:58.000",
    "request_status": "Pending",
    "responsible_agency": "Department of Public Works",
    "final_address": "NAPOLEON AVE & TCHOUPITOULAS ST",
    "address_councildis": "B",
    "status": "Pending",
    "rowid": "969717",
    "final_x": "3671152.2",
    "final_y": "517462.38",
    "longitude": "-90.10122233833027",
    "latitude": "29.91715190210986",
    "geocoded_column": {
      "latitude": "29.91715190210986",
      "longitude": "-90.10122233833027"
    }
  },
  {
    "service_request": "2023-969716",
    "request_type": "Traffic Signals/Signs/Striping/Streetlights",
    "request_reason": "Street Light Outage/Malfunction",
    "date_created": "2023-01-23T16:52:26.000",
    "date_modified": "2023-01-23T16:52:26.000",
    "request_status": "Pending",
    "responsible_agency": "Department of Public Works",
    "final_address": "1591 Maura Pl, New Orleans, Louisiana, 70131",
    "address_councildis": "C",
    "status": "Assigned to Contractor",
    "contractor": "Legacy Professional Services",
    "rowid": "969716",
    "final_x": "3699189.77821",
    "final_y": "524992.915325",
    "longitude": "-90.01245030087262",
    "latitude": "29.936999529077422",
    "geocoded_column": {
      "latitude": "29.936999529077422",
      "longitude": "-90.01245030087262"
    }
  },
  {
    "service_request": "2023-969715",
    "request_type": "Trash/Recycling",
    "request_reason": "MIssed Recycling Pick-Up",
    "date_created": "2023-01-23T16:50:21.000",
    "date_modified": "2023-01-23T16:50:22.000",
    "request_status": "Pending",
    "responsible_agency": "Department of Sanitation",
    "final_address": "7626 Endeavors Ct",
    "address_councildis": "E",
    "status": "Assigned to Contractor",
    "contractor": "Waste Pro",
    "rowid": "969715",
    "final_x": "3725698.13395",
    "final_y": "571094.527527",
    "longitude": "-89.92697687035661",
    "latitude": "30.062893833557812",
    "geocoded_column": {
      "latitude": "30.062893833557812",
      "longitude": "-89.92697687035661"
    }
  },
  {
    "service_request": "2023-969714",
    "request_type": "Trash/Recycling",
    "request_reason": "Request a Large Item Pick Up",
    "date_created": "2023-01-23T16:47:56.000",
    "date_modified": "2023-01-23T16:47:57.000",
    "request_status": "Pending",
    "responsible_agency": "Department of Sanitation",
    "final_address": "2740 Robert St",
    "address_councildis": "B",
    "status": "Assigned to Contractor",
    "contractor": "Richards Disposal",
    "rowid": "969714",
    "final_x": "3668783.0649",
    "final_y": "525609.413885",
    "longitude": "-90.10842546354435",
    "latitude": "29.939623485654458",
    "geocoded_column": {
      "latitude": "29.939623485654458",
      "longitude": "-90.10842546354435"
    }
  },
  {
    "service_request": "2023-969713",
    "request_type": "Safety & Permits",
    "request_reason": "Licenses & Permits",
    "date_created": "2023-01-23T16:47:21.000",
    "date_modified": "2023-01-23T16:47:21.000",
    "request_status": "Pending",
    "responsible_agency": "Safety and Permits",
    "final_address": "2315 St Andrew St",
    "address_councildis": "B",
    "status": "Pending",
    "rowid": "969713",
    "final_x": "3676463.59617",
    "final_y": "526367.93107",
    "longitude": "-90.08415084079799",
    "latitude": "29.94148116139002",
    "geocoded_column": {
      "latitude": "29.94148116139002",
      "longitude": "-90.08415084079799"
    }
  },
  {
    "service_request": "2023-969712",
    "request_type": "Safety & Permits",
    "request_reason": "Licenses & Permits",
    "date_created": "2023-01-23T16:42:23.000",
    "date_modified": "2023-01-23T16:42:23.000",
    "request_status": "Pending",
    "responsible_agency": "Safety and Permits",
    "final_address": "2544 Dumaine St",
    "address_councildis": "D",
    "status": "Pending",
    "rowid": "969712",
    "final_x": "3677652.67042",
    "final_y": "537080.595336",
    "longitude": "-90.08002675719123",
    "latitude": "29.9709016889274",
    "geocoded_column": {
      "latitude": "29.9709016889274",
      "longitude": "-90.08002675719123"
    }
  },
  {
    "service_request": "2023-969711",
    "request_type": "Trash/Recycling",
    "request_reason": "Order Recycling Cart",
    "date_created": "2023-01-23T16:42:12.000",
    "date_modified": "2023-01-23T16:42:13.000",
    "request_status": "Pending",
    "responsible_agency": "Department of Sanitation",
    "final_address": "4103 Rayne Dr",
    "address_councildis": "D",
    "status": "Pending",
    "rowid": "969711",
    "final_x": "3680130.20258",
    "final_y": "547406.519185",
    "longitude": "-90.07184337773975",
    "latitude": "29.99921962366907",
    "geocoded_column": {
      "latitude": "29.99921962366907",
      "longitude": "-90.07184337773975"
    }
  },
  {
    "service_request": "2023-969710",
    "request_type": "Trash/Recycling",
    "request_reason": "Request a Large Item Pick Up",
    "date_created": "2023-01-23T16:40:47.000",
    "date_modified": "2023-01-23T16:40:47.000",
    "request_status": "Pending",
    "responsible_agency": "Department of Sanitation",
    "final_address": "8801 Olive St",
    "address_councildis": "A",
    "status": "Assigned to Contractor",
    "contractor": "Richards Disposal",
    "rowid": "969710",
    "final_x": "3665413.34637",
    "final_y": "535892.072519",
    "longitude": "-90.11872004970425",
    "latitude": "29.96799607172528",
    "geocoded_column": {
      "latitude": "29.96799607172528",
      "longitude": "-90.11872004970425"
    }
  },
  {
    "service_request": "2023-969708",
    "request_type": "Trash/Recycling",
    "request_reason": "Request a Large Item Pick Up",
    "date_created": "2023-01-23T16:38:53.000",
    "date_modified": "2023-01-23T16:38:53.000",
    "request_status": "Pending",
    "responsible_agency": "Department of Sanitation",
    "final_address": "914 Governor Nicholls St",
    "address_councildis": "C",
    "status": "Assigned to Contractor",
    "contractor": "Empire Services",
    "rowid": "969708",
    "final_x": "3682960.87772",
    "final_y": "534415.730309",
    "longitude": "-90.06335605840579",
    "latitude": "29.96341351472292",
    "geocoded_column": {
      "latitude": "29.96341351472292",
      "longitude": "-90.06335605840579"
    }
  },
  {
    "service_request": "2023-969707",
    "request_type": "Property Maintenance",
    "request_reason": "Property Maintenance",
    "date_created": "2023-01-23T16:37:55.000",
    "date_modified": "2023-01-23T16:37:55.000",
    "request_status": "Pending",
    "responsible_agency": "Department of Code Enforcement",
    "final_address": "1739 Baronne St",
    "address_councildis": "B",
    "status": "Pending",
    "rowid": "969707",
    "final_x": "3677883.0676",
    "final_y": "525220.415741",
    "longitude": "-90.07970892596244",
    "latitude": "29.93828324589502",
    "geocoded_column": {
      "latitude": "29.93828324589502",
      "longitude": "-90.07970892596244"
    }
  },
  {
    "service_request": "2023-969706",
    "request_type": "Trash/Recycling",
    "request_reason": "Replace Recycling Cart",
    "date_created": "2023-01-23T16:35:56.000",
    "date_modified": "2023-01-23T16:35:56.000",
    "request_status": "Pending",
    "responsible_agency": "Department of Sanitation",
    "final_address": "1807 Baronne St",
    "address_councildis": "B",
    "status": "Pending",
    "rowid": "969706",
    "final_x": "3677797.3524",
    "final_y": "525141.087165",
    "longitude": "-90.0799822766055",
    "latitude": "29.938067696756594",
    "geocoded_column": {
      "latitude": "29.938067696756594",
      "longitude": "-90.0799822766055"
    }
  },
  {
    "service_request": "2023-969705",
    "request_type": "Traffic Signals/Signs/Striping/Streetlights",
    "request_reason": "Additional signage",
    "date_created": "2023-01-23T16:34:58.000",
    "date_modified": "2023-01-23T16:34:58.000",
    "request_status": "Pending",
    "responsible_agency": "Department of Public Works",
    "final_address": "902 Montegut St",
    "address_councildis": "C",
    "status": "Pending",
    "rowid": "969705",
    "final_x": "3688184.93839",
    "final_y": "535402.089926",
    "longitude": "-90.04682412041764",
    "latitude": "29.965965420401307",
    "geocoded_column": {
      "latitude": "29.965965420401307",
      "longitude": "-90.04682412041764"
    }
  },
  {
    "service_request": "2023-969704",
    "request_type": "Trash/Recycling",
    "request_reason": "Order Recycling Cart",
    "date_created": "2023-01-23T16:34:36.000",
    "date_modified": "2023-01-23T16:34:37.000",
    "request_status": "Pending",
    "responsible_agency": "Department of Sanitation",
    "final_address": "1530 N Rocheblave St",
    "address_councildis": "D",
    "status": "Pending",
    "rowid": "969704",
    "final_x": "3679675.97314",
    "final_y": "539113.842826",
    "longitude": "-90.07356631334852",
    "latitude": "29.976431411966896",
    "geocoded_column": {
      "latitude": "29.976431411966896",
      "longitude": "-90.07356631334852"
    }
  },
  {
    "service_request": "2023-969703",
    "request_type": "Trash/Recycling",
    "request_reason": "Repair Trash Cart",
    "date_created": "2023-01-23T16:33:48.000",
    "date_modified": "2023-01-23T16:33:49.000",
    "request_status": "Pending",
    "responsible_agency": "Department of Sanitation",
    "final_address": "3600 S Saratoga St",
    "address_councildis": "B",
    "status": "Assigned to Contractor",
    "contractor": "Richards Disposal",
    "rowid": "969703",
    "final_x": "3672888.29032",
    "final_y": "522914.286459",
    "longitude": "-90.09555659264849",
    "latitude": "29.932091452226246",
    "geocoded_column": {
      "latitude": "29.932091452226246",
      "longitude": "-90.09555659264849"
    }
  },
  {
    "service_request": "2023-969702",
    "request_type": "Trash/Recycling",
    "request_reason": "Replace Recycling Cart",
    "date_created": "2023-01-23T16:28:25.000",
    "date_modified": "2023-01-23T16:31:43.000",
    "request_status": "Pending",
    "responsible_agency": "Department of Sanitation",
    "final_address": "7934 Walmsley Ave",
    "address_councildis": "A",
    "status": "Pending",
    "rowid": "969702",
    "final_x": "3666159.44807",
    "final_y": "532255.054275",
    "longitude": "-90.11648580107736",
    "latitude": "29.957973701838647",
    "geocoded_column": {
      "latitude": "29.957973701838647",
      "longitude": "-90.11648580107736"
    }
  },
  {
    "service_request": "2023-969700",
    "request_type": "Trash/Recycling",
    "request_reason": "Request a Large Item Pick Up",
    "date_created": "2023-01-23T16:12:52.000",
    "date_modified": "2023-01-23T16:12:53.000",
    "request_status": "Pending",
    "responsible_agency": "Department of Sanitation",
    "final_address": "4931 S Prieur St",
    "address_councildis": "B",
    "status": "Assigned to Contractor",
    "contractor": "Richards Disposal",
    "rowid": "969700",
    "final_x": "3669040.90887",
    "final_y": "526762.95731",
    "longitude": "-90.10757245298687",
    "latitude": "29.942787775374956",
    "geocoded_column": {
      "latitude": "29.942787775374956",
      "longitude": "-90.10757245298687"
    }
  },
  {
    "service_request": "2023-969699",
    "request_type": "Abandoned Vehicles",
    "request_reason": "Abandoned/Junk Vehicles",
    "date_created": "2023-01-23T16:12:46.000",
    "date_modified": "2023-01-23T16:13:57.000",
    "request_status": "Pending",
    "responsible_agency": "Department of Public Works",
    "final_address": "2939 New Orleans St",
    "address_councildis": "D",
    "status": "Pending",
    "rowid": "969699",
    "final_x": "3681880.22575",
    "final_y": "543343.482766",
    "longitude": "-90.06645692719017",
    "latitude": "29.987994622122372",
    "geocoded_column": {
      "latitude": "29.987994622122372",
      "longitude": "-90.06645692719017"
    }
  },
  {
    "service_request": "2023-969698",
    "request_type": "Trash/Recycling",
    "request_reason": "Repair Trash Cart",
    "date_created": "2023-01-23T16:09:24.000",
    "date_modified": "2023-01-23T16:09:25.000",
    "request_status": "Pending",
    "responsible_agency": "Department of Sanitation",
    "final_address": "1706 S Gayoso St",
    "address_councildis": "B",
    "status": "Assigned to Contractor",
    "contractor": "Richards Disposal",
    "rowid": "969698",
    "final_x": "3670471.75111",
    "final_y": "530216.443777",
    "longitude": "-90.10293785105183",
    "latitude": "29.95224156892219",
    "geocoded_column": {
      "latitude": "29.95224156892219",
      "longitude": "-90.10293785105183"
    }
  },
  {
    "service_request": "2023-969697",
    "request_type": "Abandoned Vehicles",
    "request_reason": "Abandoned/Junk Vehicles",
    "date_created": "2023-01-23T16:09:15.000",
    "date_modified": "2023-01-23T16:22:58.000",
    "request_status": "Pending",
    "responsible_agency": "Department of Public Works",
    "final_address": "4700 N Rampart St",
    "address_councildis": "E",
    "status": "Pending",
    "rowid": "969697",
    "final_x": "3694554.24285",
    "final_y": "534108.696005",
    "longitude": "-90.02675670992451",
    "latitude": "29.96221087296592",
    "geocoded_column": {
      "latitude": "29.96221087296592",
      "longitude": "-90.02675670992451"
    }
  },
  {
    "service_request": "2023-969696",
    "request_type": "Roads/Drainage",
    "request_reason": "Catch Basin - Clogged",
    "date_created": "2023-01-23T16:08:16.000",
    "date_modified": "2023-01-23T16:10:14.000",
    "request_status": "Pending",
    "responsible_agency": "Department of Public Works",
    "final_address": "7430 Mayo Rd",
    "address_councildis": "E",
    "status": "Pending",
    "rowid": "969696",
    "final_x": "3700862.87441",
    "final_y": "560192.657117",
    "longitude": "-90.00588087509776",
    "latitude": "30.03373273326242",
    "geocoded_column": {
      "latitude": "30.03373273326242",
      "longitude": "-90.00588087509776"
    }
  },
  {
    "service_request": "2023-969694",
    "request_type": "Trash/Recycling",
    "request_reason": "Missed Trash Pick-Up",
    "date_created": "2023-01-23T16:06:14.000",
    "date_modified": "2023-01-23T16:06:15.000",
    "request_status": "Pending",
    "responsible_agency": "Department of Sanitation",
    "final_address": "1126 Toledano St",
    "address_councildis": "B",
    "status": "Assigned to Contractor",
    "contractor": "Richards Disposal",
    "rowid": "969694",
    "final_x": "3675269.11201",
    "final_y": "519990.102584",
    "longitude": "-90.08814088655272",
    "latitude": "29.923979961040057",
    "geocoded_column": {
      "latitude": "29.923979961040057",
      "longitude": "-90.08814088655272"
    }
  },
  {
    "service_request": "2023-969693",
    "request_type": "Roads/Drainage",
    "request_reason": "Pothole",
    "date_created": "2023-01-23T16:05:25.000",
    "date_modified": "2023-01-23T16:05:25.000",
    "request_status": "Pending",
    "responsible_agency": "Department of Public Works",
    "final_address": "6900 BLK Downman Rd",
    "address_councildis": "D",
    "status": "Pending",
    "rowid": "969693",
    "final_x": "3695207.64662",
    "final_y": "556815.464897",
    "longitude": "-90.02387393298304",
    "latitude": "30.024625673296452",
    "geocoded_column": {
      "latitude": "30.024625673296452",
      "longitude": "-90.02387393298304"
    }
  },
  {
    "service_request": "2023-969692",
    "request_type": "Trash/Recycling",
    "request_reason": "Request a Large Item Pick Up",
    "date_created": "2023-01-23T15:59:56.000",
    "date_modified": "2023-01-23T15:59:57.000",
    "request_status": "Pending",
    "responsible_agency": "Department of Sanitation",
    "final_address": "6074 Eastover Dr",
    "address_councildis": "E",
    "status": "Assigned to Contractor",
    "contractor": "Waste Pro",
    "rowid": "969692",
    "final_x": "3718266.70322",
    "final_y": "565555.705762",
    "longitude": "-89.95067891102478",
    "latitude": "30.047913063717903",
    "geocoded_column": {
      "latitude": "30.047913063717903",
      "longitude": "-89.95067891102478"
    }
  },
  {
    "service_request": "2023-969691",
    "request_type": "Trash/Recycling",
    "request_reason": "Request a Large Item Pick Up",
    "date_created": "2023-01-23T15:55:58.000",
    "date_modified": "2023-01-23T15:55:59.000",
    "request_status": "Pending",
    "responsible_agency": "Department of Sanitation",
    "final_address": "1612 De Battista Pl",
    "address_councildis": "C",
    "status": "Assigned to Contractor",
    "contractor": "Richards Disposal",
    "rowid": "969691",
    "final_x": "3699792.59997",
    "final_y": "524876.650428",
    "longitude": "-90.01055140906054",
    "latitude": "29.93666071955856",
    "geocoded_column": {
      "latitude": "29.93666071955856",
      "longitude": "-90.01055140906054"
    }
  },
  {
    "service_request": "2023-969690",
    "request_type": "Trash/Recycling",
    "request_reason": "Request a Large Item Pick Up",
    "date_created": "2023-01-23T15:53:53.000",
    "date_modified": "2023-01-23T15:53:53.000",
    "request_status": "Pending",
    "responsible_agency": "Department of Sanitation",
    "final_address": "1415 Adams St",
    "address_councildis": "A",
    "status": "Assigned to Contractor",
    "contractor": "Richards Disposal",
    "rowid": "969690",
    "final_x": "3663657.68743",
    "final_y": "527976.302143",
    "longitude": "-90.12452822859676",
    "latitude": "29.94628133224462",
    "geocoded_column": {
      "latitude": "29.94628133224462",
      "longitude": "-90.12452822859676"
    }
  },
  {
    "service_request": "2023-969689",
    "request_type": "Safety & Permits",
    "request_reason": "Licenses & Permits",
    "date_created": "2023-01-23T15:51:52.000",
    "date_modified": "2023-01-23T15:51:52.000",
    "request_status": "Pending",
    "responsible_agency": "Safety and Permits",
    "final_address": "2544 Dumaine St",
    "address_councildis": "D",
    "status": "Pending",
    "rowid": "969689",
    "final_x": "3677652.67042",
    "final_y": "537080.595336",
    "longitude": "-90.08002675719123",
    "latitude": "29.9709016889274",
    "geocoded_column": {
      "latitude": "29.9709016889274",
      "longitude": "-90.08002675719123"
    }
  },
  {
    "service_request": "2023-969688",
    "request_type": "Trash/Recycling",
    "request_reason": "Repair Trash Cart",
    "date_created": "2023-01-23T15:50:33.000",
    "date_modified": "2023-01-23T15:50:33.000",
    "request_status": "Pending",
    "responsible_agency": "Department of Sanitation",
    "final_address": "1704 S Gayoso St",
    "address_councildis": "B",
    "status": "Assigned to Contractor",
    "contractor": "Richards Disposal",
    "rowid": "969688",
    "final_x": "3670477.73959",
    "final_y": "530228.420801",
    "longitude": "-90.10291853606299",
    "latitude": "29.952274324985176",
    "geocoded_column": {
      "latitude": "29.952274324985176",
      "longitude": "-90.10291853606299"
    }
  },
  {
    "service_request": "2023-969687",
    "request_type": "Traffic Signals/Signs/Striping/Streetlights",
    "request_reason": "Street Light Outage/Malfunction",
    "date_created": "2023-01-23T15:40:26.000",
    "date_modified": "2023-01-23T15:40:26.000",
    "request_status": "Pending",
    "responsible_agency": "Department of Public Works",
    "final_address": "6101 Argonne Blvd",
    "address_councildis": "A",
    "status": "Assigned to Contractor",
    "contractor": "Legacy Professional Services",
    "rowid": "969687",
    "final_x": "3670281.2923",
    "final_y": "547836.900178",
    "longitude": "-90.1029418059407",
    "latitude": "30.000697488116646",
    "geocoded_column": {
      "latitude": "30.000697488116646",
      "longitude": "-90.1029418059407"
    }
  },
  {
    "service_request": "2023-969686",
    "request_type": "Trash/Recycling",
    "request_reason": "Missed Trash Pick-Up",
    "date_created": "2023-01-23T15:39:59.000",
    "date_modified": "2023-01-23T15:41:22.000",
    "request_status": "Pending",
    "responsible_agency": "Department of Sanitation",
    "final_address": "2817 Bienville Ave",
    "address_councildis": "B",
    "status": "Assigned to Contractor",
    "contractor": "Richards Disposal",
    "rowid": "969686",
    "final_x": "3675268.07745",
    "final_y": "536236.754951",
    "longitude": "-90.08758658779075",
    "latitude": "29.96865291651475",
    "geocoded_column": {
      "latitude": "29.96865291651475",
      "longitude": "-90.08758658779075"
    }
  },
  {
    "service_request": "2023-969685",
    "request_type": "Traffic Signals/Signs/Striping/Streetlights",
    "request_reason": "Street Light Outage/Malfunction",
    "date_created": "2023-01-23T15:39:27.000",
    "date_modified": "2023-01-23T15:39:27.000",
    "request_status": "Pending",
    "responsible_agency": "Department of Public Works",
    "final_address": "3811 Red Cypress Dr",
    "address_councildis": "C",
    "status": "Assigned to Contractor",
    "contractor": "Legacy Professional Services",
    "rowid": "969685",
    "final_x": "3703630.7347",
    "final_y": "512166.636465",
    "longitude": "-89.99890164242139",
    "latitude": "29.901590172061162",
    "geocoded_column": {
      "latitude": "29.901590172061162",
      "longitude": "-89.99890164242139"
    }
  },
  {
    "service_request": "2023-969684",
    "request_type": "Trash/Recycling",
    "request_reason": "Order Recycling Cart",
    "date_created": "2023-01-23T15:34:50.000",
    "date_modified": "2023-01-23T15:34:51.000",
    "request_status": "Pending",
    "responsible_agency": "Department of Sanitation",
    "final_address": "1701 S Salcedo St",
    "address_councildis": "B",
    "status": "Pending",
    "rowid": "969684",
    "final_x": "3670155.82746",
    "final_y": "530477.185026",
    "longitude": "-90.10392656090347",
    "latitude": "29.952967845765897",
    "geocoded_column": {
      "latitude": "29.952967845765897",
      "longitude": "-90.10392656090347"
    }
  },
  {
    "service_request": "2023-969683",
    "request_type": "Roads/Drainage",
    "request_reason": "Damaged Sidewalk",
    "date_created": "2023-01-23T15:34:08.000",
    "date_modified": "2023-01-23T15:36:48.000",
    "request_status": "Pending",
    "responsible_agency": "Department of Public Works",
    "final_address": "5324 Wingate Dr",
    "address_councildis": "D",
    "status": "Pending",
    "rowid": "969683",
    "final_x": "3681322.35208",
    "final_y": "552743.188374",
    "longitude": "-90.0678911678276",
    "latitude": "30.013857402708247",
    "geocoded_column": {
      "latitude": "30.013857402708247",
      "longitude": "-90.0678911678276"
    }
  },
  {
    "service_request": "2023-969682",
    "request_type": "Trash/Recycling",
    "request_reason": "Order Trash Cart",
    "date_created": "2023-01-23T15:33:53.000",
    "date_modified": "2023-01-23T15:34:17.000",
    "request_status": "Pending",
    "responsible_agency": "Department of Sanitation",
    "final_address": "1701 S Salcedo St",
    "address_councildis": "B",
    "status": "Assigned to Contractor",
    "contractor": "Richards Disposal",
    "rowid": "969682",
    "final_x": "3670155.82746",
    "final_y": "530477.185026",
    "longitude": "-90.10392656090347",
    "latitude": "29.952967845765897",
    "geocoded_column": {
      "latitude": "29.952967845765897",
      "longitude": "-90.10392656090347"
    }
  },
  {
    "service_request": "2023-969681",
    "request_type": "Safety & Permits",
    "request_reason": "Licenses & Permits",
    "date_created": "2023-01-23T15:31:52.000",
    "date_modified": "2023-01-23T15:31:52.000",
    "request_status": "Pending",
    "responsible_agency": "Safety and Permits",
    "final_address": "2544 Dumaine St",
    "address_councildis": "D",
    "status": "Pending",
    "rowid": "969681",
    "final_x": "3677652.67042",
    "final_y": "537080.595336",
    "longitude": "-90.08002675719123",
    "latitude": "29.9709016889274",
    "geocoded_column": {
      "latitude": "29.9709016889274",
      "longitude": "-90.08002675719123"
    }
  },
  {
    "service_request": "2023-969680",
    "request_type": "Abandoned Vehicles",
    "request_reason": "Abandoned/Junk Vehicles",
    "date_created": "2023-01-23T15:31:34.000",
    "date_modified": "2023-01-23T15:31:34.000",
    "request_status": "Pending",
    "responsible_agency": "Department of Public Works",
    "final_address": "2730 Ursulines Ave",
    "address_councildis": "A",
    "status": "Pending",
    "rowid": "969680",
    "final_x": "3677344.24546",
    "final_y": "538297.869897",
    "longitude": "-90.08095878574314",
    "latitude": "29.974258049711814",
    "geocoded_column": {
      "latitude": "29.974258049711814",
      "longitude": "-90.08095878574314"
    }
  },
  {
    "service_request": "2023-969679",
    "request_type": "Safety & Permits",
    "request_reason": "Licenses & Permits",
    "date_created": "2023-01-23T15:29:42.000",
    "date_modified": "2023-01-23T15:29:42.000",
    "request_status": "Pending",
    "responsible_agency": "Safety and Permits",
    "final_address": "2550 Ursulines Ave",
    "address_councildis": "D",
    "status": "Pending",
    "rowid": "969679",
    "final_x": "3678076.69998",
    "final_y": "537716.914312",
    "longitude": "-90.07866561296773",
    "latitude": "29.97263858844416",
    "geocoded_column": {
      "latitude": "29.97263858844416",
      "longitude": "-90.07866561296773"
    }
  },
  {
    "service_request": "2023-969678",
    "request_type": "Trash/Recycling",
    "request_reason": "Request a Large Item Pick Up",
    "date_created": "2023-01-23T15:26:26.000",
    "date_modified": "2023-01-23T15:26:26.000",
    "request_status": "Pending",
    "responsible_agency": "Department of Sanitation",
    "final_address": "1111 St Mary St",
    "address_councildis": "B",
    "status": "Assigned to Contractor",
    "contractor": "Richards Disposal",
    "rowid": "969678",
    "final_x": "3679703.20667",
    "final_y": "522910.163643",
    "longitude": "-90.0740427325072",
    "latitude": "29.931875933766015",
    "geocoded_column": {
      "latitude": "29.931875933766015",
      "longitude": "-90.0740427325072"
    }
  },
  {
    "service_request": "2023-969677",
    "request_type": "Traffic Signals/Signs/Striping/Streetlights",
    "request_reason": "Traffic Signal Malfunctioning/Damaged",
    "date_created": "2023-01-23T15:26:03.000",
    "date_modified": "2023-01-23T15:26:03.000",
    "request_status": "Pending",
    "responsible_agency": "Department of Public Works",
    "final_address": "2411 Napoleon Ave A",
    "address_councildis": "B",
    "status": "Pending",
    "rowid": "969677",
    "final_x": "3670650.60948",
    "final_y": "523828.751611",
    "longitude": "-90.10258973647261",
    "latitude": "29.93467221306678",
    "geocoded_column": {
      "latitude": "29.93467221306678",
      "longitude": "-90.10258973647261"
    }
  },
  {
    "service_request": "2023-969676",
    "request_type": "Roads/Drainage",
    "request_reason": "Damaged Sidewalk",
    "date_created": "2023-01-23T15:25:06.000",
    "date_modified": "2023-01-23T15:25:07.000",
    "request_status": "Pending",
    "responsible_agency": "Department of Public Works",
    "final_address": "5324 Wingate Dr",
    "address_councildis": "D",
    "status": "Pending",
    "rowid": "969676",
    "final_x": "3681322.35208",
    "final_y": "552743.188374",
    "longitude": "-90.0678911678276",
    "latitude": "30.013857402708247",
    "geocoded_column": {
      "latitude": "30.013857402708247",
      "longitude": "-90.0678911678276"
    }
  },
  {
    "service_request": "2023-969675",
    "request_type": "Roads/Drainage",
    "request_reason": "Catch Basin - Clogged",
    "date_created": "2023-01-23T15:21:17.000",
    "date_modified": "2023-01-23T15:21:17.000",
    "request_status": "Pending",
    "responsible_agency": "Department of Public Works",
    "final_address": "5570 Bellaire Dr",
    "address_councildis": "A",
    "status": "Pending",
    "rowid": "969675",
    "final_x": "3664014.96032",
    "final_y": "544785.007119",
    "longitude": "-90.12283953344571",
    "latitude": "29.99248935148824",
    "geocoded_column": {
      "latitude": "29.99248935148824",
      "longitude": "-90.12283953344571"
    }
  },
  {
    "service_request": "2023-969674",
    "request_type": "Trash/Recycling",
    "request_reason": "MIssed Recycling Pick-Up",
    "date_created": "2023-01-23T15:15:23.000",
    "date_modified": "2023-01-23T15:15:24.000",
    "request_status": "Pending",
    "responsible_agency": "Department of Sanitation",
    "final_address": "830 Adele St",
    "address_councildis": "B",
    "status": "Assigned to Contractor",
    "contractor": "Richards Disposal",
    "rowid": "969674",
    "final_x": "3679872.30901",
    "final_y": "521724.112826",
    "longitude": "-90.07355006029594",
    "latitude": "29.92860957219823",
    "geocoded_column": {
      "latitude": "29.92860957219823",
      "longitude": "-90.07355006029594"
    }
  },
  {
    "service_request": "2023-969673",
    "request_type": "Trash/Recycling",
    "request_reason": "Repair Trash Cart",
    "date_created": "2023-01-23T15:13:50.000",
    "date_modified": "2023-01-23T15:13:51.000",
    "request_status": "Pending",
    "responsible_agency": "Department of Sanitation",
    "final_address": "830 Adele St",
    "address_councildis": "B",
    "status": "Assigned to Contractor",
    "contractor": "Richards Disposal",
    "rowid": "969673",
    "final_x": "3679872.30901",
    "final_y": "521724.112826",
    "longitude": "-90.07355006029594",
    "latitude": "29.92860957219823",
    "geocoded_column": {
      "latitude": "29.92860957219823",
      "longitude": "-90.07355006029594"
    }
  },
  {
    "service_request": "2023-969672",
    "request_type": "Abandoned Vehicles",
    "request_reason": "Abandoned/Junk Vehicles",
    "date_created": "2023-01-23T15:12:34.000",
    "date_modified": "2023-01-23T15:12:34.000",
    "request_status": "Pending",
    "responsible_agency": "Department of Public Works",
    "final_address": "914 N Dorgenois St",
    "address_councildis": "D",
    "status": "Pending",
    "rowid": "969672",
    "final_x": "3677695.18075",
    "final_y": "537258.56948",
    "longitude": "-90.07988635560078",
    "latitude": "29.971389778369478",
    "geocoded_column": {
      "latitude": "29.971389778369478",
      "longitude": "-90.07988635560078"
    }
  },
  {
    "service_request": "2023-969671",
    "request_type": "Trash/Recycling",
    "request_reason": "Missed Trash Pick-Up",
    "date_created": "2023-01-23T15:12:12.000",
    "date_modified": "2023-01-23T15:43:02.000",
    "case_close_date": "2023-01-23T09:43:02.000",
    "request_status": "Closed",
    "responsible_agency": "Department of Sanitation",
    "final_address": "4100 Cadillac St",
    "address_councildis": "D",
    "status": "Assigned to Contractor",
    "contractor": "IV Waste",
    "contractor_action": "Completed",
    "rowid": "969671",
    "final_x": "3676865.46485",
    "final_y": "547204.307921",
    "longitude": "-90.08216374494326",
    "latitude": "29.998762039079953",
    "geocoded_column": {
      "latitude": "29.998762039079953",
      "longitude": "-90.08216374494326"
    }
  },
  {
    "service_request": "2023-969670",
    "request_type": "Traffic Signals/Signs/Striping/Streetlights",
    "request_reason": "Street Light Outage/Malfunction",
    "date_created": "2023-01-23T15:09:08.000",
    "date_modified": "2023-01-23T15:09:08.000",
    "request_status": "Pending",
    "responsible_agency": "Department of Public Works",
    "final_address": "1309 Cambronne St",
    "address_councildis": "A",
    "status": "Assigned to Contractor",
    "contractor": "Legacy Professional Services",
    "rowid": "969670",
    "final_x": "3661501.92256",
    "final_y": "529408.364993",
    "longitude": "-90.13128733174221",
    "latitude": "29.950281404425873",
    "geocoded_column": {
      "latitude": "29.950281404425873",
      "longitude": "-90.13128733174221"
    }
  },
  {
    "service_request": "2023-969669",
    "request_type": "Trash/Recycling",
    "request_reason": "Missed Trash Pick-Up",
    "date_created": "2023-01-23T15:04:56.000",
    "date_modified": "2023-01-23T15:04:56.000",
    "request_status": "Pending",
    "responsible_agency": "Department of Sanitation",
    "final_address": "6325 S Robertson St",
    "address_councildis": "A",
    "status": "Assigned to Contractor",
    "contractor": "Richards Disposal",
    "rowid": "969669",
    "final_x": "3665587.74471",
    "final_y": "525193.649533",
    "longitude": "-90.11852748677317",
    "latitude": "29.93857380347427",
    "geocoded_column": {
      "latitude": "29.93857380347427",
      "longitude": "-90.11852748677317"
    }
  },
  {
    "service_request": "2023-969668",
    "request_type": "Trash/Recycling",
    "request_reason": "MIssed Recycling Pick-Up",
    "date_created": "2023-01-23T15:02:44.000",
    "date_modified": "2023-01-23T15:36:39.000",
    "case_close_date": "2023-01-23T09:36:39.000",
    "request_status": "Closed",
    "responsible_agency": "Department of Sanitation",
    "final_address": "3038 St Roch Ave",
    "address_councildis": "D",
    "status": "Assigned to Contractor",
    "contractor": "IV Waste",
    "contractor_action": "Completed",
    "rowid": "969668",
    "final_x": "3685785.54895",
    "final_y": "544091.549646",
    "longitude": "-90.05409495063861",
    "latitude": "29.989932236165092",
    "geocoded_column": {
      "latitude": "29.989932236165092",
      "longitude": "-90.05409495063861"
    }
  },
  {
    "service_request": "2023-969667",
    "request_type": "Trash/Recycling",
    "request_reason": "MIssed Recycling Pick-Up",
    "date_created": "2023-01-23T15:00:48.000",
    "date_modified": "2023-01-23T15:00:50.000",
    "request_status": "Pending",
    "responsible_agency": "Department of Sanitation",
    "final_address": "7828 Lady Gray St",
    "address_councildis": "E",
    "status": "Assigned to Contractor",
    "contractor": "Waste Pro",
    "rowid": "969667",
    "final_x": "3709398.87749",
    "final_y": "566133.504611",
    "longitude": "-89.97868441123539",
    "latitude": "30.049793019961196",
    "geocoded_column": {
      "latitude": "30.049793019961196",
      "longitude": "-89.97868441123539"
    }
  },
  {
    "service_request": "2023-969666",
    "request_type": "Roads/Drainage",
    "request_reason": "Street Flooding / Drainage",
    "date_created": "2023-01-23T14:55:42.000",
    "date_modified": "2023-01-23T14:55:42.000",
    "request_status": "Pending",
    "responsible_agency": "Department of Public Works",
    "final_address": "6115 General Haig St",
    "address_councildis": "A",
    "status": "Pending",
    "rowid": "969666",
    "final_x": "3670642.66971",
    "final_y": "547889.329234",
    "longitude": "-90.10179840605151",
    "latitude": "30.000830974987338",
    "geocoded_column": {
      "latitude": "30.000830974987338",
      "longitude": "-90.10179840605151"
    }
  },
  {
    "service_request": "2023-969665",
    "request_type": "Traffic Signals/Signs/Striping/Streetlights",
    "request_reason": "Traffic Signal Malfunctioning/Damaged",
    "date_created": "2023-01-23T14:53:34.000",
    "date_modified": "2023-01-23T14:53:35.000",
    "request_status": "Pending",
    "responsible_agency": "Department of Public Works",
    "final_address": "FRERET ST & NAPOLEON AVE",
    "address_councildis": "B",
    "status": "Pending",
    "rowid": "969665",
    "final_x": "3670575.6",
    "final_y": "524047.98",
    "longitude": "-90.10281910815539",
    "latitude": "29.935277235589393",
    "geocoded_column": {
      "latitude": "29.935277235589393",
      "longitude": "-90.10281910815539"
    }
  },
  {
    "service_request": "2023-969664",
    "request_type": "Trash/Recycling",
    "request_reason": "Illegal Dumping",
    "date_created": "2023-01-23T14:52:53.000",
    "date_modified": "2023-01-23T14:52:53.000",
    "request_status": "Pending",
    "responsible_agency": "Department of Sanitation",
    "final_address": "732 Seventh St",
    "address_councildis": "B",
    "status": "Pending",
    "rowid": "969664",
    "final_x": "3677017.05845",
    "final_y": "519326.867767",
    "longitude": "-90.08264609160177",
    "latitude": "29.92210393381054",
    "geocoded_column": {
      "latitude": "29.92210393381054",
      "longitude": "-90.08264609160177"
    }
  },
  {
    "service_request": "2023-969661",
    "request_type": "Traffic Signals/Signs/Striping/Streetlights",
    "request_reason": "Traffic Signal Malfunctioning/Damaged",
    "date_created": "2023-01-23T14:48:32.000",
    "date_modified": "2023-01-23T14:48:33.000",
    "request_status": "Pending",
    "responsible_agency": "Department of Public Works",
    "final_address": "3700 BLK Napoleon Ave",
    "address_councildis": "B",
    "status": "Pending",
    "rowid": "969661",
    "final_x": "3670147.69576",
    "final_y": "528315.377868",
    "longitude": "-90.10402547007057",
    "latitude": "29.947023824239796",
    "geocoded_column": {
      "latitude": "29.947023824239796",
      "longitude": "-90.10402547007057"
    }
  },
  {
    "service_request": "2023-969660",
    "request_type": "Roads/Drainage",
    "request_reason": "Pothole",
    "date_created": "2023-01-23T14:41:57.000",
    "date_modified": "2023-01-23T14:41:57.000",
    "request_status": "Pending",
    "responsible_agency": "Department of Public Works",
    "final_address": "ONZAGA ST & N TONTI ST",
    "address_councildis": "D",
    "status": "Pending",
    "rowid": "969660",
    "final_x": "3680439.4",
    "final_y": "539586.28",
    "longitude": "-90.07113874517353",
    "latitude": "29.977707349622115",
    "geocoded_column": {
      "latitude": "29.977707349622115",
      "longitude": "-90.07113874517353"
    }
  },
  {
    "service_request": "2023-969659",
    "request_type": "Traffic Signals/Signs/Striping/Streetlights",
    "request_reason": "Street Light Outage/Malfunction",
    "date_created": "2023-01-23T14:40:01.000",
    "date_modified": "2023-01-23T14:45:18.000",
    "request_status": "Pending",
    "responsible_agency": "Department of Public Works",
    "final_address": "106 Sherwood Forest Dr",
    "address_councildis": "A",
    "status": "Assigned to Contractor",
    "contractor": "Legacy Professional Services",
    "rowid": "969659",
    "final_x": "3673124.55188",
    "final_y": "541297.367628",
    "longitude": "-90.09418314285642",
    "latitude": "29.9826317850061",
    "geocoded_column": {
      "latitude": "29.9826317850061",
      "longitude": "-90.09418314285642"
    }
  },
  {
    "service_request": "2023-969658",
    "request_type": "Traffic Signals/Signs/Striping/Streetlights",
    "request_reason": "Street Light Outage/Malfunction",
    "date_created": "2023-01-23T14:37:55.000",
    "date_modified": "2023-01-23T14:37:56.000",
    "request_status": "Pending",
    "responsible_agency": "Department of Public Works",
    "final_address": "130 Sherwood Forest Dr",
    "address_councildis": "A",
    "status": "Assigned to Contractor",
    "contractor": "Legacy Professional Services",
    "rowid": "969658",
    "final_x": "3673131.19758",
    "final_y": "540974.400395",
    "longitude": "-90.09417318409015",
    "latitude": "29.981743538172804",
    "geocoded_column": {
      "latitude": "29.981743538172804",
      "longitude": "-90.09417318409015"
    }
  },
  {
    "service_request": "2023-969657",
    "request_type": "Roads/Drainage",
    "request_reason": "Pothole",
    "date_created": "2023-01-23T14:37:31.000",
    "date_modified": "2023-01-23T14:37:31.000",
    "request_status": "Pending",
    "responsible_agency": "Department of Public Works",
    "final_address": "1000 BLK Nashville Ave",
    "address_councildis": "A",
    "status": "Pending",
    "rowid": "969657",
    "final_x": "3665710.41297",
    "final_y": "519833.73932",
    "longitude": "-90.11831964241381",
    "latitude": "29.92383217335646",
    "geocoded_column": {
      "latitude": "29.92383217335646",
      "longitude": "-90.11831964241381"
    }
  },
  {
    "service_request": "2023-969656",
    "request_type": "Traffic Signals/Signs/Striping/Streetlights",
    "request_reason": "Street Light Outage/Malfunction",
    "date_created": "2023-01-23T14:37:01.000",
    "date_modified": "2023-01-23T14:37:01.000",
    "request_status": "Pending",
    "responsible_agency": "Department of Public Works",
    "final_address": "114 Sherwood Forest Dr",
    "address_councildis": "A",
    "status": "Assigned to Contractor",
    "contractor": "Legacy Professional Services",
    "rowid": "969656",
    "final_x": "3673168.07668",
    "final_y": "541149.325772",
    "longitude": "-90.09405072679878",
    "latitude": "29.98222342634037",
    "geocoded_column": {
      "latitude": "29.98222342634037",
      "longitude": "-90.09405072679878"
    }
  },
  {
    "service_request": "2023-969655",
    "request_type": "Abandoned Vehicles",
    "request_reason": "Abandoned/Junk Vehicles",
    "date_created": "2023-01-23T14:36:37.000",
    "date_modified": "2023-01-23T14:36:38.000",
    "request_status": "Pending",
    "responsible_agency": "Department of Public Works",
    "final_address": "DUMAINE ST & N DORGENOIS ST",
    "address_councildis": "D",
    "status": "Pending",
    "rowid": "969655",
    "final_x": "3677595.3",
    "final_y": "537185.48",
    "longitude": "-90.08020431783564",
    "latitude": "29.97119181120918",
    "geocoded_column": {
      "latitude": "29.97119181120918",
      "longitude": "-90.08020431783564"
    }
  },
  {
    "service_request": "2023-969654",
    "request_type": "Trash/Recycling",
    "request_reason": "Order Trash Cart",
    "date_created": "2023-01-23T14:36:22.000",
    "date_modified": "2023-01-23T14:36:23.000",
    "request_status": "Pending",
    "responsible_agency": "Department of Sanitation",
    "final_address": "633 Mandeville St",
    "address_councildis": "C",
    "status": "Assigned to Contractor",
    "contractor": "IV Waste",
    "rowid": "969654",
    "final_x": "3685928.09321",
    "final_y": "534855.63591",
    "longitude": "-90.05397042567085",
    "latitude": "29.964532341982757",
    "geocoded_column": {
      "latitude": "29.964532341982757",
      "longitude": "-90.05397042567085"
    }
  },
  {
    "service_request": "2023-969653",
    "request_type": "Trash/Recycling",
    "request_reason": "MIssed Recycling Pick-Up",
    "date_created": "2023-01-23T14:24:44.000",
    "date_modified": "2023-01-23T14:24:45.000",
    "request_status": "Pending",
    "responsible_agency": "Department of Sanitation",
    "final_address": "11 Grand Canyon Dr",
    "address_councildis": "C",
    "status": "Assigned to Contractor",
    "contractor": "Richards Disposal",
    "rowid": "969653",
    "final_x": "3699463.06628",
    "final_y": "517427.78367",
    "longitude": "-90.01186296337428",
    "latitude": "29.916189352110166",
    "geocoded_column": {
      "latitude": "29.916189352110166",
      "longitude": "-90.01186296337428"
    }
  },
  {
    "service_request": "2023-969652",
    "request_type": "Trash/Recycling",
    "request_reason": "Repair Trash Cart",
    "date_created": "2023-01-23T14:20:47.000",
    "date_modified": "2023-01-23T14:20:48.000",
    "request_status": "Pending",
    "responsible_agency": "Department of Sanitation",
    "final_address": "7607 Forum Blvd",
    "address_councildis": "E",
    "status": "Assigned to Contractor",
    "contractor": "Waste Pro",
    "rowid": "969652",
    "final_x": "3720323.94892",
    "final_y": "573136.266409",
    "longitude": "-89.94388640979861",
    "latitude": "30.068688026478643",
    "geocoded_column": {
      "latitude": "30.068688026478643",
      "longitude": "-89.94388640979861"
    }
  },
  {
    "service_request": "2023-969650",
    "request_type": "Roads/Drainage",
    "request_reason": "Damaged Sidewalk",
    "date_created": "2023-01-23T14:17:04.000",
    "date_modified": "2023-01-23T14:17:04.000",
    "request_status": "Pending",
    "responsible_agency": "Department of Public Works",
    "final_address": "823 Eleonore St",
    "address_councildis": "A",
    "status": "Pending",
    "rowid": "969650",
    "final_x": "3665306.05754",
    "final_y": "519248.081655",
    "longitude": "-90.11961563380379",
    "latitude": "29.922233582058627",
    "geocoded_column": {
      "latitude": "29.922233582058627",
      "longitude": "-90.11961563380379"
    }
  },
  {
    "service_request": "2023-969648",
    "request_type": "Safety & Permits",
    "request_reason": "Licenses & Permits",
    "date_created": "2023-01-23T14:12:35.000",
    "date_modified": "2023-01-23T14:12:35.000",
    "request_status": "Pending",
    "responsible_agency": "Safety and Permits",
    "final_address": "2550 Ursulines Ave",
    "address_councildis": "D",
    "status": "Pending",
    "rowid": "969648",
    "final_x": "3678076.69998",
    "final_y": "537716.914312",
    "longitude": "-90.07866561296773",
    "latitude": "29.97263858844416",
    "geocoded_column": {
      "latitude": "29.97263858844416",
      "longitude": "-90.07866561296773"
    }
  },
  {
    "service_request": "2023-969646",
    "request_type": "Trash/Recycling",
    "request_reason": "Repair Recycling Cart",
    "date_created": "2023-01-23T14:10:27.000",
    "date_modified": "2023-01-23T14:10:27.000",
    "request_status": "Pending",
    "responsible_agency": "Department of Sanitation",
    "final_address": "4938 Lafaye St",
    "address_councildis": "D",
    "status": "Pending",
    "rowid": "969646",
    "final_x": "3687332.19823",
    "final_y": "551292.876757",
    "longitude": "-90.04895454291322",
    "latitude": "30.00968571111071",
    "geocoded_column": {
      "latitude": "30.00968571111071",
      "longitude": "-90.04895454291322"
    }
  },
  {
    "service_request": "2023-969645",
    "request_type": "Trash/Recycling",
    "request_reason": "Request a Large Item Pick Up",
    "date_created": "2023-01-23T14:10:24.000",
    "date_modified": "2023-01-23T14:10:24.000",
    "request_status": "Pending",
    "responsible_agency": "Department of Sanitation",
    "final_address": "8948 Birch St",
    "address_councildis": "A",
    "status": "Assigned to Contractor",
    "contractor": "Richards Disposal",
    "rowid": "969645",
    "final_x": "3660521.65997",
    "final_y": "531531.974211",
    "longitude": "-90.13431233877388",
    "latitude": "29.956148887557756",
    "geocoded_column": {
      "latitude": "29.956148887557756",
      "longitude": "-90.13431233877388"
    }
  },
  {
    "service_request": "2023-969643",
    "request_type": "Parks & Parkways",
    "request_reason": "Request Tree Service (Right of Way/Public Property)",
    "date_created": "2023-01-23T14:10:05.000",
    "date_modified": "2023-01-23T14:11:31.000",
    "request_status": "Pending",
    "responsible_agency": "Department of Parks & Parkway",
    "final_address": "823 Eleonore St",
    "address_councildis": "A",
    "status": "Pending",
    "rowid": "969643",
    "final_x": "3665306.05754",
    "final_y": "519248.081655",
    "longitude": "-90.11961563380379",
    "latitude": "29.922233582058627",
    "geocoded_column": {
      "latitude": "29.922233582058627",
      "longitude": "-90.11961563380379"
    }
  },
  {
    "service_request": "2023-969642",
    "request_type": "Abandoned Vehicles",
    "request_reason": "Abandoned/Junk Vehicles",
    "date_created": "2023-01-23T14:08:16.000",
    "date_modified": "2023-01-23T14:08:16.000",
    "request_status": "Pending",
    "responsible_agency": "Department of Public Works",
    "final_address": "938 Jackson Ave",
    "address_councildis": "B",
    "status": "Pending",
    "rowid": "969642",
    "final_x": "3679068.66888",
    "final_y": "521714.682489",
    "longitude": "-90.07608730970479",
    "latitude": "29.92860791224771",
    "geocoded_column": {
      "latitude": "29.92860791224771",
      "longitude": "-90.07608730970479"
    }
  },
  {
    "service_request": "2023-969641",
    "request_type": "Traffic Signals/Signs/Striping/Streetlights",
    "request_reason": "Street Light Outage/Malfunction",
    "date_created": "2023-01-23T14:05:40.000",
    "date_modified": "2023-01-23T14:05:41.000",
    "request_status": "Pending",
    "responsible_agency": "Department of Public Works",
    "final_address": "2701 Tchoupitoulas St",
    "address_councildis": "B",
    "status": "Assigned to Contractor",
    "contractor": "Legacy Professional Services",
    "rowid": "969641",
    "final_x": "3678628.41595",
    "final_y": "518930.736695",
    "longitude": "-90.0775734096064",
    "latitude": "29.9209662421355",
    "geocoded_column": {
      "latitude": "29.9209662421355",
      "longitude": "-90.0775734096064"
    }
  },
  {
    "service_request": "2023-969639",
    "request_type": "Trash/Recycling",
    "request_reason": "Order Recycling Cart",
    "date_created": "2023-01-23T14:03:10.000",
    "date_modified": "2023-01-23T14:03:11.000",
    "request_status": "Pending",
    "responsible_agency": "Department of Sanitation",
    "final_address": "1023 Gordon St",
    "address_councildis": "E",
    "status": "Pending",
    "rowid": "969639",
    "final_x": "3699119.19351",
    "final_y": "533238.047748",
    "longitude": "-90.01237305414278",
    "latitude": "29.95967298269034",
    "geocoded_column": {
      "latitude": "29.95967298269034",
      "longitude": "-90.01237305414278"
    }
  },
  {
    "service_request": "2023-969638",
    "request_type": "Trash/Recycling",
    "request_reason": "Order Trash Cart",
    "date_created": "2023-01-23T14:02:45.000",
    "date_modified": "2023-01-23T14:02:46.000",
    "request_status": "Pending",
    "responsible_agency": "Department of Sanitation",
    "final_address": "1023 Gordon St",
    "address_councildis": "E",
    "status": "Assigned to Contractor",
    "contractor": "Waste Pro",
    "rowid": "969638",
    "final_x": "3699119.19351",
    "final_y": "533238.047748",
    "longitude": "-90.01237305414278",
    "latitude": "29.95967298269034",
    "geocoded_column": {
      "latitude": "29.95967298269034",
      "longitude": "-90.01237305414278"
    }
  },
  {
    "service_request": "2023-969637",
    "request_type": "Trash/Recycling",
    "request_reason": "Missed Trash Pick-Up",
    "date_created": "2023-01-23T14:01:40.000",
    "date_modified": "2023-01-23T14:01:41.000",
    "request_status": "Pending",
    "responsible_agency": "Department of Sanitation",
    "final_address": "1800 BLK Audubon St",
    "address_councildis": "A",
    "status": "Assigned to Contractor",
    "contractor": "Richards Disposal",
    "rowid": "969637",
    "final_x": "3665701.16823",
    "final_y": "528239.344556",
    "longitude": "-90.11806741352197",
    "latitude": "29.946945179187693",
    "geocoded_column": {
      "latitude": "29.946945179187693",
      "longitude": "-90.11806741352197"
    }
  },
  {
    "service_request": "2023-969636",
    "request_type": "Trash/Recycling",
    "request_reason": "Replace Trash Cart",
    "date_created": "2023-01-23T13:57:50.000",
    "date_modified": "2023-01-23T13:57:51.000",
    "request_status": "Pending",
    "responsible_agency": "Department of Sanitation",
    "final_address": "2307 Soniat St",
    "address_councildis": "B",
    "status": "Assigned to Contractor",
    "contractor": "Richards Disposal",
    "rowid": "969636",
    "final_x": "3668553.51233",
    "final_y": "524004.708412",
    "longitude": "-90.10920431924826",
    "latitude": "29.935217807233926",
    "geocoded_column": {
      "latitude": "29.935217807233926",
      "longitude": "-90.10920431924826"
    }
  },
  {
    "service_request": "2023-969635",
    "request_type": "Trash/Recycling",
    "request_reason": "Missed Trash Pick-Up",
    "date_created": "2023-01-23T13:57:08.000",
    "date_modified": "2023-01-23T15:12:03.000",
    "case_close_date": "2023-01-23T09:12:03.000",
    "request_status": "Closed",
    "responsible_agency": "Department of Sanitation",
    "final_address": "3100 BLK Desaix Blvd",
    "address_councildis": "D",
    "status": "Assigned to Contractor",
    "contractor": "IV Waste",
    "contractor_action": "Completed",
    "rowid": "969635",
    "final_x": "3678390.80493",
    "final_y": "543586.982496",
    "longitude": "-90.07747042381772",
    "latitude": "29.98876978158354",
    "geocoded_column": {
      "latitude": "29.98876978158354",
      "longitude": "-90.07747042381772"
    }
  },
  {
    "service_request": "2023-969634",
    "request_type": "Property Maintenance",
    "request_reason": "Property Maintenance",
    "date_created": "2023-01-23T13:54:39.000",
    "date_modified": "2023-01-23T13:54:39.000",
    "request_status": "Pending",
    "responsible_agency": "Department of Code Enforcement",
    "final_address": "2501 Banks St",
    "address_councildis": "B",
    "status": "Pending",
    "rowid": "969634",
    "final_x": "3675422.22798",
    "final_y": "533620.953349",
    "longitude": "-90.08718961099208",
    "latitude": "29.96145573647873",
    "geocoded_column": {
      "latitude": "29.96145573647873",
      "longitude": "-90.08718961099208"
    }
  },
  {
    "service_request": "2023-969633",
    "request_type": "Roads/Drainage",
    "request_reason": "Accessibility Ramps, Curbs and Sidewalk Repair",
    "date_created": "2023-01-23T13:54:35.000",
    "date_modified": "2023-01-23T14:56:00.000",
    "case_close_date": "2023-01-23T08:56:00.000",
    "request_status": "Closed",
    "responsible_agency": "Department of Public Works",
    "final_address": "3026 Republic St",
    "address_councildis": "D",
    "status": "Resolved",
    "rowid": "969633",
    "final_x": "3680582.4052",
    "final_y": "543582.352974",
    "longitude": "-90.0705479952444",
    "latitude": "29.988690822430822",
    "geocoded_column": {
      "latitude": "29.988690822430822",
      "longitude": "-90.0705479952444"
    }
  },
  {
    "service_request": "2023-969632",
    "request_type": "Trash/Recycling",
    "request_reason": "Missed Trash Pick-Up",
    "date_created": "2023-01-23T13:53:35.000",
    "date_modified": "2023-01-23T13:53:36.000",
    "request_status": "Pending",
    "responsible_agency": "Department of Sanitation",
    "final_address": "6000 BLK Kingston Ct",
    "address_councildis": "C",
    "status": "Assigned to Contractor",
    "contractor": "Richards Disposal",
    "rowid": "969632",
    "final_x": "3706446.44009",
    "final_y": "517759.042354",
    "longitude": "-89.9898085932943",
    "latitude": "29.916876900088347",
    "geocoded_column": {
      "latitude": "29.916876900088347",
      "longitude": "-89.9898085932943"
    }
  },
  {
    "service_request": "2023-969631",
    "request_type": "Property Maintenance",
    "request_reason": "Property Maintenance",
    "date_created": "2023-01-23T13:50:03.000",
    "date_modified": "2023-01-23T13:50:03.000",
    "request_status": "Pending",
    "responsible_agency": "Department of Code Enforcement",
    "final_address": "2501 Banks St",
    "address_councildis": "B",
    "status": "Pending",
    "rowid": "969631",
    "final_x": "3675422.22798",
    "final_y": "533620.953349",
    "longitude": "-90.08718961099208",
    "latitude": "29.96145573647873",
    "geocoded_column": {
      "latitude": "29.96145573647873",
      "longitude": "-90.08718961099208"
    }
  },
  {
    "service_request": "2023-969630",
    "request_type": "Trash/Recycling",
    "request_reason": "Illegal Dumping",
    "date_created": "2023-01-23T13:43:54.000",
    "date_modified": "2023-01-23T13:43:55.000",
    "request_status": "Pending",
    "responsible_agency": "Department of Sanitation",
    "final_address": "4619 Danneel St",
    "address_councildis": "B",
    "status": "Pending",
    "rowid": "969630",
    "final_x": "3669788.77358",
    "final_y": "522299.978618",
    "longitude": "-90.10536226632765",
    "latitude": "29.930494003336072",
    "geocoded_column": {
      "latitude": "29.930494003336072",
      "longitude": "-90.10536226632765"
    }
  },
  {
    "service_request": "2023-969629",
    "request_type": "Roads/Drainage",
    "request_reason": "Pothole",
    "date_created": "2023-01-23T13:39:32.000",
    "date_modified": "2023-01-23T13:39:33.000",
    "request_status": "Pending",
    "responsible_agency": "Department of Public Works",
    "final_address": "11901 Curran Rd",
    "address_councildis": "E",
    "status": "Pending",
    "rowid": "969629",
    "final_x": "3712933.69099",
    "final_y": "567785.166948",
    "longitude": "-89.96745007793196",
    "latitude": "30.054219039254882",
    "geocoded_column": {
      "latitude": "30.054219039254882",
      "longitude": "-89.96745007793196"
    }
  },
  {
    "service_request": "2023-969628",
    "request_type": "Trash/Recycling",
    "request_reason": "Replace Trash Cart",
    "date_created": "2023-01-23T13:36:40.000",
    "date_modified": "2023-01-23T13:36:41.000",
    "request_status": "Pending",
    "responsible_agency": "Department of Sanitation",
    "final_address": "1817 Baronne St",
    "address_councildis": "B",
    "status": "Assigned to Contractor",
    "contractor": "Richards Disposal",
    "rowid": "969628",
    "final_x": "3677744.84136",
    "final_y": "525098.902653",
    "longitude": "-90.08014951524918",
    "latitude": "29.937953282493883",
    "geocoded_column": {
      "latitude": "29.937953282493883",
      "longitude": "-90.08014951524918"
    }
  },
  {
    "service_request": "2023-969627",
    "request_type": "Trash/Recycling",
    "request_reason": "Request a Large Item Pick Up",
    "date_created": "2023-01-23T13:35:58.000",
    "date_modified": "2023-01-23T13:35:59.000",
    "request_status": "Pending",
    "responsible_agency": "Department of Sanitation",
    "final_address": "8741 Aberdeen Rd",
    "address_councildis": "E",
    "status": "Assigned to Contractor",
    "contractor": "Waste Pro",
    "rowid": "969627",
    "final_x": "3704782.37035",
    "final_y": "562416.635615",
    "longitude": "-89.99341272302453",
    "latitude": "30.039722364728703",
    "geocoded_column": {
      "latitude": "30.039722364728703",
      "longitude": "-89.99341272302453"
    }
  },
  {
    "service_request": "2023-969626",
    "request_type": "Trash/Recycling",
    "request_reason": "Order Recycling Cart",
    "date_created": "2023-01-23T13:35:29.000",
    "date_modified": "2023-01-23T13:35:29.000",
    "request_status": "Pending",
    "responsible_agency": "Department of Sanitation",
    "final_address": "6028 Perrier St Unit A",
    "address_councildis": "A",
    "status": "Pending",
    "rowid": "969626",
    "final_x": "3664873.65594",
    "final_y": "520520.708984",
    "longitude": "-90.12093804824512",
    "latitude": "29.92574549474055",
    "geocoded_column": {
      "latitude": "29.92574549474055",
      "longitude": "-90.12093804824512"
    }
  },
  {
    "service_request": "2023-969625",
    "request_type": "Trash/Recycling",
    "request_reason": "Repair Trash Cart",
    "date_created": "2023-01-23T13:34:58.000",
    "date_modified": "2023-01-23T13:34:59.000",
    "request_status": "Pending",
    "responsible_agency": "Department of Sanitation",
    "final_address": "9518 Stroelitz St",
    "address_councildis": "A",
    "status": "Assigned to Contractor",
    "contractor": "Richards Disposal",
    "rowid": "969625",
    "final_x": "3664167.43744",
    "final_y": "538344.504649",
    "longitude": "-90.12257285502986",
    "latitude": "29.974775703733265",
    "geocoded_column": {
      "latitude": "29.974775703733265",
      "longitude": "-90.12257285502986"
    }
  },
  {
    "service_request": "2023-969624",
    "request_type": "Abandoned Vehicles",
    "request_reason": "Abandoned/Junk Vehicles",
    "date_created": "2023-01-23T13:33:12.000",
    "date_modified": "2023-01-23T13:34:22.000",
    "request_status": "Pending",
    "responsible_agency": "Department of Public Works",
    "final_address": "2500 Somerset Dr",
    "address_councildis": "C",
    "status": "Pending",
    "rowid": "969624",
    "final_x": "3702942.2465",
    "final_y": "521850.830522",
    "longitude": "-90.00071900676056",
    "latitude": "29.928240416428302",
    "geocoded_column": {
      "latitude": "29.928240416428302",
      "longitude": "-90.00071900676056"
    }
  },
  {
    "service_request": "2023-969623",
    "request_type": "Roads/Drainage",
    "request_reason": "Pothole",
    "date_created": "2023-01-23T13:32:47.000",
    "date_modified": "2023-01-23T14:37:23.000",
    "case_close_date": "2023-01-23T08:37:23.000",
    "request_status": "Closed",
    "responsible_agency": "Department of Public Works",
    "final_address": "5800 BLK Franklin Ave",
    "address_councildis": "D",
    "status": "Captured by Project",
    "rowid": "969623",
    "final_x": "3686494.37763",
    "final_y": "554641.08145",
    "longitude": "-90.05148317233643",
    "latitude": "30.01891783998133",
    "geocoded_column": {
      "latitude": "30.01891783998133",
      "longitude": "-90.05148317233643"
    }
  },
  {
    "service_request": "2023-969621",
    "request_type": "Trash/Recycling",
    "request_reason": "Repair Trash Cart",
    "date_created": "2023-01-23T13:31:30.000",
    "date_modified": "2023-01-23T13:31:31.000",
    "request_status": "Pending",
    "responsible_agency": "Department of Sanitation",
    "final_address": "6427 Colbert St",
    "address_councildis": "A",
    "status": "Assigned to Contractor",
    "contractor": "IV Waste",
    "rowid": "969621",
    "final_x": "3667785.75105",
    "final_y": "550391.62114",
    "longitude": "-90.11073931266557",
    "latitude": "30.007795528885747",
    "geocoded_column": {
      "latitude": "30.007795528885747",
      "longitude": "-90.11073931266557"
    }
  },
  {
    "service_request": "2023-969620",
    "request_type": "Abandoned Vehicles",
    "request_reason": "Abandoned/Junk Vehicles",
    "date_created": "2023-01-23T13:29:45.000",
    "date_modified": "2023-01-23T13:29:45.000",
    "request_status": "Pending",
    "responsible_agency": "Department of Public Works",
    "final_address": "1101 Marais St",
    "address_councildis": "C",
    "status": "Pending",
    "rowid": "969620",
    "final_x": "3681448.98696",
    "final_y": "535219.707014",
    "longitude": "-90.06810240647127",
    "latitude": "29.965670164255112",
    "geocoded_column": {
      "latitude": "29.965670164255112",
      "longitude": "-90.06810240647127"
    }
  },
  {
    "service_request": "2023-969619",
    "request_type": "Trash/Recycling",
    "request_reason": "Return Recycling Cart",
    "date_created": "2023-01-23T13:29:07.000",
    "date_modified": "2023-01-23T13:29:07.000",
    "request_status": "Pending",
    "responsible_agency": "Department of Sanitation",
    "final_address": "3228 Laurel St",
    "address_councildis": "B",
    "status": "Pending",
    "rowid": "969619",
    "final_x": "3675927.28302",
    "final_y": "519201.277047",
    "longitude": "-90.08609037757296",
    "latitude": "29.921791261978107",
    "geocoded_column": {
      "latitude": "29.921791261978107",
      "longitude": "-90.08609037757296"
    }
  },
  {
    "service_request": "2023-969618",
    "request_type": "Abandoned Vehicles",
    "request_reason": "Vehicle Blocking Your Driveway",
    "date_created": "2023-01-23T13:27:12.000",
    "date_modified": "2023-01-23T13:27:12.000",
    "request_status": "Pending",
    "responsible_agency": "Department of Public Works",
    "final_address": "3011 Banks St",
    "address_councildis": "B",
    "status": "Pending",
    "rowid": "969618",
    "final_x": "3673570.03105",
    "final_y": "535018.804998",
    "longitude": "-90.09299075878157",
    "latitude": "29.96535461676896",
    "geocoded_column": {
      "latitude": "29.96535461676896",
      "longitude": "-90.09299075878157"
    }
  },
  {
    "service_request": "2023-969616",
    "request_type": "Abandoned Vehicles",
    "request_reason": "Abandoned/Junk Vehicles",
    "date_created": "2023-01-23T13:20:03.000",
    "date_modified": "2023-01-23T13:20:03.000",
    "request_status": "Pending",
    "responsible_agency": "Department of Public Works",
    "final_address": "2019 N Derbigny St",
    "address_councildis": "D",
    "status": "Pending",
    "rowid": "969616",
    "final_x": "3684240.39657",
    "final_y": "538573.224905",
    "longitude": "-90.05916949210099",
    "latitude": "29.974806127577825",
    "geocoded_column": {
      "latitude": "29.974806127577825",
      "longitude": "-90.05916949210099"
    }
  },