[
  {
    "service_request": "2024-1119918",
    "request_type": "Mosquito, Termite & Rodent Control",
    "request_reason": "Mosquito Complaint",
    "date_created": "2024-08-07T22:52:11.000",
    "date_modified": "2024-08-07T22:52:11.000",
    "request_status": "Pending",
    "responsible_agency": "Mosquito, Termite & Rodent Control Board",
    "final_address": "2901 Sabine St",
    "address_councildis": "C",
    "status": "Pending",
    "rowid": "1119918",
    "final_x": "3693069.57878",
    "final_y": "519547.970551",
    "longitude": "-90.03196725539695",
    "latitude": "29.92222035234712",
    "geocoded_column": {
      "latitude": "29.92222035234712",
      "longitude": "-90.03196725539695"
    }
  },
  {
    "service_request": "2024-1119917",
    "request_type": "Mosquito, Termite & Rodent Control",
    "request_reason": "Mosquito Complaint",
    "date_created": "2024-08-07T22:50:02.000",
    "date_modified": "2024-08-07T22:50:02.000",
    "request_status": "Pending",
    "responsible_agency": "Mosquito, Termite & Rodent Control Board",
    "final_address": "2901 Sabine St",
    "address_councildis": "C",
    "status": "Pending",
    "rowid": "1119917",
    "final_x": "3693069.57878",
    "final_y": "519547.970551",
    "longitude": "-90.03196725539695",
    "latitude": "29.92222035234712",
    "geocoded_column": {
      "latitude": "29.92222035234712",
      "longitude": "-90.03196725539695"
    }
  },
  {
    "service_request": "2024-1119916",
    "request_type": "Property Maintenance",
    "request_reason": "Property Maintenance",
    "date_created": "2024-08-07T22:46:47.000",
    "date_modified": "2024-08-07T22:46:47.000",
    "request_status": "Pending",
    "responsible_agency": "Department of Code Enforcement",
    "final_address": "5700 BLK Crowder Blvd",
    "address_councildis": "E",
    "status": "Pending",
    "rowid": "1119916",
    "final_x": "3705252.58815",
    "final_y": "557962.082354",
    "longitude": "-89.99209148649571",
    "latitude": "30.027458962272966",
    "geocoded_column": {
      "latitude": "30.027458962272966",
      "longitude": "-89.99209148649571"
    }
  },
  {
    "service_request": "2024-1119915",
    "request_type": "Parks & Parkways",
    "request_reason": "Request Tree Service (Right of Way/Public Property)",
    "date_created": "2024-08-07T22:19:53.000",
    "date_modified": "2024-08-07T22:19:53.000",
    "request_status": "Pending",
    "responsible_agency": "Department of Parks & Parkway",
    "final_address": "4711 Gawain Dr",
    "address_councildis": "E",
    "status": "Pending",
    "rowid": "1119915",
    "final_x": "3707067.90385",
    "final_y": "555214.793881",
    "longitude": "-89.98645732959478",
    "latitude": "30.01984643708927",
    "geocoded_column": {
      "latitude": "30.01984643708927",
      "longitude": "-89.98645732959478"
    }
  },
  {
    "service_request": "2024-1119914",
    "request_type": "Traffic Signals/Signs/Striping/Streetlights",
    "request_reason": "Street Light Outage/Malfunction",
    "date_created": "2024-08-07T22:15:43.000",
    "date_modified": "2024-08-07T22:15:44.000",
    "request_status": "Pending",
    "responsible_agency": "Department of Public Works",
    "final_address": "7320 Green St",
    "address_councildis": "A",
    "status": "Assigned to Contractor",
    "contractor": "Legacy Professional Services",
    "rowid": "1119914",
    "final_x": "3664707.85159",
    "final_y": "528174.973888",
    "longitude": "-90.12120584456717",
    "latitude": "29.946797110996943",
    "geocoded_column": {
      "latitude": "29.946797110996943",
      "longitude": "-90.12120584456717"
    }
  },
  {
    "service_request": "2024-1119913",
    "request_type": "Parks & Parkways",
    "request_reason": "Request Tree Service (Right of Way/Public Property)",
    "date_created": "2024-08-07T22:04:50.000",
    "date_modified": "2024-08-07T22:04:50.000",
    "request_status": "Pending",
    "responsible_agency": "Department of Parks & Parkway",
    "final_address": "4711 Gawain Dr",
    "address_councildis": "E",
    "status": "Pending",
    "rowid": "1119913",
    "final_x": "3707067.90385",
    "final_y": "555214.793881",
    "longitude": "-89.98645732959478",
    "latitude": "30.01984643708927",
    "geocoded_column": {
      "latitude": "30.01984643708927",
      "longitude": "-89.98645732959478"
    }
  },
  {
    "service_request": "2024-1119912",
    "request_type": "Trash/Recycling",
    "request_reason": "Request a Large Item Pick Up",
    "date_created": "2024-08-07T21:57:16.000",
    "date_modified": "2024-08-07T21:57:17.000",
    "request_status": "Pending",
    "responsible_agency": "Department of Sanitation",
    "final_address": "236 S Murat St",
    "address_councildis": "A",
    "status": "Assigned to Contractor",
    "contractor": "IV Waste",
    "rowid": "1119912",
    "final_x": "3669278.2994",
    "final_y": "538779.538121",
    "longitude": "-90.10641671537884",
    "latitude": "29.975822416102123",
    "geocoded_column": {
      "latitude": "29.975822416102123",
      "longitude": "-90.10641671537884"
    }
  },
  {
    "service_request": "2024-1119911",
    "request_type": "Trash/Recycling",
    "request_reason": "Request a Large Item Pick Up",
    "date_created": "2024-08-07T21:20:52.000",
    "date_modified": "2024-08-07T21:20:53.000",
    "request_status": "Pending",
    "responsible_agency": "Department of Sanitation",
    "final_address": "624 Lang St",
    "address_councildis": "C",
    "status": "Assigned to Contractor",
    "contractor": "Richards Disposal",
    "rowid": "1119911",
    "final_x": "3702105.97399",
    "final_y": "520465.156216",
    "longitude": "-90.0034096843634",
    "latitude": "29.924457007848183",
    "geocoded_column": {
      "latitude": "29.924457007848183",
      "longitude": "-90.0034096843634"
    }
  },
  {
    "service_request": "2024-1119910",
    "request_type": "Trash/Recycling",
    "request_reason": "Request a Large Item Pick Up",
    "date_created": "2024-08-07T21:13:51.000",
    "date_modified": "2024-08-07T21:13:52.000",
    "request_status": "Pending",
    "responsible_agency": "Department of Sanitation",
    "final_address": "4423 Walmsley Ave",
    "address_councildis": "B",
    "status": "Assigned to Contractor",
    "contractor": "IV Waste",
    "rowid": "1119910",
    "final_x": "3669481.51706",
    "final_y": "530196.291137",
    "longitude": "-90.10606524227914",
    "latitude": "29.952215356002323",
    "geocoded_column": {
      "latitude": "29.952215356002323",
      "longitude": "-90.10606524227914"
    }
  },
  {
    "service_request": "2024-1119909",
    "request_type": "Trash/Recycling",
    "request_reason": "Request a Large Item Pick Up",
    "date_created": "2024-08-07T20:43:26.000",
    "date_modified": "2024-08-07T20:43:31.000",
    "request_status": "Pending",
    "responsible_agency": "Department of Sanitation",
    "final_address": "2517 Ursulines Ave",
    "address_councildis": "D",
    "status": "Assigned to Contractor",
    "contractor": "IV Waste",
    "rowid": "1119909",
    "final_x": "3678341.52667",
    "final_y": "537668.832712",
    "longitude": "-90.07783090558593",
    "latitude": "29.972498404461874",
    "geocoded_column": {
      "latitude": "29.972498404461874",
      "longitude": "-90.07783090558593"
    }
  },
  {
    "service_request": "2024-1119908",
    "request_type": "Trash/Recycling",
    "request_reason": "Replace Recycling Cart",
    "date_created": "2024-08-07T20:39:01.000",
    "date_modified": "2024-08-07T20:39:01.000",
    "request_status": "Pending",
    "responsible_agency": "Department of Sanitation",
    "final_address": "361 Millaudon St",
    "address_councildis": "A",
    "status": "Pending",
    "rowid": "1119908",
    "final_x": "3661824.15021",
    "final_y": "524487.801596",
    "longitude": "-90.13043300340226",
    "latitude": "29.936742123533673",
    "geocoded_column": {
      "latitude": "29.936742123533673",
      "longitude": "-90.13043300340226"
    }
  },
  {
    "service_request": "2024-1119907",
    "request_type": "Trash/Recycling",
    "request_reason": "Repair Trash Cart",
    "date_created": "2024-08-07T20:37:25.000",
    "date_modified": "2024-08-07T20:37:26.000",
    "request_status": "Pending",
    "responsible_agency": "Department of Sanitation",
    "final_address": "361 Millaudon St",
    "address_councildis": "A",
    "status": "Assigned to Contractor",
    "contractor": "IV Waste",
    "rowid": "1119907",
    "final_x": "3661824.15021",
    "final_y": "524487.801596",
    "longitude": "-90.13043300340226",
    "latitude": "29.936742123533673",
    "geocoded_column": {
      "latitude": "29.936742123533673",
      "longitude": "-90.13043300340226"
    }
  },
  {
    "service_request": "2024-1119906",
    "request_type": "Roads/Drainage",
    "request_reason": "Street Subsidence (Sinking)",
    "date_created": "2024-08-07T20:34:23.000",
    "date_modified": "2024-08-07T20:34:23.000",
    "request_status": "Pending",
    "responsible_agency": "Department of Public Works",
    "final_address": "331 Hay Pl",
    "address_councildis": "A",
    "status": "Pending",
    "rowid": "1119906",
    "final_x": "3665238.27373",
    "final_y": "554306.389784",
    "longitude": "-90.11865647058899",
    "latitude": "30.018634267940687",
    "geocoded_column": {
      "latitude": "30.018634267940687",
      "longitude": "-90.11865647058899"
    }
  },
  {
    "service_request": "2024-1119905",
    "request_type": "Roads/Drainage",
    "request_reason": "Pothole",
    "date_created": "2024-08-07T20:33:00.000",
    "date_modified": "2024-08-07T20:33:00.000",
    "request_status": "Pending",
    "responsible_agency": "Department of Public Works",
    "final_address": "331 Hay Pl",
    "address_councildis": "A",
    "status": "Pending",
    "rowid": "1119905",
    "final_x": "3665238.27373",
    "final_y": "554306.389784",
    "longitude": "-90.11865647058899",
    "latitude": "30.018634267940687",
    "geocoded_column": {
      "latitude": "30.018634267940687",
      "longitude": "-90.11865647058899"
    }
  },
  {
    "service_request": "2024-1119904",
    "request_type": "Roads/Drainage",
    "request_reason": "Pothole",
    "date_created": "2024-08-07T20:32:53.000",
    "date_modified": "2024-08-07T20:32:53.000",
    "request_status": "Pending",
    "responsible_agency": "Department of Public Works",
    "final_address": "331 Hay Pl",
    "address_councildis": "A",
    "status": "Pending",
    "rowid": "1119904",
    "final_x": "3665238.27373",
    "final_y": "554306.389784",
    "longitude": "-90.11865647058899",
    "latitude": "30.018634267940687",
    "geocoded_column": {
      "latitude": "30.018634267940687",
      "longitude": "-90.11865647058899"
    }
  },
  {
    "service_request": "2024-1119903",
    "request_type": "Property Maintenance",
    "request_reason": "Property Maintenance",
    "date_created": "2024-08-07T20:21:00.000",
    "date_modified": "2024-08-07T20:21:00.000",
    "request_status": "Pending",
    "responsible_agency": "Department of Code Enforcement",
    "final_address": "2513 Amelia St",
    "address_councildis": "B",
    "status": "Pending",
    "rowid": "1119903",
    "final_x": "3672363.03271",
    "final_y": "524411.833404",
    "longitude": "-90.09716377858985",
    "latitude": "29.936224813041658",
    "geocoded_column": {
      "latitude": "29.936224813041658",
      "longitude": "-90.09716377858985"
    }
  },
  {
    "service_request": "2024-1119902",
    "request_type": "Property Maintenance",
    "request_reason": "Property Maintenance",
    "date_created": "2024-08-07T20:20:40.000",
    "date_modified": "2024-08-07T20:20:40.000",
    "request_status": "Pending",
    "responsible_agency": "Department of Code Enforcement",
    "final_address": "13010 N Lake Carmel Dr",
    "address_councildis": "E",
    "status": "Pending",
    "rowid": "1119902",
    "final_x": "3716651.11135",
    "final_y": "568712.029413",
    "longitude": "-89.9556650959877",
    "latitude": "30.05664516131172",
    "geocoded_column": {
      "latitude": "30.05664516131172",
      "longitude": "-89.9556650959877"
    }
  },
  {
    "service_request": "2024-1119901",
    "request_type": "Trash/Recycling",
    "request_reason": "Repair Recycling Cart",
    "date_created": "2024-08-07T20:17:39.000",
    "date_modified": "2024-08-07T20:17:39.000",
    "request_status": "Pending",
    "responsible_agency": "Department of Sanitation",
    "final_address": "2536 Congress St",
    "address_councildis": "D",
    "status": "Pending",
    "rowid": "1119901",
    "final_x": "3692066.11197",
    "final_y": "541174.69934",
    "longitude": "-90.03436087510364",
    "latitude": "29.98171765486854",
    "geocoded_column": {
      "latitude": "29.98171765486854",
      "longitude": "-90.03436087510364"
    }
  },
  {
    "service_request": "2024-1119900",
    "request_type": "Trash/Recycling",
    "request_reason": "Request a Large Item Pick Up",
    "date_created": "2024-08-07T20:08:02.000",
    "date_modified": "2024-08-07T20:08:03.000",
    "request_status": "Pending",
    "responsible_agency": "Department of Sanitation",
    "final_address": "406 Tricou St",
    "address_councildis": "E",
    "status": "Assigned to Contractor",
    "contractor": "Waste Pro",
    "rowid": "1119900",
    "final_x": "3699180.75095",
    "final_y": "530744.117378",
    "longitude": "-90.0122694663844",
    "latitude": "29.952813606803037",
    "geocoded_column": {
      "latitude": "29.952813606803037",
      "longitude": "-90.0122694663844"
    }
  },
  {
    "service_request": "2024-1119899",
    "request_type": "Property Maintenance",
    "request_reason": "Property Maintenance",
    "date_created": "2024-08-07T20:05:20.000",
    "date_modified": "2024-08-07T20:05:20.000",
    "request_status": "Pending",
    "responsible_agency": "Department of Code Enforcement",
    "final_address": "1440 N Roman St",
    "address_councildis": "D",
    "status": "Pending",
    "rowid": "1119899",
    "final_x": "3680942.19631",
    "final_y": "537281.48084",
    "longitude": "-90.06963102388809",
    "latitude": "29.971354710922242",
    "geocoded_column": {
      "latitude": "29.971354710922242",
      "longitude": "-90.06963102388809"
    }
  },
  {
    "service_request": "2024-1119898",
    "request_type": "Traffic Signals/Signs/Striping/Streetlights",
    "request_reason": "Street Light Outage/Malfunction",
    "date_created": "2024-08-07T20:04:31.000",
    "date_modified": "2024-08-07T20:04:32.000",
    "request_status": "Pending",
    "responsible_agency": "Department of Public Works",
    "final_address": "ST BERNARD AVE & PARK ISLAND DR",
    "address_councildis": "D",
    "status": "Assigned to Contractor",
    "contractor": "Legacy Professional Services",
    "rowid": "1119898",
    "final_x": "3676969.5",
    "final_y": "547883.88",
    "longitude": "-90.08181164896608",
    "latitude": "30.000627498397833",
    "geocoded_column": {
      "latitude": "30.000627498397833",
      "longitude": "-90.08181164896608"
    }
  },
  {
    "service_request": "2024-1119897",
    "request_type": "Roads/Drainage",
    "request_reason": "Catch Basin - Broken/Damage",
    "date_created": "2024-08-07T20:03:44.000",
    "date_modified": "2024-08-07T20:03:44.000",
    "request_status": "Pending",
    "responsible_agency": "Department of Public Works",
    "final_address": "1440 N Roman St",
    "address_councildis": "D",
    "status": "Pending",
    "rowid": "1119897",
    "final_x": "3680942.19631",
    "final_y": "537281.48084",
    "longitude": "-90.06963102388809",
    "latitude": "29.971354710922242",
    "geocoded_column": {
      "latitude": "29.971354710922242",
      "longitude": "-90.06963102388809"
    }
  },
  {
    "service_request": "2024-1119896",
    "request_type": "Trash/Recycling",
    "request_reason": "Request a Large Item Pick Up",
    "date_created": "2024-08-07T19:52:26.000",
    "date_modified": "2024-08-07T19:52:27.000",
    "request_status": "Pending",
    "responsible_agency": "Department of Sanitation",
    "final_address": "7350 Beauvoir Ct",
    "address_councildis": "E",
    "status": "Assigned to Contractor",
    "contractor": "Waste Pro",
    "rowid": "1119896",
    "final_x": "3715938.49912",
    "final_y": "567981.067621",
    "longitude": "-89.95794525861535",
    "latitude": "30.054658856484455",
    "geocoded_column": {
      "latitude": "30.054658856484455",
      "longitude": "-89.95794525861535"
    }
  },
  {
    "service_request": "2024-1119895",
    "request_type": "Traffic Signals/Signs/Striping/Streetlights",
    "request_reason": "Street Light Outage/Malfunction",
    "date_created": "2024-08-07T19:42:25.000",
    "date_modified": "2024-08-07T19:42:26.000",
    "request_status": "Pending",
    "responsible_agency": "Department of Public Works",
    "final_address": "6627 E Hermes St",
    "address_councildis": "D",
    "status": "Assigned to Contractor",
    "contractor": "Legacy Professional Services",
    "rowid": "1119895",
    "final_x": "3697855.44643",
    "final_y": "555999.758297",
    "longitude": "-90.01553703020684",
    "latitude": "30.022299324418853",
    "geocoded_column": {
      "latitude": "30.022299324418853",
      "longitude": "-90.01553703020684"
    }
  },
  {
    "service_request": "2024-1119894",
    "request_type": "Property Maintenance",
    "request_reason": "Property Maintenance",
    "date_created": "2024-08-07T19:31:36.000",
    "date_modified": "2024-08-07T19:31:36.000",
    "request_status": "Pending",
    "responsible_agency": "Department of Code Enforcement",
    "final_address": "1901 Carondelet St",
    "address_councildis": "B",
    "status": "Pending",
    "rowid": "1119894",
    "final_x": "3678069.98216",
    "final_y": "524562.05734",
    "longitude": "-90.07914156911188",
    "latitude": "29.93646735285839",
    "geocoded_column": {
      "latitude": "29.93646735285839",
      "longitude": "-90.07914156911188"
    }
  },
  {
    "service_request": "2024-1119893",
    "request_type": "Property Maintenance",
    "request_reason": "Property Maintenance",
    "date_created": "2024-08-07T19:29:17.000",
    "date_modified": "2024-08-07T19:29:17.000",
    "request_status": "Pending",
    "responsible_agency": "Department of Code Enforcement",
    "final_address": "4800 Raymond Joseph Dr",
    "address_councildis": "E",
    "status": "Pending",
    "rowid": "1119893",
    "final_x": "3703617.16906",
    "final_y": "555514.866841",
    "longitude": "-89.99734940039193",
    "latitude": "30.020782600196448",
    "geocoded_column": {
      "latitude": "30.020782600196448",
      "longitude": "-89.99734940039193"
    }
  },
  {
    "service_request": "2024-1119892",
    "request_type": "Abandoned Vehicles",
    "request_reason": "Abandoned/Junk Vehicles",
    "date_created": "2024-08-07T18:37:19.000",
    "date_modified": "2024-08-07T18:37:19.000",
    "request_status": "Pending",
    "responsible_agency": "Department of Public Works",
    "final_address": "1501 Owens Blvd",
    "address_councildis": "D",
    "status": "Pending",
    "rowid": "1119892",
    "final_x": "3678801.82152",
    "final_y": "549103.105811",
    "longitude": "-90.07598095441637",
    "latitude": "30.003924779363373",
    "geocoded_column": {
      "latitude": "30.003924779363373",
      "longitude": "-90.07598095441637"
    }
  },
  {
    "service_request": "2024-1119891",
    "request_type": "Abandoned Vehicles",
    "request_reason": "Abandoned/Junk Vehicles",
    "date_created": "2024-08-07T18:35:10.000",
    "date_modified": "2024-08-07T18:35:10.000",
    "request_status": "Pending",
    "responsible_agency": "Department of Public Works",
    "final_address": "1501 Owens Blvd",
    "address_councildis": "D",
    "status": "Pending",
    "rowid": "1119891",
    "final_x": "3678801.82152",
    "final_y": "549103.105811",
    "longitude": "-90.07598095441637",
    "latitude": "30.003924779363373",
    "geocoded_column": {
      "latitude": "30.003924779363373",
      "longitude": "-90.07598095441637"
    }
  },
  {
    "service_request": "2024-1119890",
    "request_type": "Roads/Drainage",
    "request_reason": "Pothole",
    "date_created": "2024-08-07T18:24:04.000",
    "date_modified": "2024-08-07T18:24:04.000",
    "request_status": "Pending",
    "responsible_agency": "Department of Public Works",
    "final_address": "34TH ST & PONTCHARTRAIN BLVD",
    "address_councildis": "A",
    "status": "Pending",
    "rowid": "1119890",
    "final_x": "3666292.0",
    "final_y": "551317.58",
    "longitude": "-90.11542743825447",
    "latitude": "30.010385332716414",
    "geocoded_column": {
      "latitude": "30.010385332716414",
      "longitude": "-90.11542743825447"
    }
  },
  {
    "service_request": "2024-1119889",
    "request_type": "Trash/Recycling",
    "request_reason": "Request a Large Item Pick Up",
    "date_created": "2024-08-07T18:22:33.000",
    "date_modified": "2024-08-07T18:22:33.000",
    "request_status": "Pending",
    "responsible_agency": "Department of Sanitation",
    "final_address": "4518 Touro St",
    "address_councildis": "D",
    "status": "Assigned to Contractor",
    "contractor": "IV Waste",
    "rowid": "1119889",
    "final_x": "3683145.18274",
    "final_y": "549297.716179",
    "longitude": "-90.06225272128474",
    "latitude": "30.00432812331609",
    "geocoded_column": {
      "latitude": "30.00432812331609",
      "longitude": "-90.06225272128474"
    }
  },
  {
    "service_request": "2024-1119888",
    "request_type": "Trash/Recycling",
    "request_reason": "Order Recycling Cart",
    "date_created": "2024-08-07T18:17:40.000",
    "date_modified": "2024-08-07T18:17:40.000",
    "request_status": "Pending",
    "responsible_agency": "Department of Sanitation",
    "final_address": "6494 Pontchartrain Blvd",
    "address_councildis": "A",
    "status": "Pending",
    "rowid": "1119888",
    "final_x": "3666196.66132",
    "final_y": "551261.894549",
    "longitude": "-90.11573051981472",
    "latitude": "30.010235003150584",
    "geocoded_column": {
      "latitude": "30.010235003150584",
      "longitude": "-90.11573051981472"
    }
  },
  {
    "service_request": "2024-1119887",
    "request_type": "Trash/Recycling",
    "request_reason": "Replace Trash Cart",
    "date_created": "2024-08-07T18:16:34.000",
    "date_modified": "2024-08-07T18:16:34.000",
    "request_status": "Pending",
    "responsible_agency": "Department of Sanitation",
    "final_address": "6494 Pontchartrain Blvd",
    "address_councildis": "A",
    "status": "Assigned to Contractor",
    "contractor": "IV Waste",
    "rowid": "1119887",
    "final_x": "3666196.66132",
    "final_y": "551261.894549",
    "longitude": "-90.11573051981472",
    "latitude": "30.010235003150584",
    "geocoded_column": {
      "latitude": "30.010235003150584",
      "longitude": "-90.11573051981472"
    }
  },
  {
    "service_request": "2024-1119886",
    "request_type": "Trash/Recycling",
    "request_reason": "Replace Trash Cart",
    "date_created": "2024-08-07T18:16:23.000",
    "date_modified": "2024-08-07T18:16:24.000",
    "request_status": "Pending",
    "responsible_agency": "Department of Sanitation",
    "final_address": "9 Allard Blvd",
    "address_councildis": "A",
    "status": "Assigned to Contractor",
    "contractor": "IV Waste",
    "rowid": "1119886",
    "final_x": "3672850.14625",
    "final_y": "541364.835148",
    "longitude": "-90.09504755146446",
    "latitude": "29.982825454350575",
    "geocoded_column": {
      "latitude": "29.982825454350575",
      "longitude": "-90.09504755146446"
    }
  },
  {
    "service_request": "2024-1119885",
    "request_type": "Roads/Drainage",
    "request_reason": "Debris in Roadway",
    "date_created": "2024-08-07T18:13:08.000",
    "date_modified": "2024-08-07T18:13:08.000",
    "request_status": "Pending",
    "responsible_agency": "Department of Public Works",
    "final_address": "N BROAD ST & ESPLANADE AVE",
    "address_councildis": "D",
    "status": "Pending",
    "rowid": "1119885",
    "final_x": "3678224.84",
    "final_y": "538942.48",
    "longitude": "-90.07815536068416",
    "latitude": "29.976004011799112",
    "geocoded_column": {
      "latitude": "29.976004011799112",
      "longitude": "-90.07815536068416"
    }
  },
  {
    "service_request": "2024-1119884",
    "request_type": "Parks & Parkways",
    "request_reason": "Request Tree Service (Right of Way/Public Property)",
    "date_created": "2024-08-07T18:12:53.000",
    "date_modified": "2024-08-07T18:12:53.000",
    "request_status": "Pending",
    "responsible_agency": "Department of Parks & Parkway",
    "final_address": "5878 Marshal Foch St",
    "address_councildis": "A",
    "status": "Pending",
    "rowid": "1119884",
    "final_x": "3669663.36698",
    "final_y": "546456.063441",
    "longitude": "-90.10494064573182",
    "latitude": "29.996918895871307",
    "geocoded_column": {
      "latitude": "29.996918895871307",
      "longitude": "-90.10494064573182"
    }
  },
  {
    "service_request": "2024-1119883",
    "request_type": "Parks & Parkways",
    "request_reason": "Request Tree Service (Right of Way/Public Property)",
    "date_created": "2024-08-07T18:12:36.000",
    "date_modified": "2024-08-07T18:12:36.000",
    "request_status": "Pending",
    "responsible_agency": "Department of Parks & Parkway",
    "final_address": "5878 Marshal Foch St",
    "address_councildis": "A",
    "status": "Pending",
    "rowid": "1119883",
    "final_x": "3669663.36698",
    "final_y": "546456.063441",
    "longitude": "-90.10494064573182",
    "latitude": "29.996918895871307",
    "geocoded_column": {
      "latitude": "29.996918895871307",
      "longitude": "-90.10494064573182"
    }
  },
  {
    "service_request": "2024-1119882",
    "request_type": "Trash/Recycling",
    "request_reason": "Request a Large Item Pick Up",
    "date_created": "2024-08-07T18:10:13.000",
    "date_modified": "2024-08-07T18:10:14.000",
    "request_status": "Pending",
    "responsible_agency": "Department of Sanitation",
    "final_address": "2300 BLK Saint Roch Ave",
    "address_councildis": "D",
    "status": "Assigned to Contractor",
    "contractor": "IV Waste",
    "rowid": "1119882",
    "final_x": "3686078.50773",
    "final_y": "541113.465789",
    "longitude": "-90.05327466333098",
    "latitude": "29.981734566250744",
    "geocoded_column": {
      "latitude": "29.981734566250744",
      "longitude": "-90.05327466333098"
    }
  },
  {
    "service_request": "2024-1119881",
    "request_type": "Traffic Signals/Signs/Striping/Streetlights",
    "request_reason": "Traffic Sign Missing/Damaged",
    "date_created": "2024-08-07T18:07:41.000",
    "date_modified": "2024-08-07T18:07:41.000",
    "request_status": "Pending",
    "responsible_agency": "Department of Public Works",
    "final_address": "3745 Frenchmen St",
    "address_councildis": "D",
    "status": "Pending",
    "rowid": "1119881",
    "final_x": "3683805.75535",
    "final_y": "546552.388497",
    "longitude": "-90.0602622127931",
    "latitude": "29.99675929295467",
    "geocoded_column": {
      "latitude": "29.99675929295467",
      "longitude": "-90.0602622127931"
    }
  },
  {
    "service_request": "2024-1119880",
    "request_type": "Trash/Recycling",
    "request_reason": "Missed Trash Pick-Up",
    "date_created": "2024-08-07T18:02:13.000",
    "date_modified": "2024-08-07T18:02:14.000",
    "request_status": "Pending",
    "responsible_agency": "Department of Sanitation",
    "final_address": "1337 Burdette St",
    "address_councildis": "A",
    "status": "Assigned to Contractor",
    "contractor": "IV Waste",
    "rowid": "1119880",
    "final_x": "3663261.46669",
    "final_y": "528071.509119",
    "longitude": "-90.12577607348997",
    "latitude": "29.94655460838485",
    "geocoded_column": {
      "latitude": "29.94655460838485",
      "longitude": "-90.12577607348997"
    }
  },
  {
    "service_request": "2024-1119879",
    "request_type": "Trash/Recycling",
    "request_reason": "Order Recycling Cart",
    "date_created": "2024-08-07T17:57:23.000",
    "date_modified": "2024-08-07T17:57:23.000",
    "request_status": "Pending",
    "responsible_agency": "Department of Sanitation",
    "final_address": "2606 N Rocheblave St",
    "address_councildis": "D",
    "status": "Pending",
    "rowid": "1119879",
    "final_x": "3686545.44738",
    "final_y": "541212.739468",
    "longitude": "-90.05179634474644",
    "latitude": "29.98199318235813",
    "geocoded_column": {
      "latitude": "29.98199318235813",
      "longitude": "-90.05179634474644"
    }
  },
  {
    "service_request": "2024-1119878",
    "request_type": "Trash/Recycling",
    "request_reason": "Request a Large Item Pick Up",
    "date_created": "2024-08-07T17:56:08.000",
    "date_modified": "2024-08-07T17:56:09.000",
    "request_status": "Pending",
    "responsible_agency": "Department of Sanitation",
    "final_address": "2610 N Rocheblave St",
    "address_councildis": "D",
    "status": "Assigned to Contractor",
    "contractor": "IV Waste",
    "rowid": "1119878",
    "final_x": "3686576.65302",
    "final_y": "541215.622092",
    "longitude": "-90.05169768078719",
    "latitude": "29.982000148856983",
    "geocoded_column": {
      "latitude": "29.982000148856983",
      "longitude": "-90.05169768078719"
    }
  },
  {
    "service_request": "2024-1119877",
    "request_type": "Trash/Recycling",
    "request_reason": "Order Recycling Cart",
    "date_created": "2024-08-07T17:45:28.000",
    "date_modified": "2024-08-07T17:45:28.000",
    "request_status": "Pending",
    "responsible_agency": "Department of Sanitation",
    "final_address": "8419 Apple St",
    "address_councildis": "A",
    "status": "Pending",
    "rowid": "1119877",
    "final_x": "3664463.53735",
    "final_y": "532966.520196",
    "longitude": "-90.12181727904452",
    "latitude": "29.959979413499106",
    "geocoded_column": {
      "latitude": "29.959979413499106",
      "longitude": "-90.12181727904452"
    }
  },
  {
    "service_request": "2024-1119876",
    "request_type": "Roads/Drainage",
    "request_reason": "Debris in Roadway",
    "date_created": "2024-08-07T17:43:38.000",
    "date_modified": "2024-08-07T17:43:38.000",
    "request_status": "Pending",
    "responsible_agency": "Department of Public Works",
    "final_address": "2500 BLK Florida Ave",
    "address_councildis": "D",
    "status": "Pending",
    "rowid": "1119876",
    "final_x": "3686217.99367",
    "final_y": "542333.277326",
    "longitude": "-90.05279104554276",
    "latitude": "29.985084330696207",
    "geocoded_column": {
      "latitude": "29.985084330696207",
      "longitude": "-90.05279104554276"
    }
  },
  {
    "service_request": "2024-1119875",
    "request_type": "Property Maintenance",
    "request_reason": "Property Maintenance",
    "date_created": "2024-08-07T17:34:15.000",
    "date_modified": "2024-08-07T17:34:15.000",
    "request_status": "Pending",
    "responsible_agency": "Department of Code Enforcement",
    "final_address": "2622 Florida Ave",
    "address_councildis": "D",
    "status": "Pending",
    "rowid": "1119875",
    "final_x": "3686571.20681",
    "final_y": "542316.505229",
    "longitude": "-90.05167598991758",
    "latitude": "29.985027354804",
    "geocoded_column": {
      "latitude": "29.985027354804",
      "longitude": "-90.05167598991758"
    }
  },
  {
    "service_request": "2024-1119874",
    "request_type": "Property Maintenance",
    "request_reason": "Property Maintenance",
    "date_created": "2024-08-07T17:31:59.000",
    "date_modified": "2024-08-07T17:31:59.000",
    "request_status": "Pending",
    "responsible_agency": "Department of Code Enforcement",
    "final_address": "2622 Florida Ave",
    "address_councildis": "D",
    "status": "Pending",
    "rowid": "1119874",
    "final_x": "3686571.20681",
    "final_y": "542316.505229",
    "longitude": "-90.05167598991758",
    "latitude": "29.985027354804",
    "geocoded_column": {
      "latitude": "29.985027354804",
      "longitude": "-90.05167598991758"
    }
  },
  {
    "service_request": "2024-1119873",
    "request_type": "Parks & Parkways",
    "request_reason": "Request Tree Service (Right of Way/Public Property)",
    "date_created": "2024-08-07T17:25:02.000",
    "date_modified": "2024-08-07T17:25:02.000",
    "request_status": "Pending",
    "responsible_agency": "Department of Parks & Parkway",
    "final_address": "5526 Charlotte Dr",
    "address_councildis": "D",
    "status": "Pending",
    "rowid": "1119873",
    "final_x": "3679950.46671",
    "final_y": "552828.767638",
    "longitude": "-90.07222264581773",
    "latitude": "30.014134302653048",
    "geocoded_column": {
      "latitude": "30.014134302653048",
      "longitude": "-90.07222264581773"
    }
  },
  {
    "service_request": "2024-1119872",
    "request_type": "Abandoned Vehicles",
    "request_reason": "Abandoned/Junk Vehicles",
    "date_created": "2024-08-07T17:04:14.000",
    "date_modified": "2024-08-07T17:04:14.000",
    "request_status": "Pending",
    "responsible_agency": "Department of Public Works",
    "final_address": "3745 Frenchmen St",
    "address_councildis": "D",
    "status": "Pending",
    "rowid": "1119872",
    "final_x": "3683805.75535",
    "final_y": "546552.388497",
    "longitude": "-90.0602622127931",
    "latitude": "29.99675929295467",
    "geocoded_column": {
      "latitude": "29.99675929295467",
      "longitude": "-90.0602622127931"
    }
  },
  {
    "service_request": "2024-1119871",
    "request_type": "Abandoned Vehicles",
    "request_reason": "Abandoned/Junk Vehicles",
    "date_created": "2024-08-07T17:03:24.000",
    "date_modified": "2024-08-07T17:03:24.000",
    "request_status": "Pending",
    "responsible_agency": "Department of Public Works",
    "final_address": "3930 Perrier St",
    "address_councildis": "B",
    "status": "Pending",
    "rowid": "1119871",
    "final_x": "3672516.81671",
    "final_y": "520195.171",
    "longitude": "-90.0968219322253",
    "latitude": "29.924625787717115",
    "geocoded_column": {
      "latitude": "29.924625787717115",
      "longitude": "-90.0968219322253"
    }
  },
  {
    "service_request": "2024-1119870",
    "request_type": "Trash/Recycling",
    "request_reason": "Request a Large Item Pick Up",
    "date_created": "2024-08-07T16:51:52.000",
    "date_modified": "2024-08-07T16:51:53.000",
    "request_status": "Pending",
    "responsible_agency": "Department of Sanitation",
    "final_address": "3317 Newton St",
    "address_councildis": "C",
    "status": "Assigned to Contractor",
    "contractor": "Richards Disposal",
    "rowid": "1119870",
    "final_x": "3696555.32765",
    "final_y": "527721.312511",
    "longitude": "-90.02066868331511",
    "latitude": "29.944584917878263",
    "geocoded_column": {
      "latitude": "29.944584917878263",
      "longitude": "-90.02066868331511"
    }
  },
  {
    "service_request": "2024-1119869",
    "request_type": "Trash/Recycling",
    "request_reason": "Request a Large Item Pick Up",
    "date_created": "2024-08-07T16:47:28.000",
    "date_modified": "2024-08-07T16:47:29.000",
    "request_status": "Pending",
    "responsible_agency": "Department of Sanitation",
    "final_address": "3411 Somerset Dr",
    "address_councildis": "C",
    "status": "Assigned to Contractor",
    "contractor": "Richards Disposal",
    "rowid": "1119869",
    "final_x": "3702441.43261",
    "final_y": "518599.834743",
    "longitude": "-90.00241915596122",
    "latitude": "29.919317306544524",
    "geocoded_column": {
      "latitude": "29.919317306544524",
      "longitude": "-90.00241915596122"
    }
  },
  {
    "service_request": "2024-1119868",
    "request_type": "Property Maintenance",
    "request_reason": "Property Maintenance",
    "date_created": "2024-08-07T16:45:39.000",
    "date_modified": "2024-08-07T16:45:40.000",
    "request_status": "Pending",
    "responsible_agency": "Department of Code Enforcement",
    "final_address": "6064 Laurel St",
    "address_councildis": "A",
    "status": "Pending",
    "rowid": "1119868",
    "final_x": "3663872.31712",
    "final_y": "518342.381238",
    "longitude": "-90.12417155108908",
    "latitude": "29.919784869207778",
    "geocoded_column": {
      "latitude": "29.919784869207778",
      "longitude": "-90.12417155108908"
    }
  },
  {
    "service_request": "2024-1119867",
    "request_type": "Abandoned Vehicles",
    "request_reason": "Abandoned/Junk Vehicles",
    "date_created": "2024-08-07T16:45:06.000",
    "date_modified": "2024-08-07T16:45:06.000",
    "request_status": "Pending",
    "responsible_agency": "Department of Public Works",
    "final_address": "SERE ST & MARIGNY ST",
    "address_councildis": "D",
    "status": "Pending",
    "rowid": "1119867",
    "final_x": "3684647.4",
    "final_y": "545914.88",
    "longitude": "-90.05762592813262",
    "latitude": "29.994980634007522",
    "geocoded_column": {
      "latitude": "29.994980634007522",
      "longitude": "-90.05762592813262"
    }
  },
  {
    "service_request": "2024-1119866",
    "request_type": "Trash/Recycling",
    "request_reason": "Request a Large Item Pick Up",
    "date_created": "2024-08-07T16:43:55.000",
    "date_modified": "2024-08-07T16:43:56.000",
    "request_status": "Pending",
    "responsible_agency": "Department of Sanitation",
    "final_address": "144 Morrison Ct",
    "address_councildis": "E",
    "status": "Assigned to Contractor",
    "contractor": "Waste Pro",
    "rowid": "1119866",
    "final_x": "3703829.94404",
    "final_y": "561651.522719",
    "longitude": "-89.99645087087558",
    "latitude": "30.03764919444908",
    "geocoded_column": {
      "latitude": "30.03764919444908",
      "longitude": "-89.99645087087558"
    }
  },
  {
    "service_request": "2024-1119865",
    "request_type": "Traffic Signals/Signs/Striping/Streetlights",
    "request_reason": "Street Light Outage/Malfunction",
    "date_created": "2024-08-07T16:38:12.000",
    "date_modified": "2024-08-07T16:38:13.000",
    "request_status": "Pending",
    "responsible_agency": "Department of Public Works",
    "final_address": "3514 Elysian Fields Ave",
    "address_councildis": "D",
    "status": "Assigned to Contractor",
    "contractor": "Legacy Professional Services",
    "rowid": "1119865",
    "final_x": "3684104.42165",
    "final_y": "545644.79048",
    "longitude": "-90.05935062027868",
    "latitude": "29.99425459516148",
    "geocoded_column": {
      "latitude": "29.99425459516148",
      "longitude": "-90.05935062027868"
    }
  },
  {
    "service_request": "2024-1119864",
    "request_type": "Traffic Signals/Signs/Striping/Streetlights",
    "request_reason": "Street Light Outage/Malfunction",
    "date_created": "2024-08-07T16:37:37.000",
    "date_modified": "2024-08-07T16:37:38.000",
    "request_status": "Pending",
    "responsible_agency": "Department of Public Works",
    "final_address": "2431 Second St",
    "address_councildis": "B",
    "status": "Assigned to Contractor",
    "contractor": "Legacy Professional Services",
    "rowid": "1119864",
    "final_x": "3674990.92443",
    "final_y": "525694.435005",
    "longitude": "-90.08882345544285",
    "latitude": "29.939673331675227",
    "geocoded_column": {
      "latitude": "29.939673331675227",
      "longitude": "-90.08882345544285"
    }
  },
  {
    "service_request": "2024-1119863",
    "request_type": "Traffic Signals/Signs/Striping/Streetlights",
    "request_reason": "Street Light Outage/Malfunction",
    "date_created": "2024-08-07T16:33:55.000",
    "date_modified": "2024-08-07T16:34:36.000",
    "request_status": "Pending",
    "responsible_agency": "Department of Public Works",
    "final_address": "1012 Kerlerec St",
    "address_councildis": "C",
    "status": "Assigned to Contractor",
    "contractor": "Legacy Professional Services",
    "rowid": "1119863",
    "final_x": "3683290.72245",
    "final_y": "535408.154566",
    "longitude": "-90.06227968184156",
    "latitude": "29.966132283564317",
    "geocoded_column": {
      "latitude": "29.966132283564317",
      "longitude": "-90.06227968184156"
    }
  },
  {
    "service_request": "2024-1119862",
    "request_type": "Trash/Recycling",
    "request_reason": "Repair Recycling Cart",
    "date_created": "2024-08-07T16:32:07.000",
    "date_modified": "2024-08-07T16:32:08.000",
    "request_status": "Pending",
    "responsible_agency": "Department of Sanitation",
    "final_address": "1808 Tennessee St",
    "address_councildis": "E",
    "status": "Pending",
    "rowid": "1119862",
    "final_x": "3696391.13546",
    "final_y": "537041.110856",
    "longitude": "-90.02085003666046",
    "latitude": "29.970216248836593",
    "geocoded_column": {
      "latitude": "29.970216248836593",
      "longitude": "-90.02085003666046"
    }
  },
  {
    "service_request": "2024-1119861",
    "request_type": "Trash/Recycling",
    "request_reason": "Order Recycling Cart",
    "date_created": "2024-08-07T16:32:04.000",
    "date_modified": "2024-08-07T16:32:05.000",
    "request_status": "Pending",
    "responsible_agency": "Department of Sanitation",
    "final_address": "6209 Magnolia St",
    "address_councildis": "A",
    "status": "Pending",
    "rowid": "1119861",
    "final_x": "3666130.40288",
    "final_y": "525341.741373",
    "longitude": "-90.11680928769023",
    "latitude": "29.938965178061203",
    "geocoded_column": {
      "latitude": "29.938965178061203",
      "longitude": "-90.11680928769023"
    }
  },
  {
    "service_request": "2024-1119860",
    "request_type": "Trash/Recycling",
    "request_reason": "Order Trash Cart",
    "date_created": "2024-08-07T16:31:52.000",
    "date_modified": "2024-08-07T16:31:53.000",
    "request_status": "Pending",
    "responsible_agency": "Department of Sanitation",
    "final_address": "6209 Magnolia St",
    "address_councildis": "A",
    "status": "Assigned to Contractor",
    "contractor": "IV Waste",
    "rowid": "1119860",
    "final_x": "3666130.40288",
    "final_y": "525341.741373",
    "longitude": "-90.11680928769023",
    "latitude": "29.938965178061203",
    "geocoded_column": {
      "latitude": "29.938965178061203",
      "longitude": "-90.11680928769023"
    }
  },
  {
    "service_request": "2024-1119859",
    "request_type": "Roads/Drainage",
    "request_reason": "Damaged Sidewalk",
    "date_created": "2024-08-07T16:31:29.000",
    "date_modified": "2024-08-07T16:31:30.000",
    "request_status": "Pending",
    "responsible_agency": "Department of Public Works",
    "final_address": "8310 Oleander St",
    "address_councildis": "A",
    "status": "Pending",
    "rowid": "1119859",
    "final_x": "3666128.31956",
    "final_y": "534190.105797",
    "longitude": "-90.11651920819986",
    "latitude": "29.963295366899203",
    "geocoded_column": {
      "latitude": "29.963295366899203",
      "longitude": "-90.11651920819986"
    }
  },
  {
    "service_request": "2024-1119858",
    "request_type": "Trash/Recycling",
    "request_reason": "Request a Large Item Pick Up",
    "date_created": "2024-08-07T16:26:33.000",
    "date_modified": "2024-08-07T16:26:34.000",
    "request_status": "Pending",
    "responsible_agency": "Department of Sanitation",
    "final_address": "5451 Royal St",
    "address_councildis": "E",
    "status": "Assigned to Contractor",
    "contractor": "Waste Pro",
    "rowid": "1119858",
    "final_x": "3697077.02653",
    "final_y": "532450.673155",
    "longitude": "-90.01885023918626",
    "latitude": "29.957572557363264",
    "geocoded_column": {
      "latitude": "29.957572557363264",
      "longitude": "-90.01885023918626"
    }
  },
  {
    "service_request": "2024-1119857",
    "request_type": "Property Maintenance",
    "request_reason": "Property Maintenance",
    "date_created": "2024-08-07T16:24:26.000",
    "date_modified": "2024-08-07T16:24:27.000",
    "request_status": "Pending",
    "responsible_agency": "Department of Code Enforcement",
    "final_address": "4524 Dodt Ave",
    "address_councildis": "E",
    "status": "Pending",
    "rowid": "1119857",
    "final_x": "3705520.78955",
    "final_y": "553978.31996",
    "longitude": "-89.99139142611519",
    "latitude": "30.016496523163795",
    "geocoded_column": {
      "latitude": "30.016496523163795",
      "longitude": "-89.99139142611519"
    }
  },
  {
    "service_request": "2024-1119856",
    "request_type": "Traffic Signals/Signs/Striping/Streetlights",
    "request_reason": "Street Light Outage/Malfunction",
    "date_created": "2024-08-07T16:22:44.000",
    "date_modified": "2024-08-07T16:22:45.000",
    "request_status": "Pending",
    "responsible_agency": "Department of Public Works",
    "final_address": "4900 St Roch Ave",
    "address_councildis": "D",
    "status": "Assigned to Contractor",
    "contractor": "Legacy Professional Services",
    "rowid": "1119856",
    "final_x": "3685211.20444",
    "final_y": "550876.014805",
    "longitude": "-90.05567018927738",
    "latitude": "30.00860469278336",
    "geocoded_column": {
      "latitude": "30.00860469278336",
      "longitude": "-90.05567018927738"
    }
  },
  {
    "service_request": "2024-1119855",
    "request_type": "Traffic Signals/Signs/Striping/Streetlights",
    "request_reason": "Street Light Outage/Malfunction",
    "date_created": "2024-08-07T16:21:59.000",
    "date_modified": "2024-08-07T16:22:00.000",
    "request_status": "Pending",
    "responsible_agency": "Department of Public Works",
    "final_address": "7601 Branch Dr",
    "address_councildis": "E",
    "status": "Assigned to Contractor",
    "contractor": "Legacy Professional Services",
    "rowid": "1119855",
    "final_x": "3714907.85528",
    "final_y": "568520.869157",
    "longitude": "-89.96118242919847",
    "latitude": "30.056177064507995",
    "geocoded_column": {
      "latitude": "30.056177064507995",
      "longitude": "-89.96118242919847"
    }
  },
  {
    "service_request": "2024-1119854",
    "request_type": "Trash/Recycling",
    "request_reason": "Request a Large Item Pick Up",
    "date_created": "2024-08-07T16:13:00.000",
    "date_modified": "2024-08-07T16:13:01.000",
    "request_status": "Pending",
    "responsible_agency": "Department of Sanitation",
    "final_address": "910 Tricou St",
    "address_councildis": "E",
    "status": "Assigned to Contractor",
    "contractor": "Waste Pro",
    "rowid": "1119854",
    "final_x": "3699840.74212",
    "final_y": "532411.464323",
    "longitude": "-90.01012472458167",
    "latitude": "29.957377280480095",
    "geocoded_column": {
      "latitude": "29.957377280480095",
      "longitude": "-90.01012472458167"
    }
  },
  {
    "service_request": "2024-1119853",
    "request_type": "Roads/Drainage",
    "request_reason": "Pothole",
    "date_created": "2024-08-07T16:12:41.000",
    "date_modified": "2024-08-07T16:12:41.000",
    "request_status": "Pending",
    "responsible_agency": "Department of Public Works",
    "final_address": "4301 Chef Menteur Hwy",
    "address_councildis": "D",
    "status": "Pending",
    "rowid": "1119853",
    "final_x": "3690442.7951",
    "final_y": "549667.029588",
    "longitude": "-90.03918511016305",
    "latitude": "30.00511899115759",
    "geocoded_column": {
      "latitude": "30.00511899115759",
      "longitude": "-90.03918511016305"
    }
  },
  {
    "service_request": "2024-1119852",
    "request_type": "Roads/Drainage",
    "request_reason": "Pothole",
    "date_created": "2024-08-07T16:12:26.000",
    "date_modified": "2024-08-07T16:12:26.000",
    "request_status": "Pending",
    "responsible_agency": "Department of Public Works",
    "final_address": "3821 Annunciation St",
    "address_councildis": "B",
    "status": "Pending",
    "rowid": "1119852",
    "final_x": "3673436.55124",
    "final_y": "518035.035574",
    "longitude": "-90.09399238720226",
    "latitude": "29.9186587834005",
    "geocoded_column": {
      "latitude": "29.9186587834005",
      "longitude": "-90.09399238720226"
    }
  },
  {
    "service_request": "2024-1119851",
    "request_type": "Abandoned Vehicles",
    "request_reason": "Abandoned/Junk Vehicles",
    "date_created": "2024-08-07T16:10:46.000",
    "date_modified": "2024-08-07T16:11:34.000",
    "request_status": "Pending",
    "responsible_agency": "Department of Public Works",
    "final_address": "1136 Elysian Fields Ave",
    "address_councildis": "C",
    "status": "Pending",
    "rowid": "1119851",
    "final_x": "3684893.95573",
    "final_y": "536598.484807",
    "longitude": "-90.05717485210334",
    "latitude": "29.96935628097388",
    "geocoded_column": {
      "latitude": "29.96935628097388",
      "longitude": "-90.05717485210334"
    }
  },
  {
    "service_request": "2024-1119850",
    "request_type": "Trash/Recycling",
    "request_reason": "Request a Large Item Pick Up",
    "date_created": "2024-08-07T16:09:55.000",
    "date_modified": "2024-08-07T16:09:56.000",
    "request_status": "Pending",
    "responsible_agency": "Department of Sanitation",
    "final_address": "8710 Lomond Rd",
    "address_councildis": "E",
    "status": "Assigned to Contractor",
    "contractor": "Waste Pro",
    "rowid": "1119850",
    "final_x": "3704616.93188",
    "final_y": "562445.101791",
    "longitude": "-89.99393450367441",
    "latitude": "30.03980595386917",
    "geocoded_column": {
      "latitude": "30.03980595386917",
      "longitude": "-89.99393450367441"
    }
  },
  {
    "service_request": "2024-1119849",
    "request_type": "Trash/Recycling",
    "request_reason": "Request a Large Item Pick Up",
    "date_created": "2024-08-07T16:09:27.000",
    "date_modified": "2024-08-07T16:09:28.000",
    "request_status": "Pending",
    "responsible_agency": "Department of Sanitation",
    "final_address": "5451 Royal St",
    "address_councildis": "E",
    "status": "Assigned to Contractor",
    "contractor": "Waste Pro",
    "rowid": "1119849",
    "final_x": "3697077.02653",
    "final_y": "532450.673155",
    "longitude": "-90.01885023918626",
    "latitude": "29.957572557363264",
    "geocoded_column": {
      "latitude": "29.957572557363264",
      "longitude": "-90.01885023918626"
    }
  },
  {
    "service_request": "2024-1119848",
    "request_type": "Property Maintenance",
    "request_reason": "Property Maintenance",
    "date_created": "2024-08-07T16:08:04.000",
    "date_modified": "2024-08-07T16:08:04.000",
    "request_status": "Pending",
    "responsible_agency": "Department of Code Enforcement",
    "final_address": "3729 Annunciation St",
    "address_councildis": "B",
    "status": "Pending",
    "rowid": "1119848",
    "final_x": "3673662.79515",
    "final_y": "518085.373686",
    "longitude": "-90.0932765332611",
    "latitude": "29.918790466598665",
    "geocoded_column": {
      "latitude": "29.918790466598665",
      "longitude": "-90.0932765332611"
    }
  },
  {
    "service_request": "2024-1119847",
    "request_type": "Trash/Recycling",
    "request_reason": "Request a Large Item Pick Up",
    "date_created": "2024-08-07T16:07:24.000",
    "date_modified": "2024-08-07T16:08:57.000",
    "request_status": "Pending",
    "responsible_agency": "Department of Sanitation",
    "final_address": "603 Fats Domino Ave",
    "address_councildis": "E",
    "status": "Assigned to Contractor",
    "contractor": "Waste Pro",
    "rowid": "1119847",
    "final_x": "3697601.45994",
    "final_y": "531965.147139",
    "longitude": "-90.01721185211875",
    "latitude": "29.956220979519568",
    "geocoded_column": {
      "latitude": "29.956220979519568",
      "longitude": "-90.01721185211875"
    }
  },
  {
    "service_request": "2024-1119846",
    "request_type": "Trash/Recycling",
    "request_reason": "Request a Large Item Pick Up",
    "date_created": "2024-08-07T16:03:37.000",
    "date_modified": "2024-08-07T16:03:38.000",
    "request_status": "Pending",
    "responsible_agency": "Department of Sanitation",
    "final_address": "401 Allen Toussaint Blvd",
    "address_councildis": "D",
    "status": "Assigned to Contractor",
    "contractor": "IV Waste",
    "rowid": "1119846",
    "final_x": "3667868.55553",
    "final_y": "554912.90716",
    "longitude": "-90.11032524725007",
    "latitude": "30.02022504558169",
    "geocoded_column": {
      "latitude": "30.02022504558169",
      "longitude": "-90.11032524725007"
    }
  },
  {
    "service_request": "2024-1119845",
    "request_type": "Trash/Recycling",
    "request_reason": "MIssed Recycling Pick-Up",
    "date_created": "2024-08-07T16:01:39.000",
    "date_modified": "2024-08-07T16:02:36.000",
    "request_status": "Pending",
    "responsible_agency": "Department of Sanitation",
    "final_address": "2220 Alabo St",
    "address_councildis": "E",
    "status": "Assigned to Contractor",
    "contractor": "Waste Pro",
    "rowid": "1119845",
    "final_x": "3700037.96394",
    "final_y": "537889.533449",
    "longitude": "-90.00930208042696",
    "latitude": "29.9724337422843",
    "geocoded_column": {
      "latitude": "29.9724337422843",
      "longitude": "-90.00930208042696"
    }
  },
  {
    "service_request": "2024-1119844",
    "request_type": "Trash/Recycling",
    "request_reason": "Request a Large Item Pick Up",
    "date_created": "2024-08-07T15:59:29.000",
    "date_modified": "2024-08-07T15:59:30.000",
    "request_status": "Pending",
    "responsible_agency": "Department of Sanitation",
    "final_address": "6241 Kingston Ct",
    "address_councildis": "C",
    "status": "Assigned to Contractor",
    "contractor": "Richards Disposal",
    "rowid": "1119844",
    "final_x": "3707160.04561",
    "final_y": "517745.210038",
    "longitude": "-89.98755668816732",
    "latitude": "29.916815839726723",
    "geocoded_column": {
      "latitude": "29.916815839726723",
      "longitude": "-89.98755668816732"
    }
  },
  {
    "service_request": "2024-1119843",
    "request_type": "Trash/Recycling",
    "request_reason": "MIssed Recycling Pick-Up",
    "date_created": "2024-08-07T15:59:17.000",
    "date_modified": "2024-08-07T15:59:18.000",
    "request_status": "Pending",
    "responsible_agency": "Department of Sanitation",
    "final_address": "5600 Holley Ln",
    "address_councildis": "E",
    "status": "Assigned to Contractor",
    "contractor": "Waste Pro",
    "rowid": "1119843",
    "final_x": "3703347.83114",
    "final_y": "556520.58025",
    "longitude": "-89.99816339470951",
    "latitude": "30.02355655653691",
    "geocoded_column": {
      "latitude": "30.02355655653691",
      "longitude": "-89.99816339470951"
    }
  },
  {
    "service_request": "2024-1119842",
    "request_type": "Abandoned Vehicles",
    "request_reason": "Abandoned/Junk Vehicles",
    "date_created": "2024-08-07T15:58:51.000",
    "date_modified": "2024-08-07T15:58:51.000",
    "request_status": "Pending",
    "responsible_agency": "Department of Public Works",
    "final_address": "2323 Ursulines Ave",
    "address_councildis": "D",
    "status": "Pending",
    "rowid": "1119842",
    "final_x": "3678865.44328",
    "final_y": "537264.142728",
    "longitude": "-90.07619030582468",
    "latitude": "29.971369850917124",
    "geocoded_column": {
      "latitude": "29.971369850917124",
      "longitude": "-90.07619030582468"
    }
  },
  {
    "service_request": "2024-1119841",
    "request_type": "Trash/Recycling",
    "request_reason": "Order Recycling Cart",
    "date_created": "2024-08-07T15:55:50.000",
    "date_modified": "2024-08-07T15:55:51.000",
    "request_status": "Pending",
    "responsible_agency": "Department of Sanitation",
    "final_address": "4536 Laine Ave",
    "address_councildis": "E",
    "status": "Pending",
    "rowid": "1119841",
    "final_x": "3705794.20459",
    "final_y": "554080.703832",
    "longitude": "-89.99052376805709",
    "latitude": "30.01676923202242",
    "geocoded_column": {
      "latitude": "30.01676923202242",
      "longitude": "-89.99052376805709"
    }
  },
  {
    "service_request": "2024-1119840",
    "request_type": "Abandoned Vehicles",
    "request_reason": "Abandoned/Junk Vehicles",
    "date_created": "2024-08-07T15:55:43.000",
    "date_modified": "2024-08-07T15:58:18.000",
    "request_status": "Pending",
    "responsible_agency": "Department of Public Works",
    "final_address": "CONSTANCE ST & WASHINGTON AVE",
    "address_councildis": "B",
    "status": "Pending",
    "rowid": "1119840",
    "final_x": "3677257.8",
    "final_y": "520515.98",
    "longitude": "-90.0818451741787",
    "latitude": "29.925366379896843",
    "geocoded_column": {
      "latitude": "29.925366379896843",
      "longitude": "-90.0818451741787"
    }
  },
  {
    "service_request": "2024-1119839",
    "request_type": "Trash/Recycling",
    "request_reason": "Order Trash Cart",
    "date_created": "2024-08-07T15:55:25.000",
    "date_modified": "2024-08-07T15:55:26.000",
    "request_status": "Pending",
    "responsible_agency": "Department of Sanitation",
    "final_address": "4536 Laine Ave",
    "address_councildis": "E",
    "status": "Assigned to Contractor",
    "contractor": "Waste Pro",
    "rowid": "1119839",
    "final_x": "3705794.20459",
    "final_y": "554080.703832",
    "longitude": "-89.99052376805709",
    "latitude": "30.01676923202242",
    "geocoded_column": {
      "latitude": "30.01676923202242",
      "longitude": "-89.99052376805709"
    }
  },
  {
    "service_request": "2024-1119838",
    "request_type": "Trash/Recycling",
    "request_reason": "Missed Trash Pick-Up",
    "date_created": "2024-08-07T15:54:54.000",
    "date_modified": "2024-08-07T15:54:54.000",
    "request_status": "Pending",
    "responsible_agency": "Department of Sanitation",
    "final_address": "6820 Rugby Ct",
    "address_councildis": "E",
    "status": "Assigned to Contractor",
    "contractor": "Waste Pro",
    "rowid": "1119838",
    "final_x": "3701320.24637",
    "final_y": "557287.826587",
    "longitude": "-90.00454198841871",
    "latitude": "30.025730995899913",
    "geocoded_column": {
      "latitude": "30.025730995899913",
      "longitude": "-90.00454198841871"
    }
  },
  {
    "service_request": "2024-1119837",
    "request_type": "Roads/Drainage",
    "request_reason": "Street Flooding / Drainage",
    "date_created": "2024-08-07T15:54:09.000",
    "date_modified": "2024-08-07T15:54:09.000",
    "request_status": "Pending",
    "responsible_agency": "Department of Public Works",
    "final_address": "2018 N Derbigny St",
    "address_councildis": "D",
    "status": "Pending",
    "rowid": "1119837",
    "final_x": "3684227.2749",
    "final_y": "538430.356489",
    "longitude": "-90.05921595084078",
    "latitude": "29.974413690473906",
    "geocoded_column": {
      "latitude": "29.974413690473906",
      "longitude": "-90.05921595084078"
    }
  },
  {
    "service_request": "2024-1119836",
    "request_type": "Parks & Parkways",
    "request_reason": "Request Tree Service (Right of Way/Public Property)",
    "date_created": "2024-08-07T15:53:49.000",
    "date_modified": "2024-08-07T15:56:50.000",
    "request_status": "Pending",
    "responsible_agency": "Department of Parks & Parkway",
    "final_address": "7767 Scottwood Dr",
    "address_councildis": "E",
    "status": "Pending",
    "rowid": "1119836",
    "final_x": "3716792.82738",
    "final_y": "571531.341416",
    "longitude": "-89.95510997266844",
    "latitude": "30.06439241389713",
    "geocoded_column": {
      "latitude": "30.06439241389713",
      "longitude": "-89.95510997266844"
    }
  },
  {
    "service_request": "2024-1119835",
    "request_type": "Trash/Recycling",
    "request_reason": "Repair Trash Cart",
    "date_created": "2024-08-07T15:52:48.000",
    "date_modified": "2024-08-07T15:52:49.000",
    "request_status": "Pending",
    "responsible_agency": "Department of Sanitation",
    "final_address": "8530 Chase St",
    "address_councildis": "E",
    "status": "Assigned to Contractor",
    "contractor": "Waste Pro",
    "rowid": "1119835",
    "final_x": "3703523.5226",
    "final_y": "563313.969376",
    "longitude": "-89.99735797430924",
    "latitude": "30.042230095337192",
    "geocoded_column": {
      "latitude": "30.042230095337192",
      "longitude": "-89.99735797430924"
    }
  },
  {
    "service_request": "2024-1119834",
    "request_type": "Trash/Recycling",
    "request_reason": "Order Recycling Cart",
    "date_created": "2024-08-07T15:51:11.000",
    "date_modified": "2024-08-07T15:51:12.000",
    "request_status": "Pending",
    "responsible_agency": "Department of Sanitation",
    "final_address": "3156 Toulouse St",
    "address_councildis": "A",
    "status": "Pending",
    "rowid": "1119834",
    "final_x": "3674816.82792",
    "final_y": "537753.472648",
    "longitude": "-90.08895964333236",
    "latitude": "29.972836857237333",
    "geocoded_column": {
      "latitude": "29.972836857237333",
      "longitude": "-90.08895964333236"
    }
  },
  {
    "service_request": "2024-1119832",
    "request_type": "Trash/Recycling",
    "request_reason": "MIssed Recycling Pick-Up",
    "date_created": "2024-08-07T15:47:56.000",
    "date_modified": "2024-08-07T15:47:57.000",
    "request_status": "Pending",
    "responsible_agency": "Department of Sanitation",
    "final_address": "5423 Seminary Pl",
    "address_councildis": "D",
    "status": "Assigned to Contractor",
    "contractor": "IV Waste",
    "rowid": "1119832",
    "final_x": "3688754.94915",
    "final_y": "553247.344599",
    "longitude": "-90.04439011996148",
    "latitude": "30.015015850618077",
    "geocoded_column": {
      "latitude": "30.015015850618077",
      "longitude": "-90.04439011996148"
    }
  },
  {
    "service_request": "2024-1119831",
    "request_type": "Trash/Recycling",
    "request_reason": "Repair Recycling Cart",
    "date_created": "2024-08-07T15:42:07.000",
    "date_modified": "2024-08-07T15:42:08.000",
    "request_status": "Pending",
    "responsible_agency": "Department of Sanitation",
    "final_address": "12410 Hayne Blvd",
    "address_councildis": "E",
    "status": "Pending",
    "rowid": "1119831",
    "final_x": "3713592.44831",
    "final_y": "569722.376038",
    "longitude": "-89.96529481829668",
    "latitude": "30.05952396140663",
    "geocoded_column": {
      "latitude": "30.05952396140663",
      "longitude": "-89.96529481829668"
    }
  },
  {
    "service_request": "2024-1119830",
    "request_type": "Trash/Recycling",
    "request_reason": "Request a Large Item Pick Up",
    "date_created": "2024-08-07T15:40:57.000",
    "date_modified": "2024-08-07T15:40:58.000",
    "request_status": "Pending",
    "responsible_agency": "Department of Sanitation",
    "final_address": "4717 Lynhuber Dr",
    "address_councildis": "D",
    "status": "Assigned to Contractor",
    "contractor": "Waste Pro",
    "rowid": "1119830",
    "final_x": "3698093.93021",
    "final_y": "554132.919",
    "longitude": "-90.01485135924095",
    "latitude": "30.017158681402925",
    "geocoded_column": {
      "latitude": "30.017158681402925",
      "longitude": "-90.01485135924095"
    }
  },
  {
    "service_request": "2024-1119829",
    "request_type": "Trash/Recycling",
    "request_reason": "Repair Recycling Cart",
    "date_created": "2024-08-07T15:34:15.000",
    "date_modified": "2024-08-07T15:34:15.000",
    "request_status": "Closed",
    "responsible_agency": "Department of Sanitation",
    "final_address": "12410 Hayne Blvd",
    "address_councildis": "E",
    "status": "Resolved",
    "rowid": "1119829",
    "final_x": "3713592.44831",
    "final_y": "569722.376038",
    "longitude": "-89.96529481829668",
    "latitude": "30.05952396140663",
    "geocoded_column": {
      "latitude": "30.05952396140663",
      "longitude": "-89.96529481829668"
    }
  },
  {
    "service_request": "2024-1119828",
    "request_type": "Trash/Recycling",
    "request_reason": "MIssed Recycling Pick-Up",
    "date_created": "2024-08-07T15:33:43.000",
    "date_modified": "2024-08-07T15:33:44.000",
    "request_status": "Pending",
    "responsible_agency": "Department of Sanitation",
    "final_address": "1517 Broadway St",
    "address_councildis": "A",
    "status": "Assigned to Contractor",
    "contractor": "IV Waste",
    "rowid": "1119828",
    "final_x": "3664909.45504",
    "final_y": "527486.555839",
    "longitude": "-90.12059231120928",
    "latitude": "29.944898317257884",
    "geocoded_column": {
      "latitude": "29.944898317257884",
      "longitude": "-90.12059231120928"
    }
  },
  {
    "service_request": "2024-1119827",
    "request_type": "Trash/Recycling",
    "request_reason": "Repair Trash Cart",
    "date_created": "2024-08-07T15:31:44.000",
    "date_modified": "2024-08-07T15:31:45.000",
    "request_status": "Pending",
    "responsible_agency": "Department of Sanitation",
    "final_address": "2725 Ernest St",
    "address_councildis": "C",
    "status": "Assigned to Contractor",
    "contractor": "Richards Disposal",
    "rowid": "1119827",
    "final_x": "3708807.489",
    "final_y": "520067.871096",
    "longitude": "-89.98227027589039",
    "latitude": "29.923149039394726",
    "geocoded_column": {
      "latitude": "29.923149039394726",
      "longitude": "-89.98227027589039"
    }
  },
  {
    "service_request": "2024-1119826",
    "request_type": "Trash/Recycling",
    "request_reason": "Missed Trash Pick-Up",
    "date_created": "2024-08-07T15:20:26.000",
    "date_modified": "2024-08-07T15:20:27.000",
    "request_status": "Pending",
    "responsible_agency": "Department of Sanitation",
    "final_address": "7615 Mercier St",
    "address_councildis": "E",
    "status": "Assigned to Contractor",
    "contractor": "Waste Pro",
    "rowid": "1119826",
    "final_x": "3711474.87736",
    "final_y": "566516.730979",
    "longitude": "-89.97210862892638",
    "latitude": "30.05077908960563",
    "geocoded_column": {
      "latitude": "30.05077908960563",
      "longitude": "-89.97210862892638"
    }
  },
  {
    "service_request": "2024-1119825",
    "request_type": "Trash/Recycling",
    "request_reason": "Request a Large Item Pick Up",
    "date_created": "2024-08-07T15:12:22.000",
    "date_modified": "2024-08-07T15:12:23.000",
    "request_status": "Pending",
    "responsible_agency": "Department of Sanitation",
    "final_address": "1710 Louisiana Ave",
    "address_councildis": "B",
    "status": "Assigned to Contractor",
    "contractor": "IV Waste",
    "rowid": "1119825",
    "final_x": "3673888.56814",
    "final_y": "521980.205242",
    "longitude": "-90.09243074543406",
    "latitude": "29.929493282033985",
    "geocoded_column": {
      "latitude": "29.929493282033985",
      "longitude": "-90.09243074543406"
    }
  },
  {
    "service_request": "2024-1119824",
    "request_type": "Property Maintenance",
    "request_reason": "Property Maintenance",
    "date_created": "2024-08-07T15:11:09.000",
    "date_modified": "2024-08-07T15:37:09.000",
    "case_close_date": "2024-08-07T10:37:09.000",
    "request_status": "Closed",
    "responsible_agency": "Department of Code Enforcement",
    "final_address": "1820 Mazant St",
    "address_councildis": "D",
    "status": "Referred to Code Enforcement",
    "rowid": "1119824",
    "final_x": "3692757.57033",
    "final_y": "538039.541193",
    "longitude": "-90.03228936932149",
    "latitude": "29.97307551826037",
    "geocoded_column": {
      "latitude": "29.97307551826037",
      "longitude": "-90.03228936932149"
    }
  },
  {
    "service_request": "2024-1119823",
    "request_type": "Trash/Recycling",
    "request_reason": "Order Trash Cart",
    "date_created": "2024-08-07T15:11:05.000",
    "date_modified": "2024-08-07T15:11:06.000",
    "request_status": "Pending",
    "responsible_agency": "Department of Sanitation",
    "final_address": "639 Lizardi St",
    "address_councildis": "E",
    "status": "Assigned to Contractor",
    "contractor": "Waste Pro",
    "rowid": "1119823",
    "final_x": "3696133.19184",
    "final_y": "532609.103748",
    "longitude": "-90.02182484962383",
    "latitude": "29.95803792372096",
    "geocoded_column": {
      "latitude": "29.95803792372096",
      "longitude": "-90.02182484962383"
    }
  },
  {
    "service_request": "2024-1119822",
    "request_type": "Trash/Recycling",
    "request_reason": "Request a Large Item Pick Up",
    "date_created": "2024-08-07T15:09:57.000",
    "date_modified": "2024-08-07T15:09:58.000",
    "request_status": "Pending",
    "responsible_agency": "Department of Sanitation",
    "final_address": "4705 Stemway Dr",
    "address_councildis": "D",
    "status": "Assigned to Contractor",
    "contractor": "Waste Pro",
    "rowid": "1119822",
    "final_x": "3697005.48669",
    "final_y": "553959.817304",
    "longitude": "-90.01829665484335",
    "latitude": "30.016717109586086",
    "geocoded_column": {
      "latitude": "30.016717109586086",
      "longitude": "-90.01829665484335"
    }
  },
  {
    "service_request": "2024-1119821",
    "request_type": "Abandoned Vehicles",
    "request_reason": "Abandoned/Junk Vehicles",
    "date_created": "2024-08-07T15:08:32.000",
    "date_modified": "2024-08-07T15:08:32.000",
    "request_status": "Pending",
    "responsible_agency": "Department of Public Works",
    "final_address": "TREASURE ST & ST ROCH AVE",
    "address_councildis": "D",
    "status": "Pending",
    "rowid": "1119821",
    "final_x": "3685835.8",
    "final_y": "544156.78",
    "longitude": "-90.05393392085134",
    "latitude": "29.99011005370432",
    "geocoded_column": {
      "latitude": "29.99011005370432",
      "longitude": "-90.05393392085134"
    }
  },
  {
    "service_request": "2024-1119820",
    "request_type": "Trash/Recycling",
    "request_reason": "Repair Trash Cart",
    "date_created": "2024-08-07T15:07:23.000",
    "date_modified": "2024-08-07T15:07:24.000",
    "request_status": "Pending",
    "responsible_agency": "Department of Sanitation",
    "final_address": "2223 N Prieur St",
    "address_councildis": "D",
    "status": "Assigned to Contractor",
    "contractor": "IV Waste",
    "rowid": "1119820",
    "final_x": "3685032.99727",
    "final_y": "539305.420298",
    "longitude": "-90.05664049925585",
    "latitude": "29.976795150359443",
    "geocoded_column": {
      "latitude": "29.976795150359443",
      "longitude": "-90.05664049925585"
    }
  },
  {
    "service_request": "2024-1119819",
    "request_type": "Abandoned Vehicles",
    "request_reason": "Vehicle Blocking Your Driveway",
    "date_created": "2024-08-07T15:05:41.000",
    "date_modified": "2024-08-07T15:05:42.000",
    "request_status": "Pending",
    "responsible_agency": "Department of Public Works",
    "final_address": "1313 Flood St",
    "address_councildis": "E",
    "status": "Pending",
    "rowid": "1119819",
    "final_x": "3697968.16343",
    "final_y": "534686.686662",
    "longitude": "-90.01595513083926",
    "latitude": "29.963692660820882",
    "geocoded_column": {
      "latitude": "29.963692660820882",
      "longitude": "-90.01595513083926"
    }
  },
  {
    "service_request": "2024-1119818",
    "request_type": "Trash/Recycling",
    "request_reason": "Request a Large Item Pick Up",
    "date_created": "2024-08-07T15:03:10.000",
    "date_modified": "2024-08-07T15:03:11.000",
    "request_status": "Pending",
    "responsible_agency": "Department of Sanitation",
    "final_address": "1313 Flood St",
    "address_councildis": "E",
    "status": "Assigned to Contractor",
    "contractor": "Waste Pro",
    "rowid": "1119818",
    "final_x": "3697968.16343",
    "final_y": "534686.686662",
    "longitude": "-90.01595513083926",
    "latitude": "29.963692660820882",
    "geocoded_column": {
      "latitude": "29.963692660820882",
      "longitude": "-90.01595513083926"
    }
  },
  {
    "service_request": "2024-1119817",
    "request_type": "Trash/Recycling",
    "request_reason": "Illegal Dumping",
    "date_created": "2024-08-07T15:02:08.000",
    "date_modified": "2024-08-07T15:02:09.000",
    "request_status": "Pending",
    "responsible_agency": "Department of Code Enforcement",
    "final_address": "5700 BLK Law St",
    "address_councildis": "E",
    "status": "Pending",
    "rowid": "1119817",
    "final_x": "3700009.62225",
    "final_y": "539269.751629",
    "longitude": "-90.00934122108976",
    "latitude": "29.976229742679422",
    "geocoded_column": {
      "latitude": "29.976229742679422",
      "longitude": "-90.00934122108976"
    }
  },
  {
    "service_request": "2024-1119816",
    "request_type": "Trash/Recycling",
    "request_reason": "Illegal Dumping",
    "date_created": "2024-08-07T15:01:51.000",
    "date_modified": "2024-08-07T15:01:52.000",
    "request_status": "Pending",
    "responsible_agency": "Department of Sanitation",
    "final_address": "2502 Milan St",
    "address_councildis": "B",
    "status": "Pending",
    "rowid": "1119816",
    "final_x": "3671236.86862",
    "final_y": "524147.580732",
    "longitude": "-90.10072809544845",
    "latitude": "29.935531562496003",
    "geocoded_column": {
      "latitude": "29.935531562496003",
      "longitude": "-90.10072809544845"
    }
  },
  {
    "service_request": "2024-1119815",
    "request_type": "Trash/Recycling",
    "request_reason": "Request a Large Item Pick Up",
    "date_created": "2024-08-07T15:01:47.000",
    "date_modified": "2024-08-07T15:01:48.000",
    "request_status": "Pending",
    "responsible_agency": "Department of Sanitation",
    "final_address": "5411 Royal St",
    "address_councildis": "E",
    "status": "Assigned to Contractor",
    "contractor": "Waste Pro",
    "rowid": "1119815",
    "final_x": "3696897.33898",
    "final_y": "532498.415428",
    "longitude": "-90.01941590777422",
    "latitude": "29.957709498503405",
    "geocoded_column": {
      "latitude": "29.957709498503405",
      "longitude": "-90.01941590777422"
    }
  },
  {
    "service_request": "2024-1119814",
    "request_type": "Trash/Recycling",
    "request_reason": "Request a Large Item Pick Up",
    "date_created": "2024-08-07T15:00:23.000",
    "date_modified": "2024-08-07T15:00:24.000",
    "request_status": "Pending",
    "responsible_agency": "Department of Sanitation",
    "final_address": "4809 Ray Ave",
    "address_councildis": "E",
    "status": "Assigned to Contractor",
    "contractor": "Waste Pro",
    "rowid": "1119814",
    "final_x": "3698823.62077",
    "final_y": "554739.988376",
    "longitude": "-90.01252373889561",
    "latitude": "30.01880478484148",
    "geocoded_column": {
      "latitude": "30.01880478484148",
      "longitude": "-90.01252373889561"
    }
  },
  {
    "service_request": "2024-1119813",
    "request_type": "Trash/Recycling",
    "request_reason": "Illegal Dumping",
    "date_created": "2024-08-07T14:59:20.000",
    "date_modified": "2024-08-07T14:59:21.000",
    "request_status": "Pending",
    "responsible_agency": "Department of Code Enforcement",
    "final_address": "2500 BLK Lamanche St",
    "address_councildis": "E",
    "status": "Pending",
    "rowid": "1119813",
    "final_x": "3699828.31553",
    "final_y": "539114.283436",
    "longitude": "-90.00991950879693",
    "latitude": "29.97580802070632",
    "geocoded_column": {
      "latitude": "29.97580802070632",
      "longitude": "-90.00991950879693"
    }
  },
  {
    "service_request": "2024-1119812",
    "request_type": "Trash/Recycling",
    "request_reason": "Illegal Dumping",
    "date_created": "2024-08-07T14:55:42.000",
    "date_modified": "2024-08-07T14:55:43.000",
    "request_status": "Pending",
    "responsible_agency": "Department of Code Enforcement",
    "final_address": "5000 BLK N Prieur St",
    "address_councildis": "E",
    "status": "Pending",
    "rowid": "1119812",
    "final_x": "3696948.03487",
    "final_y": "537216.993267",
    "longitude": "-90.01908492817833",
    "latitude": "29.970682310954505",
    "geocoded_column": {
      "latitude": "29.970682310954505",
      "longitude": "-90.01908492817833"
    }
  },
  {
    "service_request": "2024-1119811",
    "request_type": "Trash/Recycling",
    "request_reason": "Request a Large Item Pick Up",
    "date_created": "2024-08-07T14:55:17.000",
    "date_modified": "2024-08-07T14:55:18.000",
    "request_status": "Pending",
    "responsible_agency": "Department of Sanitation",
    "final_address": "5421 Burgundy St",
    "address_councildis": "E",
    "status": "Assigned to Contractor",
    "contractor": "Waste Pro",
    "rowid": "1119811",
    "final_x": "3697127.63664",
    "final_y": "533190.50394",
    "longitude": "-90.01866362448332",
    "latitude": "29.95960523390024",
    "geocoded_column": {
      "latitude": "29.95960523390024",
      "longitude": "-90.01866362448332"
    }
  },
  {
    "service_request": "2024-1119810",
    "request_type": "Property Maintenance",
    "request_reason": "Property Maintenance",
    "date_created": "2024-08-07T14:54:16.000",
    "date_modified": "2024-08-07T14:54:16.000",
    "request_status": "Pending",
    "responsible_agency": "Department of Code Enforcement",
    "final_address": "3612 Third St",
    "address_councildis": "B",
    "status": "Pending",
    "rowid": "1119810",
    "final_x": "3672456.63655",
    "final_y": "528836.886912",
    "longitude": "-90.0967175001773",
    "latitude": "29.948389487827622",
    "geocoded_column": {
      "latitude": "29.948389487827622",
      "longitude": "-90.0967175001773"
    }
  },
  {
    "service_request": "2024-1119809",
    "request_type": "Trash/Recycling",
    "request_reason": "Request a Large Item Pick Up",
    "date_created": "2024-08-07T14:53:48.000",
    "date_modified": "2024-08-07T14:53:48.000",
    "request_status": "Pending",
    "responsible_agency": "Department of Sanitation",
    "final_address": "7613 Alabama St",
    "address_councildis": "D",
    "status": "Assigned to Contractor",
    "contractor": "Waste Pro",
    "rowid": "1119809",
    "final_x": "3694986.2415",
    "final_y": "558472.93942",
    "longitude": "-90.0245137092255",
    "latitude": "30.02919005351294",
    "geocoded_column": {
      "latitude": "30.02919005351294",
      "longitude": "-90.0245137092255"
    }
  },
  {
    "service_request": "2024-1119808",
    "request_type": "Abandoned Vehicles",
    "request_reason": "Abandoned/Junk Vehicles",
    "date_created": "2024-08-07T14:53:13.000",
    "date_modified": "2024-08-07T14:53:13.000",
    "request_status": "Pending",
    "responsible_agency": "Department of Public Works",
    "final_address": "3000 BLK Music St",
    "address_councildis": "D",
    "status": "Pending",
    "rowid": "1119808",
    "final_x": "3686242.04808",
    "final_y": "543997.721175",
    "longitude": "-90.0526563088392",
    "latitude": "29.989660220017498",
    "geocoded_column": {
      "latitude": "29.989660220017498",
      "longitude": "-90.0526563088392"
    }
  },
  {
    "service_request": "2024-1119807",
    "request_type": "Trash/Recycling",
    "request_reason": "Repair Trash Cart",
    "date_created": "2024-08-07T14:52:10.000",
    "date_modified": "2024-08-07T14:52:11.000",
    "request_status": "Pending",
    "responsible_agency": "Department of Sanitation",
    "final_address": "3641 White Oak Ave",
    "address_councildis": "C",
    "status": "Assigned to Contractor",
    "contractor": "Richards Disposal",
    "rowid": "1119807",
    "final_x": "3703721.70974",
    "final_y": "514182.602738",
    "longitude": "-89.99854041933769",
    "latitude": "29.90713048098672",
    "geocoded_column": {
      "latitude": "29.90713048098672",
      "longitude": "-89.99854041933769"
    }
  },
  {
    "service_request": "2024-1119806",
    "request_type": "Trash/Recycling",
    "request_reason": "Replace Trash Cart",
    "date_created": "2024-08-07T14:51:37.000",
    "date_modified": "2024-08-07T14:51:38.000",
    "request_status": "Pending",
    "responsible_agency": "Department of Sanitation",
    "final_address": "5614 Camp St",
    "address_councildis": "A",
    "status": "Assigned to Contractor",
    "contractor": "IV Waste",
    "rowid": "1119806",
    "final_x": "3666049.89588",
    "final_y": "519212.656439",
    "longitude": "-90.11726882034654",
    "latitude": "29.92211448811807",
    "geocoded_column": {
      "latitude": "29.92211448811807",
      "longitude": "-90.11726882034654"
    }
  },
  {
    "service_request": "2024-1119805",
    "request_type": "Abandoned Vehicles",
    "request_reason": "Abandoned/Junk Vehicles",
    "date_created": "2024-08-07T14:48:57.000",
    "date_modified": "2024-08-07T15:01:23.000",
    "request_status": "Pending",
    "responsible_agency": "Department of Public Works",
    "final_address": "820 Taft Pl",
    "address_councildis": "A",
    "status": "Pending",
    "rowid": "1119805",
    "final_x": "3673828.63771",
    "final_y": "539583.450378",
    "longitude": "-90.09201792973546",
    "latitude": "29.97789814427556",
    "geocoded_column": {
      "latitude": "29.97789814427556",
      "longitude": "-90.09201792973546"
    }
  },
  {
    "service_request": "2024-1119804",
    "request_type": "Abandoned Vehicles",
    "request_reason": "Abandoned/Junk Vehicles",
    "date_created": "2024-08-07T14:47:26.000",
    "date_modified": "2024-08-07T14:47:26.000",
    "request_status": "Pending",
    "responsible_agency": "Department of Public Works",
    "final_address": "2400 BLK Benefit St",
    "address_councildis": "D",
    "status": "Pending",
    "rowid": "1119804",
    "final_x": "3686377.9461",
    "final_y": "544563.898521",
    "longitude": "-90.05220705035912",
    "latitude": "29.9912128284066",
    "geocoded_column": {
      "latitude": "29.9912128284066",
      "longitude": "-90.05220705035912"
    }
  },
  {
    "service_request": "2024-1119803",
    "request_type": "Trash/Recycling",
    "request_reason": "Request a Large Item Pick Up",
    "date_created": "2024-08-07T14:47:12.000",
    "date_modified": "2024-08-07T14:47:13.000",
    "request_status": "Pending",
    "responsible_agency": "Department of Sanitation",
    "final_address": "1900 BLK Lamanche St",
    "address_councildis": "E",
    "status": "Assigned to Contractor",
    "contractor": "Waste Pro",
    "rowid": "1119803",
    "final_x": "3699217.40533",
    "final_y": "536854.872928",
    "longitude": "-90.01193121568342",
    "latitude": "29.969614844332316",
    "geocoded_column": {
      "latitude": "29.969614844332316",
      "longitude": "-90.01193121568342"
    }
  },
  {
    "service_request": "2024-1119802",
    "request_type": "Healthy Homes",
    "request_reason": "Healthy Homes",
    "date_created": "2024-08-07T14:46:22.000",
    "date_modified": "2024-08-07T14:46:23.000",
    "request_status": "Pending",
    "responsible_agency": "Department of Code Enforcement",
    "final_address": "10201 Castlewood Dr",
    "address_councildis": "E",
    "status": "Pending",
    "rowid": "1119802",
    "final_x": "3709089.102",
    "final_y": "564598.472737",
    "longitude": "-89.97972080046763",
    "latitude": "30.045582365439905",
    "geocoded_column": {
      "latitude": "30.045582365439905",
      "longitude": "-89.97972080046763"
    }
  },
  {
    "service_request": "2024-1119801",
    "request_type": "Roads/Drainage",
    "request_reason": "Pothole",
    "date_created": "2024-08-07T14:45:26.000",
    "date_modified": "2024-08-07T14:45:26.000",
    "request_status": "Pending",
    "responsible_agency": "Department of Public Works",
    "final_address": "8500 BLK Peach St",
    "address_councildis": "A",
    "status": "Pending",
    "rowid": "1119801",
    "final_x": "3666957.69525",
    "final_y": "537277.512831",
    "longitude": "-90.11379635659459",
    "latitude": "29.971760468187224",
    "geocoded_column": {
      "latitude": "29.971760468187224",
      "longitude": "-90.11379635659459"
    }
  },
  {
    "service_request": "2024-1119800",
    "request_type": "Trash/Recycling",
    "request_reason": "Request a Large Item Pick Up",
    "date_created": "2024-08-07T14:42:09.000",
    "date_modified": "2024-08-07T14:42:10.000",
    "request_status": "Pending",
    "responsible_agency": "Department of Sanitation",
    "final_address": "6732 Deanne St",
    "address_councildis": "D",
    "status": "Assigned to Contractor",
    "contractor": "Waste Pro",
    "rowid": "1119800",
    "final_x": "3695876.29603",
    "final_y": "555485.952281",
    "longitude": "-90.02180921097602",
    "latitude": "30.020948989879415",
    "geocoded_column": {
      "latitude": "30.020948989879415",
      "longitude": "-90.02180921097602"
    }
  },
  {
    "service_request": "2024-1119799",
    "request_type": "Traffic Signals/Signs/Striping/Streetlights",
    "request_reason": "Street Light Outage/Malfunction",
    "date_created": "2024-08-07T14:37:36.000",
    "date_modified": "2024-08-07T14:37:37.000",
    "request_status": "Pending",
    "responsible_agency": "Department of Public Works",
    "final_address": "2101 Jefferson Ave",
    "address_councildis": "B",
    "status": "Assigned to Contractor",
    "contractor": "Legacy Professional Services",
    "rowid": "1119799",
    "final_x": "3667829.14925",
    "final_y": "523355.916283",
    "longitude": "-90.11151298065892",
    "latitude": "29.933455095041342",
    "geocoded_column": {
      "latitude": "29.933455095041342",
      "longitude": "-90.11151298065892"
    }
  },
  {
    "service_request": "2024-1119798",
    "request_type": "Roads/Drainage",
    "request_reason": "Catch Basin - Clogged",
    "date_created": "2024-08-07T14:37:15.000",
    "date_modified": "2024-08-07T14:37:16.000",
    "request_status": "Pending",
    "responsible_agency": "Department of Public Works",
    "final_address": "7600 Horizon Dr",
    "address_councildis": "E",
    "status": "Pending",
    "rowid": "1119798",
    "final_x": "3725330.49446",
    "final_y": "570178.712039",
    "longitude": "-89.92817447769445",
    "latitude": "30.060388130382865",
    "geocoded_column": {
      "latitude": "30.060388130382865",
      "longitude": "-89.92817447769445"
    }
  },
  {
    "service_request": "2024-1119797",
    "request_type": "Traffic Signals/Signs/Striping/Streetlights",
    "request_reason": "Street Light Outage/Malfunction",
    "date_created": "2024-08-07T14:36:39.000",
    "date_modified": "2024-08-07T14:37:31.000",
    "request_status": "Pending",
    "responsible_agency": "Department of Public Works",
    "final_address": "1776 N Gayoso St",
    "address_councildis": "D",
    "status": "Assigned to Contractor",
    "contractor": "Legacy Professional Services",
    "rowid": "1119797",
    "final_x": "3679119.03855",
    "final_y": "541910.573196",
    "longitude": "-90.07522829794448",
    "latitude": "29.984138275029693",
    "geocoded_column": {
      "latitude": "29.984138275029693",
      "longitude": "-90.07522829794448"
    }
  },
  {
    "service_request": "2024-1119796",
    "request_type": "Trash/Recycling",
    "request_reason": "Request a Large Item Pick Up",
    "date_created": "2024-08-07T14:36:00.000",
    "date_modified": "2024-08-07T14:36:01.000",
    "request_status": "Pending",
    "responsible_agency": "Department of Sanitation",
    "final_address": "2407 Soniat St",
    "address_councildis": "B",
    "status": "Assigned to Contractor",
    "contractor": "IV Waste",
    "rowid": "1119796",
    "final_x": "3668563.36807",
    "final_y": "524351.0407",
    "longitude": "-90.10916152343275",
    "latitude": "29.936169820329134",
    "geocoded_column": {
      "latitude": "29.936169820329134",
      "longitude": "-90.10916152343275"
    }
  },
  {
    "service_request": "2024-1119795",
    "request_type": "Trash/Recycling",
    "request_reason": "Repair Recycling Cart",
    "date_created": "2024-08-07T14:31:41.000",
    "date_modified": "2024-08-07T14:31:42.000",
    "request_status": "Pending",
    "responsible_agency": "Department of Sanitation",
    "final_address": "1719 Burgundy St",
    "address_councildis": "C",
    "status": "Pending",
    "rowid": "1119795",
    "final_x": "3683492.17794",
    "final_y": "535493.097286",
    "longitude": "-90.06164051387347",
    "latitude": "29.966359700553934",
    "geocoded_column": {
      "latitude": "29.966359700553934",
      "longitude": "-90.06164051387347"
    }
  },
  {
    "service_request": "2024-1119794",
    "request_type": "Trash/Recycling",
    "request_reason": "Order Trash Cart",
    "date_created": "2024-08-07T14:30:54.000",
    "date_modified": "2024-08-07T14:30:55.000",
    "request_status": "Pending",
    "responsible_agency": "Department of Sanitation",
    "final_address": "1719 Burgundy St",
    "address_councildis": "C",
    "status": "Assigned to Contractor",
    "contractor": "IV Waste",
    "rowid": "1119794",
    "final_x": "3683492.17794",
    "final_y": "535493.097286",
    "longitude": "-90.06164051387347",
    "latitude": "29.966359700553934",
    "geocoded_column": {
      "latitude": "29.966359700553934",
      "longitude": "-90.06164051387347"
    }
  },
  {
    "service_request": "2024-1119793",
    "request_type": "Trash/Recycling",
    "request_reason": "Request a Large Item Pick Up",
    "date_created": "2024-08-07T14:30:26.000",
    "date_modified": "2024-08-07T14:30:27.000",
    "request_status": "Pending",
    "responsible_agency": "Department of Sanitation",
    "final_address": "1309 Lamanche St",
    "address_councildis": "E",
    "status": "Assigned to Contractor",
    "contractor": "Waste Pro",
    "rowid": "1119793",
    "final_x": "3698622.0362",
    "final_y": "534496.142981",
    "longitude": "-90.01389720768462",
    "latitude": "29.963148046662234",
    "geocoded_column": {
      "latitude": "29.963148046662234",
      "longitude": "-90.01389720768462"
    }
  },
  {
    "service_request": "2024-1119792",
    "request_type": "Property Maintenance",
    "request_reason": "Property Maintenance",
    "date_created": "2024-08-07T14:29:24.000",
    "date_modified": "2024-08-07T14:29:24.000",
    "request_status": "Pending",
    "responsible_agency": "Department of Code Enforcement",
    "final_address": "3215 Cherry St",
    "address_councildis": "A",
    "status": "Pending",
    "rowid": "1119792",
    "final_x": "3663758.11635",
    "final_y": "536570.515207",
    "longitude": "-90.12392473466345",
    "latitude": "29.9699097064629",
    "geocoded_column": {
      "latitude": "29.9699097064629",
      "longitude": "-90.12392473466345"
    }
  },
  {
    "service_request": "2024-1119791",
    "request_type": "Traffic Signals/Signs/Striping/Streetlights",
    "request_reason": "Street Light Outage/Malfunction",
    "date_created": "2024-08-07T14:27:30.000",
    "date_modified": "2024-08-07T14:27:31.000",
    "request_status": "Pending",
    "responsible_agency": "Department of Public Works",
    "final_address": "6953 Argonne Blvd",
    "address_councildis": "A",
    "status": "Assigned to Contractor",
    "contractor": "Legacy Professional Services",
    "rowid": "1119791",
    "final_x": "3670814.49063",
    "final_y": "553629.394711",
    "longitude": "-90.1010605981906",
    "latitude": "30.016609056503423",
    "geocoded_column": {
      "latitude": "30.016609056503423",
      "longitude": "-90.1010605981906"
    }
  },
  {
    "service_request": "2024-1119790",
    "request_type": "Trash/Recycling",
    "request_reason": "Start Trash Service",
    "date_created": "2024-08-07T14:25:47.000",
    "date_modified": "2024-08-07T14:25:48.000",
    "request_status": "Pending",
    "responsible_agency": "Department of Sanitation",
    "final_address": "514 Short St",
    "address_councildis": "A",
    "status": "Assigned to Contractor",
    "contractor": "IV Waste",
    "rowid": "1119790",
    "final_x": "3660704.12557",
    "final_y": "526381.40627",
    "longitude": "-90.1339064148616",
    "latitude": "29.941981221002283",
    "geocoded_column": {
      "latitude": "29.941981221002283",
      "longitude": "-90.1339064148616"
    }
  },
  {
    "service_request": "2024-1119789",
    "request_type": "Trash/Recycling",
    "request_reason": "Missed Trash Pick-Up",
    "date_created": "2024-08-07T14:20:29.000",
    "date_modified": "2024-08-07T14:20:29.000",
    "request_status": "Pending",
    "responsible_agency": "Department of Sanitation",
    "final_address": "8400 BLK Curran Rd",
    "address_councildis": "E",
    "status": "Assigned to Contractor",
    "contractor": "Waste Pro",
    "rowid": "1119789",
    "final_x": "3703534.67557",
    "final_y": "562269.636731",
    "longitude": "-89.99736120831307",
    "latitude": "30.03935823427786",
    "geocoded_column": {
      "latitude": "30.03935823427786",
      "longitude": "-89.99736120831307"
    }
  },
  {
    "service_request": "2024-1119788",
    "request_type": "Traffic Signals/Signs/Striping/Streetlights",
    "request_reason": "Street Light Outage/Malfunction",
    "date_created": "2024-08-07T14:18:53.000",
    "date_modified": "2024-08-07T14:19:39.000",
    "request_status": "Pending",
    "responsible_agency": "Department of Public Works",
    "final_address": "BENNETT ST & BAILEY ST",
    "address_councildis": "C",
    "status": "Assigned to Contractor",
    "contractor": "Legacy Professional Services",
    "rowid": "1119788",
    "final_x": "3710501.7",
    "final_y": "518879.78",
    "longitude": "-89.97696674751782",
    "latitude": "29.91982716931993",
    "geocoded_column": {
      "latitude": "29.91982716931993",
      "longitude": "-89.97696674751782"
    }
  },
  {
    "service_request": "2024-1119787",
    "request_type": "Trash/Recycling",
    "request_reason": "Repair Trash Cart",
    "date_created": "2024-08-07T14:17:44.000",
    "date_modified": "2024-08-07T14:17:45.000",
    "request_status": "Pending",
    "responsible_agency": "Department of Sanitation",
    "final_address": "827 N Solomon St",
    "address_councildis": "A",
    "status": "Assigned to Contractor",
    "contractor": "IV Waste",
    "rowid": "1119787",
    "final_x": "3672270.31431",
    "final_y": "541012.269003",
    "longitude": "-90.09689097363214",
    "latitude": "29.981873234970518",
    "geocoded_column": {
      "latitude": "29.981873234970518",
      "longitude": "-90.09689097363214"
    }
  },
  {
    "service_request": "2024-1119786",
    "request_type": "Traffic Signals/Signs/Striping/Streetlights",
    "request_reason": "Street Light Outage/Malfunction",
    "date_created": "2024-08-07T14:16:04.000",
    "date_modified": "2024-08-07T14:16:05.000",
    "request_status": "Pending",
    "responsible_agency": "Department of Public Works",
    "final_address": "827 N Solomon St",
    "address_councildis": "A",
    "status": "Assigned to Contractor",
    "contractor": "Legacy Professional Services",
    "rowid": "1119786",
    "final_x": "3672270.31431",
    "final_y": "541012.269003",
    "longitude": "-90.09689097363214",
    "latitude": "29.981873234970518",
    "geocoded_column": {
      "latitude": "29.981873234970518",
      "longitude": "-90.09689097363214"
    }
  },
  {
    "service_request": "2024-1119785",
    "request_type": "Traffic Signals/Signs/Striping/Streetlights",
    "request_reason": "Crosswalks and Signage",
    "date_created": "2024-08-07T14:12:39.000",
    "date_modified": "2024-08-07T14:12:39.000",
    "request_status": "Pending",
    "responsible_agency": "Department of Public Works",
    "final_address": "TULANE AVE & LA SALLE ST",
    "address_councildis": "B",
    "status": "Pending",
    "rowid": "1119785",
    "final_x": "3678639.4",
    "final_y": "531514.98",
    "longitude": "-90.07710324158444",
    "latitude": "29.955568424133762",
    "geocoded_column": {
      "latitude": "29.955568424133762",
      "longitude": "-90.07710324158444"
    }
  },
  {
    "service_request": "2024-1119784",
    "request_type": "Trash/Recycling",
    "request_reason": "Illegal Dumping",
    "date_created": "2024-08-07T14:11:59.000",
    "date_modified": "2024-08-07T14:13:27.000",
    "case_close_date": "2024-08-07T09:13:27.000",
    "request_status": "Closed",
    "responsible_agency": "Department of Sanitation",
    "final_address": "ST ANTHONY ST & N JOHNSON ST",
    "address_councildis": "D",
    "status": "Resolved",
    "rowid": "1119784",
    "final_x": "3683252.4",
    "final_y": "539504.38",
    "longitude": "-90.06225720702918",
    "latitude": "29.977396651346737",
    "geocoded_column": {
      "latitude": "29.977396651346737",
      "longitude": "-90.06225720702918"
    }
  },
  {
    "service_request": "2024-1119783",
    "request_type": "Trash/Recycling",
    "request_reason": "Illegal Dumping",
    "date_created": "2024-08-07T14:10:56.000",
    "date_modified": "2024-08-07T14:10:57.000",
    "request_status": "Pending",
    "responsible_agency": "Department of Sanitation",
    "final_address": "2135 S Liberty St",
    "address_councildis": "B",
    "status": "Pending",
    "rowid": "1119783",
    "final_x": "3676049.1835",
    "final_y": "525873.472125",
    "longitude": "-90.0854762252178",
    "latitude": "29.940133978146783",
    "geocoded_column": {
      "latitude": "29.940133978146783",
      "longitude": "-90.0854762252178"
    }
  },
  {
    "service_request": "2024-1119782",
    "request_type": "Abandoned Vehicles",
    "request_reason": "Abandoned/Junk Vehicles",
    "date_created": "2024-08-07T14:10:17.000",
    "date_modified": "2024-08-07T14:10:18.000",
    "request_status": "Pending",
    "responsible_agency": "Department of Public Works",
    "final_address": "8600 BLK Pritchard Pl",
    "address_councildis": "A",
    "status": "Pending",
    "rowid": "1119782",
    "final_x": "3664618.96469",
    "final_y": "534195.184678",
    "longitude": "-90.12128543088927",
    "latitude": "29.963353318672834",
    "geocoded_column": {
      "latitude": "29.963353318672834",
      "longitude": "-90.12128543088927"
    }
  },
  {
    "service_request": "2024-1119781",
    "request_type": "Trash/Recycling",
    "request_reason": "Request a Large Item Pick Up",
    "date_created": "2024-08-07T14:09:37.000",
    "date_modified": "2024-08-07T14:09:38.000",
    "request_status": "Pending",
    "responsible_agency": "Department of Sanitation",
    "final_address": "4223 Van Ave",
    "address_councildis": "D",
    "status": "Assigned to Contractor",
    "contractor": "IV Waste",
    "rowid": "1119781",
    "final_x": "3680096.01391",
    "final_y": "547931.062162",
    "longitude": "-90.07193313894804",
    "latitude": "30.000662965141483",
    "geocoded_column": {
      "latitude": "30.000662965141483",
      "longitude": "-90.07193313894804"
    }
  },
  {
    "service_request": "2024-1119780",
    "request_type": "Trash/Recycling",
    "request_reason": "Illegal Dumping",
    "date_created": "2024-08-07T14:08:02.000",
    "date_modified": "2024-08-07T14:08:21.000",
    "case_close_date": "2024-08-07T09:08:21.000",
    "request_status": "Closed",
    "responsible_agency": "Department of Sanitation",
    "final_address": "5400 Bundy Rd",
    "address_councildis": "E",
    "status": "Resolved",
    "rowid": "1119780",
    "final_x": "3708481.61163",
    "final_y": "557868.105115",
    "longitude": "-89.98189163154923",
    "latitude": "30.027096239584107",
    "geocoded_column": {
      "latitude": "30.027096239584107",
      "longitude": "-89.98189163154923"
    }
  },