[
  {
    "service_request": "2025-1188114",
    "request_type": "Trash/Recycling",
    "request_reason": "Request a Large Item Pick Up",
    "date_created": "2025-04-29T23:48:14.000",
    "date_modified": "2025-04-29T23:48:16.000",
    "request_status": "Pending",
    "responsible_agency": "Department of Sanitation",
    "final_address": "1406 Arabella St",
    "address_councildis": "A",
    "status": "Assigned to Contractor",
    "contractor": "IV Waste",
    "rowid": "1188114",
    "final_x": "3666255.35469",
    "final_y": "521073.084857",
    "longitude": "-90.11655790826772",
    "latitude": "29.92722408264426",
    "geocoded_column": {
      "latitude": "29.92722408264426",
      "longitude": "-90.11655790826772"
    }
  },
  {
    "service_request": "2025-1188113",
    "request_type": "Roads and Streets",
    "request_reason": "Debris in Driving Lanes",
    "date_created": "2025-04-29T23:13:41.000",
    "date_modified": "2025-04-29T23:13:43.000",
    "request_status": "Pending",
    "responsible_agency": "Department of Public Works",
    "final_address": "635 Ursulines Ave",
    "address_councildis": "C",
    "status": "Pending",
    "rowid": "1188113",
    "final_x": "3683503.08508",
    "final_y": "533620.089285",
    "longitude": "-90.06167171360508",
    "latitude": "29.96120923995283",
    "geocoded_column": {
      "latitude": "29.96120923995283",
      "longitude": "-90.06167171360508"
    }
  },
  {
    "service_request": "2025-1188112",
    "request_type": "Street and Traffic Signs",
    "request_reason": "Street Name Sign Damaged or Missing",
    "date_created": "2025-04-29T23:08:14.000",
    "date_modified": "2025-04-29T23:08:15.000",
    "request_status": "Pending",
    "responsible_agency": "Department of Public Works",
    "final_address": "N ROMAN ST & TOURO ST",
    "address_councildis": "D",
    "status": "Pending",
    "rowid": "1188112",
    "final_x": "3684024.2",
    "final_y": "538818.48",
    "longitude": "-90.05984368547342",
    "latitude": "29.975487102152684",
    "geocoded_column": {
      "latitude": "29.975487102152684",
      "longitude": "-90.05984368547342"
    }
  },
  {
    "service_request": "2025-1188111",
    "request_type": "Street and Traffic Signs",
    "request_reason": "Street Name Sign Damaged or Missing",
    "date_created": "2025-04-29T23:07:29.000",
    "date_modified": "2025-04-29T23:07:31.000",
    "request_status": "Pending",
    "responsible_agency": "Department of Public Works",
    "final_address": "N DERBIGNY ST & TOURO ST",
    "address_councildis": "D",
    "status": "Pending",
    "rowid": "1188111",
    "final_x": "3684054.8",
    "final_y": "538450.98",
    "longitude": "-90.05975994297576",
    "latitude": "29.974475670193904",
    "geocoded_column": {
      "latitude": "29.974475670193904",
      "longitude": "-90.05975994297576"
    }
  },
  {
    "service_request": "2025-1188110",
    "request_type": "Trash/Recycling",
    "request_reason": "Dead Animal Pick Up",
    "date_created": "2025-04-29T23:05:36.000",
    "date_modified": "2025-04-29T23:05:38.000",
    "request_status": "Pending",
    "responsible_agency": "Department of Sanitation",
    "final_address": "2826 Broadway St",
    "address_councildis": "B",
    "status": "Assigned to Contractor",
    "contractor": "IV Waste",
    "rowid": "1188110",
    "final_x": "3667390.14081",
    "final_y": "531503.165187",
    "longitude": "-90.1126249002607",
    "latitude": "29.955870259126456",
    "geocoded_column": {
      "latitude": "29.955870259126456",
      "longitude": "-90.1126249002607"
    }
  },
  {
    "service_request": "2025-1188109",
    "request_type": "Property Maintenance",
    "request_reason": "Property Maintenance",
    "date_created": "2025-04-29T22:45:04.000",
    "date_modified": "2025-04-29T22:45:06.000",
    "request_status": "Pending",
    "responsible_agency": "Department of Code Enforcement",
    "final_address": "1901 Dumaine St",
    "address_councildis": "D",
    "status": "Pending",
    "rowid": "1188109",
    "final_x": "3679624.51048",
    "final_y": "535682.035079",
    "longitude": "-90.07384798469167",
    "latitude": "29.96699667630938",
    "geocoded_column": {
      "latitude": "29.96699667630938",
      "longitude": "-90.07384798469167"
    }
  },
  {
    "service_request": "2025-1188108",
    "request_type": "Street and Traffic Signs",
    "request_reason": "One Way Sign Missing or Damaged",
    "date_created": "2025-04-29T22:02:04.000",
    "date_modified": "2025-04-29T22:02:05.000",
    "request_status": "Pending",
    "responsible_agency": "Department of Public Works",
    "final_address": "2400 N Broad St",
    "address_councildis": "D",
    "status": "Pending",
    "rowid": "1188108",
    "final_x": "3681949.93896",
    "final_y": "543915.765838",
    "longitude": "-90.06621673670527",
    "latitude": "29.989566079204355",
    "geocoded_column": {
      "latitude": "29.989566079204355",
      "longitude": "-90.06621673670527"
    }
  },
  {
    "service_request": "2025-1188107",
    "request_type": "Drainage",
    "request_reason": "Catch Basin Clogged",
    "date_created": "2025-04-29T21:29:45.000",
    "date_modified": "2025-04-29T21:29:47.000",
    "request_status": "Pending",
    "responsible_agency": "Sewerage & Water Board",
    "final_address": "333 N Diamond St",
    "address_councildis": "B",
    "status": "Pending",
    "rowid": "1188107",
    "final_x": "3681950.65077",
    "final_y": "526921.360062",
    "longitude": "-90.06680783230718",
    "latitude": "29.9428372824241",
    "geocoded_column": {
      "latitude": "29.9428372824241",
      "longitude": "-90.06680783230718"
    }
  },
  {
    "service_request": "2025-1188106",
    "request_type": "Trash/Recycling",
    "request_reason": "Request a Large Item Pick Up",
    "date_created": "2025-04-29T21:28:33.000",
    "date_modified": "2025-04-29T21:28:35.000",
    "request_status": "Pending",
    "responsible_agency": "Department of Sanitation",
    "final_address": "2918 Ursulines Ave",
    "address_councildis": "A",
    "status": "Assigned to Contractor",
    "contractor": "IV Waste",
    "rowid": "1188106",
    "final_x": "3676667.33173",
    "final_y": "538809.072329",
    "longitude": "-90.08307902294452",
    "latitude": "29.975684007171427",
    "geocoded_column": {
      "latitude": "29.975684007171427",
      "longitude": "-90.08307902294452"
    }
  },
  {
    "service_request": "2025-1188105",
    "request_type": "Drainage",
    "request_reason": "Catch Basin Clogged",
    "date_created": "2025-04-29T21:27:48.000",
    "date_modified": "2025-04-29T21:27:50.000",
    "request_status": "Pending",
    "responsible_agency": "Sewerage & Water Board",
    "final_address": "333 N Diamond St",
    "address_councildis": "B",
    "status": "Pending",
    "rowid": "1188105",
    "final_x": "3681950.65077",
    "final_y": "526921.360062",
    "longitude": "-90.06680783230718",
    "latitude": "29.9428372824241",
    "geocoded_column": {
      "latitude": "29.9428372824241",
      "longitude": "-90.06680783230718"
    }
  },
  {
    "service_request": "2025-1188104",
    "request_type": "Trash/Recycling",
    "request_reason": "Request a Large Item Pick Up",
    "date_created": "2025-04-29T21:26:32.000",
    "date_modified": "2025-04-29T21:26:34.000",
    "request_status": "Pending",
    "responsible_agency": "Department of Sanitation",
    "final_address": "4318 Laurel St",
    "address_councildis": "B",
    "status": "Assigned to Contractor",
    "contractor": "IV Waste",
    "rowid": "1188104",
    "final_x": "3671366.09403",
    "final_y": "518034.139702",
    "longitude": "-90.10052777892028",
    "latitude": "29.918717734148988",
    "geocoded_column": {
      "latitude": "29.918717734148988",
      "longitude": "-90.10052777892028"
    }
  },
  {
    "service_request": "2025-1188103",
    "request_type": "Trash/Recycling",
    "request_reason": "Request a Large Item Pick Up",
    "date_created": "2025-04-29T21:25:44.000",
    "date_modified": "2025-04-29T21:25:46.000",
    "request_status": "Pending",
    "responsible_agency": "Department of Sanitation",
    "final_address": "4842 Gabriel Dr",
    "address_councildis": "E",
    "status": "Assigned to Contractor",
    "contractor": "Waste Pro",
    "rowid": "1188103",
    "final_x": "3708759.61144",
    "final_y": "556382.21609",
    "longitude": "-89.98106859726059",
    "latitude": "30.023001607871134",
    "geocoded_column": {
      "latitude": "30.023001607871134",
      "longitude": "-89.98106859726059"
    }
  },
  {
    "service_request": "2025-1188102",
    "request_type": "Streetlights",
    "request_reason": "Streetlight Outage/Malfunction",
    "date_created": "2025-04-29T21:25:00.000",
    "date_modified": "2025-04-29T21:25:02.000",
    "request_status": "Pending",
    "responsible_agency": "Department of Public Works",
    "final_address": "342 S Diamond St",
    "address_councildis": "B",
    "status": "Pending",
    "contractor": "Legacy Professional Services",
    "rowid": "1188102",
    "final_x": "3681927.0404",
    "final_y": "526781.876286",
    "longitude": "-90.06688724319858",
    "latitude": "29.942454466271816",
    "geocoded_column": {
      "latitude": "29.942454466271816",
      "longitude": "-90.06688724319858"
    }
  },
  {
    "service_request": "2025-1188101",
    "request_type": "Trash/Recycling",
    "request_reason": "Request a Large Item Pick Up",
    "date_created": "2025-04-29T21:24:27.000",
    "date_modified": "2025-04-29T21:24:28.000",
    "request_status": "Pending",
    "responsible_agency": "Department of Sanitation",
    "final_address": "3237 Grand-Route St John St",
    "address_councildis": "A",
    "status": "Assigned to Contractor",
    "contractor": "IV Waste",
    "rowid": "1188101",
    "final_x": "3675692.24494",
    "final_y": "540373.782859",
    "longitude": "-90.08610483152468",
    "latitude": "29.980015643054088",
    "geocoded_column": {
      "latitude": "29.980015643054088",
      "longitude": "-90.08610483152468"
    }
  },
  {
    "service_request": "2025-1188100",
    "request_type": "Streetlights",
    "request_reason": "Streetlight Outage/Malfunction",
    "date_created": "2025-04-29T21:21:12.000",
    "date_modified": "2025-04-29T21:21:14.000",
    "request_status": "Pending",
    "responsible_agency": "Department of Public Works",
    "final_address": "333 N Diamond St",
    "address_councildis": "B",
    "status": "Pending",
    "contractor": "Legacy Professional Services",
    "rowid": "1188100",
    "final_x": "3681950.65077",
    "final_y": "526921.360062",
    "longitude": "-90.06680783230718",
    "latitude": "29.9428372824241",
    "geocoded_column": {
      "latitude": "29.9428372824241",
      "longitude": "-90.06680783230718"
    }
  },
  {
    "service_request": "2025-1188099",
    "request_type": "Streetlights",
    "request_reason": "Streetlight Outage/Malfunction",
    "date_created": "2025-04-29T21:19:49.000",
    "date_modified": "2025-04-29T21:19:51.000",
    "request_status": "Pending",
    "responsible_agency": "Department of Public Works",
    "final_address": "333 N Diamond St",
    "address_councildis": "B",
    "status": "Pending",
    "contractor": "Legacy Professional Services",
    "rowid": "1188099",
    "final_x": "3681950.65077",
    "final_y": "526921.360062",
    "longitude": "-90.06680783230718",
    "latitude": "29.9428372824241",
    "geocoded_column": {
      "latitude": "29.9428372824241",
      "longitude": "-90.06680783230718"
    }
  },
  {
    "service_request": "2025-1188098",
    "request_type": "Trash/Recycling",
    "request_reason": "Request a Large Item Pick Up",
    "date_created": "2025-04-29T21:12:31.000",
    "date_modified": "2025-04-29T21:12:33.000",
    "request_status": "Pending",
    "responsible_agency": "Department of Sanitation",
    "final_address": "5313 Zeno Pl",
    "address_councildis": "E",
    "status": "Assigned to Contractor",
    "contractor": "Waste Pro",
    "rowid": "1188098",
    "final_x": "3718340.7278",
    "final_y": "561576.304671",
    "longitude": "-89.95059672789853",
    "latitude": "30.036968877612576",
    "geocoded_column": {
      "latitude": "30.036968877612576",
      "longitude": "-89.95059672789853"
    }
  },
  {
    "service_request": "2025-1188097",
    "request_type": "Mosquito, Termite & Rodent Control",
    "request_reason": "Rodent Complaint (Rats)",
    "date_created": "2025-04-29T21:11:29.000",
    "date_modified": "2025-04-29T21:11:32.000",
    "request_status": "Pending",
    "responsible_agency": "Mosquito, Termite & Rodent Control Board",
    "final_address": "342 S Diamond St",
    "address_councildis": "B",
    "status": "Pending",
    "rowid": "1188097",
    "final_x": "3681927.0404",
    "final_y": "526781.876286",
    "longitude": "-90.06688724319858",
    "latitude": "29.942454466271816",
    "geocoded_column": {
      "latitude": "29.942454466271816",
      "longitude": "-90.06688724319858"
    }
  },
  {
    "service_request": "2025-1188096",
    "request_type": "Roads and Streets",
    "request_reason": "Abandoned Service Cut",
    "date_created": "2025-04-29T20:28:13.000",
    "date_modified": "2025-04-29T20:28:15.000",
    "request_status": "Pending",
    "responsible_agency": "Department of Public Works",
    "final_address": "4500 Old Gentilly Rd",
    "address_councildis": "D",
    "status": "Pending",
    "rowid": "1188096",
    "final_x": "3691035.95836",
    "final_y": "548891.472787",
    "longitude": "-90.03733890136026",
    "latitude": "30.00296806019982",
    "geocoded_column": {
      "latitude": "30.00296806019982",
      "longitude": "-90.03733890136026"
    }
  },
  {
    "service_request": "2025-1188095",
    "request_type": "Trash/Recycling",
    "request_reason": "Missed Trash Pick-Up",
    "date_created": "2025-04-29T20:23:55.000",
    "date_modified": "2025-04-29T20:23:57.000",
    "request_status": "Pending",
    "responsible_agency": "Department of Sanitation",
    "final_address": "5019 Michoud Blvd",
    "address_councildis": "E",
    "status": "Assigned to Contractor",
    "contractor": "Waste Pro",
    "rowid": "1188095",
    "final_x": "3724963.13868",
    "final_y": "561873.868511",
    "longitude": "-89.92965724026449",
    "latitude": "30.037565655624523",
    "geocoded_column": {
      "latitude": "30.037565655624523",
      "longitude": "-89.92965724026449"
    }
  },
  {
    "service_request": "2025-1188094",
    "request_type": "Roads and Streets",
    "request_reason": "Debris in Driving Lanes",
    "date_created": "2025-04-29T20:21:58.000",
    "date_modified": "2025-04-29T20:22:00.000",
    "request_status": "Pending",
    "responsible_agency": "Department of Public Works",
    "final_address": "100 Academy Dr",
    "address_councildis": "A",
    "status": "Pending",
    "rowid": "1188094",
    "final_x": "3665891.57664",
    "final_y": "543265.87323",
    "longitude": "-90.11696257427384",
    "latitude": "29.988257604586916",
    "geocoded_column": {
      "latitude": "29.988257604586916",
      "longitude": "-90.11696257427384"
    }
  },
  {
    "service_request": "2025-1188093",
    "request_type": "Trash/Recycling",
    "request_reason": "Request a Large Item Pick Up",
    "date_created": "2025-04-29T20:06:45.000",
    "date_modified": "2025-04-29T20:06:47.000",
    "request_status": "Pending",
    "responsible_agency": "Department of Sanitation",
    "final_address": "4667 Western St",
    "address_councildis": "D",
    "status": "Assigned to Contractor",
    "contractor": "IV Waste",
    "rowid": "1188093",
    "final_x": "3684201.36521",
    "final_y": "549932.574292",
    "longitude": "-90.05889374245008",
    "latitude": "30.006041495950086",
    "geocoded_column": {
      "latitude": "30.006041495950086",
      "longitude": "-90.05889374245008"
    }
  },
  {
    "service_request": "2025-1188092",
    "request_type": "Trash/Recycling",
    "request_reason": "Request a Large Item Pick Up",
    "date_created": "2025-04-29T20:05:50.000",
    "date_modified": "2025-04-29T20:05:52.000",
    "request_status": "Pending",
    "responsible_agency": "Department of Sanitation",
    "final_address": "4019 Camp St",
    "address_councildis": "B",
    "status": "Assigned to Contractor",
    "contractor": "IV Waste",
    "rowid": "1188092",
    "final_x": "3672317.34177",
    "final_y": "519328.154231",
    "longitude": "-90.09748112756186",
    "latitude": "29.922247686165274",
    "geocoded_column": {
      "latitude": "29.922247686165274",
      "longitude": "-90.09748112756186"
    }
  },
  {
    "service_request": "2025-1188091",
    "request_type": "Trash/Recycling",
    "request_reason": "Request a Large Item Pick Up",
    "date_created": "2025-04-29T19:55:45.000",
    "date_modified": "2025-04-29T19:55:47.000",
    "request_status": "Pending",
    "responsible_agency": "Department of Sanitation",
    "final_address": "4734 Knight Dr",
    "address_councildis": "E",
    "status": "Assigned to Contractor",
    "contractor": "Waste Pro",
    "rowid": "1188091",
    "final_x": "3708066.25566",
    "final_y": "555496.059737",
    "longitude": "-89.98329241774074",
    "latitude": "30.0205875039124",
    "geocoded_column": {
      "latitude": "30.0205875039124",
      "longitude": "-89.98329241774074"
    }
  },
  {
    "service_request": "2025-1188090",
    "request_type": "General Services",
    "request_reason": "General Service Request",
    "date_created": "2025-04-29T19:51:07.000",
    "date_modified": "2025-04-29T19:51:09.000",
    "request_status": "Pending",
    "responsible_agency": "Orleans Parish Communication District",
    "final_address": "321 Cherokee St",
    "address_councildis": "A",
    "status": "Pending",
    "rowid": "1188090",
    "final_x": "3661565.51046",
    "final_y": "524722.450172",
    "longitude": "-90.13124177376598",
    "latitude": "29.93739479635542",
    "geocoded_column": {
      "latitude": "29.93739479635542",
      "longitude": "-90.13124177376598"
    }
  },
  {
    "service_request": "2025-1188089",
    "request_type": "Trash/Recycling",
    "request_reason": "Request a Large Item Pick Up",
    "date_created": "2025-04-29T19:50:35.000",
    "date_modified": "2025-04-29T19:50:37.000",
    "request_status": "Pending",
    "responsible_agency": "Department of Sanitation",
    "final_address": "6745 Manchester St",
    "address_councildis": "E",
    "status": "Assigned to Contractor",
    "contractor": "Waste Pro",
    "rowid": "1188089",
    "final_x": "3698127.93565",
    "final_y": "559885.565789",
    "longitude": "-90.01453472110009",
    "latitude": "30.03297518654743",
    "geocoded_column": {
      "latitude": "30.03297518654743",
      "longitude": "-90.01453472110009"
    }
  },
  {
    "service_request": "2025-1188088",
    "request_type": "Street and Traffic Signs",
    "request_reason": "Street Name Sign Damaged or Missing",
    "date_created": "2025-04-29T19:42:40.000",
    "date_modified": "2025-04-29T19:42:42.000",
    "request_status": "Pending",
    "responsible_agency": "Department of Public Works",
    "final_address": "PAUGER ST & N TONTI ST",
    "address_councildis": "D",
    "status": "Pending",
    "rowid": "1188088",
    "final_x": "3683517.1",
    "final_y": "540630.88",
    "longitude": "-90.06138170299093",
    "latitude": "29.980486055604754",
    "geocoded_column": {
      "latitude": "29.980486055604754",
      "longitude": "-90.06138170299093"
    }
  },
  {
    "service_request": "2025-1188087",
    "request_type": "Roads and Streets",
    "request_reason": "Pothole",
    "date_created": "2025-04-29T19:34:37.000",
    "date_modified": "2025-04-29T19:34:39.000",
    "request_status": "Pending",
    "responsible_agency": "Department of Public Works",
    "final_address": "7921 Burthe St",
    "address_councildis": "A",
    "status": "Pending",
    "rowid": "1188087",
    "final_x": "3661720.66963",
    "final_y": "527225.345279",
    "longitude": "-90.13066898645403",
    "latitude": "29.944272486714294",
    "geocoded_column": {
      "latitude": "29.944272486714294",
      "longitude": "-90.13066898645403"
    }
  },
  {
    "service_request": "2025-1188086",
    "request_type": "Trash/Recycling",
    "request_reason": "Order Trash Cart",
    "date_created": "2025-04-29T19:31:07.000",
    "date_modified": "2025-04-29T19:31:09.000",
    "request_status": "Pending",
    "responsible_agency": "Department of Sanitation",
    "final_address": "4623 Baudin St",
    "address_councildis": "A",
    "status": "Assigned to Contractor",
    "contractor": "IV Waste",
    "rowid": "1188086",
    "final_x": "3668331.19578",
    "final_y": "538465.713481",
    "longitude": "-90.10941853336135",
    "latitude": "29.974987354576115",
    "geocoded_column": {
      "latitude": "29.974987354576115",
      "longitude": "-90.10941853336135"
    }
  },
  {
    "service_request": "2025-1188084",
    "request_type": "Trash/Recycling",
    "request_reason": "Request a Large Item Pick Up",
    "date_created": "2025-04-29T19:28:58.000",
    "date_modified": "2025-04-29T19:29:00.000",
    "request_status": "Pending",
    "responsible_agency": "Department of Sanitation",
    "final_address": "7720 Swift St",
    "address_councildis": "E",
    "status": "Assigned to Contractor",
    "contractor": "Waste Pro",
    "rowid": "1188084",
    "final_x": "3695284.01834",
    "final_y": "559073.725212",
    "longitude": "-90.02355104612856",
    "latitude": "30.03083262940047",
    "geocoded_column": {
      "latitude": "30.03083262940047",
      "longitude": "-90.02355104612856"
    }
  },
  {
    "service_request": "2025-1188083",
    "request_type": "Abandoned Vehicles",
    "request_reason": "Abandoned/Junk Vehicles",
    "date_created": "2025-04-29T19:25:55.000",
    "date_modified": "2025-04-29T19:25:57.000",
    "request_status": "Pending",
    "responsible_agency": "Department of Public Works",
    "final_address": "2730 Ursulines Ave",
    "address_councildis": "A",
    "status": "Pending",
    "rowid": "1188083",
    "final_x": "3677344.24546",
    "final_y": "538297.869897",
    "longitude": "-90.08095878574314",
    "latitude": "29.974258049711814",
    "geocoded_column": {
      "latitude": "29.974258049711814",
      "longitude": "-90.08095878574314"
    }
  },
  {
    "service_request": "2025-1188082",
    "request_type": "Drainage",
    "request_reason": "Ditch and Culvert Maintenance",
    "date_created": "2025-04-29T19:09:54.000",
    "date_modified": "2025-04-29T19:09:57.000",
    "request_status": "Pending",
    "responsible_agency": "Department of Public Works",
    "final_address": "1219 Kentucky St",
    "address_councildis": "D",
    "status": "Pending",
    "rowid": "1188082",
    "final_x": "3693523.56374",
    "final_y": "535413.52199",
    "longitude": "-90.02996455891095",
    "latitude": "29.965830959720016",
    "geocoded_column": {
      "latitude": "29.965830959720016",
      "longitude": "-90.02996455891095"
    }
  },
  {
    "service_request": "2025-1188081",
    "request_type": "New Orleans Recreation Development Commission (NORDC)",
    "request_reason": "Facilities and Parks Maintenance/Clean Up",
    "date_created": "2025-04-29T18:56:55.000",
    "date_modified": "2025-04-29T18:56:57.000",
    "request_status": "Pending",
    "responsible_agency": "New Orleans Recreation Development Commission",
    "final_address": "6520 Congress Dr",
    "address_councildis": "D",
    "status": "Pending",
    "rowid": "1188081",
    "final_x": "3690557.38883",
    "final_y": "557767.340891",
    "longitude": "-90.03853391240037",
    "latitude": "30.027388277841048",
    "geocoded_column": {
      "latitude": "30.027388277841048",
      "longitude": "-90.03853391240037"
    }
  },
  {
    "service_request": "2025-1188080",
    "request_type": "Trash/Recycling",
    "request_reason": "Replace Trash Cart",
    "date_created": "2025-04-29T18:54:13.000",
    "date_modified": "2025-04-29T18:54:15.000",
    "request_status": "Pending",
    "responsible_agency": "Department of Sanitation",
    "final_address": "1520 Bartholomew St",
    "address_councildis": "D",
    "status": "Assigned to Contractor",
    "contractor": "IV Waste",
    "rowid": "1188080",
    "final_x": "3692169.89763",
    "final_y": "536988.433928",
    "longitude": "-90.03418298514738",
    "latitude": "29.970203680418766",
    "geocoded_column": {
      "latitude": "29.970203680418766",
      "longitude": "-90.03418298514738"
    }
  },
  {
    "service_request": "2025-1188079",
    "request_type": "Trash/Recycling",
    "request_reason": "Request a Large Item Pick Up",
    "date_created": "2025-04-29T18:33:44.000",
    "date_modified": "2025-04-29T18:33:46.000",
    "request_status": "Pending",
    "responsible_agency": "Department of Sanitation",
    "final_address": "5642 Chatham Dr",
    "address_councildis": "D",
    "status": "Assigned to Contractor",
    "contractor": "IV Waste",
    "rowid": "1188079",
    "final_x": "3679606.24578",
    "final_y": "553335.493207",
    "longitude": "-90.07329260485847",
    "latitude": "30.01553802716469",
    "geocoded_column": {
      "latitude": "30.01553802716469",
      "longitude": "-90.07329260485847"
    }
  },
  {
    "service_request": "2025-1188078",
    "request_type": "Trash/Recycling",
    "request_reason": "Request a Large Item Pick Up",
    "date_created": "2025-04-29T18:30:29.000",
    "date_modified": "2025-04-29T18:30:32.000",
    "request_status": "Pending",
    "responsible_agency": "Department of Sanitation",
    "final_address": "2329 Esplanade Ave",
    "address_councildis": "D",
    "status": "Assigned to Contractor",
    "contractor": "IV Waste",
    "rowid": "1188078",
    "final_x": "3679148.23259",
    "final_y": "538283.500233",
    "longitude": "-90.07526187101531",
    "latitude": "29.974164199467133",
    "geocoded_column": {
      "latitude": "29.974164199467133",
      "longitude": "-90.07526187101531"
    }
  },
  {
    "service_request": "2025-1188077",
    "request_type": "Trash/Recycling",
    "request_reason": "Request a Large Item Pick Up",
    "date_created": "2025-04-29T18:25:48.000",
    "date_modified": "2025-04-29T18:25:50.000",
    "request_status": "Pending",
    "responsible_agency": "Department of Sanitation",
    "final_address": "7416 Edward St",
    "address_councildis": "E",
    "status": "Assigned to Contractor",
    "contractor": "Waste Pro",
    "rowid": "1188077",
    "final_x": "3701192.91805",
    "final_y": "560327.220893",
    "longitude": "-90.00483297536326",
    "latitude": "30.03409221390936",
    "geocoded_column": {
      "latitude": "30.03409221390936",
      "longitude": "-90.00483297536326"
    }
  },
  {
    "service_request": "2025-1188076",
    "request_type": "General Services",
    "request_reason": "General Service Request",
    "date_created": "2025-04-29T18:19:34.000",
    "date_modified": "2025-04-29T18:19:36.000",
    "request_status": "Pending",
    "responsible_agency": "Orleans Parish Communication District",
    "final_address": "137 20Th St",
    "address_councildis": "A",
    "status": "Pending",
    "rowid": "1188076",
    "final_x": "3665871.96135",
    "final_y": "549061.416275",
    "longitude": "-90.11683018088755",
    "latitude": "30.004193935145118",
    "geocoded_column": {
      "latitude": "30.004193935145118",
      "longitude": "-90.11683018088755"
    }
  },
  {
    "service_request": "2025-1188075",
    "request_type": "Trash/Recycling",
    "request_reason": "Repair Trash Cart",
    "date_created": "2025-04-29T18:14:54.000",
    "date_modified": "2025-04-29T18:14:56.000",
    "request_status": "Pending",
    "responsible_agency": "Department of Sanitation",
    "final_address": "137 20Th St",
    "address_councildis": "A",
    "status": "Assigned to Contractor",
    "contractor": "IV Waste",
    "rowid": "1188075",
    "final_x": "3665871.96135",
    "final_y": "549061.416275",
    "longitude": "-90.11683018088755",
    "latitude": "30.004193935145118",
    "geocoded_column": {
      "latitude": "30.004193935145118",
      "longitude": "-90.11683018088755"
    }
  },
  {
    "service_request": "2025-1188074",
    "request_type": "Parks & Parkways",
    "request_reason": "Request Grass Cutting Service (City Owned Property)",
    "date_created": "2025-04-29T18:02:48.000",
    "date_modified": "2025-04-29T18:02:49.000",
    "request_status": "Pending",
    "responsible_agency": "Department of Parks & Parkway",
    "final_address": "2440 St Roch Ave",
    "address_councildis": "D",
    "status": "Pending",
    "rowid": "1188074",
    "final_x": "3686004.32386",
    "final_y": "541541.460108",
    "longitude": "-90.05349387147895",
    "latitude": "29.982913677870307",
    "geocoded_column": {
      "latitude": "29.982913677870307",
      "longitude": "-90.05349387147895"
    }
  },
  {
    "service_request": "2025-1188073",
    "request_type": "Trash/Recycling",
    "request_reason": "Request a Large Item Pick Up",
    "date_created": "2025-04-29T17:56:42.000",
    "date_modified": "2025-04-29T17:56:45.000",
    "request_status": "Pending",
    "responsible_agency": "Department of Sanitation",
    "final_address": "5410 Chamberlain Dr",
    "address_councildis": "D",
    "status": "Assigned to Contractor",
    "contractor": "IV Waste",
    "rowid": "1188073",
    "final_x": "3679380.44648",
    "final_y": "552365.53039",
    "longitude": "-90.07403970770059",
    "latitude": "30.01287780534851",
    "geocoded_column": {
      "latitude": "30.01287780534851",
      "longitude": "-90.07403970770059"
    }
  },
  {
    "service_request": "2025-1188072",
    "request_type": "Trash/Recycling",
    "request_reason": "Request a Large Item Pick Up",
    "date_created": "2025-04-29T17:32:18.000",
    "date_modified": "2025-04-29T17:32:21.000",
    "request_status": "Pending",
    "responsible_agency": "Department of Sanitation",
    "final_address": "1816 Kerlerec St",
    "address_councildis": "D",
    "status": "Assigned to Contractor",
    "contractor": "IV Waste",
    "rowid": "1188072",
    "final_x": "3680797.21",
    "final_y": "537397.334856",
    "longitude": "-90.0700848772557",
    "latitude": "29.971677665421677",
    "geocoded_column": {
      "latitude": "29.971677665421677",
      "longitude": "-90.0700848772557"
    }
  },
  {
    "service_request": "2025-1188071",
    "request_type": "Trash/Recycling",
    "request_reason": "Request a Large Item Pick Up",
    "date_created": "2025-04-29T17:19:17.000",
    "date_modified": "2025-04-29T17:19:19.000",
    "request_status": "Pending",
    "responsible_agency": "Department of Sanitation",
    "final_address": "4813 Raymond Joseph Dr",
    "address_councildis": "E",
    "status": "Assigned to Contractor",
    "contractor": "Waste Pro",
    "rowid": "1188071",
    "final_x": "3703705.40151",
    "final_y": "555706.936537",
    "longitude": "-89.99706353642048",
    "latitude": "30.021307888941134",
    "geocoded_column": {
      "latitude": "30.021307888941134",
      "longitude": "-89.99706353642048"
    }
  },
  {
    "service_request": "2025-1188070",
    "request_type": "Mosquito, Termite & Rodent Control",
    "request_reason": "Rodent Complaint (Rats)",
    "date_created": "2025-04-29T17:17:30.000",
    "date_modified": "2025-04-29T17:17:32.000",
    "request_status": "Pending",
    "responsible_agency": "Mosquito, Termite & Rodent Control Board",
    "final_address": "2503 Freret St",
    "address_councildis": "B",
    "status": "Pending",
    "rowid": "1188070",
    "final_x": "3674826.53665",
    "final_y": "525789.785917",
    "longitude": "-90.0893391830216",
    "latitude": "29.93994042377236",
    "geocoded_column": {
      "latitude": "29.93994042377236",
      "longitude": "-90.0893391830216"
    }
  },
  {
    "service_request": "2025-1188069",
    "request_type": "Trash/Recycling",
    "request_reason": "Order Second Trash Cart",
    "date_created": "2025-04-29T17:14:11.000",
    "date_modified": "2025-04-29T18:45:29.000",
    "case_close_date": "2025-04-29T13:45:28.000",
    "request_status": "Closed",
    "responsible_agency": "Department of Sanitation",
    "final_address": "7819 Mercier St",
    "address_councildis": "E",
    "status": "Duplicate Request",
    "contractor": "Waste Pro",
    "contractor_action": "Duplicate",
    "rowid": "1188069",
    "final_x": "3711086.40037",
    "final_y": "567095.634276",
    "longitude": "-89.97331474221654",
    "latitude": "30.05238352263999",
    "geocoded_column": {
      "latitude": "30.05238352263999",
      "longitude": "-89.97331474221654"
    }
  },
  {
    "service_request": "2025-1188068",
    "request_type": "Trash/Recycling",
    "request_reason": "Order Second Trash Cart",
    "date_created": "2025-04-29T17:11:36.000",
    "date_modified": "2025-04-29T17:11:37.000",
    "request_status": "Pending",
    "responsible_agency": "Department of Sanitation",
    "final_address": "7819 Mercier St",
    "address_councildis": "E",
    "status": "Assigned to Contractor",
    "contractor": "Waste Pro",
    "rowid": "1188068",
    "final_x": "3711086.40037",
    "final_y": "567095.634276",
    "longitude": "-89.97331474221654",
    "latitude": "30.05238352263999",
    "geocoded_column": {
      "latitude": "30.05238352263999",
      "longitude": "-89.97331474221654"
    }
  },
  {
    "service_request": "2025-1188067",
    "request_type": "City-Owned Cemeteries",
    "request_reason": "Property Maintenance",
    "date_created": "2025-04-29T17:10:38.000",
    "date_modified": "2025-04-29T17:10:41.000",
    "request_status": "Pending",
    "responsible_agency": "Department of Property Management",
    "final_address": "832 Roosevelt Pl",
    "address_councildis": "A",
    "status": "Pending",
    "rowid": "1188067",
    "final_x": "3673602.96648",
    "final_y": "539888.123594",
    "longitude": "-90.09272026087697",
    "latitude": "29.978742611859023",
    "geocoded_column": {
      "latitude": "29.978742611859023",
      "longitude": "-90.09272026087697"
    }
  },
  {
    "service_request": "2025-1188066",
    "request_type": "Trash/Recycling",
    "request_reason": "Request a Large Item Pick Up",
    "date_created": "2025-04-29T16:58:06.000",
    "date_modified": "2025-04-29T16:58:08.000",
    "request_status": "Pending",
    "responsible_agency": "Department of Sanitation",
    "final_address": "7515 Horizon Dr",
    "address_councildis": "E",
    "status": "Assigned to Contractor",
    "contractor": "Waste Pro",
    "rowid": "1188066",
    "final_x": "3725486.77939",
    "final_y": "569678.542822",
    "longitude": "-89.9276998689085",
    "latitude": "30.059007605694763",
    "geocoded_column": {
      "latitude": "30.059007605694763",
      "longitude": "-89.9276998689085"
    }
  },
  {
    "service_request": "2025-1188065",
    "request_type": "Streetlights",
    "request_reason": "Streetlight Outage/Malfunction",
    "date_created": "2025-04-29T16:58:03.000",
    "date_modified": "2025-04-29T16:58:05.000",
    "request_status": "Pending",
    "responsible_agency": "Department of Public Works",
    "final_address": "9 Stilt St",
    "address_councildis": "D",
    "status": "Pending",
    "contractor": "Legacy Professional Services",
    "rowid": "1188065",
    "final_x": "3672705.67067",
    "final_y": "557221.275291",
    "longitude": "-90.09496260904191",
    "latitude": "30.02642938018504",
    "geocoded_column": {
      "latitude": "30.02642938018504",
      "longitude": "-90.09496260904191"
    }
  },
  {
    "service_request": "2025-1188064",
    "request_type": "Parks & Parkways",
    "request_reason": "Request Tree Service (Right of Way/Public Property)",
    "date_created": "2025-04-29T16:57:16.000",
    "date_modified": "2025-04-29T17:00:03.000",
    "request_status": "Pending",
    "responsible_agency": "Department of Parks & Parkway",
    "final_address": "1239 Fern St",
    "address_councildis": "A",
    "status": "Pending",
    "rowid": "1188064",
    "final_x": "3662769.56928",
    "final_y": "528044.199871",
    "longitude": "-90.12733008431893",
    "latitude": "29.94649376160216",
    "geocoded_column": {
      "latitude": "29.94649376160216",
      "longitude": "-90.12733008431893"
    }
  },
  {
    "service_request": "2025-1188063",
    "request_type": "Streetlights",
    "request_reason": "Streetlight Outage/Malfunction",
    "date_created": "2025-04-29T16:55:53.000",
    "date_modified": "2025-04-29T16:55:55.000",
    "request_status": "Pending",
    "responsible_agency": "Department of Public Works",
    "final_address": "15 Stilt St",
    "address_councildis": "D",
    "status": "Pending",
    "contractor": "Legacy Professional Services",
    "rowid": "1188063",
    "final_x": "3672848.60507",
    "final_y": "557236.927323",
    "longitude": "-90.09451041705806",
    "latitude": "30.026468169295587",
    "geocoded_column": {
      "latitude": "30.026468169295587",
      "longitude": "-90.09451041705806"
    }
  },
  {
    "service_request": "2025-1188062",
    "request_type": "Drainage",
    "request_reason": "Catch Basin Clogged",
    "date_created": "2025-04-29T16:55:33.000",
    "date_modified": "2025-04-29T16:55:35.000",
    "request_status": "Pending",
    "responsible_agency": "Sewerage & Water Board",
    "final_address": "2644 Banks St",
    "address_councildis": "B",
    "status": "Pending",
    "rowid": "1188062",
    "final_x": "3674765.97109",
    "final_y": "533956.728069",
    "longitude": "-90.08925044817141",
    "latitude": "29.96239861226045",
    "geocoded_column": {
      "latitude": "29.96239861226045",
      "longitude": "-90.08925044817141"
    }
  },
  {
    "service_request": "2025-1188061",
    "request_type": "Trash/Recycling",
    "request_reason": "Request a Large Item Pick Up",
    "date_created": "2025-04-29T16:53:11.000",
    "date_modified": "2025-04-29T16:58:28.000",
    "request_status": "Pending",
    "responsible_agency": "Department of Sanitation",
    "final_address": "1239 Fern St",
    "address_councildis": "A",
    "status": "Assigned to Contractor",
    "contractor": "IV Waste",
    "rowid": "1188061",
    "final_x": "3662769.56928",
    "final_y": "528044.199871",
    "longitude": "-90.12733008431893",
    "latitude": "29.94649376160216",
    "geocoded_column": {
      "latitude": "29.94649376160216",
      "longitude": "-90.12733008431893"
    }
  },
  {
    "service_request": "2025-1188060",
    "request_type": "Trash/Recycling",
    "request_reason": "Request a Large Item Pick Up",
    "date_created": "2025-04-29T16:46:34.000",
    "date_modified": "2025-04-29T16:46:36.000",
    "request_status": "Pending",
    "responsible_agency": "Department of Sanitation",
    "final_address": "13906 Intrepid St",
    "address_councildis": "E",
    "status": "Assigned to Contractor",
    "contractor": "Waste Pro",
    "rowid": "1188060",
    "final_x": "3726095.6176",
    "final_y": "570279.323303",
    "longitude": "-89.92575208195213",
    "latitude": "30.060638947555663",
    "geocoded_column": {
      "latitude": "30.060638947555663",
      "longitude": "-89.92575208195213"
    }
  },
  {
    "service_request": "2025-1188059",
    "request_type": "Trash/Recycling",
    "request_reason": "Request a Large Item Pick Up",
    "date_created": "2025-04-29T16:45:46.000",
    "date_modified": "2025-04-29T16:45:47.000",
    "request_status": "Pending",
    "responsible_agency": "Department of Sanitation",
    "final_address": "11205 Morrison Rd",
    "address_councildis": "E",
    "status": "Assigned to Contractor",
    "contractor": "Waste Pro",
    "rowid": "1188059",
    "final_x": "3711656.24773",
    "final_y": "565444.51613",
    "longitude": "-89.97157565995117",
    "latitude": "30.04782500734524",
    "geocoded_column": {
      "latitude": "30.04782500734524",
      "longitude": "-89.97157565995117"
    }
  },
  {
    "service_request": "2025-1188058",
    "request_type": "Trash/Recycling",
    "request_reason": "Request a Large Item Pick Up",
    "date_created": "2025-04-29T16:42:56.000",
    "date_modified": "2025-04-29T16:42:58.000",
    "request_status": "Pending",
    "responsible_agency": "Department of Sanitation",
    "final_address": "11301 Prentiss Ave",
    "address_councildis": "E",
    "status": "Assigned to Contractor",
    "contractor": "Waste Pro",
    "rowid": "1188058",
    "final_x": "3717039.43122",
    "final_y": "556840.331994",
    "longitude": "-89.95488911059726",
    "latitude": "30.023989967248013",
    "geocoded_column": {
      "latitude": "30.023989967248013",
      "longitude": "-89.95488911059726"
    }
  },
  {
    "service_request": "2025-1188057",
    "request_type": "Trash/Recycling",
    "request_reason": "Request a Large Item Pick Up",
    "date_created": "2025-04-29T16:38:06.000",
    "date_modified": "2025-04-29T16:38:08.000",
    "request_status": "Pending",
    "responsible_agency": "Department of Sanitation",
    "final_address": "3934 S Pin Oak Ave",
    "address_councildis": "C",
    "status": "Assigned to Contractor",
    "contractor": "Richards Disposal",
    "rowid": "1188057",
    "final_x": "3704992.60286",
    "final_y": "513534.983026",
    "longitude": "-89.99455325391556",
    "latitude": "29.905308978723436",
    "geocoded_column": {
      "latitude": "29.905308978723436",
      "longitude": "-89.99455325391556"
    }
  },
  {
    "service_request": "2025-1188056",
    "request_type": "Streetlights",
    "request_reason": "Streetlight Outage/Malfunction",
    "date_created": "2025-04-29T16:37:16.000",
    "date_modified": "2025-04-29T16:37:18.000",
    "request_status": "Pending",
    "responsible_agency": "Department of Public Works",
    "final_address": "26 Swan St",
    "address_councildis": "D",
    "status": "Pending",
    "contractor": "Legacy Professional Services",
    "rowid": "1188056",
    "final_x": "3673619.29499",
    "final_y": "557830.256603",
    "longitude": "-90.09205480965696",
    "latitude": "30.02807667660585",
    "geocoded_column": {
      "latitude": "30.02807667660585",
      "longitude": "-90.09205480965696"
    }
  },
  {
    "service_request": "2025-1188055",
    "request_type": "Trash/Recycling",
    "request_reason": "Illegal Dumping",
    "date_created": "2025-04-29T16:36:55.000",
    "date_modified": "2025-04-29T16:36:57.000",
    "request_status": "Pending",
    "responsible_agency": "Department of Sanitation",
    "final_address": "3101 Dickens Dr",
    "address_councildis": "C",
    "status": "Pending",
    "rowid": "1188055",
    "final_x": "3708286.69649",
    "final_y": "518835.993591",
    "longitude": "-89.98395999595063",
    "latitude": "29.91977868155376",
    "geocoded_column": {
      "latitude": "29.91977868155376",
      "longitude": "-89.98395999595063"
    }
  },
  {
    "service_request": "2025-1188054",
    "request_type": "Trash/Recycling",
    "request_reason": "Repair Recycling Cart",
    "date_created": "2025-04-29T16:35:33.000",
    "date_modified": "2025-04-29T16:35:34.000",
    "request_status": "Pending",
    "responsible_agency": "Department of Sanitation",
    "final_address": "2507 Republic St",
    "address_councildis": "D",
    "status": "Pending",
    "rowid": "1188054",
    "final_x": "3680848.16136",
    "final_y": "541203.494028",
    "longitude": "-90.06979141346721",
    "latitude": "29.98214173800144",
    "geocoded_column": {
      "latitude": "29.98214173800144",
      "longitude": "-90.06979141346721"
    }
  },
  {
    "service_request": "2025-1188052",
    "request_type": "Trash/Recycling",
    "request_reason": "Replace Trash Cart",
    "date_created": "2025-04-29T16:33:20.000",
    "date_modified": "2025-04-29T16:33:22.000",
    "request_status": "Pending",
    "responsible_agency": "Department of Sanitation",
    "final_address": "1221 Flanders St",
    "address_councildis": "C",
    "status": "Assigned to Contractor",
    "contractor": "Richards Disposal",
    "rowid": "1188052",
    "final_x": "3696688.28221",
    "final_y": "526812.504894",
    "longitude": "-90.02028178976985",
    "latitude": "29.942081823954755",
    "geocoded_column": {
      "latitude": "29.942081823954755",
      "longitude": "-90.02028178976985"
    }
  },
  {
    "service_request": "2025-1188051",
    "request_type": "Drainage",
    "request_reason": "Ditch and Culvert Maintenance",
    "date_created": "2025-04-29T16:32:54.000",
    "date_modified": "2025-04-29T16:32:55.000",
    "request_status": "Pending",
    "responsible_agency": "Department of Public Works",
    "final_address": "4730 Pontchartrain Blvd",
    "address_councildis": "A",
    "status": "Pending",
    "rowid": "1188051",
    "final_x": "3667497.33172",
    "final_y": "538483.786121",
    "longitude": "-90.11205149100157",
    "latitude": "29.975061512618705",
    "geocoded_column": {
      "latitude": "29.975061512618705",
      "longitude": "-90.11205149100157"
    }
  },
  {
    "service_request": "2025-1188050",
    "request_type": "Trash/Recycling",
    "request_reason": "Replace Trash Cart",
    "date_created": "2025-04-29T16:31:00.000",
    "date_modified": "2025-04-29T16:31:01.000",
    "request_status": "Pending",
    "responsible_agency": "Department of Sanitation",
    "final_address": "1223 Flanders St",
    "address_councildis": "C",
    "status": "Assigned to Contractor",
    "contractor": "Richards Disposal",
    "rowid": "1188050",
    "final_x": "3696688.28221",
    "final_y": "526790.91539",
    "longitude": "-90.02028257086415",
    "latitude": "29.942022460309264",
    "geocoded_column": {
      "latitude": "29.942022460309264",
      "longitude": "-90.02028257086415"
    }
  },
  {
    "service_request": "2025-1188049",
    "request_type": "Trash/Recycling",
    "request_reason": "Order Recycling Cart",
    "date_created": "2025-04-29T16:29:55.000",
    "date_modified": "2025-04-29T16:29:57.000",
    "request_status": "Pending",
    "responsible_agency": "Department of Sanitation",
    "final_address": "2420 St Claude Ave",
    "address_councildis": "C",
    "status": "Pending",
    "rowid": "1188049",
    "final_x": "3686701.22319",
    "final_y": "536407.910471",
    "longitude": "-90.05147410552468",
    "latitude": "29.96877679888931",
    "geocoded_column": {
      "latitude": "29.96877679888931",
      "longitude": "-90.05147410552468"
    }
  },
  {
    "service_request": "2025-1188048",
    "request_type": "Streetlights",
    "request_reason": "Streetlight Outage/Malfunction",
    "date_created": "2025-04-29T16:26:05.000",
    "date_modified": "2025-04-29T16:26:07.000",
    "request_status": "Pending",
    "responsible_agency": "Department of Public Works",
    "final_address": "2900 BLK Republic St",
    "address_councildis": "D",
    "status": "Pending",
    "contractor": "Legacy Professional Services",
    "rowid": "1188048",
    "final_x": "3680648.56386",
    "final_y": "543181.099777",
    "longitude": "-90.0703529906496",
    "latitude": "29.98758551215202",
    "geocoded_column": {
      "latitude": "29.98758551215202",
      "longitude": "-90.0703529906496"
    }
  },
  {
    "service_request": "2025-1188047",
    "request_type": "Trash/Recycling",
    "request_reason": "Order Recycling Cart",
    "date_created": "2025-04-29T16:24:27.000",
    "date_modified": "2025-04-29T16:24:29.000",
    "request_status": "Pending",
    "responsible_agency": "Department of Sanitation",
    "final_address": "2824 Banks St",
    "address_councildis": "B",
    "status": "Pending",
    "rowid": "1188047",
    "final_x": "3673928.25108",
    "final_y": "534593.843142",
    "longitude": "-90.09187405535498",
    "latitude": "29.964175447565403",
    "geocoded_column": {
      "latitude": "29.964175447565403",
      "longitude": "-90.09187405535498"
    }
  },
  {
    "service_request": "2025-1188046",
    "request_type": "Trash/Recycling",
    "request_reason": "Repair Trash Cart",
    "date_created": "2025-04-29T16:18:29.000",
    "date_modified": "2025-04-29T16:18:31.000",
    "request_status": "Pending",
    "responsible_agency": "Department of Sanitation",
    "final_address": "1836 Harmony St",
    "address_councildis": "B",
    "status": "Assigned to Contractor",
    "contractor": "IV Waste",
    "rowid": "1188046",
    "final_x": "3674361.98625",
    "final_y": "522760.82585",
    "longitude": "-90.09090952882057",
    "latitude": "29.931625629981127",
    "geocoded_column": {
      "latitude": "29.931625629981127",
      "longitude": "-90.09090952882057"
    }
  },
  {
    "service_request": "2025-1188045",
    "request_type": "Trash/Recycling",
    "request_reason": "Request a Large Item Pick Up",
    "date_created": "2025-04-29T16:17:07.000",
    "date_modified": "2025-04-29T16:17:09.000",
    "request_status": "Pending",
    "responsible_agency": "Department of Sanitation",
    "final_address": "4782 Knight Dr",
    "address_councildis": "E",
    "status": "Assigned to Contractor",
    "contractor": "Waste Pro",
    "rowid": "1188045",
    "final_x": "3708030.3002",
    "final_y": "555853.319513",
    "longitude": "-89.98339272619974",
    "latitude": "30.021570994103854",
    "geocoded_column": {
      "latitude": "30.021570994103854",
      "longitude": "-89.98339272619974"
    }
  },
  {
    "service_request": "2025-1188044",
    "request_type": "Trash/Recycling",
    "request_reason": "Replace Trash Cart",
    "date_created": "2025-04-29T16:15:23.000",
    "date_modified": "2025-04-29T16:15:25.000",
    "request_status": "Pending",
    "responsible_agency": "Department of Sanitation",
    "final_address": "6472 Louis Xiv St",
    "address_councildis": "A",
    "status": "Assigned to Contractor",
    "contractor": "IV Waste",
    "rowid": "1188044",
    "final_x": "3668321.76161",
    "final_y": "550641.511188",
    "longitude": "-90.10903745602918",
    "latitude": "30.008466902645687",
    "geocoded_column": {
      "latitude": "30.008466902645687",
      "longitude": "-90.10903745602918"
    }
  },
  {
    "service_request": "2025-1188043",
    "request_type": "Trash/Recycling",
    "request_reason": "Request a Large Item Pick Up",
    "date_created": "2025-04-29T16:14:12.000",
    "date_modified": "2025-04-29T16:14:13.000",
    "request_status": "Pending",
    "responsible_agency": "Department of Sanitation",
    "final_address": "1045 Jourdan Ave",
    "address_councildis": "E",
    "status": "Assigned to Contractor",
    "contractor": "Waste Pro",
    "rowid": "1188043",
    "final_x": "3695043.90435",
    "final_y": "534371.533829",
    "longitude": "-90.02520096315007",
    "latitude": "29.962918222318322",
    "geocoded_column": {
      "latitude": "29.962918222318322",
      "longitude": "-90.02520096315007"
    }
  },
  {
    "service_request": "2025-1188042",
    "request_type": "Trash/Recycling",
    "request_reason": "Repair Trash Cart",
    "date_created": "2025-04-29T16:11:58.000",
    "date_modified": "2025-04-29T16:12:00.000",
    "request_status": "Pending",
    "responsible_agency": "Department of Sanitation",
    "final_address": "2821 Sabine St",
    "address_councildis": "C",
    "status": "Assigned to Contractor",
    "contractor": "Richards Disposal",
    "rowid": "1188042",
    "final_x": "3692870.00041",
    "final_y": "519733.86092",
    "longitude": "-90.03259057828481",
    "latitude": "29.92273771939982",
    "geocoded_column": {
      "latitude": "29.92273771939982",
      "longitude": "-90.03259057828481"
    }
  },
  {
    "service_request": "2025-1188041",
    "request_type": "Trash/Recycling",
    "request_reason": "Order Second Trash Cart",
    "date_created": "2025-04-29T16:08:08.000",
    "date_modified": "2025-04-29T16:08:10.000",
    "request_status": "Pending",
    "responsible_agency": "Department of Sanitation",
    "final_address": "4827 Friar Tuck Dr",
    "address_councildis": "E",
    "status": "Assigned to Contractor",
    "contractor": "Waste Pro",
    "rowid": "1188041",
    "final_x": "3717786.22969",
    "final_y": "557399.841179",
    "longitude": "-89.95250809430375",
    "latitude": "30.025503670340008",
    "geocoded_column": {
      "latitude": "30.025503670340008",
      "longitude": "-89.95250809430375"
    }
  },
  {
    "service_request": "2025-1188040",
    "request_type": "Abandoned Vehicles",
    "request_reason": "Abandoned/Junk Vehicles",
    "date_created": "2025-04-29T16:04:53.000",
    "date_modified": "2025-04-29T16:04:54.000",
    "request_status": "Pending",
    "responsible_agency": "Department of Public Works",
    "final_address": "1305 Barracks St",
    "address_councildis": "C",
    "status": "Pending",
    "rowid": "1188040",
    "final_x": "3682103.53743",
    "final_y": "535608.329862",
    "longitude": "-90.06602178929235",
    "latitude": "29.966718854085766",
    "geocoded_column": {
      "latitude": "29.966718854085766",
      "longitude": "-90.06602178929235"
    }
  },
  {
    "service_request": "2025-1188039",
    "request_type": "Trash/Recycling",
    "request_reason": "Order Trash Cart",
    "date_created": "2025-04-29T16:04:33.000",
    "date_modified": "2025-04-29T16:04:35.000",
    "request_status": "Pending",
    "responsible_agency": "Department of Sanitation",
    "final_address": "3314 Audubon St",
    "address_councildis": "B",
    "status": "Assigned to Contractor",
    "contractor": "IV Waste",
    "rowid": "1188039",
    "final_x": "3668609.01825",
    "final_y": "532664.006084",
    "longitude": "-90.10873692286428",
    "latitude": "29.95902642825152",
    "geocoded_column": {
      "latitude": "29.95902642825152",
      "longitude": "-90.10873692286428"
    }
  },
  {
    "service_request": "2025-1188038",
    "request_type": "Trash/Recycling",
    "request_reason": "Missed Trash Pick-Up",
    "date_created": "2025-04-29T16:02:40.000",
    "date_modified": "2025-04-29T16:03:24.000",
    "request_status": "Pending",
    "responsible_agency": "Department of Sanitation",
    "final_address": "2237 Beck St",
    "address_councildis": "C",
    "status": "Assigned to Contractor",
    "contractor": "Richards Disposal",
    "rowid": "1188038",
    "final_x": "3700400.03306",
    "final_y": "522583.230778",
    "longitude": "-90.00871742932591",
    "latitude": "29.930335315878388",
    "geocoded_column": {
      "latitude": "29.930335315878388",
      "longitude": "-90.00871742932591"
    }
  },
  {
    "service_request": "2025-1188037",
    "request_type": "Trash/Recycling",
    "request_reason": "Request a Large Item Pick Up",
    "date_created": "2025-04-29T16:01:53.000",
    "date_modified": "2025-04-29T16:01:56.000",
    "request_status": "Pending",
    "responsible_agency": "Department of Sanitation",
    "final_address": "4827 Schindler Dr",
    "address_councildis": "E",
    "status": "Assigned to Contractor",
    "contractor": "Waste Pro",
    "rowid": "1188037",
    "final_x": "3714368.13445",
    "final_y": "557057.43945",
    "longitude": "-89.96332160103171",
    "latitude": "30.024675017190695",
    "geocoded_column": {
      "latitude": "30.024675017190695",
      "longitude": "-89.96332160103171"
    }
  },
  {
    "service_request": "2025-1188036",
    "request_type": "Trash/Recycling",
    "request_reason": "Replace Trash Cart",
    "date_created": "2025-04-29T16:01:24.000",
    "date_modified": "2025-04-29T16:01:26.000",
    "request_status": "Pending",
    "responsible_agency": "Department of Sanitation",
    "final_address": "254 Hillary St",
    "address_councildis": "A",
    "status": "Assigned to Contractor",
    "contractor": "IV Waste",
    "rowid": "1188036",
    "final_x": "3661053.46624",
    "final_y": "524756.941436",
    "longitude": "-90.13285719965295",
    "latitude": "29.93750439724881",
    "geocoded_column": {
      "latitude": "29.93750439724881",
      "longitude": "-90.13285719965295"
    }
  },
  {
    "service_request": "2025-1188035",
    "request_type": "Healthy Homes",
    "request_reason": "Healthy Homes",
    "date_created": "2025-04-29T16:00:24.000",
    "date_modified": "2025-04-29T16:00:27.000",
    "request_status": "Pending",
    "responsible_agency": "Department of Code Enforcement",
    "final_address": "6812 Lake Kenilworth Dr Apt N208",
    "address_councildis": "E",
    "status": "Pending",
    "rowid": "1188035",
    "final_x": "3699565.54973",
    "final_y": "557820.411739",
    "longitude": "-90.01006712094622",
    "latitude": "30.027251234972393",
    "geocoded_column": {
      "latitude": "30.027251234972393",
      "longitude": "-90.01006712094622"
    }
  },
  {
    "service_request": "2025-1188034",
    "request_type": "Trash/Recycling",
    "request_reason": "Request a Large Item Pick Up",
    "date_created": "2025-04-29T16:00:06.000",
    "date_modified": "2025-04-29T16:00:09.000",
    "request_status": "Pending",
    "responsible_agency": "Department of Sanitation",
    "final_address": "3722 Red Cypress Dr",
    "address_councildis": "C",
    "status": "Assigned to Contractor",
    "contractor": "Richards Disposal",
    "rowid": "1188034",
    "final_x": "3703129.14327",
    "final_y": "512292.060657",
    "longitude": "-90.00048001634853",
    "latitude": "29.901951098785116",
    "geocoded_column": {
      "latitude": "29.901951098785116",
      "longitude": "-90.00048001634853"
    }
  },
  {
    "service_request": "2025-1188033",
    "request_type": "Mosquito, Termite & Rodent Control",
    "request_reason": "Rodent Complaint (Mice)",
    "date_created": "2025-04-29T16:00:00.000",
    "date_modified": "2025-04-29T16:00:03.000",
    "request_status": "Pending",
    "responsible_agency": "Mosquito, Termite & Rodent Control Board",
    "final_address": "5705 Dauphine St",
    "address_councildis": "E",
    "status": "Pending",
    "rowid": "1188033",
    "final_x": "3698148.22679",
    "final_y": "532554.383172",
    "longitude": "-90.01546395744315",
    "latitude": "29.957823890343892",
    "geocoded_column": {
      "latitude": "29.957823890343892",
      "longitude": "-90.01546395744315"
    }
  },
  {
    "service_request": "2025-1188032",
    "request_type": "Trash/Recycling",
    "request_reason": "Request a Large Item Pick Up",
    "date_created": "2025-04-29T15:59:41.000",
    "date_modified": "2025-04-29T15:59:54.000",
    "request_status": "Pending",
    "responsible_agency": "Department of Sanitation",
    "final_address": "254 Hillary St",
    "address_councildis": "A",
    "status": "Assigned to Contractor",
    "contractor": "IV Waste",
    "rowid": "1188032",
    "final_x": "3661053.46624",
    "final_y": "524756.941436",
    "longitude": "-90.13285719965295",
    "latitude": "29.93750439724881",
    "geocoded_column": {
      "latitude": "29.93750439724881",
      "longitude": "-90.13285719965295"
    }
  },
  {
    "service_request": "2025-1188031",
    "request_type": "Mosquito, Termite & Rodent Control",
    "request_reason": "Non-Rodent Complaint (Possums & Snakes)",
    "date_created": "2025-04-29T15:58:10.000",
    "date_modified": "2025-04-29T15:58:12.000",
    "request_status": "Pending",
    "responsible_agency": "Mosquito, Termite & Rodent Control Board",
    "final_address": "5705 Dauphine St",
    "address_councildis": "E",
    "status": "Pending",
    "rowid": "1188031",
    "final_x": "3698148.22679",
    "final_y": "532554.383172",
    "longitude": "-90.01546395744315",
    "latitude": "29.957823890343892",
    "geocoded_column": {
      "latitude": "29.957823890343892",
      "longitude": "-90.01546395744315"
    }
  },
  {
    "service_request": "2025-1188030",
    "request_type": "Trash/Recycling",
    "request_reason": "Illegal Dumping",
    "date_created": "2025-04-29T15:57:56.000",
    "date_modified": "2025-04-29T15:57:58.000",
    "request_status": "Pending",
    "responsible_agency": "Department of Sanitation",
    "final_address": "PALMETTO ST & HAMILTON ST & PALMETTO ST OVERPASS",
    "address_councildis": "A",
    "status": "Pending",
    "rowid": "1188030",
    "final_x": "3665595.7",
    "final_y": "537602.88",
    "longitude": "-90.11808686757254",
    "latitude": "29.972694908310856",
    "geocoded_column": {
      "latitude": "29.972694908310856",
      "longitude": "-90.11808686757254"
    }
  },
  {
    "service_request": "2025-1188029",
    "request_type": "Property Maintenance",
    "request_reason": "Property Maintenance",
    "date_created": "2025-04-29T15:55:22.000",
    "date_modified": "2025-04-29T15:55:24.000",
    "request_status": "Pending",
    "responsible_agency": "Department of Code Enforcement",
    "final_address": "3706 Mistletoe St",
    "address_councildis": "A",
    "status": "Pending",
    "rowid": "1188029",
    "final_x": "3665137.27834",
    "final_y": "537622.420936",
    "longitude": "-90.11953399992956",
    "latitude": "29.97276199997677",
    "geocoded_column": {
      "latitude": "29.97276199997677",
      "longitude": "-90.11953399992956"
    }
  },
  {
    "service_request": "2025-1188028",
    "request_type": "Trash/Recycling",
    "request_reason": "Repair Recycling Cart",
    "date_created": "2025-04-29T15:55:06.000",
    "date_modified": "2025-04-29T15:55:08.000",
    "request_status": "Pending",
    "responsible_agency": "Department of Sanitation",
    "final_address": "6255 Carlson Dr",
    "address_councildis": "D",
    "status": "Pending",
    "rowid": "1188028",
    "final_x": "3679678.34082",
    "final_y": "556490.816602",
    "longitude": "-90.07295515859614",
    "latitude": "30.024211837912297",
    "geocoded_column": {
      "latitude": "30.024211837912297",
      "longitude": "-90.07295515859614"
    }
  },
  {
    "service_request": "2025-1188027",
    "request_type": "Trash/Recycling",
    "request_reason": "Repair Trash Cart",
    "date_created": "2025-04-29T15:53:23.000",
    "date_modified": "2025-04-29T15:53:26.000",
    "request_status": "Pending",
    "responsible_agency": "Department of Sanitation",
    "final_address": "2307 Martin Luther King, Jr. Blvd",
    "address_councildis": "B",
    "status": "Assigned to Contractor",
    "contractor": "IV Waste",
    "rowid": "1188027",
    "final_x": "3676896.03816",
    "final_y": "527081.024382",
    "longitude": "-90.08276096393948",
    "latitude": "29.943428962229543",
    "geocoded_column": {
      "latitude": "29.943428962229543",
      "longitude": "-90.08276096393948"
    }
  },
  {
    "service_request": "2025-1188026",
    "request_type": "Roads and Streets",
    "request_reason": "Sidewalk Damaged or Missing",
    "date_created": "2025-04-29T15:45:44.000",
    "date_modified": "2025-04-29T15:45:46.000",
    "request_status": "Pending",
    "responsible_agency": "Department of Public Works",
    "final_address": "3614 Martin Luther King, Jr. Blvd",
    "address_councildis": "B",
    "status": "Pending",
    "rowid": "1188026",
    "final_x": "3673125.75758",
    "final_y": "529258.309569",
    "longitude": "-90.09459041860052",
    "latitude": "29.94952838807819",
    "geocoded_column": {
      "latitude": "29.94952838807819",
      "longitude": "-90.09459041860052"
    }
  },
  {
    "service_request": "2025-1188025",
    "request_type": "Abandoned Vehicles",
    "request_reason": "Abandoned/Junk Vehicles",
    "date_created": "2025-04-29T15:44:43.000",
    "date_modified": "2025-04-29T15:44:44.000",
    "request_status": "Pending",
    "responsible_agency": "Department of Public Works",
    "final_address": "624 Franklin Ave",
    "address_councildis": "C",
    "status": "Pending",
    "rowid": "1188025",
    "final_x": "3686680.10422",
    "final_y": "534858.925382",
    "longitude": "-90.05159551988054",
    "latitude": "29.964518278202746",
    "geocoded_column": {
      "latitude": "29.964518278202746",
      "longitude": "-90.05159551988054"
    }
  },
  {
    "service_request": "2025-1188024",
    "request_type": "Trash/Recycling",
    "request_reason": "Repair Trash Cart",
    "date_created": "2025-04-29T15:44:39.000",
    "date_modified": "2025-04-29T15:44:41.000",
    "request_status": "Pending",
    "responsible_agency": "Department of Sanitation",
    "final_address": "3614 Martin Luther King, Jr. Blvd",
    "address_councildis": "B",
    "status": "Assigned to Contractor",
    "contractor": "IV Waste",
    "rowid": "1188024",
    "final_x": "3673125.75758",
    "final_y": "529258.309569",
    "longitude": "-90.09459041860052",
    "latitude": "29.94952838807819",
    "geocoded_column": {
      "latitude": "29.94952838807819",
      "longitude": "-90.09459041860052"
    }
  },
  {
    "service_request": "2025-1188023",
    "request_type": "Healthy Homes",
    "request_reason": "Healthy Homes",
    "date_created": "2025-04-29T15:43:16.000",
    "date_modified": "2025-04-29T15:43:21.000",
    "request_status": "Pending",
    "responsible_agency": "Department of Code Enforcement",
    "final_address": "939 Tricou St",
    "address_councildis": "E",
    "status": "Pending",
    "rowid": "1188023",
    "final_x": "3699980.91165",
    "final_y": "532574.158532",
    "longitude": "-90.0096761795655",
    "latitude": "29.957820180158002",
    "geocoded_column": {
      "latitude": "29.957820180158002",
      "longitude": "-90.0096761795655"
    }
  },
  {
    "service_request": "2025-1188022",
    "request_type": "Trash/Recycling",
    "request_reason": "Order Trash Cart",
    "date_created": "2025-04-29T15:42:51.000",
    "date_modified": "2025-04-29T15:42:54.000",
    "request_status": "Pending",
    "responsible_agency": "Department of Sanitation",
    "final_address": "438 Elmira Ave",
    "address_councildis": "C",
    "status": "Assigned to Contractor",
    "contractor": "Richards Disposal",
    "rowid": "1188022",
    "final_x": "3688269.72783",
    "final_y": "529996.576193",
    "longitude": "-90.04674803076581",
    "latitude": "29.951099509870524",
    "geocoded_column": {
      "latitude": "29.951099509870524",
      "longitude": "-90.04674803076581"
    }
  },
  {
    "service_request": "2025-1188021",
    "request_type": "Healthy Homes",
    "request_reason": "Healthy Homes",
    "date_created": "2025-04-29T15:36:37.000",
    "date_modified": "2025-04-29T15:36:39.000",
    "request_status": "Pending",
    "responsible_agency": "Department of Code Enforcement",
    "final_address": "939 Tricou St",
    "address_councildis": "E",
    "status": "Pending",
    "rowid": "1188021",
    "final_x": "3699980.91165",
    "final_y": "532574.158532",
    "longitude": "-90.0096761795655",
    "latitude": "29.957820180158002",
    "geocoded_column": {
      "latitude": "29.957820180158002",
      "longitude": "-90.0096761795655"
    }
  },
  {
    "service_request": "2025-1188020",
    "request_type": "Trash/Recycling",
    "request_reason": "Request a Large Item Pick Up",
    "date_created": "2025-04-29T15:35:29.000",
    "date_modified": "2025-04-29T15:35:31.000",
    "request_status": "Pending",
    "responsible_agency": "Department of Sanitation",
    "final_address": "6391 Eastover Dr",
    "address_councildis": "E",
    "status": "Assigned to Contractor",
    "contractor": "Waste Pro",
    "rowid": "1188020",
    "final_x": "3718334.99129",
    "final_y": "563527.49296",
    "longitude": "-89.95054044349781",
    "latitude": "30.042334042378123",
    "geocoded_column": {
      "latitude": "30.042334042378123",
      "longitude": "-89.95054044349781"
    }
  },
  {
    "service_request": "2025-1188019",
    "request_type": "Healthy Homes",
    "request_reason": "Healthy Homes",
    "date_created": "2025-04-29T15:28:28.000",
    "date_modified": "2025-04-29T15:28:30.000",
    "request_status": "Pending",
    "responsible_agency": "Department of Code Enforcement",
    "final_address": "939 Tricou St",
    "address_councildis": "E",
    "status": "Pending",
    "rowid": "1188019",
    "final_x": "3699980.91165",
    "final_y": "532574.158532",
    "longitude": "-90.0096761795655",
    "latitude": "29.957820180158002",
    "geocoded_column": {
      "latitude": "29.957820180158002",
      "longitude": "-90.0096761795655"
    }
  },
  {
    "service_request": "2025-1188018",
    "request_type": "Traffic Signals",
    "request_reason": "Traffic Signal Malfunctioning or Damaged",
    "date_created": "2025-04-29T15:23:52.000",
    "date_modified": "2025-04-29T15:23:54.000",
    "request_status": "Pending",
    "responsible_agency": "Department of Public Works",
    "final_address": "3700 Pine St",
    "address_councildis": "B",
    "status": "Pending",
    "rowid": "1188018",
    "final_x": "3668948.04526",
    "final_y": "534115.466437",
    "longitude": "-90.10761732792143",
    "latitude": "29.963007496792248",
    "geocoded_column": {
      "latitude": "29.963007496792248",
      "longitude": "-90.10761732792143"
    }
  },
  {
    "service_request": "2025-1188017",
    "request_type": "Trash/Recycling",
    "request_reason": "Request a Large Item Pick Up",
    "date_created": "2025-04-29T15:23:45.000",
    "date_modified": "2025-04-29T15:23:54.000",
    "request_status": "Pending",
    "responsible_agency": "Department of Sanitation",
    "final_address": "3809 Octavia St",
    "address_councildis": "A",
    "status": "Assigned to Contractor",
    "contractor": "IV Waste",
    "rowid": "1188017",
    "final_x": "3668835.06932",
    "final_y": "529432.573249",
    "longitude": "-90.10813221555938",
    "latitude": "29.95013440404665",
    "geocoded_column": {
      "latitude": "29.95013440404665",
      "longitude": "-90.10813221555938"
    }
  },
  {
    "service_request": "2025-1188016",
    "request_type": "Trash/Recycling",
    "request_reason": "Request a Large Item Pick Up",
    "date_created": "2025-04-29T15:20:17.000",
    "date_modified": "2025-04-29T15:20:20.000",
    "request_status": "Pending",
    "responsible_agency": "Department of Sanitation",
    "final_address": "13616 N Cavelier Dr",
    "address_councildis": "E",
    "status": "Assigned to Contractor",
    "contractor": "Waste Pro",
    "rowid": "1188016",
    "final_x": "3724101.32409",
    "final_y": "569699.523366",
    "longitude": "-89.93207830630612",
    "latitude": "30.059111952183287",
    "geocoded_column": {
      "latitude": "30.059111952183287",
      "longitude": "-89.93207830630612"
    }
  },
  {
    "service_request": "2025-1188015",
    "request_type": "Roads and Streets",
    "request_reason": "Pothole",
    "date_created": "2025-04-29T15:16:16.000",
    "date_modified": "2025-04-29T15:16:18.000",
    "request_status": "Pending",
    "responsible_agency": "Department of Public Works",
    "final_address": "200 BLK N Rocheblave St",
    "address_councildis": "B",
    "status": "Pending",
    "rowid": "1188015",
    "final_x": "3676502.82839",
    "final_y": "534986.261508",
    "longitude": "-90.08373023912021",
    "latitude": "29.965177514455338",
    "geocoded_column": {
      "latitude": "29.965177514455338",
      "longitude": "-90.08373023912021"
    }
  },
  {
    "service_request": "2025-1188014",
    "request_type": "Trash/Recycling",
    "request_reason": "Repair Trash Cart",
    "date_created": "2025-04-29T15:15:55.000",
    "date_modified": "2025-04-29T15:15:57.000",
    "request_status": "Pending",
    "responsible_agency": "Department of Sanitation",
    "final_address": "4820 Sherwood Dr",
    "address_councildis": "E",
    "status": "Assigned to Contractor",
    "contractor": "Waste Pro",
    "rowid": "1188014",
    "final_x": "3717890.56057",
    "final_y": "557344.090011",
    "longitude": "-89.95218055116217",
    "latitude": "30.025346919496194",
    "geocoded_column": {
      "latitude": "30.025346919496194",
      "longitude": "-89.95218055116217"
    }
  },
  {
    "service_request": "2025-1188013",
    "request_type": "Trash/Recycling",
    "request_reason": "Request a Large Item Pick Up",
    "date_created": "2025-04-29T15:13:06.000",
    "date_modified": "2025-04-29T15:13:07.000",
    "request_status": "Pending",
    "responsible_agency": "Department of Sanitation",
    "final_address": "5958 Vienna Ct",
    "address_councildis": "D",
    "status": "Assigned to Contractor",
    "contractor": "IV Waste",
    "rowid": "1188013",
    "final_x": "3688390.37475",
    "final_y": "555401.874393",
    "longitude": "-90.04546548790701",
    "latitude": "30.020951280676186",
    "geocoded_column": {
      "latitude": "30.020951280676186",
      "longitude": "-90.04546548790701"
    }
  },
  {
    "service_request": "2025-1188012",
    "request_type": "Parks & Parkways",
    "request_reason": "Request Tree Service (Right of Way/Public Property)",
    "date_created": "2025-04-29T15:11:00.000",
    "date_modified": "2025-04-29T15:17:23.000",
    "request_status": "Pending",
    "responsible_agency": "Department of Parks & Parkway",
    "final_address": "5601 Marcia Ave",
    "address_councildis": "A",
    "status": "Pending",
    "rowid": "1188012",
    "final_x": "3664952.07847",
    "final_y": "544946.531535",
    "longitude": "-90.11987393855563",
    "latitude": "29.992906233970068",
    "geocoded_column": {
      "latitude": "29.992906233970068",
      "longitude": "-90.11987393855563"
    }
  },
  {
    "service_request": "2025-1188011",
    "request_type": "Trash/Recycling",
    "request_reason": "Request a Large Item Pick Up",
    "date_created": "2025-04-29T15:10:39.000",
    "date_modified": "2025-04-29T19:43:25.000",
    "case_close_date": "2025-04-29T14:43:24.000",
    "request_status": "Closed",
    "responsible_agency": "Department of Sanitation",
    "final_address": "1206 Deslonde St",
    "address_councildis": "E",
    "status": "Invalid Request",
    "contractor": "Waste Pro",
    "contractor_action": "Invalid",
    "rowid": "1188011",
    "final_x": "3695457.84176",
    "final_y": "534865.067462",
    "longitude": "-90.02387599662386",
    "latitude": "29.964262264630865",
    "geocoded_column": {
      "latitude": "29.964262264630865",
      "longitude": "-90.02387599662386"
    }
  },
  {
    "service_request": "2025-1188010",
    "request_type": "Trash/Recycling",
    "request_reason": "Request a Large Item Pick Up",
    "date_created": "2025-04-29T15:10:03.000",
    "date_modified": "2025-04-29T15:10:05.000",
    "request_status": "Pending",
    "responsible_agency": "Department of Sanitation",
    "final_address": "8502 Chase St",
    "address_councildis": "E",
    "status": "Assigned to Contractor",
    "contractor": "Waste Pro",
    "rowid": "1188010",
    "final_x": "3703385.21668",
    "final_y": "563248.86352",
    "longitude": "-89.99779746942464",
    "latitude": "30.04205551309708",
    "geocoded_column": {
      "latitude": "30.04205551309708",
      "longitude": "-89.99779746942464"
    }
  },
  {
    "service_request": "2025-1188009",
    "request_type": "Property Maintenance",
    "request_reason": "Property Maintenance",
    "date_created": "2025-04-29T15:07:02.000",
    "date_modified": "2025-04-29T15:07:04.000",
    "request_status": "Pending",
    "responsible_agency": "Department of Code Enforcement",
    "final_address": "4834 Brittany Ct",
    "address_councildis": "E",
    "status": "Pending",
    "rowid": "1188009",
    "final_x": "3726822.65357",
    "final_y": "561569.660191",
    "longitude": "-89.9237926450722",
    "latitude": "30.036666442762993",
    "geocoded_column": {
      "latitude": "30.036666442762993",
      "longitude": "-89.9237926450722"
    }
  },
  {
    "service_request": "2025-1188008",
    "request_type": "Trash/Recycling",
    "request_reason": "Missed Trash Pick-Up",
    "date_created": "2025-04-29T15:06:15.000",
    "date_modified": "2025-04-29T16:13:32.000",
    "case_close_date": "2025-04-29T11:13:31.000",
    "request_status": "Closed",
    "responsible_agency": "Department of Sanitation",
    "final_address": "7421 Arbor Dr",
    "address_councildis": "E",
    "status": "Duplicate Request",
    "contractor": "Waste Pro",
    "contractor_action": "Duplicate",
    "rowid": "1188008",
    "final_x": "3701323.90282",
    "final_y": "558246.454108",
    "longitude": "-90.00449530566391",
    "latitude": "30.028366735266236",
    "geocoded_column": {
      "latitude": "30.028366735266236",
      "longitude": "-90.00449530566391"
    }
  },
  {
    "service_request": "2025-1188007",
    "request_type": "Trash/Recycling",
    "request_reason": "Order Trash Cart",
    "date_created": "2025-04-29T14:56:12.000",
    "date_modified": "2025-04-29T14:56:14.000",
    "request_status": "Pending",
    "responsible_agency": "Department of Sanitation",
    "final_address": "401 Polk St",
    "address_councildis": "A",
    "status": "Assigned to Contractor",
    "contractor": "IV Waste",
    "rowid": "1188007",
    "final_x": "3667477.65172",
    "final_y": "547407.594577",
    "longitude": "-90.11181319383861",
    "latitude": "29.999599526793396",
    "geocoded_column": {
      "latitude": "29.999599526793396",
      "longitude": "-90.11181319383861"
    }
  },
  {
    "service_request": "2025-1188006",
    "request_type": "Trash/Recycling",
    "request_reason": "Request a Large Item Pick Up",
    "date_created": "2025-04-29T14:55:14.000",
    "date_modified": "2025-04-29T14:55:16.000",
    "request_status": "Pending",
    "responsible_agency": "Department of Sanitation",
    "final_address": "12990 N Lake Carmel Dr",
    "address_councildis": "E",
    "status": "Assigned to Contractor",
    "contractor": "Waste Pro",
    "rowid": "1188006",
    "final_x": "3716566.7148",
    "final_y": "568639.318821",
    "longitude": "-89.9559346198289",
    "latitude": "30.056448027004883",
    "geocoded_column": {
      "latitude": "30.056448027004883",
      "longitude": "-89.9559346198289"
    }
  },
  {
    "service_request": "2025-1188005",
    "request_type": "Property Maintenance",
    "request_reason": "Property Maintenance",
    "date_created": "2025-04-29T14:54:40.000",
    "date_modified": "2025-04-29T14:54:43.000",
    "request_status": "Pending",
    "responsible_agency": "Department of Code Enforcement",
    "final_address": "2759 Mendez St",
    "address_councildis": "D",
    "status": "Pending",
    "rowid": "1188005",
    "final_x": "3687787.51964",
    "final_y": "553791.636631",
    "longitude": "-90.04742742982846",
    "latitude": "30.016542340301076",
    "geocoded_column": {
      "latitude": "30.016542340301076",
      "longitude": "-90.04742742982846"
    }
  },
  {
    "service_request": "2025-1188004",
    "request_type": "Trash/Recycling",
    "request_reason": "Request a Large Item Pick Up",
    "date_created": "2025-04-29T14:48:48.000",
    "date_modified": "2025-04-29T14:48:51.000",
    "request_status": "Pending",
    "responsible_agency": "Department of Sanitation",
    "final_address": "1430 Strand Ct",
    "address_councildis": "E",
    "status": "Assigned to Contractor",
    "contractor": "Waste Pro",
    "rowid": "1188004",
    "final_x": "3699820.10135",
    "final_y": "534676.384326",
    "longitude": "-90.0101073105344",
    "latitude": "29.963605658001395",
    "geocoded_column": {
      "latitude": "29.963605658001395",
      "longitude": "-90.0101073105344"
    }
  },
  {
    "service_request": "2025-1188003",
    "request_type": "Drainage",
    "request_reason": "Street Flooding",
    "date_created": "2025-04-29T14:48:27.000",
    "date_modified": "2025-04-29T14:48:29.000",
    "request_status": "Pending",
    "responsible_agency": "Sewerage & Water Board",
    "final_address": "2915 Chippewa St",
    "address_councildis": "B",
    "status": "Pending",
    "rowid": "1188003",
    "final_x": "3677322.77838",
    "final_y": "519234.245367",
    "longitude": "-90.0816842541874",
    "latitude": "29.921840073108086",
    "geocoded_column": {
      "latitude": "29.921840073108086",
      "longitude": "-90.0816842541874"
    }
  },
  {
    "service_request": "2025-1188002",
    "request_type": "Trash/Recycling",
    "request_reason": "Order Recycling Cart",
    "date_created": "2025-04-29T14:44:13.000",
    "date_modified": "2025-04-29T14:44:15.000",
    "request_status": "Pending",
    "responsible_agency": "Department of Sanitation",
    "final_address": "313 Olivier St",
    "address_councildis": "C",
    "status": "Pending",
    "rowid": "1188002",
    "final_x": "3687194.73161",
    "final_y": "530637.595266",
    "longitude": "-90.05011965717351",
    "latitude": "29.95289523845783",
    "geocoded_column": {
      "latitude": "29.95289523845783",
      "longitude": "-90.05011965717351"
    }
  },
  {
    "service_request": "2025-1188001",
    "request_type": "Trash/Recycling",
    "request_reason": "Missed Trash Pick-Up",
    "date_created": "2025-04-29T14:43:39.000",
    "date_modified": "2025-04-29T14:43:40.000",
    "request_status": "Pending",
    "responsible_agency": "Department of Sanitation",
    "final_address": "13066 Deauville Ct",
    "address_councildis": "E",
    "status": "Assigned to Contractor",
    "contractor": "Waste Pro",
    "rowid": "1188001",
    "final_x": "3724325.71545",
    "final_y": "560718.092446",
    "longitude": "-89.93171629912717",
    "latitude": "30.034409200975123",
    "geocoded_column": {
      "latitude": "30.034409200975123",
      "longitude": "-89.93171629912717"
    }
  },
  {
    "service_request": "2025-1188000",
    "request_type": "Roads and Streets",
    "request_reason": "Push-up/Pavement Expansion",
    "date_created": "2025-04-29T14:42:24.000",
    "date_modified": "2025-04-29T14:42:26.000",
    "request_status": "Pending",
    "responsible_agency": "Department of Public Works",
    "final_address": "2261 Beck St",
    "address_councildis": "C",
    "status": "Pending",
    "rowid": "1188000",
    "final_x": "3700400.53623",
    "final_y": "522398.76249",
    "longitude": "-90.00872257281247",
    "latitude": "29.929828075880238",
    "geocoded_column": {
      "latitude": "29.929828075880238",
      "longitude": "-90.00872257281247"
    }
  },
  {
    "service_request": "2025-1187999",
    "request_type": "Parks & Parkways",
    "request_reason": "Request Tree Service (Right of Way/Public Property)",
    "date_created": "2025-04-29T14:40:06.000",
    "date_modified": "2025-04-29T14:40:08.000",
    "request_status": "Pending",
    "responsible_agency": "Department of Parks & Parkway",
    "final_address": "204 Rhodes Ave",
    "address_councildis": "C",
    "status": "Pending",
    "rowid": "1187999",
    "final_x": "3706272.37227",
    "final_y": "519475.386167",
    "longitude": "-89.99029452122822",
    "latitude": "29.92160186072703",
    "geocoded_column": {
      "latitude": "29.92160186072703",
      "longitude": "-89.99029452122822"
    }
  },
  {
    "service_request": "2025-1187998",
    "request_type": "Trash/Recycling",
    "request_reason": "Request a Large Item Pick Up",
    "date_created": "2025-04-29T14:38:15.000",
    "date_modified": "2025-04-29T14:38:18.000",
    "request_status": "Pending",
    "responsible_agency": "Department of Sanitation",
    "final_address": "6200 Eastover Dr",
    "address_councildis": "E",
    "status": "Assigned to Contractor",
    "contractor": "Waste Pro",
    "rowid": "1187998",
    "final_x": "3717498.93983",
    "final_y": "564868.848546",
    "longitude": "-89.95313159758682",
    "latitude": "30.046049938574868",
    "geocoded_column": {
      "latitude": "30.046049938574868",
      "longitude": "-89.95313159758682"
    }
  },
  {
    "service_request": "2025-1187997",
    "request_type": "Trash/Recycling",
    "request_reason": "Repair Trash Cart",
    "date_created": "2025-04-29T14:35:27.000",
    "date_modified": "2025-04-29T14:35:28.000",
    "request_status": "Pending",
    "responsible_agency": "Department of Sanitation",
    "final_address": "9030 Forshey St",
    "address_councildis": "A",
    "status": "Assigned to Contractor",
    "contractor": "IV Waste",
    "rowid": "1187997",
    "final_x": "3664446.2096",
    "final_y": "536201.951303",
    "longitude": "-90.12176396786636",
    "latitude": "29.96887628972389",
    "geocoded_column": {
      "latitude": "29.96887628972389",
      "longitude": "-90.12176396786636"
    }
  },
  {
    "service_request": "2025-1187996",
    "request_type": "Streetlights",
    "request_reason": "Streetlight Outage/Malfunction",
    "date_created": "2025-04-29T14:33:50.000",
    "date_modified": "2025-04-29T14:33:52.000",
    "request_status": "Pending",
    "responsible_agency": "Department of Public Works",
    "final_address": "6123 Canal Blvd",
    "address_councildis": "A",
    "status": "Pending",
    "contractor": "Legacy Professional Services",
    "rowid": "1187996",
    "final_x": "3668698.27342",
    "final_y": "548117.828882",
    "longitude": "-90.1079331993933",
    "latitude": "30.001516588922147",
    "geocoded_column": {
      "latitude": "30.001516588922147",
      "longitude": "-90.1079331993933"
    }
  },
  {
    "service_request": "2025-1187995",
    "request_type": "Trash/Recycling",
    "request_reason": "Replace Trash Cart",
    "date_created": "2025-04-29T14:33:20.000",
    "date_modified": "2025-04-29T14:33:22.000",
    "request_status": "Pending",
    "responsible_agency": "Department of Sanitation",
    "final_address": "2261 Beck St",
    "address_councildis": "C",
    "status": "Assigned to Contractor",
    "contractor": "Richards Disposal",
    "rowid": "1187995",
    "final_x": "3700400.53623",
    "final_y": "522398.76249",
    "longitude": "-90.00872257281247",
    "latitude": "29.929828075880238",
    "geocoded_column": {
      "latitude": "29.929828075880238",
      "longitude": "-90.00872257281247"
    }
  },
  {
    "service_request": "2025-1187994",
    "request_type": "Streetlights",
    "request_reason": "Streetlight Outage/Malfunction",
    "date_created": "2025-04-29T14:32:58.000",
    "date_modified": "2025-04-29T14:33:00.000",
    "request_status": "Pending",
    "responsible_agency": "Department of Public Works",
    "final_address": "1404 Strand Ct",
    "address_councildis": "E",
    "status": "Pending",
    "contractor": "Legacy Professional Services",
    "rowid": "1187994",
    "final_x": "3699753.10589",
    "final_y": "534500.147781",
    "longitude": "-90.0103252997759",
    "latitude": "29.963123197703002",
    "geocoded_column": {
      "latitude": "29.963123197703002",
      "longitude": "-90.0103252997759"
    }
  },
  {
    "service_request": "2025-1187993",
    "request_type": "Trash/Recycling",
    "request_reason": "Request a Large Item Pick Up",
    "date_created": "2025-04-29T14:31:23.000",
    "date_modified": "2025-04-29T14:31:25.000",
    "request_status": "Pending",
    "responsible_agency": "Department of Sanitation",
    "final_address": "3025 Danneel St",
    "address_councildis": "B",
    "status": "Assigned to Contractor",
    "contractor": "IV Waste",
    "rowid": "1187993",
    "final_x": "3674276.09441",
    "final_y": "523209.577403",
    "longitude": "-90.09116532234673",
    "latitude": "29.932862111709746",
    "geocoded_column": {
      "latitude": "29.932862111709746",
      "longitude": "-90.09116532234673"
    }
  },
  {
    "service_request": "2025-1187992",
    "request_type": "Trash/Recycling",
    "request_reason": "Request a Large Item Pick Up",
    "date_created": "2025-04-29T14:28:23.000",
    "date_modified": "2025-04-29T14:28:25.000",
    "request_status": "Pending",
    "responsible_agency": "Department of Sanitation",
    "final_address": "1302 Cambronne St",
    "address_councildis": "A",
    "status": "Assigned to Contractor",
    "contractor": "IV Waste",
    "rowid": "1187992",
    "final_x": "3661403.99379",
    "final_y": "529416.877121",
    "longitude": "-90.13159625912603",
    "latitude": "29.950307634484908",
    "geocoded_column": {
      "latitude": "29.950307634484908",
      "longitude": "-90.13159625912603"
    }
  },
  {
    "service_request": "2025-1187991",
    "request_type": "Property Maintenance",
    "request_reason": "Property Maintenance",
    "date_created": "2025-04-29T14:25:23.000",
    "date_modified": "2025-04-29T14:25:25.000",
    "request_status": "Pending",
    "responsible_agency": "Department of Code Enforcement",
    "final_address": "641 Gordon St",
    "address_councildis": "E",
    "status": "Pending",
    "rowid": "1187991",
    "final_x": "3698610.748",
    "final_y": "531958.523139",
    "longitude": "-90.01402512070268",
    "latitude": "29.956170851146332",
    "geocoded_column": {
      "latitude": "29.956170851146332",
      "longitude": "-90.01402512070268"
    }
  },
  {
    "service_request": "2025-1187990",
    "request_type": "Trash/Recycling",
    "request_reason": "Request a Large Item Pick Up",
    "date_created": "2025-04-29T14:23:43.000",
    "date_modified": "2025-04-29T14:23:46.000",
    "request_status": "Pending",
    "responsible_agency": "Department of Sanitation",
    "final_address": "431 Bouny St",
    "address_councildis": "C",
    "status": "Assigned to Contractor",
    "contractor": "Richards Disposal",
    "rowid": "1187990",
    "final_x": "3686025.19234",
    "final_y": "529807.322433",
    "longitude": "-90.05384181133803",
    "latitude": "29.95064823365945",
    "geocoded_column": {
      "latitude": "29.95064823365945",
      "longitude": "-90.05384181133803"
    }
  },
  {
    "service_request": "2025-1187989",
    "request_type": "Property Maintenance",
    "request_reason": "Property Maintenance",
    "date_created": "2025-04-29T14:17:54.000",
    "date_modified": "2025-04-29T14:17:56.000",
    "request_status": "Pending",
    "responsible_agency": "Department of Code Enforcement",
    "final_address": "641 Gordon St",
    "address_councildis": "E",
    "status": "Pending",
    "rowid": "1187989",
    "final_x": "3698610.748",
    "final_y": "531958.523139",
    "longitude": "-90.01402512070268",
    "latitude": "29.956170851146332",
    "geocoded_column": {
      "latitude": "29.956170851146332",
      "longitude": "-90.01402512070268"
    }
  },
  {
    "service_request": "2025-1187988",
    "request_type": "Trash/Recycling",
    "request_reason": "Request a Large Item Pick Up",
    "date_created": "2025-04-29T14:16:13.000",
    "date_modified": "2025-04-29T14:16:15.000",
    "request_status": "Pending",
    "responsible_agency": "Department of Sanitation",
    "final_address": "4925 Donna Dr",
    "address_councildis": "E",
    "status": "Assigned to Contractor",
    "contractor": "Waste Pro",
    "rowid": "1187988",
    "final_x": "3710937.11608",
    "final_y": "556992.613466",
    "longitude": "-89.97416535835335",
    "latitude": "30.024609121679976",
    "geocoded_column": {
      "latitude": "30.024609121679976",
      "longitude": "-89.97416535835335"
    }
  },
  {
    "service_request": "2025-1187987",
    "request_type": "Property Maintenance",
    "request_reason": "Property Maintenance",
    "date_created": "2025-04-29T14:13:04.000",
    "date_modified": "2025-04-29T14:13:06.000",
    "request_status": "Pending",
    "responsible_agency": "Department of Code Enforcement",
    "final_address": "641 Gordon St",
    "address_councildis": "E",
    "status": "Pending",
    "rowid": "1187987",
    "final_x": "3698610.748",
    "final_y": "531958.523139",
    "longitude": "-90.01402512070268",
    "latitude": "29.956170851146332",
    "geocoded_column": {
      "latitude": "29.956170851146332",
      "longitude": "-90.01402512070268"
    }
  },
  {
    "service_request": "2025-1187986",
    "request_type": "Roads and Streets",
    "request_reason": "ADA Ramps Damaged or Missing",
    "date_created": "2025-04-29T14:12:42.000",
    "date_modified": "2025-04-29T14:12:45.000",
    "request_status": "Pending",
    "responsible_agency": "Department of Public Works",
    "final_address": "2801 N Rampart St",
    "address_councildis": "C",
    "status": "Pending",
    "rowid": "1187986",
    "final_x": "3687649.23913",
    "final_y": "535905.843783",
    "longitude": "-90.04849800074929",
    "latitude": "29.96736709522254",
    "geocoded_column": {
      "latitude": "29.96736709522254",
      "longitude": "-90.04849800074929"
    }
  },
  {
    "service_request": "2025-1187985",
    "request_type": "Property Maintenance",
    "request_reason": "Property Maintenance",
    "date_created": "2025-04-29T14:10:00.000",
    "date_modified": "2025-04-29T14:10:03.000",
    "request_status": "Pending",
    "responsible_agency": "Department of Code Enforcement",
    "final_address": "1300 S Telemachus St",
    "address_councildis": "B",
    "status": "Pending",
    "rowid": "1187985",
    "final_x": "3669141.90222",
    "final_y": "532523.988996",
    "longitude": "-90.10705893434609",
    "latitude": "29.958625757113207",
    "geocoded_column": {
      "latitude": "29.958625757113207",
      "longitude": "-90.10705893434609"
    }
  },
  {
    "service_request": "2025-1187984",
    "request_type": "Trash/Recycling",
    "request_reason": "Request a Large Item Pick Up",
    "date_created": "2025-04-29T14:05:41.000",
    "date_modified": "2025-04-29T14:05:43.000",
    "request_status": "Pending",
    "responsible_agency": "Department of Sanitation",
    "final_address": "2425 N Johnson St",
    "address_councildis": "D",
    "status": "Assigned to Contractor",
    "contractor": "IV Waste",
    "rowid": "1187984",
    "final_x": "3686477.86543",
    "final_y": "539799.525834",
    "longitude": "-90.05205971220393",
    "latitude": "29.978109421804433",
    "geocoded_column": {
      "latitude": "29.978109421804433",
      "longitude": "-90.05205971220393"
    }
  },
  {
    "service_request": "2025-1187983",
    "request_type": "Trash/Recycling",
    "request_reason": "Order Trash Cart",
    "date_created": "2025-04-29T13:59:35.000",
    "date_modified": "2025-04-29T13:59:37.000",
    "request_status": "Pending",
    "responsible_agency": "Department of Sanitation",
    "final_address": "4806 Prytania St",
    "address_councildis": "B",
    "status": "Assigned to Contractor",
    "contractor": "IV Waste",
    "rowid": "1187983",
    "final_x": "3669368.9026",
    "final_y": "520125.210104",
    "longitude": "-90.10676123086691",
    "latitude": "29.92452644894334",
    "geocoded_column": {
      "latitude": "29.92452644894334",
      "longitude": "-90.10676123086691"
    }
  },
  {
    "service_request": "2025-1187982",
    "request_type": "Trash/Recycling",
    "request_reason": "Request a Large Item Pick Up",
    "date_created": "2025-04-29T13:56:50.000",
    "date_modified": "2025-04-29T13:56:52.000",
    "request_status": "Pending",
    "responsible_agency": "Department of Sanitation",
    "final_address": "5433 Grand Bayou Dr",
    "address_councildis": "E",
    "status": "Assigned to Contractor",
    "contractor": "Waste Pro",
    "rowid": "1187982",
    "final_x": "3725803.04192",
    "final_y": "564068.538913",
    "longitude": "-89.92691785631725",
    "latitude": "30.043571773363663",
    "geocoded_column": {
      "latitude": "30.043571773363663",
      "longitude": "-89.92691785631725"
    }
  },
  {
    "service_request": "2025-1187981",
    "request_type": "Trash/Recycling",
    "request_reason": "Replace Trash Cart",
    "date_created": "2025-04-29T13:55:47.000",
    "date_modified": "2025-04-29T13:55:49.000",
    "request_status": "Pending",
    "responsible_agency": "Department of Sanitation",
    "final_address": "1331 Feliciana St",
    "address_councildis": "C",
    "status": "Assigned to Contractor",
    "contractor": "IV Waste",
    "rowid": "1187981",
    "final_x": "3689007.01475",
    "final_y": "537050.500744",
    "longitude": "-90.04416946718685",
    "latitude": "29.970472567721405",
    "geocoded_column": {
      "latitude": "29.970472567721405",
      "longitude": "-90.04416946718685"
    }
  },
  {
    "service_request": "2025-1187980",
    "request_type": "Trash/Recycling",
    "request_reason": "Missed Trash Pick-Up",
    "date_created": "2025-04-29T13:53:24.000",
    "date_modified": "2025-04-29T13:53:27.000",
    "request_status": "Pending",
    "responsible_agency": "Department of Sanitation",
    "final_address": "2038 Egania St",
    "address_councildis": "E",
    "status": "Assigned to Contractor",
    "contractor": "Waste Pro",
    "rowid": "1187980",
    "final_x": "3697780.89738",
    "final_y": "537741.449992",
    "longitude": "-90.01643562760299",
    "latitude": "29.972098085662765",
    "geocoded_column": {
      "latitude": "29.972098085662765",
      "longitude": "-90.01643562760299"
    }
  },
  {
    "service_request": "2025-1187979",
    "request_type": "Parks & Parkways",
    "request_reason": "Request Tree Service (Right of Way/Public Property)",
    "date_created": "2025-04-29T13:49:56.000",
    "date_modified": "2025-04-29T13:49:58.000",
    "request_status": "Pending",
    "responsible_agency": "Department of Parks & Parkway",
    "final_address": "10110 Flossmoor Dr",
    "address_councildis": "E",
    "status": "Pending",
    "rowid": "1187979",
    "final_x": "3709557.01797",
    "final_y": "563446.624928",
    "longitude": "-89.97828502006499",
    "latitude": "30.042400038298496",
    "geocoded_column": {
      "latitude": "30.042400038298496",
      "longitude": "-89.97828502006499"
    }
  },
  {
    "service_request": "2025-1187978",
    "request_type": "Trash/Recycling",
    "request_reason": "Repair Trash Cart",
    "date_created": "2025-04-29T13:49:07.000",
    "date_modified": "2025-04-29T13:49:08.000",
    "request_status": "Pending",
    "responsible_agency": "Department of Sanitation",
    "final_address": "7601 Trapier Ave",
    "address_councildis": "E",
    "status": "Assigned to Contractor",
    "contractor": "Waste Pro",
    "rowid": "1187978",
    "final_x": "3706709.33419",
    "final_y": "563482.524256",
    "longitude": "-89.98728340688494",
    "latitude": "30.042591036231535",
    "geocoded_column": {
      "latitude": "30.042591036231535",
      "longitude": "-89.98728340688494"
    }
  },
  {
    "service_request": "2025-1187977",
    "request_type": "Trash/Recycling",
    "request_reason": "Illegal Dumping",
    "date_created": "2025-04-29T13:48:39.000",
    "date_modified": "2025-04-29T13:50:34.000",
    "request_status": "Pending",
    "responsible_agency": "Department of Sanitation",
    "final_address": "8701 Airline Hwy",
    "address_councildis": "A",
    "status": "Pending",
    "rowid": "1187977",
    "final_x": "3666945.24378",
    "final_y": "537182.141704",
    "longitude": "-90.11383888598499",
    "latitude": "29.97149859377334",
    "geocoded_column": {
      "latitude": "29.97149859377334",
      "longitude": "-90.11383888598499"
    }
  },
  {
    "service_request": "2025-1187976",
    "request_type": "Trash/Recycling",
    "request_reason": "Request a Large Item Pick Up",
    "date_created": "2025-04-29T13:48:37.000",
    "date_modified": "2025-04-29T13:48:38.000",
    "request_status": "Pending",
    "responsible_agency": "Department of Sanitation",
    "final_address": "10942 N Hardy St",
    "address_councildis": "E",
    "status": "Assigned to Contractor",
    "contractor": "Waste Pro",
    "rowid": "1187976",
    "final_x": "3712785.50149",
    "final_y": "562108.938143",
    "longitude": "-89.96813222387688",
    "latitude": "30.038616563297136",
    "geocoded_column": {
      "latitude": "30.038616563297136",
      "longitude": "-89.96813222387688"
    }
  },
  {
    "service_request": "2025-1187975",
    "request_type": "Abandoned Vehicles",
    "request_reason": "Abandoned/Junk Vehicles",
    "date_created": "2025-04-29T13:47:23.000",
    "date_modified": "2025-04-29T13:47:24.000",
    "request_status": "Pending",
    "responsible_agency": "Department of Public Works",
    "final_address": "2133 General Pershing St",
    "address_councildis": "B",
    "status": "Pending",
    "rowid": "1187975",
    "final_x": "3671087.22708",
    "final_y": "522967.107195",
    "longitude": "-90.10124058916222",
    "latitude": "29.932290066237513",
    "geocoded_column": {
      "latitude": "29.932290066237513",
      "longitude": "-90.10124058916222"
    }
  },