[
  {
    "service_request": "2022-906842",
    "request_type": "Trash/Recycling",
    "request_reason": "Request a Large Item Pick Up",
    "date_created": "2022-08-05T00:23:53.000",
    "date_modified": "2022-08-05T00:23:53.000",
    "request_status": "Pending",
    "responsible_agency": "Department of Sanitation",
    "final_address": "2832 Conti St",
    "address_councildis": "B",
    "status": "Assigned to Contractor",
    "contractor": "Richards Disposal",
    "rowid": "906842",
    "final_x": "3675354.41992",
    "final_y": "536523.729095",
    "longitude": "-90.08730405786339",
    "latitude": "29.969439416649116",
    "geocoded_column": {
      "latitude": "29.969439416649116",
      "longitude": "-90.08730405786339"
    }
  },
  {
    "service_request": "2022-906841",
    "request_type": "Trash/Recycling",
    "request_reason": "Request a Large Item Pick Up",
    "date_created": "2022-08-04T23:42:10.000",
    "date_modified": "2022-08-04T23:42:10.000",
    "request_status": "Pending",
    "responsible_agency": "Department of Sanitation",
    "final_address": "319 Germain St",
    "address_councildis": "A",
    "status": "Assigned to Contractor",
    "contractor": "Metro Disposal",
    "rowid": "906841",
    "final_x": "3667265.71681",
    "final_y": "548087.390546",
    "longitude": "-90.11245982496156",
    "latitude": "30.001474941497293",
    "geocoded_column": {
      "latitude": "30.001474941497293",
      "longitude": "-90.11245982496156"
    }
  },
  {
    "service_request": "2022-906840",
    "request_type": "Health Related Questions",
    "request_reason": "Noise Ordinance Complaint",
    "date_created": "2022-08-04T22:41:51.000",
    "date_modified": "2022-08-04T22:41:51.000",
    "request_status": "Pending",
    "responsible_agency": "Health Department",
    "final_address": "718 Bourbon St, New Orleans, Louisiana, 70116",
    "address_councildis": "C",
    "status": "Pending",
    "rowid": "906840",
    "final_x": "3682364.17781",
    "final_y": "532746.008004",
    "longitude": "-90.06529872053143",
    "latitude": "29.95884052062511",
    "geocoded_column": {
      "latitude": "29.95884052062511",
      "longitude": "-90.06529872053143"
    }
  },
  {
    "service_request": "2022-906839",
    "request_type": "Health Related Questions",
    "request_reason": "Noise Ordinance Complaint",
    "date_created": "2022-08-04T22:39:27.000",
    "date_modified": "2022-08-04T22:39:27.000",
    "request_status": "Pending",
    "responsible_agency": "Health Department",
    "final_address": "718 Bourbon St, New Orleans, Louisiana, 70116",
    "address_councildis": "C",
    "status": "Pending",
    "rowid": "906839",
    "final_x": "3682364.17781",
    "final_y": "532746.008004",
    "longitude": "-90.06529872053143",
    "latitude": "29.95884052062511",
    "geocoded_column": {
      "latitude": "29.95884052062511",
      "longitude": "-90.06529872053143"
    }
  },
  {
    "service_request": "2022-906838",
    "request_type": "Health Related Questions",
    "request_reason": "Noise Ordinance Complaint",
    "date_created": "2022-08-04T22:39:14.000",
    "date_modified": "2022-08-04T22:39:14.000",
    "request_status": "Pending",
    "responsible_agency": "Health Department",
    "final_address": "718 Bourbon St, New Orleans, Louisiana, 70116",
    "address_councildis": "C",
    "status": "Pending",
    "rowid": "906838",
    "final_x": "3682364.17781",
    "final_y": "532746.008004",
    "longitude": "-90.06529872053143",
    "latitude": "29.95884052062511",
    "geocoded_column": {
      "latitude": "29.95884052062511",
      "longitude": "-90.06529872053143"
    }
  },
  {
    "service_request": "2022-906837",
    "request_type": "Health Related Questions",
    "request_reason": "Noise Ordinance Complaint",
    "date_created": "2022-08-04T22:32:20.000",
    "date_modified": "2022-08-04T22:32:20.000",
    "request_status": "Pending",
    "responsible_agency": "Health Department",
    "final_address": "718 Bourbon St, New Orleans, Louisiana, 70116",
    "address_councildis": "C",
    "status": "Pending",
    "rowid": "906837",
    "final_x": "3682364.17781",
    "final_y": "532746.008004",
    "longitude": "-90.06529872053143",
    "latitude": "29.95884052062511",
    "geocoded_column": {
      "latitude": "29.95884052062511",
      "longitude": "-90.06529872053143"
    }
  },
  {
    "service_request": "2022-906836",
    "request_type": "Health Related Questions",
    "request_reason": "Noise Ordinance Complaint",
    "date_created": "2022-08-04T22:31:21.000",
    "date_modified": "2022-08-04T22:31:21.000",
    "request_status": "Pending",
    "responsible_agency": "Health Department",
    "final_address": "718 Bourbon St, New Orleans, Louisiana, 70116",
    "address_councildis": "C",
    "status": "Pending",
    "rowid": "906836",
    "final_x": "3682364.17781",
    "final_y": "532746.008004",
    "longitude": "-90.06529872053143",
    "latitude": "29.95884052062511",
    "geocoded_column": {
      "latitude": "29.95884052062511",
      "longitude": "-90.06529872053143"
    }
  },
  {
    "service_request": "2022-906835",
    "request_type": "Health Related Questions",
    "request_reason": "Noise Ordinance Complaint",
    "date_created": "2022-08-04T22:30:57.000",
    "date_modified": "2022-08-04T22:30:57.000",
    "request_status": "Pending",
    "responsible_agency": "Health Department",
    "final_address": "718 Bourbon St, New Orleans, Louisiana, 70116",
    "address_councildis": "C",
    "status": "Pending",
    "rowid": "906835",
    "final_x": "3682364.17781",
    "final_y": "532746.008004",
    "longitude": "-90.06529872053143",
    "latitude": "29.95884052062511",
    "geocoded_column": {
      "latitude": "29.95884052062511",
      "longitude": "-90.06529872053143"
    }
  },
  {
    "service_request": "2022-906834",
    "request_type": "Health Related Questions",
    "request_reason": "Noise Ordinance Complaint",
    "date_created": "2022-08-04T22:29:01.000",
    "date_modified": "2022-08-04T22:29:01.000",
    "request_status": "Pending",
    "responsible_agency": "Health Department",
    "final_address": "1723 Henriette Delille St",
    "address_councildis": "C",
    "status": "Pending",
    "rowid": "906834",
    "final_x": "3683338.40943",
    "final_y": "536195.373255",
    "longitude": "-90.06210150700602",
    "latitude": "29.968295408632137",
    "geocoded_column": {
      "latitude": "29.968295408632137",
      "longitude": "-90.06210150700602"
    }
  },
  {
    "service_request": "2022-906833",
    "request_type": "Trash/Recycling",
    "request_reason": "Request a Large Item Pick Up",
    "date_created": "2022-08-04T22:25:18.000",
    "date_modified": "2022-08-04T22:25:19.000",
    "request_status": "Pending",
    "responsible_agency": "Department of Sanitation",
    "final_address": "340 S Cortez St",
    "address_councildis": "A",
    "status": "Assigned to Contractor",
    "contractor": "Richards Disposal",
    "rowid": "906833",
    "final_x": "3671414.07713",
    "final_y": "536675.236103",
    "longitude": "-90.09974285812251",
    "latitude": "29.969973241079646",
    "geocoded_column": {
      "latitude": "29.969973241079646",
      "longitude": "-90.09974285812251"
    }
  },
  {
    "service_request": "2022-906831",
    "request_type": "Safety & Permits",
    "request_reason": "Licenses & Permits",
    "date_created": "2022-08-04T22:18:34.000",
    "date_modified": "2022-08-04T22:18:34.000",
    "request_status": "Pending",
    "responsible_agency": "Safety and Permits",
    "final_address": "4523 Magazine St",
    "address_councildis": "B",
    "status": "Pending",
    "rowid": "906831",
    "final_x": "3670459.91399",
    "final_y": "518764.599223",
    "longitude": "-90.10336337284775",
    "latitude": "29.920753043460966",
    "geocoded_column": {
      "latitude": "29.920753043460966",
      "longitude": "-90.10336337284775"
    }
  },
  {
    "service_request": "2022-906830",
    "request_type": "Traffic Signals/Signs/Striping/Streetlights",
    "request_reason": "Street Light Outage/Malfunction",
    "date_created": "2022-08-04T22:08:32.000",
    "date_modified": "2022-08-04T22:08:33.000",
    "request_status": "Pending",
    "responsible_agency": "Department of Public Works",
    "final_address": "2411 Coliseum St",
    "address_councildis": "B",
    "status": "Pending",
    "contractor": "Royal Engineering",
    "rowid": "906830",
    "final_x": "3677387.67656",
    "final_y": "522345.663034",
    "longitude": "-90.08137208781552",
    "latitude": "29.930393511778142",
    "geocoded_column": {
      "latitude": "29.930393511778142",
      "longitude": "-90.08137208781552"
    }
  },
  {
    "service_request": "2022-906829",
    "request_type": "Trash/Recycling",
    "request_reason": "Start Trash Service",
    "date_created": "2022-08-04T22:05:26.000",
    "date_modified": "2022-08-04T22:05:26.000",
    "request_status": "Pending",
    "responsible_agency": "Department of Sanitation",
    "final_address": "3232 Nashville Ave",
    "address_councildis": "A",
    "status": "Assigned to Contractor",
    "contractor": "Richards Disposal",
    "rowid": "906829",
    "final_x": "3667873.83585",
    "final_y": "527745.302655",
    "longitude": "-90.11122411313474",
    "latitude": "29.94552318453011",
    "geocoded_column": {
      "latitude": "29.94552318453011",
      "longitude": "-90.11122411313474"
    }
  },
  {
    "service_request": "2022-906828",
    "request_type": "Health Related Questions",
    "request_reason": "Noise Ordinance Complaint",
    "date_created": "2022-08-04T22:04:58.000",
    "date_modified": "2022-08-04T22:04:58.000",
    "request_status": "Pending",
    "responsible_agency": "Health Department",
    "final_address": "1723 Henriette Delille St",
    "address_councildis": "C",
    "status": "Pending",
    "rowid": "906828",
    "final_x": "3683338.40943",
    "final_y": "536195.373255",
    "longitude": "-90.06210150700602",
    "latitude": "29.968295408632137",
    "geocoded_column": {
      "latitude": "29.968295408632137",
      "longitude": "-90.06210150700602"
    }
  },
  {
    "service_request": "2022-906826",
    "request_type": "Trash/Recycling",
    "request_reason": "Missed Trash Pick-Up",
    "date_created": "2022-08-04T21:57:14.000",
    "date_modified": "2022-08-04T21:57:15.000",
    "request_status": "Pending",
    "responsible_agency": "Department of Sanitation",
    "final_address": "1241 Louisa St",
    "address_councildis": "C",
    "status": "Assigned to Contractor",
    "contractor": "Metro Disposal",
    "rowid": "906826",
    "final_x": "3689769.20848",
    "final_y": "536543.812295",
    "longitude": "-90.04178041706983",
    "latitude": "29.96905575152679",
    "geocoded_column": {
      "latitude": "29.96905575152679",
      "longitude": "-90.04178041706983"
    }
  },
  {
    "service_request": "2022-906825",
    "request_type": "Health Related Questions",
    "request_reason": "Noise Ordinance Complaint",
    "date_created": "2022-08-04T21:51:29.000",
    "date_modified": "2022-08-04T21:51:29.000",
    "request_status": "Pending",
    "responsible_agency": "Health Department",
    "final_address": "1723 Henriette Delille St",
    "address_councildis": "C",
    "status": "Pending",
    "rowid": "906825",
    "final_x": "3683338.40943",
    "final_y": "536195.373255",
    "longitude": "-90.06210150700602",
    "latitude": "29.968295408632137",
    "geocoded_column": {
      "latitude": "29.968295408632137",
      "longitude": "-90.06210150700602"
    }
  },
  {
    "service_request": "2022-906824",
    "request_type": "Traffic Signals/Signs/Striping/Streetlights",
    "request_reason": "Street Light Outage/Malfunction",
    "date_created": "2022-08-04T21:45:55.000",
    "date_modified": "2022-08-04T21:45:56.000",
    "request_status": "Pending",
    "responsible_agency": "Department of Public Works",
    "final_address": "430 Notre Dame St",
    "address_councildis": "B",
    "status": "Pending",
    "contractor": "Royal Engineering",
    "rowid": "906824",
    "final_x": "3681552.92207",
    "final_y": "527976.610175",
    "longitude": "-90.06802676574847",
    "latitude": "29.945750948916945",
    "geocoded_column": {
      "latitude": "29.945750948916945",
      "longitude": "-90.06802676574847"
    }
  },
  {
    "service_request": "2022-906823",
    "request_type": "Roads/Drainage",
    "request_reason": "Street Subsidence (Sinking)",
    "date_created": "2022-08-04T21:44:48.000",
    "date_modified": "2022-08-04T21:44:48.000",
    "request_status": "Pending",
    "responsible_agency": "Department of Public Works",
    "final_address": "2500 Elysian Fields Ave",
    "address_councildis": "D",
    "status": "Pending",
    "rowid": "906823",
    "final_x": "3684487.68405",
    "final_y": "541493.961356",
    "longitude": "-90.05828585167481",
    "latitude": "29.982829564989377",
    "geocoded_column": {
      "latitude": "29.982829564989377",
      "longitude": "-90.05828585167481"
    }
  },
  {
    "service_request": "2022-906822",
    "request_type": "Parks & Parkways",
    "request_reason": "Request Tree Service (Right of Way/Public Property)",
    "date_created": "2022-08-04T21:31:43.000",
    "date_modified": "2022-08-04T21:31:43.000",
    "request_status": "Pending",
    "responsible_agency": "Department of Parks & Parkway",
    "final_address": "1506 Seventh St",
    "address_councildis": "B",
    "status": "Pending",
    "rowid": "906822",
    "final_x": "3675443.66753",
    "final_y": "521679.011641",
    "longitude": "-90.08753191270674",
    "latitude": "29.928618698019825",
    "geocoded_column": {
      "latitude": "29.928618698019825",
      "longitude": "-90.08753191270674"
    }
  },
  {
    "service_request": "2022-906820",
    "request_type": "Trash/Recycling",
    "request_reason": "Replace Trash Cart",
    "date_created": "2022-08-04T21:27:38.000",
    "date_modified": "2022-08-04T21:27:40.000",
    "request_status": "Pending",
    "responsible_agency": "Department of Sanitation",
    "final_address": "8925 Palm St",
    "address_councildis": "A",
    "status": "Assigned to Contractor",
    "contractor": "Richards Disposal",
    "rowid": "906820",
    "final_x": "3665500.58253",
    "final_y": "536763.332296",
    "longitude": "-90.118415380226",
    "latitude": "29.97038920452023",
    "geocoded_column": {
      "latitude": "29.97038920452023",
      "longitude": "-90.118415380226"
    }
  },
  {
    "service_request": "2022-906819",
    "request_type": "Health Related Questions",
    "request_reason": "Noise Ordinance Complaint",
    "date_created": "2022-08-04T21:09:53.000",
    "date_modified": "2022-08-04T21:09:53.000",
    "request_status": "Pending",
    "responsible_agency": "Health Department",
    "final_address": "1723 Henriette Delille St",
    "address_councildis": "C",
    "status": "Pending",
    "rowid": "906819",
    "final_x": "3683338.40943",
    "final_y": "536195.373255",
    "longitude": "-90.06210150700602",
    "latitude": "29.968295408632137",
    "geocoded_column": {
      "latitude": "29.968295408632137",
      "longitude": "-90.06210150700602"
    }
  },
  {
    "service_request": "2022-906818",
    "request_type": "Property Maintenance",
    "request_reason": "Property Maintenance",
    "date_created": "2022-08-04T21:05:24.000",
    "date_modified": "2022-08-04T21:05:24.000",
    "request_status": "Pending",
    "responsible_agency": "Department of Code Enforcement",
    "final_address": "2627 Banks St",
    "address_councildis": "B",
    "status": "Pending",
    "rowid": "906818",
    "final_x": "3674896.59169",
    "final_y": "534022.542533",
    "longitude": "-90.08883570901338",
    "latitude": "29.962575679692623",
    "geocoded_column": {
      "latitude": "29.962575679692623",
      "longitude": "-90.08883570901338"
    }
  },
  {
    "service_request": "2022-906817",
    "request_type": "Parks & Parkways",
    "request_reason": "Request Tree Service (Right of Way/Public Property)",
    "date_created": "2022-08-04T20:56:20.000",
    "date_modified": "2022-08-04T20:56:20.000",
    "request_status": "Pending",
    "responsible_agency": "Department of Parks & Parkway",
    "final_address": "2352 Camp St",
    "address_councildis": "B",
    "status": "Pending",
    "rowid": "906817",
    "final_x": "3677985.64846",
    "final_y": "521852.447226",
    "longitude": "-90.07950141949946",
    "latitude": "29.92901935076882",
    "geocoded_column": {
      "latitude": "29.92901935076882",
      "longitude": "-90.07950141949946"
    }
  },
  {
    "service_request": "2022-906816",
    "request_type": "Health Related Questions",
    "request_reason": "Noise Ordinance Complaint",
    "date_created": "2022-08-04T20:52:19.000",
    "date_modified": "2022-08-04T20:52:19.000",
    "request_status": "Pending",
    "responsible_agency": "Health Department",
    "final_address": "1218 St Anthony St",
    "address_councildis": "C",
    "status": "Pending",
    "rowid": "906816",
    "final_x": "3683474.48821",
    "final_y": "536339.434631",
    "longitude": "-90.06166671555076",
    "latitude": "29.968687375739577",
    "geocoded_column": {
      "latitude": "29.968687375739577",
      "longitude": "-90.06166671555076"
    }
  },
  {
    "service_request": "2022-906815",
    "request_type": "Property Maintenance",
    "request_reason": "Property Maintenance",
    "date_created": "2022-08-04T20:51:02.000",
    "date_modified": "2022-08-04T20:51:02.000",
    "request_status": "Pending",
    "responsible_agency": "Department of Code Enforcement",
    "final_address": "321 28Th St",
    "address_councildis": "A",
    "status": "Pending",
    "rowid": "906815",
    "final_x": "3665013.77415",
    "final_y": "550290.342676",
    "longitude": "-90.119500233631",
    "latitude": "30.007598082014823",
    "geocoded_column": {
      "latitude": "30.007598082014823",
      "longitude": "-90.119500233631"
    }
  },
  {
    "service_request": "2022-906814",
    "request_type": "Trash/Recycling",
    "request_reason": "Replace Trash Cart",
    "date_created": "2022-08-04T20:50:07.000",
    "date_modified": "2022-08-04T20:50:08.000",
    "request_status": "Pending",
    "responsible_agency": "Department of Sanitation",
    "final_address": "5717 Pasteur Blvd",
    "address_councildis": "D",
    "status": "Assigned to Contractor",
    "contractor": "Metro Disposal",
    "rowid": "906814",
    "final_x": "3682927.35624",
    "final_y": "554074.54684",
    "longitude": "-90.0627735402505",
    "latitude": "30.017469316843037",
    "geocoded_column": {
      "latitude": "30.017469316843037",
      "longitude": "-90.0627735402505"
    }
  },
  {
    "service_request": "2022-906813",
    "request_type": "Trash/Recycling",
    "request_reason": "MIssed Recycling Pick-Up",
    "date_created": "2022-08-04T20:49:21.000",
    "date_modified": "2022-08-04T20:49:21.000",
    "request_status": "Pending",
    "responsible_agency": "Department of Sanitation",
    "final_address": "920 Jena St",
    "address_councildis": "B",
    "status": "Assigned to Contractor",
    "contractor": "Richards Disposal",
    "rowid": "906813",
    "final_x": "3670575.67124",
    "final_y": "518927.914359",
    "longitude": "-90.10299244412109",
    "latitude": "29.92119869110157",
    "geocoded_column": {
      "latitude": "29.92119869110157",
      "longitude": "-90.10299244412109"
    }
  },
  {
    "service_request": "2022-906812",
    "request_type": "Abandoned Vehicles",
    "request_reason": "Abandoned/Junk Vehicles",
    "date_created": "2022-08-04T20:47:49.000",
    "date_modified": "2022-08-04T20:47:50.000",
    "request_status": "Pending",
    "responsible_agency": "Department of Public Works",
    "final_address": "2738 Peniston St",
    "address_councildis": "B",
    "status": "Pending",
    "rowid": "906812",
    "final_x": "3671856.16366",
    "final_y": "525217.979709",
    "longitude": "-90.09873656137229",
    "latitude": "29.938456480157573",
    "geocoded_column": {
      "latitude": "29.938456480157573",
      "longitude": "-90.09873656137229"
    }
  },
  {
    "service_request": "2022-906810",
    "request_type": "Property Maintenance",
    "request_reason": "Property Maintenance",
    "date_created": "2022-08-04T20:21:49.000",
    "date_modified": "2022-08-04T20:21:49.000",
    "request_status": "Pending",
    "responsible_agency": "Department of Code Enforcement",
    "final_address": "7111 Deanne St",
    "address_councildis": "D",
    "status": "Pending",
    "rowid": "906810",
    "final_x": "3695661.78781",
    "final_y": "556658.801434",
    "longitude": "-90.02244459521842",
    "latitude": "30.024180630120227",
    "geocoded_column": {
      "latitude": "30.024180630120227",
      "longitude": "-90.02244459521842"
    }
  },
  {
    "service_request": "2022-906808",
    "request_type": "Trash/Recycling",
    "request_reason": "MIssed Recycling Pick-Up",
    "date_created": "2022-08-04T20:15:14.000",
    "date_modified": "2022-08-04T20:15:14.000",
    "request_status": "Pending",
    "responsible_agency": "Department of Sanitation",
    "final_address": "343 Nashville Ave",
    "address_councildis": "A",
    "status": "Assigned to Contractor",
    "contractor": "Richards Disposal",
    "rowid": "906808",
    "final_x": "3665269.9298",
    "final_y": "517570.537526",
    "longitude": "-90.1197857568631",
    "latitude": "29.917621912444247",
    "geocoded_column": {
      "latitude": "29.917621912444247",
      "longitude": "-90.1197857568631"
    }
  },
  {
    "service_request": "2022-906806",
    "request_type": "Traffic Signals/Signs/Striping/Streetlights",
    "request_reason": "Street Light Outage/Malfunction",
    "date_created": "2022-08-04T20:05:50.000",
    "date_modified": "2022-08-04T20:05:51.000",
    "request_status": "Pending",
    "responsible_agency": "Department of Public Works",
    "final_address": "7531 Wave Dr",
    "address_councildis": "E",
    "status": "Pending",
    "contractor": "Royal Engineering",
    "rowid": "906806",
    "final_x": "3715340.99339",
    "final_y": "568386.047461",
    "longitude": "-89.95981847766456",
    "latitude": "30.055792091368904",
    "geocoded_column": {
      "latitude": "30.055792091368904",
      "longitude": "-89.95981847766456"
    }
  },
  {
    "service_request": "2022-906805",
    "request_type": "Trash/Recycling",
    "request_reason": "MIssed Recycling Pick-Up",
    "date_created": "2022-08-04T20:03:06.000",
    "date_modified": "2022-08-04T20:03:07.000",
    "request_status": "Pending",
    "responsible_agency": "Department of Sanitation",
    "final_address": "3519 Octavia St",
    "address_councildis": "A",
    "status": "Assigned to Contractor",
    "contractor": "Richards Disposal",
    "rowid": "906805",
    "final_x": "3668621.03009",
    "final_y": "528481.366784",
    "longitude": "-90.10884013589454",
    "latitude": "29.947525187559744",
    "geocoded_column": {
      "latitude": "29.947525187559744",
      "longitude": "-90.10884013589454"
    }
  },
  {
    "service_request": "2022-906804",
    "request_type": "Trash/Recycling",
    "request_reason": "MIssed Recycling Pick-Up",
    "date_created": "2022-08-04T19:58:43.000",
    "date_modified": "2022-08-04T19:58:44.000",
    "request_status": "Pending",
    "responsible_agency": "Department of Sanitation",
    "final_address": "2219 S Salcedo St",
    "address_councildis": "A",
    "status": "Assigned to Contractor",
    "contractor": "Richards Disposal",
    "rowid": "906804",
    "final_x": "3669136.94913",
    "final_y": "528943.801472",
    "longitude": "-90.10719555049423",
    "latitude": "29.948781562243237",
    "geocoded_column": {
      "latitude": "29.948781562243237",
      "longitude": "-90.10719555049423"
    }
  },
  {
    "service_request": "2022-906803",
    "request_type": "Roads/Drainage",
    "request_reason": "Man hole cover issue",
    "date_created": "2022-08-04T19:50:22.000",
    "date_modified": "2022-08-04T19:50:22.000",
    "request_status": "Pending",
    "responsible_agency": "Department of Public Works",
    "final_address": "1641 N Miro St",
    "address_councildis": "D",
    "status": "Pending",
    "rowid": "906803",
    "final_x": "3680673.11938",
    "final_y": "539362.486474",
    "longitude": "-90.07040836997295",
    "latitude": "29.97708491395959",
    "geocoded_column": {
      "latitude": "29.97708491395959",
      "longitude": "-90.07040836997295"
    }
  },
  {
    "service_request": "2022-906802",
    "request_type": "Trash/Recycling",
    "request_reason": "Request a Large Item Pick Up",
    "date_created": "2022-08-04T19:29:45.000",
    "date_modified": "2022-08-04T19:29:46.000",
    "request_status": "Pending",
    "responsible_agency": "Department of Sanitation",
    "final_address": "3005 De Soto St",
    "address_councildis": "A",
    "status": "Assigned to Contractor",
    "contractor": "Richards Disposal",
    "rowid": "906802",
    "final_x": "3676715.96283",
    "final_y": "539763.655498",
    "longitude": "-90.08289253169356",
    "latitude": "29.978307323826307",
    "geocoded_column": {
      "latitude": "29.978307323826307",
      "longitude": "-90.08289253169356"
    }
  },
  {
    "service_request": "2022-906801",
    "request_type": "Trash/Recycling",
    "request_reason": "MIssed Recycling Pick-Up",
    "date_created": "2022-08-04T19:29:04.000",
    "date_modified": "2022-08-04T19:29:05.000",
    "request_status": "Pending",
    "responsible_agency": "Department of Sanitation",
    "final_address": "4819 Carondelet St",
    "address_councildis": "B",
    "status": "Assigned to Contractor",
    "contractor": "Richards Disposal",
    "rowid": "906801",
    "final_x": "3669166.86868",
    "final_y": "521163.278585",
    "longitude": "-90.10736392540642",
    "latitude": "29.927386752325763",
    "geocoded_column": {
      "latitude": "29.927386752325763",
      "longitude": "-90.10736392540642"
    }
  },
  {
    "service_request": "2022-906800",
    "request_type": "Trash/Recycling",
    "request_reason": "MIssed Recycling Pick-Up",
    "date_created": "2022-08-04T19:21:59.000",
    "date_modified": "2022-08-04T19:21:59.000",
    "request_status": "Pending",
    "responsible_agency": "Department of Sanitation",
    "final_address": "1114 Robert St",
    "address_councildis": "B",
    "status": "Assigned to Contractor",
    "contractor": "Richards Disposal",
    "rowid": "906800",
    "final_x": "3668626.83329",
    "final_y": "519464.867447",
    "longitude": "-90.10912596942437",
    "latitude": "29.92273253705028",
    "geocoded_column": {
      "latitude": "29.92273253705028",
      "longitude": "-90.10912596942437"
    }
  },
  {
    "service_request": "2022-906799",
    "request_type": "Trash/Recycling",
    "request_reason": "MIssed Recycling Pick-Up",
    "date_created": "2022-08-04T19:14:43.000",
    "date_modified": "2022-08-04T19:14:44.000",
    "request_status": "Pending",
    "responsible_agency": "Department of Sanitation",
    "final_address": "4844 Camp St",
    "address_councildis": "B",
    "status": "Assigned to Contractor",
    "contractor": "Richards Disposal",
    "rowid": "906799",
    "final_x": "3669143.45127",
    "final_y": "518872.279607",
    "longitude": "-90.1075152176464",
    "latitude": "29.921087921073568",
    "geocoded_column": {
      "latitude": "29.921087921073568",
      "longitude": "-90.1075152176464"
    }
  },
  {
    "service_request": "2022-906798",
    "request_type": "Trash/Recycling",
    "request_reason": "Repair Trash Cart",
    "date_created": "2022-08-04T19:10:08.000",
    "date_modified": "2022-08-04T19:10:09.000",
    "request_status": "Pending",
    "responsible_agency": "Department of Sanitation",
    "final_address": "4742 Corinne St",
    "address_councildis": "E",
    "status": "Assigned to Contractor",
    "contractor": "Metro Disposal",
    "rowid": "906798",
    "final_x": "3714948.57707",
    "final_y": "556923.433818",
    "longitude": "-89.96149259107838",
    "latitude": "30.02428745970195",
    "geocoded_column": {
      "latitude": "30.02428745970195",
      "longitude": "-89.96149259107838"
    }
  },
  {
    "service_request": "2022-906797",
    "request_type": "Trash/Recycling",
    "request_reason": "MIssed Recycling Pick-Up",
    "date_created": "2022-08-04T19:08:11.000",
    "date_modified": "2022-08-04T19:08:12.000",
    "request_status": "Pending",
    "responsible_agency": "Department of Sanitation",
    "final_address": "4918 S Prieur St",
    "address_councildis": "B",
    "status": "Assigned to Contractor",
    "contractor": "Richards Disposal",
    "rowid": "906797",
    "final_x": "3669090.91943",
    "final_y": "526637.515006",
    "longitude": "-90.10741879456256",
    "latitude": "29.942441378548565",
    "geocoded_column": {
      "latitude": "29.942441378548565",
      "longitude": "-90.10741879456256"
    }
  },
  {
    "service_request": "2022-906796",
    "request_type": "Trash/Recycling",
    "request_reason": "Request a Large Item Pick Up",
    "date_created": "2022-08-04T19:06:51.000",
    "date_modified": "2022-08-04T19:06:52.000",
    "request_status": "Pending",
    "responsible_agency": "Department of Sanitation",
    "final_address": "8620 Bill St",
    "address_councildis": "E",
    "status": "Assigned to Contractor",
    "contractor": "Metro Disposal",
    "rowid": "906796",
    "final_x": "3703856.95358",
    "final_y": "563200.668576",
    "longitude": "-89.99630838978153",
    "latitude": "30.041907869250107",
    "geocoded_column": {
      "latitude": "30.041907869250107",
      "longitude": "-89.99630838978153"
    }
  },
  {
    "service_request": "2022-906795",
    "request_type": "Abandoned Vehicles",
    "request_reason": "Abandoned/Junk Vehicles",
    "date_created": "2022-08-04T19:06:19.000",
    "date_modified": "2022-08-04T19:06:20.000",
    "request_status": "Pending",
    "responsible_agency": "Department of Public Works",
    "final_address": "2700 BLK Dante St",
    "address_councildis": "A",
    "status": "Pending",
    "rowid": "906795",
    "final_x": "3665173.82349",
    "final_y": "532978.823266",
    "longitude": "-90.11957392952574",
    "latitude": "29.959992573888943",
    "geocoded_column": {
      "latitude": "29.959992573888943",
      "longitude": "-90.11957392952574"
    }
  },
  {
    "service_request": "2022-906794",
    "request_type": "Health Related Questions",
    "request_reason": "Request Information on the Health Marketplace",
    "date_created": "2022-08-04T19:05:33.000",
    "date_modified": "2022-08-04T19:05:33.000",
    "request_status": "Pending",
    "responsible_agency": "Health Department",
    "status": "Pending",
    "rowid": "906794",
    "longitude": "0.0",
    "latitude": "0.0",
    "geocoded_column": {
      "latitude": "0.0",
      "longitude": "0.0"
    }
  },
  {
    "service_request": "2022-906793",
    "request_type": "Trash/Recycling",
    "request_reason": "Missed Trash Pick-Up",
    "date_created": "2022-08-04T19:05:23.000",
    "date_modified": "2022-08-04T19:05:24.000",
    "request_status": "Pending",
    "responsible_agency": "Department of Sanitation",
    "final_address": "8620 Bill St",
    "address_councildis": "E",
    "status": "Assigned to Contractor",
    "contractor": "Metro Disposal",
    "rowid": "906793",
    "final_x": "3703856.95358",
    "final_y": "563200.668576",
    "longitude": "-89.99630838978153",
    "latitude": "30.041907869250107",
    "geocoded_column": {
      "latitude": "30.041907869250107",
      "longitude": "-89.99630838978153"
    }
  },
  {
    "service_request": "2022-906792",
    "request_type": "Trash/Recycling",
    "request_reason": "Request a Large Item Pick Up",
    "date_created": "2022-08-04T19:02:36.000",
    "date_modified": "2022-08-04T19:02:37.000",
    "request_status": "Pending",
    "responsible_agency": "Department of Sanitation",
    "final_address": "4871 Metropolitan Dr",
    "address_councildis": "D",
    "status": "Assigned to Contractor",
    "contractor": "Metro Disposal",
    "rowid": "906792",
    "final_x": "3690641.21385",
    "final_y": "551396.126549",
    "longitude": "-90.0384965368346",
    "latitude": "30.00986720823679",
    "geocoded_column": {
      "latitude": "30.00986720823679",
      "longitude": "-90.0384965368346"
    }
  },
  {
    "service_request": "2022-906791",
    "request_type": "Roads/Drainage",
    "request_reason": "Pothole",
    "date_created": "2022-08-04T19:00:12.000",
    "date_modified": "2022-08-04T19:00:12.000",
    "request_status": "Pending",
    "responsible_agency": "Department of Public Works",
    "final_address": "9215 Stroelitz St",
    "address_councildis": "A",
    "status": "Pending",
    "rowid": "906791",
    "final_x": "3664986.79047",
    "final_y": "537753.59028",
    "longitude": "-90.12000488410222",
    "latitude": "29.973127054539724",
    "geocoded_column": {
      "latitude": "29.973127054539724",
      "longitude": "-90.12000488410222"
    }
  },
  {
    "service_request": "2022-906789",
    "request_type": "Trash/Recycling",
    "request_reason": "Illegal Dumping",
    "date_created": "2022-08-04T18:56:35.000",
    "date_modified": "2022-08-04T18:56:36.000",
    "request_status": "Pending",
    "responsible_agency": "Department of Code Enforcement",
    "final_address": "1228 Leonidas St",
    "address_councildis": "A",
    "status": "Pending",
    "rowid": "906789",
    "final_x": "3660779.6832",
    "final_y": "529775.430401",
    "longitude": "-90.13355566124027",
    "latitude": "29.951311530252216",
    "geocoded_column": {
      "latitude": "29.951311530252216",
      "longitude": "-90.13355566124027"
    }
  },
  {
    "service_request": "2022-906787",
    "request_type": "Trash/Recycling",
    "request_reason": "Replace Trash Cart",
    "date_created": "2022-08-04T18:50:33.000",
    "date_modified": "2022-08-04T18:50:33.000",
    "request_status": "Pending",
    "responsible_agency": "Department of Sanitation",
    "final_address": "3730 Rue Nichole",
    "address_councildis": "C",
    "status": "Assigned to Contractor",
    "contractor": "Richards Disposal",
    "rowid": "906787",
    "final_x": "3704036.14481",
    "final_y": "516737.049333",
    "longitude": "-89.99745404325218",
    "latitude": "29.914144259807255",
    "geocoded_column": {
      "latitude": "29.914144259807255",
      "longitude": "-89.99745404325218"
    }
  },
  {
    "service_request": "2022-906786",
    "request_type": "Property Maintenance",
    "request_reason": "Property Maintenance",
    "date_created": "2022-08-04T18:47:50.000",
    "date_modified": "2022-08-04T18:47:50.000",
    "request_status": "Pending",
    "responsible_agency": "Department of Code Enforcement",
    "final_address": "5421 Eads St",
    "address_councildis": "D",
    "status": "Pending",
    "rowid": "906786",
    "final_x": "3686994.2557",
    "final_y": "553146.693911",
    "longitude": "-90.04995662227049",
    "latitude": "30.014793439613022",
    "geocoded_column": {
      "latitude": "30.014793439613022",
      "longitude": "-90.04995662227049"
    }
  },
  {
    "service_request": "2022-906785",
    "request_type": "Trash/Recycling",
    "request_reason": "Replace Trash Cart",
    "date_created": "2022-08-04T18:43:12.000",
    "date_modified": "2022-08-04T18:43:13.000",
    "request_status": "Pending",
    "responsible_agency": "Department of Sanitation",
    "final_address": "1002 S Genois St",
    "address_councildis": "B",
    "status": "Assigned to Contractor",
    "contractor": "Richards Disposal",
    "rowid": "906785",
    "final_x": "3670079.44103",
    "final_y": "533676.020933",
    "longitude": "-90.10405939641993",
    "latitude": "29.96176584100217",
    "geocoded_column": {
      "latitude": "29.96176584100217",
      "longitude": "-90.10405939641993"
    }
  },
  {
    "service_request": "2022-906784",
    "request_type": "Property Maintenance",
    "request_reason": "Property Maintenance",
    "date_created": "2022-08-04T18:43:04.000",
    "date_modified": "2022-08-04T18:43:04.000",
    "request_status": "Pending",
    "responsible_agency": "Department of Code Enforcement",
    "final_address": "1921 N Dorgenois St",
    "address_councildis": "D",
    "status": "Pending",
    "rowid": "906784",
    "final_x": "3681362.71874",
    "final_y": "541231.5563",
    "longitude": "-90.06816521502597",
    "latitude": "29.982203287525095",
    "geocoded_column": {
      "latitude": "29.982203287525095",
      "longitude": "-90.06816521502597"
    }
  },
  {
    "service_request": "2022-906783",
    "request_type": "Trash/Recycling",
    "request_reason": "Replace Trash Cart",
    "date_created": "2022-08-04T18:31:08.000",
    "date_modified": "2022-08-04T18:31:08.000",
    "request_status": "Pending",
    "responsible_agency": "Department of Sanitation",
    "final_address": "2325 Upperline St",
    "address_councildis": "B",
    "status": "Assigned to Contractor",
    "contractor": "Richards Disposal",
    "rowid": "906783",
    "final_x": "3669229.44238",
    "final_y": "523430.141243",
    "longitude": "-90.10708981469318",
    "latitude": "29.933618058964583",
    "geocoded_column": {
      "latitude": "29.933618058964583",
      "longitude": "-90.10708981469318"
    }
  },
  {
    "service_request": "2022-906782",
    "request_type": "Trash/Recycling",
    "request_reason": "Order Trash Cart",
    "date_created": "2022-08-04T18:26:46.000",
    "date_modified": "2022-08-04T18:26:47.000",
    "request_status": "Pending",
    "responsible_agency": "Department of Sanitation",
    "final_address": "3005 Boyd St",
    "address_councildis": "C",
    "status": "Assigned to Contractor",
    "contractor": "Richards Disposal",
    "rowid": "906782",
    "final_x": "3708080.07006",
    "final_y": "519599.552184",
    "longitude": "-89.98458383873684",
    "latitude": "29.921884890119742",
    "geocoded_column": {
      "latitude": "29.921884890119742",
      "longitude": "-89.98458383873684"
    }
  },
  {
    "service_request": "2022-906781",
    "request_type": "Trash/Recycling",
    "request_reason": "MIssed Recycling Pick-Up",
    "date_created": "2022-08-04T18:16:21.000",
    "date_modified": "2022-08-04T18:16:22.000",
    "request_status": "Pending",
    "responsible_agency": "Department of Sanitation",
    "final_address": "1640 Dufossat St",
    "address_councildis": "B",
    "status": "Assigned to Contractor",
    "contractor": "Richards Disposal",
    "rowid": "906781",
    "final_x": "3668082.86823",
    "final_y": "521542.125817",
    "longitude": "-90.11077309598171",
    "latitude": "29.92846030818454",
    "geocoded_column": {
      "latitude": "29.92846030818454",
      "longitude": "-90.11077309598171"
    }
  },
  {
    "service_request": "2022-906780",
    "request_type": "Trash/Recycling",
    "request_reason": "Missed Trash Pick-Up",
    "date_created": "2022-08-04T18:15:35.000",
    "date_modified": "2022-08-04T18:15:36.000",
    "request_status": "Pending",
    "responsible_agency": "Department of Sanitation",
    "final_address": "1640 Dufossat St",
    "address_councildis": "B",
    "status": "Assigned to Contractor",
    "contractor": "Richards Disposal",
    "rowid": "906780",
    "final_x": "3668082.86823",
    "final_y": "521542.125817",
    "longitude": "-90.11077309598171",
    "latitude": "29.92846030818454",
    "geocoded_column": {
      "latitude": "29.92846030818454",
      "longitude": "-90.11077309598171"
    }
  },
  {
    "service_request": "2022-906779",
    "request_type": "Trash/Recycling",
    "request_reason": "MIssed Recycling Pick-Up",
    "date_created": "2022-08-04T18:08:49.000",
    "date_modified": "2022-08-04T18:08:50.000",
    "request_status": "Pending",
    "responsible_agency": "Department of Sanitation",
    "final_address": "1525 Dufossat St",
    "address_councildis": "B",
    "status": "Assigned to Contractor",
    "contractor": "Richards Disposal",
    "rowid": "906779",
    "final_x": "3668161.69364",
    "final_y": "520678.110521",
    "longitude": "-90.11055336688219",
    "latitude": "29.926082227758133",
    "geocoded_column": {
      "latitude": "29.926082227758133",
      "longitude": "-90.11055336688219"
    }
  },
  {
    "service_request": "2022-906778",
    "request_type": "Trash/Recycling",
    "request_reason": "Request a Large Item Pick Up",
    "date_created": "2022-08-04T17:53:04.000",
    "date_modified": "2022-08-04T17:53:04.000",
    "request_status": "Pending",
    "responsible_agency": "Department of Sanitation",
    "final_address": "4512 Eden St",
    "address_councildis": "B",
    "status": "Assigned to Contractor",
    "contractor": "Richards Disposal",
    "rowid": "906778",
    "final_x": "3669545.42471",
    "final_y": "530846.147522",
    "longitude": "-90.10584146931862",
    "latitude": "29.954000365425056",
    "geocoded_column": {
      "latitude": "29.954000365425056",
      "longitude": "-90.10584146931862"
    }
  },
  {
    "service_request": "2022-906777",
    "request_type": "Property Maintenance",
    "request_reason": "Property Maintenance",
    "date_created": "2022-08-04T17:50:55.000",
    "date_modified": "2022-08-04T17:50:55.000",
    "request_status": "Pending",
    "responsible_agency": "Department of Code Enforcement",
    "final_address": "3513 Danneel St",
    "address_councildis": "B",
    "status": "Pending",
    "rowid": "906777",
    "final_x": "3673136.57595",
    "final_y": "522706.53529",
    "longitude": "-90.09477986759434",
    "latitude": "29.93151282653541",
    "geocoded_column": {
      "latitude": "29.93151282653541",
      "longitude": "-90.09477986759434"
    }
  },
  {
    "service_request": "2022-906776",
    "request_type": "Trash/Recycling",
    "request_reason": "MIssed Recycling Pick-Up",
    "date_created": "2022-08-04T17:48:36.000",
    "date_modified": "2022-08-04T17:48:37.000",
    "request_status": "Pending",
    "responsible_agency": "Department of Sanitation",
    "final_address": "4507 S Prieur St",
    "address_councildis": "B",
    "status": "Assigned to Contractor",
    "contractor": "Richards Disposal",
    "rowid": "906776",
    "final_x": "3669751.77479",
    "final_y": "526931.74963",
    "longitude": "-90.10532236250344",
    "latitude": "29.94323097050773",
    "geocoded_column": {
      "latitude": "29.94323097050773",
      "longitude": "-90.10532236250344"
    }
  },
  {
    "service_request": "2022-906775",
    "request_type": "Trash/Recycling",
    "request_reason": "Stop Trash Service",
    "date_created": "2022-08-04T17:42:06.000",
    "date_modified": "2022-08-04T17:42:07.000",
    "request_status": "Pending",
    "responsible_agency": "Department of Sanitation",
    "final_address": "1455 N Tonti St",
    "address_councildis": "D",
    "status": "Assigned to Contractor",
    "contractor": "Metro Disposal",
    "rowid": "906775",
    "final_x": "3679706.85397",
    "final_y": "538692.816649",
    "longitude": "-90.07348340270121",
    "latitude": "29.975272801892974",
    "geocoded_column": {
      "latitude": "29.975272801892974",
      "longitude": "-90.07348340270121"
    }
  },
  {
    "service_request": "2022-906774",
    "request_type": "Trash/Recycling",
    "request_reason": "Request a Large Item Pick Up",
    "date_created": "2022-08-04T17:27:56.000",
    "date_modified": "2022-08-04T17:27:57.000",
    "request_status": "Pending",
    "responsible_agency": "Department of Sanitation",
    "final_address": "2422 Palmer Ave",
    "address_councildis": "A",
    "status": "Assigned to Contractor",
    "contractor": "Richards Disposal",
    "rowid": "906774",
    "final_x": "3666348.00039",
    "final_y": "525783.793149",
    "longitude": "-90.1161074787077",
    "latitude": "29.940174324602",
    "geocoded_column": {
      "latitude": "29.940174324602",
      "longitude": "-90.1161074787077"
    }
  },
  {
    "service_request": "2022-906773",
    "request_type": "Trash/Recycling",
    "request_reason": "MIssed Recycling Pick-Up",
    "date_created": "2022-08-04T17:23:28.000",
    "date_modified": "2022-08-04T17:23:29.000",
    "request_status": "Pending",
    "responsible_agency": "Department of Sanitation",
    "final_address": "4830 St Charles Ave",
    "address_councildis": "B",
    "status": "Assigned to Contractor",
    "contractor": "Richards Disposal",
    "rowid": "906773",
    "final_x": "3669144.06798",
    "final_y": "520634.266424",
    "longitude": "-90.10745376786049",
    "latitude": "29.925932807986193",
    "geocoded_column": {
      "latitude": "29.925932807986193",
      "longitude": "-90.10745376786049"
    }
  },
  {
    "service_request": "2022-906772",
    "request_type": "Property Maintenance",
    "request_reason": "Property Maintenance",
    "date_created": "2022-08-04T17:20:05.000",
    "date_modified": "2022-08-04T17:20:05.000",
    "request_status": "Pending",
    "responsible_agency": "Department of Code Enforcement",
    "final_address": "2761 Orchid St",
    "address_councildis": "A",
    "status": "Pending",
    "rowid": "906772",
    "final_x": "3677415.13275",
    "final_y": "538771.951305",
    "longitude": "-90.08071853918324",
    "latitude": "29.975559480273226",
    "geocoded_column": {
      "latitude": "29.975559480273226",
      "longitude": "-90.08071853918324"
    }
  },
  {
    "service_request": "2022-906771",
    "request_type": "Trash/Recycling",
    "request_reason": "MIssed Recycling Pick-Up",
    "date_created": "2022-08-04T17:18:37.000",
    "date_modified": "2022-08-04T17:18:37.000",
    "request_status": "Pending",
    "responsible_agency": "Department of Sanitation",
    "final_address": "4529 S Derbigny St",
    "address_councildis": "B",
    "status": "Assigned to Contractor",
    "contractor": "Richards Disposal",
    "rowid": "906771",
    "final_x": "3669650.90228",
    "final_y": "526219.516798",
    "longitude": "-90.10566493620607",
    "latitude": "29.941275533387948",
    "geocoded_column": {
      "latitude": "29.941275533387948",
      "longitude": "-90.10566493620607"
    }
  },
  {
    "service_request": "2022-906770",
    "request_type": "Trash/Recycling",
    "request_reason": "Replace Trash Cart",
    "date_created": "2022-08-04T17:18:31.000",
    "date_modified": "2022-08-04T17:18:32.000",
    "request_status": "Pending",
    "responsible_agency": "Department of Sanitation",
    "final_address": "4230 DHemecourt St",
    "address_councildis": "A",
    "status": "Assigned to Contractor",
    "contractor": "Richards Disposal",
    "rowid": "906770",
    "final_x": "3669156.35514",
    "final_y": "537280.072072",
    "longitude": "-90.10685254133043",
    "latitude": "29.971702978100975",
    "geocoded_column": {
      "latitude": "29.971702978100975",
      "longitude": "-90.10685254133043"
    }
  },
  {
    "service_request": "2022-906769",
    "request_type": "Trash/Recycling",
    "request_reason": "MIssed Recycling Pick-Up",
    "date_created": "2022-08-04T17:16:21.000",
    "date_modified": "2022-08-04T17:16:22.000",
    "request_status": "Pending",
    "responsible_agency": "Department of Sanitation",
    "final_address": "4420 S Prieur St, New Orleans, Louisiana, 70125",
    "address_councildis": "B",
    "status": "Assigned to Contractor",
    "contractor": "Richards Disposal",
    "rowid": "906769",
    "final_x": "3670034.98452",
    "final_y": "526781.335742",
    "longitude": "-90.10443328878962",
    "latitude": "29.942809032370143",
    "geocoded_column": {
      "latitude": "29.942809032370143",
      "longitude": "-90.10443328878962"
    }
  },
  {
    "service_request": "2022-906768",
    "request_type": "Trash/Recycling",
    "request_reason": "MIssed Recycling Pick-Up",
    "date_created": "2022-08-04T17:16:15.000",
    "date_modified": "2022-08-04T17:16:16.000",
    "request_status": "Pending",
    "responsible_agency": "Department of Sanitation",
    "final_address": "5826 Clara St",
    "address_councildis": "A",
    "status": "Assigned to Contractor",
    "contractor": "Richards Disposal",
    "rowid": "906768",
    "final_x": "3666914.57978",
    "final_y": "525225.735933",
    "longitude": "-90.11433743670578",
    "latitude": "29.938623284611396",
    "geocoded_column": {
      "latitude": "29.938623284611396",
      "longitude": "-90.11433743670578"
    }
  },
  {
    "service_request": "2022-906767",
    "request_type": "Trash/Recycling",
    "request_reason": "MIssed Recycling Pick-Up",
    "date_created": "2022-08-04T17:15:50.000",
    "date_modified": "2022-08-04T17:15:51.000",
    "request_status": "Pending",
    "responsible_agency": "Department of Sanitation",
    "final_address": "3810 Octavia St, New Orleans, Louisiana, 70125",
    "address_councildis": "A",
    "status": "Assigned to Contractor",
    "contractor": "Richards Disposal",
    "rowid": "906767",
    "final_x": "3668736.84084",
    "final_y": "529489.897857",
    "longitude": "-90.10844043515104",
    "latitude": "29.950294915657583",
    "geocoded_column": {
      "latitude": "29.950294915657583",
      "longitude": "-90.10844043515104"
    }
  },
  {
    "service_request": "2022-906766",
    "request_type": "Traffic Signals/Signs/Striping/Streetlights",
    "request_reason": "Street Light Outage/Malfunction",
    "date_created": "2022-08-04T17:07:30.000",
    "date_modified": "2022-08-04T17:07:31.000",
    "request_status": "Pending",
    "responsible_agency": "Department of Public Works",
    "final_address": "1026 Pauline St",
    "address_councildis": "C",
    "status": "Pending",
    "contractor": "Royal Engineering",
    "rowid": "906766",
    "final_x": "3691124.02876",
    "final_y": "535223.774534",
    "longitude": "-90.03754895963695",
    "latitude": "29.965384052299193",
    "geocoded_column": {
      "latitude": "29.965384052299193",
      "longitude": "-90.03754895963695"
    }
  },
  {
    "service_request": "2022-906765",
    "request_type": "Trash/Recycling",
    "request_reason": "Illegal Dumping",
    "date_created": "2022-08-04T17:02:55.000",
    "date_modified": "2022-08-04T17:02:55.000",
    "request_status": "Pending",
    "responsible_agency": "Department of Sanitation",
    "final_address": "4203 S Johnson St",
    "address_councildis": "B",
    "status": "Pending",
    "rowid": "906765",
    "final_x": "3670903.94727",
    "final_y": "527335.294207",
    "longitude": "-90.10167095953149",
    "latitude": "29.944306583451",
    "geocoded_column": {
      "latitude": "29.944306583451",
      "longitude": "-90.10167095953149"
    }
  },
  {
    "service_request": "2022-906764",
    "request_type": "Trash/Recycling",
    "request_reason": "Order Trash Cart",
    "date_created": "2022-08-04T17:00:57.000",
    "date_modified": "2022-08-04T17:00:57.000",
    "request_status": "Pending",
    "responsible_agency": "Department of Sanitation",
    "final_address": "13761 Explorers Ave",
    "address_councildis": "E",
    "status": "Assigned to Contractor",
    "contractor": "Metro Disposal",
    "rowid": "906764",
    "final_x": "3725961.55494",
    "final_y": "569672.449126",
    "longitude": "-89.92619940112404",
    "latitude": "30.058974827806747",
    "geocoded_column": {
      "latitude": "30.058974827806747",
      "longitude": "-89.92619940112404"
    }
  },
  {
    "service_request": "2022-906763",
    "request_type": "Trash/Recycling",
    "request_reason": "Request a Large Item Pick Up",
    "date_created": "2022-08-04T16:58:11.000",
    "date_modified": "2022-08-04T16:58:12.000",
    "request_status": "Pending",
    "responsible_agency": "Department of Sanitation",
    "final_address": "5853 Louisville St",
    "address_councildis": "A",
    "status": "Assigned to Contractor",
    "contractor": "Metro Disposal",
    "rowid": "906763",
    "final_x": "3667706.14138",
    "final_y": "546347.016656",
    "longitude": "-90.1111271212858",
    "latitude": "29.996676603640452",
    "geocoded_column": {
      "latitude": "29.996676603640452",
      "longitude": "-90.1111271212858"
    }
  },
  {
    "service_request": "2022-906762",
    "request_type": "Trash/Recycling",
    "request_reason": "Illegal Dumping",
    "date_created": "2022-08-04T16:57:35.000",
    "date_modified": "2022-08-04T16:57:35.000",
    "request_status": "Pending",
    "responsible_agency": "Department of Sanitation",
    "final_address": "2837 Bruxelles St",
    "address_councildis": "D",
    "status": "Pending",
    "rowid": "906762",
    "final_x": "3680338.45877",
    "final_y": "542903.414733",
    "longitude": "-90.07134216570643",
    "latitude": "29.986831370521216",
    "geocoded_column": {
      "latitude": "29.986831370521216",
      "longitude": "-90.07134216570643"
    }
  },
  {
    "service_request": "2022-906761",
    "request_type": "Trash/Recycling",
    "request_reason": "Replace Trash Cart",
    "date_created": "2022-08-04T16:55:58.000",
    "date_modified": "2022-08-04T16:55:58.000",
    "request_status": "Pending",
    "responsible_agency": "Department of Sanitation",
    "final_address": "5853 Louisville St",
    "address_councildis": "A",
    "status": "Assigned to Contractor",
    "contractor": "Metro Disposal",
    "rowid": "906761",
    "final_x": "3667706.14138",
    "final_y": "546347.016656",
    "longitude": "-90.1111271212858",
    "latitude": "29.996676603640452",
    "geocoded_column": {
      "latitude": "29.996676603640452",
      "longitude": "-90.1111271212858"
    }
  },
  {
    "service_request": "2022-906760",
    "request_type": "Property Maintenance",
    "request_reason": "Property Maintenance",
    "date_created": "2022-08-04T16:54:42.000",
    "date_modified": "2022-08-04T16:54:43.000",
    "request_status": "Pending",
    "responsible_agency": "Department of Code Enforcement",
    "final_address": "417 Slidell St",
    "address_councildis": "C",
    "status": "Pending",
    "rowid": "906760",
    "final_x": "3686694.17148",
    "final_y": "528646.478336",
    "longitude": "-90.05177051852944",
    "latitude": "29.947435751053657",
    "geocoded_column": {
      "latitude": "29.947435751053657",
      "longitude": "-90.05177051852944"
    }
  },
  {
    "service_request": "2022-906759",
    "request_type": "Abandoned Vehicles",
    "request_reason": "Abandoned/Junk Vehicles",
    "date_created": "2022-08-04T16:52:43.000",
    "date_modified": "2022-08-04T16:53:38.000",
    "request_status": "Pending",
    "responsible_agency": "Department of Public Works",
    "final_address": "417 Slidell St",
    "address_councildis": "C",
    "status": "Pending",
    "rowid": "906759",
    "final_x": "3686694.17148",
    "final_y": "528646.478336",
    "longitude": "-90.05177051852944",
    "latitude": "29.947435751053657",
    "geocoded_column": {
      "latitude": "29.947435751053657",
      "longitude": "-90.05177051852944"
    }
  },
  {
    "service_request": "2022-906758",
    "request_type": "Traffic Signals/Signs/Striping/Streetlights",
    "request_reason": "Traffic Signal Malfunctioning/Damaged",
    "date_created": "2022-08-04T16:52:21.000",
    "date_modified": "2022-08-04T16:52:21.000",
    "request_status": "Pending",
    "responsible_agency": "Department of Public Works",
    "final_address": "2101 Esplanade Ave",
    "address_councildis": "D",
    "status": "Pending",
    "rowid": "906758",
    "final_x": "3679846.00002",
    "final_y": "537759.999816",
    "longitude": "-90.07307634518429",
    "latitude": "29.972703669903726",
    "geocoded_column": {
      "latitude": "29.972703669903726",
      "longitude": "-90.07307634518429"
    }
  },
  {
    "service_request": "2022-906757",
    "request_type": "Health Related Questions",
    "request_reason": "Noise Ordinance Complaint",
    "date_created": "2022-08-04T16:52:15.000",
    "date_modified": "2022-08-04T16:52:15.000",
    "request_status": "Pending",
    "responsible_agency": "Health Department",
    "final_address": "4801 Bienville Ave",
    "address_councildis": "A",
    "status": "Pending",
    "rowid": "906757",
    "final_x": "3669308.25492",
    "final_y": "540804.395403",
    "longitude": "-90.10625362222925",
    "latitude": "29.981389207009062",
    "geocoded_column": {
      "latitude": "29.981389207009062",
      "longitude": "-90.10625362222925"
    }
  },
  {
    "service_request": "2022-906755",
    "request_type": "Roads/Drainage",
    "request_reason": "Pothole",
    "date_created": "2022-08-04T16:43:46.000",
    "date_modified": "2022-08-04T16:43:47.000",
    "request_status": "Pending",
    "responsible_agency": "Department of Public Works",
    "final_address": "20532 E Alba Rd",
    "address_councildis": "E",
    "status": "Pending",
    "rowid": "906755",
    "final_x": "3761989.83715",
    "final_y": "573095.449577",
    "longitude": "-89.81217647417296",
    "latitude": "30.06712074602649",
    "geocoded_column": {
      "latitude": "30.06712074602649",
      "longitude": "-89.81217647417296"
    }
  },
  {
    "service_request": "2022-906754",
    "request_type": "Mosquito, Termite & Rodent Control",
    "request_reason": "Mosquito Complaint",
    "date_created": "2022-08-04T16:42:07.000",
    "date_modified": "2022-08-04T16:42:08.000",
    "request_status": "Pending",
    "responsible_agency": "Mosquito, Termite & Rodent Control Board",
    "final_address": "4455 Francesco Rd",
    "address_councildis": "E",
    "status": "Pending",
    "rowid": "906754",
    "final_x": "3762188.58921",
    "final_y": "573040.466921",
    "longitude": "-89.81155050975845",
    "latitude": "30.066962312736",
    "geocoded_column": {
      "latitude": "30.066962312736",
      "longitude": "-89.81155050975845"
    }
  },
  {
    "service_request": "2022-906753",
    "request_type": "Trash/Recycling",
    "request_reason": "Request a Large Item Pick Up",
    "date_created": "2022-08-04T16:41:45.000",
    "date_modified": "2022-08-04T16:41:46.000",
    "request_status": "Pending",
    "responsible_agency": "Department of Sanitation",
    "final_address": "168 Westpark Ct",
    "address_councildis": "C",
    "status": "Assigned to Contractor",
    "contractor": "Richards Disposal",
    "rowid": "906753",
    "final_x": "3695893.18416",
    "final_y": "522211.251386",
    "longitude": "-90.02295820395645",
    "latitude": "29.929454988349644",
    "geocoded_column": {
      "latitude": "29.929454988349644",
      "longitude": "-90.02295820395645"
    }
  },
  {
    "service_request": "2022-906752",
    "request_type": "Trash/Recycling",
    "request_reason": "MIssed Recycling Pick-Up",
    "date_created": "2022-08-04T16:40:24.000",
    "date_modified": "2022-08-04T16:40:25.000",
    "request_status": "Pending",
    "responsible_agency": "Department of Sanitation",
    "final_address": "4719 Chestnut St",
    "address_councildis": "B",
    "status": "Assigned to Contractor",
    "contractor": "Richards Disposal",
    "rowid": "906752",
    "final_x": "3669697.47559",
    "final_y": "519442.163575",
    "longitude": "-90.10574713430512",
    "latitude": "29.922638612556913",
    "geocoded_column": {
      "latitude": "29.922638612556913",
      "longitude": "-90.10574713430512"
    }
  },
  {
    "service_request": "2022-906751",
    "request_type": "Trash/Recycling",
    "request_reason": "Order Trash Cart",
    "date_created": "2022-08-04T16:35:29.000",
    "date_modified": "2022-08-04T16:35:30.000",
    "request_status": "Pending",
    "responsible_agency": "Department of Sanitation",
    "final_address": "6715 Pauline Dr",
    "address_councildis": "D",
    "status": "Assigned to Contractor",
    "contractor": "Metro Disposal",
    "rowid": "906751",
    "final_x": "3690841.2118",
    "final_y": "558461.779292",
    "longitude": "-90.03761224481123",
    "latitude": "30.029288899873418",
    "geocoded_column": {
      "latitude": "30.029288899873418",
      "longitude": "-90.03761224481123"
    }
  },
  {
    "service_request": "2022-906750",
    "request_type": "Trash/Recycling",
    "request_reason": "Order Recycling Cart",
    "date_created": "2022-08-04T16:32:20.000",
    "date_modified": "2022-08-04T16:32:20.000",
    "request_status": "Pending",
    "responsible_agency": "Department of Sanitation",
    "final_address": "824 Dufossat St",
    "address_councildis": "B",
    "status": "Pending",
    "rowid": "906750",
    "final_x": "3668008.71764",
    "final_y": "518495.580343",
    "longitude": "-90.11110975820756",
    "latitude": "29.92008544737568",
    "geocoded_column": {
      "latitude": "29.92008544737568",
      "longitude": "-90.11110975820756"
    }
  },
  {
    "service_request": "2022-906749",
    "request_type": "Trash/Recycling",
    "request_reason": "MIssed Recycling Pick-Up",
    "date_created": "2022-08-04T16:31:45.000",
    "date_modified": "2022-08-04T16:31:46.000",
    "request_status": "Pending",
    "responsible_agency": "Department of Sanitation",
    "final_address": "521 Jena St",
    "address_councildis": "B",
    "status": "Assigned to Contractor",
    "contractor": "Richards Disposal",
    "rowid": "906749",
    "final_x": "3670829.03739",
    "final_y": "517616.240182",
    "longitude": "-90.10223716228248",
    "latitude": "29.917584519950626",
    "geocoded_column": {
      "latitude": "29.917584519950626",
      "longitude": "-90.10223716228248"
    }
  },
  {
    "service_request": "2022-906748",
    "request_type": "Trash/Recycling",
    "request_reason": "Missed Trash Pick-Up",
    "date_created": "2022-08-04T16:28:32.000",
    "date_modified": "2022-08-04T16:28:33.000",
    "request_status": "Pending",
    "responsible_agency": "Department of Sanitation",
    "final_address": "2729 Edna St",
    "address_councildis": "D",
    "status": "Assigned to Contractor",
    "contractor": "Metro Disposal",
    "rowid": "906748",
    "final_x": "3689619.9638",
    "final_y": "545327.968975",
    "longitude": "-90.04193909236174",
    "latitude": "29.993213679326495",
    "geocoded_column": {
      "latitude": "29.993213679326495",
      "longitude": "-90.04193909236174"
    }
  },
  {
    "service_request": "2022-906747",
    "request_type": "Trash/Recycling",
    "request_reason": "MIssed Recycling Pick-Up",
    "date_created": "2022-08-04T16:26:20.000",
    "date_modified": "2022-08-04T16:26:21.000",
    "request_status": "Pending",
    "responsible_agency": "Department of Sanitation",
    "final_address": "6220 Freret St",
    "address_councildis": "A",
    "status": "Assigned to Contractor",
    "contractor": "Richards Disposal",
    "rowid": "906747",
    "final_x": "3665733.71892",
    "final_y": "524645.390204",
    "longitude": "-90.11808498670464",
    "latitude": "29.93706200929093",
    "geocoded_column": {
      "latitude": "29.93706200929093",
      "longitude": "-90.11808498670464"
    }
  },
  {
    "service_request": "2022-906746",
    "request_type": "Trash/Recycling",
    "request_reason": "Missed Trash Pick-Up",
    "date_created": "2022-08-04T16:22:00.000",
    "date_modified": "2022-08-04T16:22:00.000",
    "request_status": "Pending",
    "responsible_agency": "Department of Sanitation",
    "final_address": "1232 Camp St",
    "address_councildis": "B",
    "status": "Assigned to Contractor",
    "contractor": "Richards Disposal",
    "rowid": "906746",
    "final_x": "3680217.18818",
    "final_y": "525442.995645",
    "longitude": "-90.07233215363114",
    "latitude": "29.938824842670524",
    "geocoded_column": {
      "latitude": "29.938824842670524",
      "longitude": "-90.07233215363114"
    }
  },
  {
    "service_request": "2022-906745",
    "request_type": "Trash/Recycling",
    "request_reason": "Missed Trash Pick-Up",
    "date_created": "2022-08-04T16:21:15.000",
    "date_modified": "2022-08-04T16:21:16.000",
    "request_status": "Pending",
    "responsible_agency": "Department of Sanitation",
    "final_address": "3439 Octavia St",
    "address_councildis": "A",
    "status": "Assigned to Contractor",
    "contractor": "Richards Disposal",
    "rowid": "906745",
    "final_x": "3668583.71322",
    "final_y": "528292.636608",
    "longitude": "-90.10896432743324",
    "latitude": "29.94700733744463",
    "geocoded_column": {
      "latitude": "29.94700733744463",
      "longitude": "-90.10896432743324"
    }
  },
  {
    "service_request": "2022-906744",
    "request_type": "Trash/Recycling",
    "request_reason": "Missed Trash Pick-Up",
    "date_created": "2022-08-04T16:19:10.000",
    "date_modified": "2022-08-04T16:19:11.000",
    "request_status": "Pending",
    "responsible_agency": "Department of Sanitation",
    "final_address": "2700 BLK Edna St",
    "address_councildis": "D",
    "status": "Assigned to Contractor",
    "contractor": "Metro Disposal",
    "rowid": "906744",
    "final_x": "3689686.30038",
    "final_y": "545289.876728",
    "longitude": "-90.04173090314175",
    "latitude": "29.993106883511192",
    "geocoded_column": {
      "latitude": "29.993106883511192",
      "longitude": "-90.04173090314175"
    }
  },
  {
    "service_request": "2022-906743",
    "request_type": "Abandoned Vehicles",
    "request_reason": "Abandoned/Junk Vehicles",
    "date_created": "2022-08-04T16:14:17.000",
    "date_modified": "2022-08-04T16:16:36.000",
    "request_status": "Pending",
    "responsible_agency": "Department of Public Works",
    "final_address": "401 St Joseph St",
    "address_councildis": "B",
    "status": "Pending",
    "rowid": "906743",
    "final_x": "3681281.52002",
    "final_y": "527260.582271",
    "longitude": "-90.06890861851",
    "latitude": "29.94379034985457",
    "geocoded_column": {
      "latitude": "29.94379034985457",
      "longitude": "-90.06890861851"
    }
  },
  {
    "service_request": "2022-906741",
    "request_type": "Mosquito, Termite & Rodent Control",
    "request_reason": "Rodent Complaint (Rats)",
    "date_created": "2022-08-04T16:06:22.000",
    "date_modified": "2022-08-04T16:06:22.000",
    "request_status": "Pending",
    "responsible_agency": "Mosquito, Termite & Rodent Control Board",
    "final_address": "2438 Bell St",
    "address_councildis": "D",
    "status": "Pending",
    "rowid": "906741",
    "final_x": "3678837.13685",
    "final_y": "538767.808201",
    "longitude": "-90.07622760242312",
    "latitude": "29.97550526780271",
    "geocoded_column": {
      "latitude": "29.97550526780271",
      "longitude": "-90.07622760242312"
    }
  },
  {
    "service_request": "2022-906740",
    "request_type": "Trash/Recycling",
    "request_reason": "Illegal Dumping",
    "date_created": "2022-08-04T16:03:12.000",
    "date_modified": "2022-08-04T16:03:13.000",
    "request_status": "Pending",
    "responsible_agency": "Department of Code Enforcement",
    "final_address": "1435 Lizardi St",
    "address_councildis": "E",
    "status": "Pending",
    "rowid": "906740",
    "final_x": "3696998.32259",
    "final_y": "535496.64391",
    "longitude": "-90.01898843470205",
    "latitude": "29.965950378823052",
    "geocoded_column": {
      "latitude": "29.965950378823052",
      "longitude": "-90.01898843470205"
    }
  },
  {
    "service_request": "2022-906739",
    "request_type": "Trash/Recycling",
    "request_reason": "Damaged Caused By Contractor",
    "date_created": "2022-08-04T16:01:04.000",
    "date_modified": "2022-08-04T16:01:05.000",
    "request_status": "Pending",
    "responsible_agency": "Department of Sanitation",
    "final_address": "6678 Canal Blvd",
    "address_councildis": "A",
    "status": "Assigned to Contractor",
    "contractor": "Metro Disposal",
    "rowid": "906739",
    "final_x": "3668741.34004",
    "final_y": "551982.049366",
    "longitude": "-90.10766656828976",
    "latitude": "30.012140578815895",
    "geocoded_column": {
      "latitude": "30.012140578815895",
      "longitude": "-90.10766656828976"
    }
  },
  {
    "service_request": "2022-906738",
    "request_type": "Roads/Drainage",
    "request_reason": "Accessibility Ramps, Curbs and Sidewalk Repair",
    "date_created": "2022-08-04T15:59:17.000",
    "date_modified": "2022-08-04T15:59:17.000",
    "request_status": "Pending",
    "responsible_agency": "Department of Public Works",
    "final_address": "404 Millaudon St",
    "address_councildis": "A",
    "status": "Pending",
    "rowid": "906738",
    "final_x": "3661922.85747",
    "final_y": "524705.322492",
    "longitude": "-90.13011416725678",
    "latitude": "29.937337387568945",
    "geocoded_column": {
      "latitude": "29.937337387568945",
      "longitude": "-90.13011416725678"
    }
  },
  {
    "service_request": "2022-906737",
    "request_type": "Abandoned Vehicles",
    "request_reason": "Abandoned/Junk Vehicles",
    "date_created": "2022-08-04T15:58:42.000",
    "date_modified": "2022-08-04T15:59:37.000",
    "request_status": "Pending",
    "responsible_agency": "Department of Public Works",
    "final_address": "18 St Claude Ct",
    "address_councildis": "E",
    "status": "Pending",
    "rowid": "906737",
    "final_x": "3697445.73437",
    "final_y": "533678.068997",
    "longitude": "-90.01764147233519",
    "latitude": "29.96093582579208",
    "geocoded_column": {
      "latitude": "29.96093582579208",
      "longitude": "-90.01764147233519"
    }
  },
  {
    "service_request": "2022-906736",
    "request_type": "Abandoned Vehicles",
    "request_reason": "Abandoned/Junk Vehicles",
    "date_created": "2022-08-04T15:52:59.000",
    "date_modified": "2022-08-04T15:52:59.000",
    "request_status": "Pending",
    "responsible_agency": "Department of Public Works",
    "final_address": "7800 BLK Leeds St",
    "address_councildis": "E",
    "status": "Pending",
    "rowid": "906736",
    "final_x": "3704137.75999",
    "final_y": "554905.621276",
    "longitude": "-89.99572697041671",
    "latitude": "30.019090709521297",
    "geocoded_column": {
      "latitude": "30.019090709521297",
      "longitude": "-89.99572697041671"
    }
  },
  {
    "service_request": "2022-906735",
    "request_type": "Trash/Recycling",
    "request_reason": "Request a Large Item Pick Up",
    "date_created": "2022-08-04T15:51:51.000",
    "date_modified": "2022-08-04T15:51:51.000",
    "request_status": "Pending",
    "responsible_agency": "Department of Sanitation",
    "final_address": "1519 Jackson Ave",
    "address_councildis": "B",
    "status": "Assigned to Contractor",
    "contractor": "Richards Disposal",
    "rowid": "906735",
    "final_x": "3677876.62894",
    "final_y": "523459.968507",
    "longitude": "-90.0797900565652",
    "latitude": "29.933442788360022",
    "geocoded_column": {
      "latitude": "29.933442788360022",
      "longitude": "-90.0797900565652"
    }
  },
  {
    "service_request": "2022-906734",
    "request_type": "Trash/Recycling",
    "request_reason": "Request a Large Item Pick Up",
    "date_created": "2022-08-04T15:49:14.000",
    "date_modified": "2022-08-04T15:49:15.000",
    "request_status": "Pending",
    "responsible_agency": "Department of Sanitation",
    "final_address": "10940 Harrow Rd",
    "address_councildis": "E",
    "status": "Assigned to Contractor",
    "contractor": "Metro Disposal",
    "rowid": "906734",
    "final_x": "3711778.88235",
    "final_y": "563817.623201",
    "longitude": "-89.97124919197346",
    "latitude": "30.043347700071017",
    "geocoded_column": {
      "latitude": "30.043347700071017",
      "longitude": "-89.97124919197346"
    }
  },
  {
    "service_request": "2022-906733",
    "request_type": "Trash/Recycling",
    "request_reason": "Illegal Dumping",
    "date_created": "2022-08-04T15:44:16.000",
    "date_modified": "2022-08-04T15:44:16.000",
    "request_status": "Pending",
    "responsible_agency": "Department of Sanitation",
    "final_address": "1016 Pauline St",
    "address_councildis": "C",
    "status": "Pending",
    "rowid": "906733",
    "final_x": "3691106.30524",
    "final_y": "535168.248454",
    "longitude": "-90.03760691232867",
    "latitude": "29.96523192616618",
    "geocoded_column": {
      "latitude": "29.96523192616618",
      "longitude": "-90.03760691232867"
    }
  },
  {
    "service_request": "2022-906732",
    "request_type": "Abandoned Vehicles",
    "request_reason": "Abandoned/Junk Vehicles",
    "date_created": "2022-08-04T15:39:34.000",
    "date_modified": "2022-08-04T15:39:34.000",
    "request_status": "Pending",
    "responsible_agency": "Department of Public Works",
    "final_address": "HAYNE BLVD & BENSON ST",
    "address_councildis": "E",
    "status": "Pending",
    "rowid": "906732",
    "final_x": "3703749.7",
    "final_y": "563783.78",
    "longitude": "-89.99662585070067",
    "latitude": "30.043514636092645",
    "geocoded_column": {
      "latitude": "30.043514636092645",
      "longitude": "-89.99662585070067"
    }
  },
  {
    "service_request": "2022-906731",
    "request_type": "Trash/Recycling",
    "request_reason": "MIssed Recycling Pick-Up",
    "date_created": "2022-08-04T15:37:16.000",
    "date_modified": "2022-08-04T15:37:17.000",
    "request_status": "Pending",
    "responsible_agency": "Department of Sanitation",
    "final_address": "6010 Freret St",
    "address_councildis": "A",
    "status": "Assigned to Contractor",
    "contractor": "Richards Disposal",
    "rowid": "906731",
    "final_x": "3666255.89319",
    "final_y": "524406.470524",
    "longitude": "-90.1164444570858",
    "latitude": "29.936389818373097",
    "geocoded_column": {
      "latitude": "29.936389818373097",
      "longitude": "-90.1164444570858"
    }
  },
  {
    "service_request": "2022-906730",
    "request_type": "Trash/Recycling",
    "request_reason": "Illegal Dumping",
    "date_created": "2022-08-04T15:36:01.000",
    "date_modified": "2022-08-04T15:36:01.000",
    "request_status": "Pending",
    "responsible_agency": "Department of Sanitation",
    "final_address": "2342 Pauline St",
    "address_councildis": "D",
    "status": "Pending",
    "rowid": "906730",
    "final_x": "3692374.41648",
    "final_y": "540312.133579",
    "longitude": "-90.03341801573113",
    "latitude": "29.979336294152926",
    "geocoded_column": {
      "latitude": "29.979336294152926",
      "longitude": "-90.03341801573113"
    }
  },
  {
    "service_request": "2022-906729",
    "request_type": "Trash/Recycling",
    "request_reason": "Request a Large Item Pick Up",
    "date_created": "2022-08-04T15:35:05.000",
    "date_modified": "2022-08-04T15:35:06.000",
    "request_status": "Pending",
    "responsible_agency": "Department of Sanitation",
    "final_address": "206 S Norman C Francis Prkwy",
    "address_councildis": "B",
    "status": "Assigned to Contractor",
    "contractor": "Richards Disposal",
    "rowid": "906729",
    "final_x": "3673011.05473",
    "final_y": "536240.500295",
    "longitude": "-90.09471427793976",
    "latitude": "29.9687304934256",
    "geocoded_column": {
      "latitude": "29.9687304934256",
      "longitude": "-90.09471427793976"
    }
  },
  {
    "service_request": "2022-906728",
    "request_type": "Roads/Drainage",
    "request_reason": "Debris in Roadway",
    "date_created": "2022-08-04T15:32:08.000",
    "date_modified": "2022-08-04T15:32:09.000",
    "request_status": "Pending",
    "responsible_agency": "Department of Public Works",
    "final_address": "1402 Saux Ln",
    "address_councildis": "C",
    "status": "Pending",
    "rowid": "906728",
    "final_x": "3692656.16592",
    "final_y": "526101.422846",
    "longitude": "-90.03303747391458",
    "latitude": "29.940253025158498",
    "geocoded_column": {
      "latitude": "29.940253025158498",
      "longitude": "-90.03303747391458"
    }
  },
  {
    "service_request": "2022-906727",
    "request_type": "Abandoned Vehicles",
    "request_reason": "Abandoned/Junk Vehicles",
    "date_created": "2022-08-04T15:31:48.000",
    "date_modified": "2022-08-04T15:31:48.000",
    "request_status": "Pending",
    "responsible_agency": "Department of Public Works",
    "final_address": "4130 Constance St",
    "address_councildis": "B",
    "status": "Pending",
    "rowid": "906727",
    "final_x": "3671933.85204",
    "final_y": "518469.691318",
    "longitude": "-90.09872084691982",
    "latitude": "29.91989855406527",
    "geocoded_column": {
      "latitude": "29.91989855406527",
      "longitude": "-90.09872084691982"
    }
  },
  {
    "service_request": "2022-906726",
    "request_type": "Trash/Recycling",
    "request_reason": "Illegal Dumping",
    "date_created": "2022-08-04T15:31:35.000",
    "date_modified": "2022-08-04T15:31:35.000",
    "request_status": "Pending",
    "responsible_agency": "Department of Sanitation",
    "final_address": "2342 Pauline St",
    "address_councildis": "D",
    "status": "Pending",
    "rowid": "906726",
    "final_x": "3692374.41648",
    "final_y": "540312.133579",
    "longitude": "-90.03341801573113",
    "latitude": "29.979336294152926",
    "geocoded_column": {
      "latitude": "29.979336294152926",
      "longitude": "-90.03341801573113"
    }
  },
  {
    "service_request": "2022-906725",
    "request_type": "Trash/Recycling",
    "request_reason": "Request a Large Item Pick Up",
    "date_created": "2022-08-04T15:28:11.000",
    "date_modified": "2022-08-04T15:28:13.000",
    "request_status": "Pending",
    "responsible_agency": "Department of Sanitation",
    "final_address": "DUMAINE ST & N ROCHEBLAVE ST",
    "address_councildis": "D",
    "status": "Assigned to Contractor",
    "contractor": "Richards Disposal",
    "rowid": "906725",
    "final_x": "3677960.7",
    "final_y": "536904.18",
    "longitude": "-90.07906005881067",
    "latitude": "29.970407339379065",
    "geocoded_column": {
      "latitude": "29.970407339379065",
      "longitude": "-90.07906005881067"
    }
  },
  {
    "service_request": "2022-906724",
    "request_type": "Tax and Revenue",
    "request_reason": "Personal Property Tax Question",
    "date_created": "2022-08-04T15:27:04.000",
    "date_modified": "2022-08-04T15:27:04.000",
    "request_status": "Pending",
    "responsible_agency": "Bureau of Treasury",
    "status": "Pending",
    "rowid": "906724",
    "longitude": "0.0",
    "latitude": "0.0",
    "geocoded_column": {
      "latitude": "0.0",
      "longitude": "0.0"
    }
  },
  {
    "service_request": "2022-906722",
    "request_type": "Parks & Parkways",
    "request_reason": "Request Tree Service (Right of Way/Public Property)",
    "date_created": "2022-08-04T15:22:28.000",
    "date_modified": "2022-08-04T15:22:28.000",
    "request_status": "Pending",
    "responsible_agency": "Department of Parks & Parkway",
    "final_address": "6637 Congress Dr",
    "address_councildis": "D",
    "status": "Pending",
    "rowid": "906722",
    "final_x": "3690659.86006",
    "final_y": "558178.235739",
    "longitude": "-90.03819543736923",
    "latitude": "30.02851489957645",
    "geocoded_column": {
      "latitude": "30.02851489957645",
      "longitude": "-90.03819543736923"
    }
  },
  {
    "service_request": "2022-906721",
    "request_type": "Traffic Signals/Signs/Striping/Streetlights",
    "request_reason": "Street Light Outage/Malfunction",
    "date_created": "2022-08-04T15:21:31.000",
    "date_modified": "2022-08-04T15:21:32.000",
    "request_status": "Pending",
    "responsible_agency": "Department of Public Works",
    "final_address": "220 S Pierce St",
    "address_councildis": "A",
    "status": "Pending",
    "contractor": "Royal Engineering",
    "rowid": "906721",
    "final_x": "3671150.69223",
    "final_y": "537552.083528",
    "longitude": "-90.10054486245635",
    "latitude": "29.972392070485302",
    "geocoded_column": {
      "latitude": "29.972392070485302",
      "longitude": "-90.10054486245635"
    }
  },
  {
    "service_request": "2022-906720",
    "request_type": "Safety & Permits",
    "request_reason": "Licenses & Permits",
    "date_created": "2022-08-04T15:21:12.000",
    "date_modified": "2022-08-04T15:21:13.000",
    "request_status": "Pending",
    "responsible_agency": "Safety and Permits",
    "final_address": "730 Herald St",
    "address_councildis": "C",
    "status": "Pending",
    "rowid": "906720",
    "final_x": "3702317.38717",
    "final_y": "519689.95308",
    "longitude": "-90.00277074539187",
    "latitude": "29.922318717966533",
    "geocoded_column": {
      "latitude": "29.922318717966533",
      "longitude": "-90.00277074539187"
    }
  },
  {
    "service_request": "2022-906719",
    "request_type": "Roads/Drainage",
    "request_reason": "Street Subsidence (Sinking)",
    "date_created": "2022-08-04T15:21:01.000",
    "date_modified": "2022-08-04T15:21:01.000",
    "request_status": "Pending",
    "responsible_agency": "Department of Public Works",
    "final_address": "7714 Hickman St",
    "address_councildis": "E",
    "status": "Pending",
    "rowid": "906719",
    "final_x": "3705932.78801",
    "final_y": "563546.57264",
    "longitude": "-89.9897352078967",
    "latitude": "30.042792203849853",
    "geocoded_column": {
      "latitude": "30.042792203849853",
      "longitude": "-89.9897352078967"
    }
  },
  {
    "service_request": "2022-906718",
    "request_type": "Trash/Recycling",
    "request_reason": "Order Trash Cart",
    "date_created": "2022-08-04T15:20:54.000",
    "date_modified": "2022-08-04T15:20:55.000",
    "request_status": "Pending",
    "responsible_agency": "Department of Sanitation",
    "final_address": "407 Abalon Ct",
    "address_councildis": "C",
    "status": "Assigned to Contractor",
    "contractor": "Richards Disposal",
    "rowid": "906718",
    "final_x": "3689328.30812",
    "final_y": "530174.783361",
    "longitude": "-90.04339923852532",
    "latitude": "29.951556793139034",
    "geocoded_column": {
      "latitude": "29.951556793139034",
      "longitude": "-90.04339923852532"
    }
  },
  {
    "service_request": "2022-906717",
    "request_type": "Trash/Recycling",
    "request_reason": "Illegal Dumping",
    "date_created": "2022-08-04T15:17:08.000",
    "date_modified": "2022-08-04T15:22:28.000",
    "request_status": "Pending",
    "responsible_agency": "Department of Sanitation",
    "final_address": "CANAL BLVD & KENILWORTH ST & I 610 W ONRAMP",
    "address_councildis": "A",
    "status": "Pending",
    "rowid": "906717",
    "final_x": "3668298.4",
    "final_y": "545966.78",
    "longitude": "-90.10926903516778",
    "latitude": "29.995613700155094",
    "geocoded_column": {
      "latitude": "29.995613700155094",
      "longitude": "-90.10926903516778"
    }
  },
  {
    "service_request": "2022-906716",
    "request_type": "Abandoned Vehicles",
    "request_reason": "Abandoned/Junk Vehicles",
    "date_created": "2022-08-04T15:16:44.000",
    "date_modified": "2022-08-04T15:16:44.000",
    "request_status": "Pending",
    "responsible_agency": "Department of Public Works",
    "final_address": "9800 Morrison Rd",
    "address_councildis": "E",
    "status": "Pending",
    "rowid": "906716",
    "final_x": "3707688.55217",
    "final_y": "562799.182432",
    "longitude": "-89.98421414344695",
    "latitude": "30.040680452498894",
    "geocoded_column": {
      "latitude": "30.040680452498894",
      "longitude": "-89.98421414344695"
    }
  },
  {
    "service_request": "2022-906715",
    "request_type": "Property Maintenance",
    "request_reason": "Property Maintenance",
    "date_created": "2022-08-04T15:14:21.000",
    "date_modified": "2022-08-04T15:14:22.000",
    "request_status": "Pending",
    "responsible_agency": "Department of Code Enforcement",
    "final_address": "401 City Park Ave",
    "address_councildis": "A",
    "status": "Pending",
    "rowid": "906715",
    "final_x": "3669016.54868",
    "final_y": "541580.110284",
    "longitude": "-90.10714874874854",
    "latitude": "29.983530745996323",
    "geocoded_column": {
      "latitude": "29.983530745996323",
      "longitude": "-90.10714874874854"
    }
  },
  {
    "service_request": "2022-906713",
    "request_type": "Trash/Recycling",
    "request_reason": "Repair Trash Cart",
    "date_created": "2022-08-04T15:08:31.000",
    "date_modified": "2022-08-04T15:08:31.000",
    "request_status": "Pending",
    "responsible_agency": "Department of Sanitation",
    "final_address": "47 Versailles Blvd",
    "address_councildis": "A",
    "status": "Assigned to Contractor",
    "contractor": "Richards Disposal",
    "rowid": "906713",
    "final_x": "3667559.09505",
    "final_y": "529785.679297",
    "longitude": "-90.11214919803243",
    "latitude": "29.951142784001696",
    "geocoded_column": {
      "latitude": "29.951142784001696",
      "longitude": "-90.11214919803243"
    }
  },
  {
    "service_request": "2022-906712",
    "request_type": "Trash/Recycling",
    "request_reason": "Missed Trash Pick-Up",
    "date_created": "2022-08-04T15:08:07.000",
    "date_modified": "2022-08-04T15:08:08.000",
    "request_status": "Pending",
    "responsible_agency": "Department of Sanitation",
    "final_address": "DART ST & VINCENNES PL",
    "address_councildis": "B",
    "status": "Assigned to Contractor",
    "contractor": "Richards Disposal",
    "rowid": "906712",
    "final_x": "3668880.1",
    "final_y": "531784.58",
    "longitude": "-90.10791061022925",
    "latitude": "29.956600327418585",
    "geocoded_column": {
      "latitude": "29.956600327418585",
      "longitude": "-90.10791061022925"
    }
  },
  {
    "service_request": "2022-906711",
    "request_type": "Trash/Recycling",
    "request_reason": "Replace Trash Cart",
    "date_created": "2022-08-04T15:03:45.000",
    "date_modified": "2022-08-04T15:03:46.000",
    "request_status": "Pending",
    "responsible_agency": "Department of Sanitation",
    "final_address": "15 Flowerdale Ct",
    "address_councildis": "A",
    "status": "Assigned to Contractor",
    "contractor": "Richards Disposal",
    "rowid": "906711",
    "final_x": "3673448.20398",
    "final_y": "541227.840204",
    "longitude": "-90.09316326314165",
    "latitude": "29.9824309804596",
    "geocoded_column": {
      "latitude": "29.9824309804596",
      "longitude": "-90.09316326314165"
    }
  },
  {
    "service_request": "2022-906710",
    "request_type": "Trash/Recycling",
    "request_reason": "Missed Trash Pick-Up",
    "date_created": "2022-08-04T15:02:59.000",
    "date_modified": "2022-08-04T15:03:01.000",
    "request_status": "Pending",
    "responsible_agency": "Department of Sanitation",
    "final_address": "1615 Dufossat St",
    "address_councildis": "B",
    "status": "Assigned to Contractor",
    "contractor": "Richards Disposal",
    "rowid": "906710",
    "final_x": "3668186.91655",
    "final_y": "521302.903033",
    "longitude": "-90.11045269625293",
    "latitude": "29.927799468632287",
    "geocoded_column": {
      "latitude": "29.927799468632287",
      "longitude": "-90.11045269625293"
    }
  },
  {
    "service_request": "2022-906708",
    "request_type": "Trash/Recycling",
    "request_reason": "Repair Trash Cart",
    "date_created": "2022-08-04T14:57:34.000",
    "date_modified": "2022-08-04T14:57:35.000",
    "request_status": "Pending",
    "responsible_agency": "Department of Sanitation",
    "final_address": "3026 Short St",
    "address_councildis": "B",
    "status": "Assigned to Contractor",
    "contractor": "Richards Disposal",
    "rowid": "906708",
    "final_x": "3666728.53447",
    "final_y": "533047.69786",
    "longitude": "-90.11466215947783",
    "latitude": "29.960136581523482",
    "geocoded_column": {
      "latitude": "29.960136581523482",
      "longitude": "-90.11466215947783"
    }
  },
  {
    "service_request": "2022-906707",
    "request_type": "Trash/Recycling",
    "request_reason": "MIssed Recycling Pick-Up",
    "date_created": "2022-08-04T14:54:05.000",
    "date_modified": "2022-08-04T14:54:05.000",
    "request_status": "Pending",
    "responsible_agency": "Department of Sanitation",
    "final_address": "1527 Jefferson Ave, New Orleans, Louisiana, 70115",
    "address_councildis": "B",
    "status": "Assigned to Contractor",
    "contractor": "Richards Disposal",
    "rowid": "906707",
    "final_x": "3667308.05799",
    "final_y": "520784.102393",
    "longitude": "-90.11324449353462",
    "latitude": "29.92639869255721",
    "geocoded_column": {
      "latitude": "29.92639869255721",
      "longitude": "-90.11324449353462"
    }
  },
  {
    "service_request": "2022-906706",
    "request_type": "Abandoned Vehicles",
    "request_reason": "Abandoned/Junk Vehicles",
    "date_created": "2022-08-04T14:53:06.000",
    "date_modified": "2022-08-04T14:58:37.000",
    "request_status": "Pending",
    "responsible_agency": "Department of Public Works",
    "final_address": "1115 Flanders St",
    "address_councildis": "C",
    "status": "Pending",
    "rowid": "906706",
    "final_x": "3696707.57597",
    "final_y": "527235.885375",
    "longitude": "-90.02020555701039",
    "latitude": "29.943245365336743",
    "geocoded_column": {
      "latitude": "29.943245365336743",
      "longitude": "-90.02020555701039"
    }
  },
  {
    "service_request": "2022-906705",
    "request_type": "Traffic Signals/Signs/Striping/Streetlights",
    "request_reason": "Street Light Outage/Malfunction",
    "date_created": "2022-08-04T14:52:50.000",
    "date_modified": "2022-08-04T14:52:51.000",
    "request_status": "Pending",
    "responsible_agency": "Department of Public Works",
    "final_address": "833 Canal St",
    "address_councildis": "C",
    "status": "Pending",
    "contractor": "Royal Engineering",
    "rowid": "906705",
    "final_x": "3680753.83163",
    "final_y": "531122.255938",
    "longitude": "-90.07044029377205",
    "latitude": "29.954424655531867",
    "geocoded_column": {
      "latitude": "29.954424655531867",
      "longitude": "-90.07044029377205"
    }
  },
  {
    "service_request": "2022-906704",
    "request_type": "Trash/Recycling",
    "request_reason": "Illegal Dumping",
    "date_created": "2022-08-04T14:51:26.000",
    "date_modified": "2022-08-04T14:51:26.000",
    "request_status": "Pending",
    "responsible_agency": "Department of Sanitation",
    "final_address": "S ROBERTSON ST & AMELIA ST",
    "address_councildis": "B",
    "status": "Pending",
    "rowid": "906704",
    "final_x": "3672280.1",
    "final_y": "524627.88",
    "longitude": "-90.09741824337517",
    "latitude": "29.936821330992345",
    "geocoded_column": {
      "latitude": "29.936821330992345",
      "longitude": "-90.09741824337517"
    }
  },
  {
    "service_request": "2022-906703",
    "request_type": "Property Maintenance",
    "request_reason": "Property Maintenance",
    "date_created": "2022-08-04T14:50:45.000",
    "date_modified": "2022-08-04T14:50:45.000",
    "request_status": "Pending",
    "responsible_agency": "Department of Code Enforcement",
    "final_address": "7530 Alabama St",
    "address_councildis": "D",
    "status": "Pending",
    "rowid": "906703",
    "final_x": "3694929.71536",
    "final_y": "558246.74934",
    "longitude": "-90.02470049246016",
    "latitude": "30.0285698921602",
    "geocoded_column": {
      "latitude": "30.0285698921602",
      "longitude": "-90.02470049246016"
    }
  },
  {
    "service_request": "2022-906701",
    "request_type": "Trash/Recycling",
    "request_reason": "Missed Trash Pick-Up",
    "date_created": "2022-08-04T14:47:21.000",
    "date_modified": "2022-08-04T14:47:21.000",
    "request_status": "Pending",
    "responsible_agency": "Department of Sanitation",
    "final_address": "1830 Congress St",
    "address_councildis": "D",
    "status": "Assigned to Contractor",
    "contractor": "Metro Disposal",
    "rowid": "906701",
    "final_x": "3691396.64668",
    "final_y": "538460.120201",
    "longitude": "-90.03657238499581",
    "latitude": "29.974274380499434",
    "geocoded_column": {
      "latitude": "29.974274380499434",
      "longitude": "-90.03657238499581"
    }
  },
  {
    "service_request": "2022-906700",
    "request_type": "Trash/Recycling",
    "request_reason": "Request a Large Item Pick Up",
    "date_created": "2022-08-04T14:46:56.000",
    "date_modified": "2022-08-04T14:46:56.000",
    "request_status": "Pending",
    "responsible_agency": "Department of Sanitation",
    "final_address": "27 Neron Pl",
    "address_councildis": "A",
    "status": "Assigned to Contractor",
    "contractor": "Richards Disposal",
    "rowid": "906700",
    "final_x": "3665127.87943",
    "final_y": "530776.048898",
    "longitude": "-90.11979268016171",
    "latitude": "29.953937001089827",
    "geocoded_column": {
      "latitude": "29.953937001089827",
      "longitude": "-90.11979268016171"
    }
  },
  {
    "service_request": "2022-906699",
    "request_type": "Trash/Recycling",
    "request_reason": "MIssed Recycling Pick-Up",
    "date_created": "2022-08-04T14:42:25.000",
    "date_modified": "2022-08-04T14:42:26.000",
    "request_status": "Pending",
    "responsible_agency": "Department of Sanitation",
    "final_address": "5219 Chestnut St",
    "address_councildis": "B",
    "status": "Assigned to Contractor",
    "contractor": "Richards Disposal",
    "rowid": "906699",
    "final_x": "3667887.03418",
    "final_y": "519396.029239",
    "longitude": "-90.11146354695597",
    "latitude": "29.922564966324554",
    "geocoded_column": {
      "latitude": "29.922564966324554",
      "longitude": "-90.11146354695597"
    }
  },
  {
    "service_request": "2022-906698",
    "request_type": "Trash/Recycling",
    "request_reason": "Repair Trash Cart",
    "date_created": "2022-08-04T14:39:30.000",
    "date_modified": "2022-08-04T14:39:31.000",
    "request_status": "Pending",
    "responsible_agency": "Department of Sanitation",
    "final_address": "5938 Laurel St",
    "address_councildis": "A",
    "status": "Assigned to Contractor",
    "contractor": "Richards Disposal",
    "rowid": "906698",
    "final_x": "3664685.8553",
    "final_y": "518102.754102",
    "longitude": "-90.12161159706895",
    "latitude": "29.919102338403178",
    "geocoded_column": {
      "latitude": "29.919102338403178",
      "longitude": "-90.12161159706895"
    }
  },
  {
    "service_request": "2022-906697",
    "request_type": "Trash/Recycling",
    "request_reason": "Repair Trash Cart",
    "date_created": "2022-08-04T14:37:20.000",
    "date_modified": "2022-08-04T14:37:20.000",
    "case_close_date": "2019-09-03T19:00:00.000",
    "request_status": "Pending",
    "responsible_agency": "Department of Sanitation",
    "final_address": "6971 Ridgefield Dr",
    "address_councildis": "E",
    "status": "Assigned to Contractor",
    "contractor": "Metro Disposal",
    "rowid": "906697",
    "final_x": "3719716.63141",
    "final_y": "569271.37623",
    "longitude": "-89.94595418455403",
    "latitude": "30.0580814325464",
    "geocoded_column": {
      "latitude": "30.0580814325464",
      "longitude": "-89.94595418455403"
    }
  },
  {
    "service_request": "2022-906696",
    "request_type": "Traffic Signals/Signs/Striping/Streetlights",
    "request_reason": "Street Light Outage/Malfunction",
    "date_created": "2022-08-04T14:35:53.000",
    "date_modified": "2022-08-04T14:35:54.000",
    "request_status": "Pending",
    "responsible_agency": "Department of Public Works",
    "final_address": "628 Lamanche St",
    "address_councildis": "E",
    "status": "Pending",
    "contractor": "Royal Engineering",
    "rowid": "906696",
    "final_x": "3697866.21699",
    "final_y": "532046.744323",
    "longitude": "-90.01637288210615",
    "latitude": "29.956436978521182",
    "geocoded_column": {
      "latitude": "29.956436978521182",
      "longitude": "-90.01637288210615"
    }
  },
  {
    "service_request": "2022-906695",
    "request_type": "Trash/Recycling",
    "request_reason": "Order Recycling Cart",
    "date_created": "2022-08-04T14:28:48.000",
    "date_modified": "2022-08-04T14:28:48.000",
    "request_status": "Pending",
    "responsible_agency": "Department of Sanitation",
    "final_address": "1558 Shirley Dr, New Orleans, Louisiana, 70114",
    "address_councildis": "C",
    "status": "Pending",
    "rowid": "906695",
    "final_x": "3693131.10512",
    "final_y": "524891.26118",
    "longitude": "-90.03158142772573",
    "latitude": "29.93691066704312",
    "geocoded_column": {
      "latitude": "29.93691066704312",
      "longitude": "-90.03158142772573"
    }
  },
  {
    "service_request": "2022-906694",
    "request_type": "Traffic Signals/Signs/Striping/Streetlights",
    "request_reason": "Street Light Outage/Malfunction",
    "date_created": "2022-08-04T14:27:07.000",
    "date_modified": "2022-08-04T14:27:07.000",
    "request_status": "Pending",
    "responsible_agency": "Department of Public Works",
    "final_address": "828 Canal St",
    "address_councildis": "B",
    "status": "Pending",
    "contractor": "Royal Engineering",
    "rowid": "906694",
    "final_x": "3680651.11458",
    "final_y": "530962.611138",
    "longitude": "-90.07077018806176",
    "latitude": "29.95398879876719",
    "geocoded_column": {
      "latitude": "29.95398879876719",
      "longitude": "-90.07077018806176"
    }
  },
  {
    "service_request": "2022-906693",
    "request_type": "Traffic Signals/Signs/Striping/Streetlights",
    "request_reason": "Street Light Outage/Malfunction",
    "date_created": "2022-08-04T14:24:50.000",
    "date_modified": "2022-08-04T14:24:50.000",
    "request_status": "Pending",
    "responsible_agency": "Department of Public Works",
    "final_address": "841 Canal St",
    "address_councildis": "C",
    "status": "Pending",
    "contractor": "Royal Engineering",
    "rowid": "906693",
    "final_x": "3680702.21563",
    "final_y": "531159.824962",
    "longitude": "-90.07060196939204",
    "latitude": "29.95452952179781",
    "geocoded_column": {
      "latitude": "29.95452952179781",
      "longitude": "-90.07060196939204"
    }
  },
  {
    "service_request": "2022-906692",
    "request_type": "Trash/Recycling",
    "request_reason": "Order Trash Cart",
    "date_created": "2022-08-04T14:22:04.000",
    "date_modified": "2022-08-04T14:22:05.000",
    "request_status": "Pending",
    "responsible_agency": "Department of Sanitation",
    "final_address": "1558 Shirley Dr, New Orleans, Louisiana, 70114",
    "address_councildis": "C",
    "status": "Assigned to Contractor",
    "contractor": "Richards Disposal",
    "rowid": "906692",
    "final_x": "3693131.10512",
    "final_y": "524891.26118",
    "longitude": "-90.03158142772573",
    "latitude": "29.93691066704312",
    "geocoded_column": {
      "latitude": "29.93691066704312",
      "longitude": "-90.03158142772573"
    }
  },
  {
    "service_request": "2022-906690",
    "request_type": "Traffic Signals/Signs/Striping/Streetlights",
    "request_reason": "Street Light Outage/Malfunction",
    "date_created": "2022-08-04T14:20:28.000",
    "date_modified": "2022-08-04T14:20:29.000",
    "request_status": "Pending",
    "responsible_agency": "Department of Public Works",
    "final_address": "901 Canal St",
    "address_councildis": "C",
    "status": "Pending",
    "contractor": "Royal Engineering",
    "rowid": "906690",
    "final_x": "3680631.88226",
    "final_y": "531206.714434",
    "longitude": "-90.07082242326072",
    "latitude": "29.954660583026204",
    "geocoded_column": {
      "latitude": "29.954660583026204",
      "longitude": "-90.07082242326072"
    }
  },