[
  {
    "service_request": "2022-893241",
    "request_type": "Parks & Parkways",
    "request_reason": "Request Grass Cutting Service (City Owned Property)",
    "date_created": "2022-06-21T01:18:18.000",
    "date_modified": "2022-06-21T01:18:18.000",
    "request_status": "Pending",
    "responsible_agency": "Department of Parks & Parkway",
    "final_address": "6700 Milne Blvd",
    "address_councildis": "A",
    "status": "Pending",
    "rowid": "893241",
    "final_x": "3667412.57921",
    "final_y": "552302.556438",
    "longitude": "-90.11185391951881",
    "latitude": "30.0130608754274",
    "geocoded_column": {
      "latitude": "30.0130608754274",
      "longitude": "-90.11185391951881"
    }
  },
  {
    "service_request": "2022-893240",
    "request_type": "Traffic Signals/Signs/Striping/Streetlights",
    "request_reason": "Street Light Outage/Malfunction",
    "date_created": "2022-06-21T01:16:23.000",
    "date_modified": "2022-06-21T01:16:23.000",
    "request_status": "Pending",
    "responsible_agency": "Department of Public Works",
    "final_address": "6860 Colbert St",
    "address_councildis": "A",
    "status": "Pending",
    "contractor": "Royal Engineering",
    "rowid": "893240",
    "final_x": "3667856.90202",
    "final_y": "553287.315351",
    "longitude": "-90.11041688758415",
    "latitude": "30.015755584660795",
    "geocoded_column": {
      "latitude": "30.015755584660795",
      "longitude": "-90.11041688758415"
    }
  },
  {
    "service_request": "2022-893239",
    "request_type": "Health Related Questions",
    "request_reason": "Noise Ordinance Complaint",
    "date_created": "2022-06-20T23:19:02.000",
    "date_modified": "2022-06-20T23:19:02.000",
    "request_status": "Pending",
    "responsible_agency": "Health Department",
    "final_address": "718 Bourbon St, New Orleans, Louisiana, 70116",
    "address_councildis": "C",
    "status": "Pending",
    "rowid": "893239",
    "final_x": "3682364.17781",
    "final_y": "532746.008004",
    "longitude": "-90.06529872053143",
    "latitude": "29.95884052062511",
    "geocoded_column": {
      "latitude": "29.95884052062511",
      "longitude": "-90.06529872053143"
    }
  },
  {
    "service_request": "2022-893238",
    "request_type": "Health Related Questions",
    "request_reason": "Noise Ordinance Complaint",
    "date_created": "2022-06-20T23:16:31.000",
    "date_modified": "2022-06-20T23:16:31.000",
    "request_status": "Pending",
    "responsible_agency": "Health Department",
    "final_address": "718 Bourbon St, New Orleans, Louisiana, 70116",
    "address_councildis": "C",
    "status": "Pending",
    "rowid": "893238",
    "final_x": "3682364.17781",
    "final_y": "532746.008004",
    "longitude": "-90.06529872053143",
    "latitude": "29.95884052062511",
    "geocoded_column": {
      "latitude": "29.95884052062511",
      "longitude": "-90.06529872053143"
    }
  },
  {
    "service_request": "2022-893237",
    "request_type": "Health Related Questions",
    "request_reason": "Noise Ordinance Complaint",
    "date_created": "2022-06-20T23:14:02.000",
    "date_modified": "2022-06-20T23:14:02.000",
    "request_status": "Pending",
    "responsible_agency": "Health Department",
    "final_address": "718 Bourbon St, New Orleans, Louisiana, 70116",
    "address_councildis": "C",
    "status": "Pending",
    "rowid": "893237",
    "final_x": "3682364.17781",
    "final_y": "532746.008004",
    "longitude": "-90.06529872053143",
    "latitude": "29.95884052062511",
    "geocoded_column": {
      "latitude": "29.95884052062511",
      "longitude": "-90.06529872053143"
    }
  },
  {
    "service_request": "2022-893236",
    "request_type": "Traffic Signals/Signs/Striping/Streetlights",
    "request_reason": "Street Light Outage/Malfunction",
    "date_created": "2022-06-20T22:33:43.000",
    "date_modified": "2022-06-20T22:33:44.000",
    "request_status": "Pending",
    "responsible_agency": "Department of Public Works",
    "final_address": "2419 Decatur St",
    "address_councildis": "C",
    "status": "Pending",
    "contractor": "Royal Engineering",
    "rowid": "893236",
    "final_x": "3686107.96598",
    "final_y": "534256.239621",
    "longitude": "-90.05342354520306",
    "latitude": "29.962878686214506",
    "geocoded_column": {
      "latitude": "29.962878686214506",
      "longitude": "-90.05342354520306"
    }
  },
  {
    "service_request": "2022-893235",
    "request_type": "Health Related Questions",
    "request_reason": "Noise Ordinance Complaint",
    "date_created": "2022-06-20T22:26:57.000",
    "date_modified": "2022-06-20T22:26:57.000",
    "request_status": "Pending",
    "responsible_agency": "Health Department",
    "final_address": "718 Bourbon St, New Orleans, Louisiana, 70116",
    "address_councildis": "C",
    "status": "Pending",
    "rowid": "893235",
    "final_x": "3682364.17781",
    "final_y": "532746.008004",
    "longitude": "-90.06529872053143",
    "latitude": "29.95884052062511",
    "geocoded_column": {
      "latitude": "29.95884052062511",
      "longitude": "-90.06529872053143"
    }
  },
  {
    "service_request": "2022-893234",
    "request_type": "Trash/Recycling",
    "request_reason": "Request a Large Item Pick Up",
    "date_created": "2022-06-20T22:18:57.000",
    "date_modified": "2022-06-20T22:18:57.000",
    "request_status": "Pending",
    "responsible_agency": "Department of Sanitation",
    "final_address": "1631 Sixth St",
    "address_councildis": "B",
    "status": "Assigned to Contractor",
    "contractor": "Richards Disposal",
    "rowid": "893234",
    "final_x": "3675383.72424",
    "final_y": "522475.95353",
    "longitude": "-90.08769379233294",
    "latitude": "29.930811821581226",
    "geocoded_column": {
      "latitude": "29.930811821581226",
      "longitude": "-90.08769379233294"
    }
  },
  {
    "service_request": "2022-893233",
    "request_type": "Traffic Signals/Signs/Striping/Streetlights",
    "request_reason": "Street Light Outage/Malfunction",
    "date_created": "2022-06-20T22:01:13.000",
    "date_modified": "2022-06-20T22:01:14.000",
    "request_status": "Pending",
    "responsible_agency": "Department of Public Works",
    "final_address": "616 Vallette St",
    "address_councildis": "C",
    "status": "Pending",
    "contractor": "Royal Engineering",
    "rowid": "893233",
    "final_x": "3687542.26786",
    "final_y": "529373.924033",
    "longitude": "-90.04906701568801",
    "latitude": "29.949409869085446",
    "geocoded_column": {
      "latitude": "29.949409869085446",
      "longitude": "-90.04906701568801"
    }
  },
  {
    "service_request": "2022-893232",
    "request_type": "Health Related Questions",
    "request_reason": "Noise Ordinance Complaint",
    "date_created": "2022-06-20T21:56:53.000",
    "date_modified": "2022-06-20T21:56:53.000",
    "request_status": "Pending",
    "responsible_agency": "Health Department",
    "final_address": "718 Bourbon St, New Orleans, Louisiana, 70116",
    "address_councildis": "C",
    "status": "Pending",
    "rowid": "893232",
    "final_x": "3682364.17781",
    "final_y": "532746.008004",
    "longitude": "-90.06529872053143",
    "latitude": "29.95884052062511",
    "geocoded_column": {
      "latitude": "29.95884052062511",
      "longitude": "-90.06529872053143"
    }
  },
  {
    "service_request": "2022-893231",
    "request_type": "Health Related Questions",
    "request_reason": "Noise Ordinance Complaint",
    "date_created": "2022-06-20T21:56:16.000",
    "date_modified": "2022-06-20T21:56:16.000",
    "request_status": "Pending",
    "responsible_agency": "Health Department",
    "final_address": "718 Bourbon St, New Orleans, Louisiana, 70116",
    "address_councildis": "C",
    "status": "Pending",
    "rowid": "893231",
    "final_x": "3682364.17781",
    "final_y": "532746.008004",
    "longitude": "-90.06529872053143",
    "latitude": "29.95884052062511",
    "geocoded_column": {
      "latitude": "29.95884052062511",
      "longitude": "-90.06529872053143"
    }
  },
  {
    "service_request": "2022-893230",
    "request_type": "Trash/Recycling",
    "request_reason": "Dead Animal Pick Up",
    "date_created": "2022-06-20T21:53:37.000",
    "date_modified": "2022-06-20T21:53:38.000",
    "request_status": "Pending",
    "responsible_agency": "Department of Sanitation",
    "final_address": "2034 Franklin Ave",
    "address_councildis": "D",
    "status": "Assigned to Contractor",
    "contractor": "Metro Disposal",
    "rowid": "893230",
    "final_x": "3687535.16482",
    "final_y": "540140.065995",
    "longitude": "-90.04870833511382",
    "latitude": "29.979013236359545",
    "geocoded_column": {
      "latitude": "29.979013236359545",
      "longitude": "-90.04870833511382"
    }
  },
  {
    "service_request": "2022-893228",
    "request_type": "Traffic Signals/Signs/Striping/Streetlights",
    "request_reason": "Street Light Outage/Malfunction",
    "date_created": "2022-06-20T21:38:05.000",
    "date_modified": "2022-06-20T21:38:06.000",
    "request_status": "Pending",
    "responsible_agency": "Department of Public Works",
    "final_address": "com",
    "address_councildis": "A",
    "status": "Pending",
    "contractor": "Royal Engineering",
    "rowid": "893228",
    "final_x": "3665093.38541",
    "final_y": "551162.291989",
    "longitude": "-90.11921952875208",
    "latitude": "30.00999332068683",
    "geocoded_column": {
      "latitude": "30.00999332068683",
      "longitude": "-90.11921952875208"
    }
  },
  {
    "service_request": "2022-893227",
    "request_type": "Abandoned Vehicles",
    "request_reason": "Abandoned/Junk Vehicles",
    "date_created": "2022-06-20T21:35:45.000",
    "date_modified": "2022-06-20T21:35:45.000",
    "request_status": "Pending",
    "responsible_agency": "Department of Public Works",
    "final_address": "D'Abadie St, New Orleans, Louisiana, 70119",
    "status": "Pending",
    "rowid": "893227",
    "longitude": "0.0",
    "latitude": "0.0",
    "geocoded_column": {
      "latitude": "0.0",
      "longitude": "0.0"
    }
  },
  {
    "service_request": "2022-893226",
    "request_type": "Abandoned Vehicles",
    "request_reason": "Abandoned/Junk Vehicles",
    "date_created": "2022-06-20T21:29:21.000",
    "date_modified": "2022-06-20T21:29:21.000",
    "request_status": "Pending",
    "responsible_agency": "Department of Public Works",
    "final_address": "4318 Bienville Ave",
    "address_councildis": "A",
    "status": "Pending",
    "rowid": "893226",
    "final_x": "3670570.77441",
    "final_y": "539639.801418",
    "longitude": "-90.10230551324001",
    "latitude": "29.978149732444468",
    "geocoded_column": {
      "latitude": "29.978149732444468",
      "longitude": "-90.10230551324001"
    }
  },
  {
    "service_request": "2022-893225",
    "request_type": "Health Related Questions",
    "request_reason": "Noise Ordinance Complaint",
    "date_created": "2022-06-20T21:28:32.000",
    "date_modified": "2022-06-20T21:28:32.000",
    "request_status": "Pending",
    "responsible_agency": "Health Department",
    "final_address": "718 Bourbon St, New Orleans, Louisiana, 70116",
    "address_councildis": "C",
    "status": "Pending",
    "rowid": "893225",
    "final_x": "3682364.17781",
    "final_y": "532746.008004",
    "longitude": "-90.06529872053143",
    "latitude": "29.95884052062511",
    "geocoded_column": {
      "latitude": "29.95884052062511",
      "longitude": "-90.06529872053143"
    }
  },
  {
    "service_request": "2022-893224",
    "request_type": "Abandoned Vehicles",
    "request_reason": "Abandoned/Junk Vehicles",
    "date_created": "2022-06-20T21:26:16.000",
    "date_modified": "2022-06-20T21:26:16.000",
    "request_status": "Pending",
    "responsible_agency": "Department of Public Works",
    "final_address": "4318 Bienville Ave",
    "address_councildis": "A",
    "status": "Pending",
    "rowid": "893224",
    "final_x": "3670570.77441",
    "final_y": "539639.801418",
    "longitude": "-90.10230551324001",
    "latitude": "29.978149732444468",
    "geocoded_column": {
      "latitude": "29.978149732444468",
      "longitude": "-90.10230551324001"
    }
  },
  {
    "service_request": "2022-893223",
    "request_type": "Traffic Signals/Signs/Striping/Streetlights",
    "request_reason": "Traffic Signal Malfunctioning/Damaged",
    "date_created": "2022-06-20T21:15:32.000",
    "date_modified": "2022-06-20T21:15:32.000",
    "request_status": "Pending",
    "responsible_agency": "Department of Public Works",
    "final_address": "1308 S Norman C Francis Pkwy, New Orleans, Louisiana, 70125",
    "status": "Pending",
    "rowid": "893223",
    "longitude": "0.0",
    "latitude": "0.0",
    "geocoded_column": {
      "latitude": "0.0",
      "longitude": "0.0"
    }
  },
  {
    "service_request": "2022-893222",
    "request_type": "Health Related Questions",
    "request_reason": "Noise Ordinance Complaint",
    "date_created": "2022-06-20T21:13:42.000",
    "date_modified": "2022-06-20T21:13:42.000",
    "request_status": "Pending",
    "responsible_agency": "Health Department",
    "final_address": "718 Bourbon St, New Orleans, Louisiana, 70116",
    "address_councildis": "C",
    "status": "Pending",
    "rowid": "893222",
    "final_x": "3682364.17781",
    "final_y": "532746.008004",
    "longitude": "-90.06529872053143",
    "latitude": "29.95884052062511",
    "geocoded_column": {
      "latitude": "29.95884052062511",
      "longitude": "-90.06529872053143"
    }
  },
  {
    "service_request": "2022-893221",
    "request_type": "Trash/Recycling",
    "request_reason": "Missed Trash Pick-Up",
    "date_created": "2022-06-20T21:10:54.000",
    "date_modified": "2022-06-20T21:10:55.000",
    "request_status": "Pending",
    "responsible_agency": "Department of Sanitation",
    "final_address": "4435 Lafaye St",
    "address_councildis": "D",
    "status": "Assigned to Contractor",
    "contractor": "Metro Disposal",
    "rowid": "893221",
    "final_x": "3687584.19804",
    "final_y": "549222.768467",
    "longitude": "-90.04823173871263",
    "latitude": "30.003985899648974",
    "geocoded_column": {
      "latitude": "30.003985899648974",
      "longitude": "-90.04823173871263"
    }
  },
  {
    "service_request": "2022-893220",
    "request_type": "Traffic Signals/Signs/Striping/Streetlights",
    "request_reason": "Street Light Outage/Malfunction",
    "date_created": "2022-06-20T21:02:27.000",
    "date_modified": "2022-06-20T21:02:28.000",
    "request_status": "Pending",
    "responsible_agency": "Department of Public Works",
    "final_address": "CHEF MENTEUR HWY & WILSON AVE",
    "address_councildis": "E",
    "status": "Pending",
    "contractor": "Royal Engineering",
    "rowid": "893220",
    "final_x": "3703240.7",
    "final_y": "552478.68",
    "longitude": "-89.99865066841369",
    "latitude": "30.0124463124892",
    "geocoded_column": {
      "latitude": "30.0124463124892",
      "longitude": "-89.99865066841369"
    }
  },
  {
    "service_request": "2022-893219",
    "request_type": "Trash/Recycling",
    "request_reason": "Request a Large Item Pick Up",
    "date_created": "2022-06-20T20:52:12.000",
    "date_modified": "2022-06-20T20:52:13.000",
    "request_status": "Pending",
    "responsible_agency": "Department of Sanitation",
    "final_address": "3402 Clematis St",
    "address_councildis": "D",
    "status": "Assigned to Contractor",
    "contractor": "Metro Disposal",
    "rowid": "893219",
    "final_x": "3686673.93519",
    "final_y": "545443.744656",
    "longitude": "-90.05124099382732",
    "latitude": "29.993622987268612",
    "geocoded_column": {
      "latitude": "29.993622987268612",
      "longitude": "-90.05124099382732"
    }
  },
  {
    "service_request": "2022-893218",
    "request_type": "Traffic Signals/Signs/Striping/Streetlights",
    "request_reason": "Street Name Sign Damaged or Missing",
    "date_created": "2022-06-20T20:42:41.000",
    "date_modified": "2022-06-20T20:42:41.000",
    "request_status": "Pending",
    "responsible_agency": "Department of Public Works",
    "final_address": "2438 Royal St",
    "address_councildis": "C",
    "status": "Pending",
    "rowid": "893218",
    "final_x": "3686198.55337",
    "final_y": "534922.67847",
    "longitude": "-90.05311396891908",
    "latitude": "29.964708379701865",
    "geocoded_column": {
      "latitude": "29.964708379701865",
      "longitude": "-90.05311396891908"
    }
  },
  {
    "service_request": "2022-893217",
    "request_type": "Health Related Questions",
    "request_reason": "Noise Ordinance Complaint",
    "date_created": "2022-06-20T20:39:15.000",
    "date_modified": "2022-06-20T20:39:15.000",
    "request_status": "Pending",
    "responsible_agency": "Health Department",
    "final_address": "718 Bourbon St, New Orleans, Louisiana, 70116",
    "address_councildis": "C",
    "status": "Pending",
    "rowid": "893217",
    "final_x": "3682364.17781",
    "final_y": "532746.008004",
    "longitude": "-90.06529872053143",
    "latitude": "29.95884052062511",
    "geocoded_column": {
      "latitude": "29.95884052062511",
      "longitude": "-90.06529872053143"
    }
  },
  {
    "service_request": "2022-893216",
    "request_type": "Trash/Recycling",
    "request_reason": "Missed Trash Pick-Up",
    "date_created": "2022-06-20T20:34:48.000",
    "date_modified": "2022-06-20T20:34:49.000",
    "request_status": "Pending",
    "responsible_agency": "Department of Sanitation",
    "final_address": "2500 BLK N Rampart St",
    "address_councildis": "C",
    "status": "Assigned to Contractor",
    "contractor": "Metro Disposal",
    "rowid": "893216",
    "final_x": "3686700.71547",
    "final_y": "536077.371531",
    "longitude": "-90.05148738655251",
    "latitude": "29.967867947597536",
    "geocoded_column": {
      "latitude": "29.967867947597536",
      "longitude": "-90.05148738655251"
    }
  },
  {
    "service_request": "2022-893215",
    "request_type": "Traffic Signals/Signs/Striping/Streetlights",
    "request_reason": "Traffic Signal Malfunctioning/Damaged",
    "date_created": "2022-06-20T20:34:29.000",
    "date_modified": "2022-06-20T20:34:29.000",
    "request_status": "Pending",
    "responsible_agency": "Department of Public Works",
    "final_address": "CHEF MENTEUR HWY & WILSON AVE",
    "address_councildis": "E",
    "status": "Pending",
    "rowid": "893215",
    "final_x": "3703240.7",
    "final_y": "552478.68",
    "longitude": "-89.99865066841369",
    "latitude": "30.0124463124892",
    "geocoded_column": {
      "latitude": "30.0124463124892",
      "longitude": "-89.99865066841369"
    }
  },
  {
    "service_request": "2022-893214",
    "request_type": "Trash/Recycling",
    "request_reason": "Request a Large Item Pick Up",
    "date_created": "2022-06-20T20:33:49.000",
    "date_modified": "2022-06-20T20:33:50.000",
    "request_status": "Pending",
    "responsible_agency": "Department of Sanitation",
    "final_address": "2639 Danbury Dr",
    "address_councildis": "C",
    "status": "Assigned to Contractor",
    "contractor": "Richards Disposal",
    "rowid": "893214",
    "final_x": "3703608.15313",
    "final_y": "521170.550969",
    "longitude": "-89.99864191773271",
    "latitude": "29.926348572527637",
    "geocoded_column": {
      "latitude": "29.926348572527637",
      "longitude": "-89.99864191773271"
    }
  },
  {
    "service_request": "2022-893213",
    "request_type": "Trash/Recycling",
    "request_reason": "Request a Large Item Pick Up",
    "date_created": "2022-06-20T20:25:06.000",
    "date_modified": "2022-06-20T20:25:07.000",
    "request_status": "Pending",
    "responsible_agency": "Department of Sanitation",
    "final_address": "122 N Hennessey St",
    "address_councildis": "A",
    "status": "Assigned to Contractor",
    "contractor": "Richards Disposal",
    "rowid": "893213",
    "final_x": "3670488.27553",
    "final_y": "539148.72161",
    "longitude": "-90.10258273423231",
    "latitude": "29.976801866084838",
    "geocoded_column": {
      "latitude": "29.976801866084838",
      "longitude": "-90.10258273423231"
    }
  },
  {
    "service_request": "2022-893212",
    "request_type": "Trash/Recycling",
    "request_reason": "Order Trash Cart",
    "date_created": "2022-06-20T20:23:33.000",
    "date_modified": "2022-06-20T20:23:34.000",
    "request_status": "Pending",
    "responsible_agency": "Department of Sanitation",
    "final_address": "120 N Hennessey St",
    "address_councildis": "A",
    "status": "Assigned to Contractor",
    "contractor": "Richards Disposal",
    "rowid": "893212",
    "final_x": "3670481.74875",
    "final_y": "539142.447818",
    "longitude": "-90.10260356073394",
    "latitude": "29.97678480804073",
    "geocoded_column": {
      "latitude": "29.97678480804073",
      "longitude": "-90.10260356073394"
    }
  },
  {
    "service_request": "2022-893211",
    "request_type": "Trash/Recycling",
    "request_reason": "Request a Large Item Pick Up",
    "date_created": "2022-06-20T20:20:00.000",
    "date_modified": "2022-06-20T20:20:01.000",
    "request_status": "Pending",
    "responsible_agency": "Department of Sanitation",
    "final_address": "135 Stafford Pl",
    "address_councildis": "A",
    "status": "Assigned to Contractor",
    "contractor": "Metro Disposal",
    "rowid": "893211",
    "final_x": "3666044.13088",
    "final_y": "553989.279192",
    "longitude": "-90.11612088662257",
    "latitude": "30.017738811504117",
    "geocoded_column": {
      "latitude": "30.017738811504117",
      "longitude": "-90.11612088662257"
    }
  },
  {
    "service_request": "2022-893210",
    "request_type": "Trash/Recycling",
    "request_reason": "Illegal Dumping",
    "date_created": "2022-06-20T20:19:50.000",
    "date_modified": "2022-06-20T20:19:51.000",
    "request_status": "Pending",
    "responsible_agency": "Department of Code Enforcement",
    "final_address": "122 N Hennessey St",
    "address_councildis": "A",
    "status": "Pending",
    "rowid": "893210",
    "final_x": "3670488.27553",
    "final_y": "539148.72161",
    "longitude": "-90.10258273423231",
    "latitude": "29.976801866084838",
    "geocoded_column": {
      "latitude": "29.976801866084838",
      "longitude": "-90.10258273423231"
    }
  },
  {
    "service_request": "2022-893209",
    "request_type": "Health Related Questions",
    "request_reason": "Noise Ordinance Complaint",
    "date_created": "2022-06-20T20:07:55.000",
    "date_modified": "2022-06-20T20:07:55.000",
    "request_status": "Pending",
    "responsible_agency": "Health Department",
    "final_address": "718 Bourbon St, New Orleans, Louisiana, 70116",
    "address_councildis": "C",
    "status": "Pending",
    "rowid": "893209",
    "final_x": "3682364.17781",
    "final_y": "532746.008004",
    "longitude": "-90.06529872053143",
    "latitude": "29.95884052062511",
    "geocoded_column": {
      "latitude": "29.95884052062511",
      "longitude": "-90.06529872053143"
    }
  },
  {
    "service_request": "2022-893208",
    "request_type": "Trash/Recycling",
    "request_reason": "Repair Trash Cart",
    "date_created": "2022-06-20T19:37:49.000",
    "date_modified": "2022-06-20T19:37:50.000",
    "request_status": "Pending",
    "responsible_agency": "Department of Sanitation",
    "final_address": "New Orleans,LA",
    "status": "Assigned to Contractor",
    "rowid": "893208",
    "longitude": "0.0",
    "latitude": "0.0",
    "geocoded_column": {
      "latitude": "0.0",
      "longitude": "0.0"
    }
  },
  {
    "service_request": "2022-893207",
    "request_type": "Trash/Recycling",
    "request_reason": "Replace Trash Cart",
    "date_created": "2022-06-20T19:36:50.000",
    "date_modified": "2022-06-20T19:36:50.000",
    "request_status": "Pending",
    "responsible_agency": "Department of Sanitation",
    "final_address": "New Orleans,LA",
    "status": "Assigned to Contractor",
    "rowid": "893207",
    "longitude": "0.0",
    "latitude": "0.0",
    "geocoded_column": {
      "latitude": "0.0",
      "longitude": "0.0"
    }
  },
  {
    "service_request": "2022-893205",
    "request_type": "Trash/Recycling",
    "request_reason": "Missed Trash Pick-Up",
    "date_created": "2022-06-20T19:09:45.000",
    "date_modified": "2022-06-20T19:09:45.000",
    "request_status": "Pending",
    "responsible_agency": "Department of Sanitation",
    "final_address": "2227 Royal St",
    "address_councildis": "C",
    "status": "Assigned to Contractor",
    "contractor": "Metro Disposal",
    "rowid": "893205",
    "final_x": "3685391.7837",
    "final_y": "534924.807622",
    "longitude": "-90.05566161243566",
    "latitude": "29.964738994440992",
    "geocoded_column": {
      "latitude": "29.964738994440992",
      "longitude": "-90.05566161243566"
    }
  },
  {
    "service_request": "2022-893204",
    "request_type": "Trash/Recycling",
    "request_reason": "Request a Large Item Pick Up",
    "date_created": "2022-06-20T18:57:32.000",
    "date_modified": "2022-06-20T18:57:32.000",
    "request_status": "Pending",
    "responsible_agency": "Department of Sanitation",
    "final_address": "4805 Annette St",
    "address_councildis": "D",
    "status": "Assigned to Contractor",
    "contractor": "Metro Disposal",
    "rowid": "893204",
    "final_x": "3682112.60924",
    "final_y": "550208.683476",
    "longitude": "-90.06548296634084",
    "latitude": "30.006864410474634",
    "geocoded_column": {
      "latitude": "30.006864410474634",
      "longitude": "-90.06548296634084"
    }
  },
  {
    "service_request": "2022-893203",
    "request_type": "Property Maintenance",
    "request_reason": "Property Maintenance",
    "date_created": "2022-06-20T18:53:22.000",
    "date_modified": "2022-06-20T18:53:22.000",
    "request_status": "Pending",
    "responsible_agency": "Department of Code Enforcement",
    "final_address": "719 Lyons St",
    "address_councildis": "B",
    "status": "Pending",
    "rowid": "893203",
    "final_x": "3669397.40788",
    "final_y": "518031.899062",
    "longitude": "-90.1067419846722",
    "latitude": "29.918769667314837",
    "geocoded_column": {
      "latitude": "29.918769667314837",
      "longitude": "-90.1067419846722"
    }
  },
  {
    "service_request": "2022-893202",
    "request_type": "Trash/Recycling",
    "request_reason": "Request a Large Item Pick Up",
    "date_created": "2022-06-20T18:50:50.000",
    "date_modified": "2022-06-20T18:50:50.000",
    "request_status": "Pending",
    "responsible_agency": "Department of Sanitation",
    "final_address": "4727 Knight Dr",
    "address_councildis": "E",
    "status": "Assigned to Contractor",
    "contractor": "Metro Disposal",
    "rowid": "893202",
    "final_x": "3708218.30097",
    "final_y": "555449.852441",
    "longitude": "-89.98281372523091",
    "latitude": "30.020455525222484",
    "geocoded_column": {
      "latitude": "30.020455525222484",
      "longitude": "-89.98281372523091"
    }
  },
  {
    "service_request": "2022-893201",
    "request_type": "Traffic Signals/Signs/Striping/Streetlights",
    "request_reason": "Street Light Outage/Malfunction",
    "date_created": "2022-06-20T18:49:18.000",
    "date_modified": "2022-06-20T18:49:19.000",
    "request_status": "Pending",
    "responsible_agency": "Department of Public Works",
    "final_address": "4401 Kennon Ave",
    "address_councildis": "D",
    "status": "Pending",
    "contractor": "Royal Engineering",
    "rowid": "893201",
    "final_x": "3677550.71138",
    "final_y": "548501.912402",
    "longitude": "-90.0799542050153",
    "latitude": "30.00230940052655",
    "geocoded_column": {
      "latitude": "30.00230940052655",
      "longitude": "-90.0799542050153"
    }
  },
  {
    "service_request": "2022-893200",
    "request_type": "Traffic Signals/Signs/Striping/Streetlights",
    "request_reason": "Street Light Outage/Malfunction",
    "date_created": "2022-06-20T18:44:01.000",
    "date_modified": "2022-06-20T18:44:02.000",
    "request_status": "Pending",
    "responsible_agency": "Department of Public Works",
    "final_address": "7540 Branch Dr",
    "address_councildis": "E",
    "status": "Pending",
    "contractor": "Royal Engineering",
    "rowid": "893200",
    "final_x": "3715018.63147",
    "final_y": "568217.571365",
    "longitude": "-89.96084377154867",
    "latitude": "30.05533947227548",
    "geocoded_column": {
      "latitude": "30.05533947227548",
      "longitude": "-89.96084377154867"
    }
  },
  {
    "service_request": "2022-893199",
    "request_type": "Trash/Recycling",
    "request_reason": "Replace Trash Cart",
    "date_created": "2022-06-20T18:38:41.000",
    "date_modified": "2022-06-20T18:38:42.000",
    "request_status": "Pending",
    "responsible_agency": "Department of Sanitation",
    "final_address": "907 Atlantic Ave",
    "address_councildis": "C",
    "status": "Assigned to Contractor",
    "contractor": "Richards Disposal",
    "rowid": "893199",
    "final_x": "3688682.23279",
    "final_y": "528225.41952",
    "longitude": "-90.04550840376034",
    "latitude": "29.946216693566367",
    "geocoded_column": {
      "latitude": "29.946216693566367",
      "longitude": "-90.04550840376034"
    }
  },
  {
    "service_request": "2022-893198",
    "request_type": "Traffic Signals/Signs/Striping/Streetlights",
    "request_reason": "Traffic Sign Missing/Damaged",
    "date_created": "2022-06-20T18:34:49.000",
    "date_modified": "2022-06-20T18:34:49.000",
    "request_status": "Pending",
    "responsible_agency": "Department of Public Works",
    "final_address": "N GALVEZ ST & JOURDAN AVE",
    "address_councildis": "E",
    "status": "Pending",
    "rowid": "893198",
    "final_x": "3696097.1",
    "final_y": "538235.48",
    "longitude": "-90.02173545101952",
    "latitude": "29.97350959400037",
    "geocoded_column": {
      "latitude": "29.97350959400037",
      "longitude": "-90.02173545101952"
    }
  },
  {
    "service_request": "2022-893197",
    "request_type": "Traffic Signals/Signs/Striping/Streetlights",
    "request_reason": "Street Light Outage/Malfunction",
    "date_created": "2022-06-20T18:21:18.000",
    "date_modified": "2022-06-20T18:21:19.000",
    "request_status": "Pending",
    "responsible_agency": "Department of Public Works",
    "final_address": "3720 Buchanan St",
    "address_councildis": "D",
    "status": "Pending",
    "contractor": "Royal Engineering",
    "rowid": "893197",
    "final_x": "3677349.80424",
    "final_y": "545912.193296",
    "longitude": "-90.08067833441125",
    "latitude": "29.995194628293",
    "geocoded_column": {
      "latitude": "29.995194628293",
      "longitude": "-90.08067833441125"
    }
  },
  {
    "service_request": "2022-893196",
    "request_type": "Property Maintenance",
    "request_reason": "Property Maintenance",
    "date_created": "2022-06-20T18:20:52.000",
    "date_modified": "2022-06-20T18:20:52.000",
    "request_status": "Pending",
    "responsible_agency": "Department of Code Enforcement",
    "final_address": "7600 Gannon Rd",
    "address_councildis": "E",
    "status": "Pending",
    "rowid": "893196",
    "final_x": "3716469.08671",
    "final_y": "569659.73431",
    "longitude": "-89.95620443875303",
    "latitude": "30.059256974348585",
    "geocoded_column": {
      "latitude": "30.059256974348585",
      "longitude": "-89.95620443875303"
    }
  },
  {
    "service_request": "2022-893195",
    "request_type": "Abandoned Vehicles",
    "request_reason": "Abandoned/Junk Vehicles",
    "date_created": "2022-06-20T18:18:58.000",
    "date_modified": "2022-06-20T18:18:58.000",
    "request_status": "Pending",
    "responsible_agency": "Department of Public Works",
    "final_address": "7240 Bullard Ave",
    "address_councildis": "E",
    "status": "Pending",
    "rowid": "893195",
    "final_x": "3714068.11947",
    "final_y": "565899.843491",
    "longitude": "-89.96393567041488",
    "latitude": "30.048997938116898",
    "geocoded_column": {
      "latitude": "30.048997938116898",
      "longitude": "-89.96393567041488"
    }
  },
  {
    "service_request": "2022-893194",
    "request_type": "Property Maintenance",
    "request_reason": "Property Maintenance",
    "date_created": "2022-06-20T18:15:33.000",
    "date_modified": "2022-06-20T18:15:33.000",
    "request_status": "Pending",
    "responsible_agency": "Department of Code Enforcement",
    "final_address": "7701 Tricia Ct",
    "address_councildis": "E",
    "status": "Pending",
    "rowid": "893194",
    "final_x": "3717529.14316",
    "final_y": "571412.890152",
    "longitude": "-89.95278695237737",
    "latitude": "30.06404235005179",
    "geocoded_column": {
      "latitude": "30.06404235005179",
      "longitude": "-89.95278695237737"
    }
  },
  {
    "service_request": "2022-893193",
    "request_type": "Roads/Drainage",
    "request_reason": "Debris in Roadway",
    "date_created": "2022-06-20T18:10:14.000",
    "date_modified": "2022-06-20T18:10:14.000",
    "request_status": "Pending",
    "responsible_agency": "Department of Public Works",
    "final_address": "540 S Broad St",
    "address_councildis": "B",
    "status": "Pending",
    "rowid": "893193",
    "final_x": "3674171.78241",
    "final_y": "533407.733636",
    "longitude": "-90.09114560889088",
    "latitude": "29.96090678730102",
    "geocoded_column": {
      "latitude": "29.96090678730102",
      "longitude": "-90.09114560889088"
    }
  },
  {
    "service_request": "2022-893192",
    "request_type": "Traffic Signals/Signs/Striping/Streetlights",
    "request_reason": "Traffic Signal Malfunctioning/Damaged",
    "date_created": "2022-06-20T17:57:26.000",
    "date_modified": "2022-06-20T17:57:26.000",
    "request_status": "Pending",
    "responsible_agency": "Department of Public Works",
    "final_address": "CHEF MENTEUR HWY & WILSON AVE",
    "address_councildis": "E",
    "status": "Pending",
    "rowid": "893192",
    "final_x": "3703240.7",
    "final_y": "552478.68",
    "longitude": "-89.99865066841369",
    "latitude": "30.0124463124892",
    "geocoded_column": {
      "latitude": "30.0124463124892",
      "longitude": "-89.99865066841369"
    }
  },
  {
    "service_request": "2022-893191",
    "request_type": "Trash/Recycling",
    "request_reason": "Missed Trash Pick-Up",
    "date_created": "2022-06-20T17:51:12.000",
    "date_modified": "2022-06-20T17:51:13.000",
    "request_status": "Pending",
    "responsible_agency": "Department of Sanitation",
    "final_address": "1309 Mystery St",
    "address_councildis": "A",
    "status": "Assigned to Contractor",
    "contractor": "Richards Disposal",
    "rowid": "893191",
    "final_x": "3676059.43451",
    "final_y": "540426.566667",
    "longitude": "-90.08494327670016",
    "latitude": "29.98014978543431",
    "geocoded_column": {
      "latitude": "29.98014978543431",
      "longitude": "-90.08494327670016"
    }
  },
  {
    "service_request": "2022-893190",
    "request_type": "Trash/Recycling",
    "request_reason": "Missed Trash Pick-Up",
    "date_created": "2022-06-20T17:49:04.000",
    "date_modified": "2022-06-20T17:49:05.000",
    "request_status": "Pending",
    "responsible_agency": "Department of Sanitation",
    "final_address": "2100 BLK Allen St",
    "address_councildis": "D",
    "status": "Assigned to Contractor",
    "contractor": "Metro Disposal",
    "rowid": "893190",
    "final_x": "3682466.30826",
    "final_y": "539991.909961",
    "longitude": "-90.06472289646896",
    "latitude": "29.978761142494744",
    "geocoded_column": {
      "latitude": "29.978761142494744",
      "longitude": "-90.06472289646896"
    }
  },
  {
    "service_request": "2022-893189",
    "request_type": "Property Maintenance",
    "request_reason": "Property Maintenance",
    "date_created": "2022-06-20T17:47:57.000",
    "date_modified": "2022-06-20T17:47:57.000",
    "request_status": "Pending",
    "responsible_agency": "Department of Code Enforcement",
    "final_address": "2615 Banks St A",
    "address_councildis": "B",
    "status": "Pending",
    "rowid": "893189",
    "final_x": "3675000.0555",
    "final_y": "533933.390021",
    "longitude": "-90.0885120424763",
    "latitude": "29.962327450016055",
    "geocoded_column": {
      "latitude": "29.962327450016055",
      "longitude": "-90.0885120424763"
    }
  },
  {
    "service_request": "2022-893188",
    "request_type": "Property Maintenance",
    "request_reason": "Property Maintenance",
    "date_created": "2022-06-20T17:47:56.000",
    "date_modified": "2022-06-20T17:47:56.000",
    "request_status": "Pending",
    "responsible_agency": "Department of Code Enforcement",
    "final_address": "2615 Banks St A",
    "address_councildis": "B",
    "status": "Pending",
    "rowid": "893188",
    "final_x": "3675000.0555",
    "final_y": "533933.390021",
    "longitude": "-90.0885120424763",
    "latitude": "29.962327450016055",
    "geocoded_column": {
      "latitude": "29.962327450016055",
      "longitude": "-90.0885120424763"
    }
  },
  {
    "service_request": "2022-893187",
    "request_type": "Trash/Recycling",
    "request_reason": "Missed Trash Pick-Up",
    "date_created": "2022-06-20T17:45:40.000",
    "date_modified": "2022-06-20T17:45:40.000",
    "request_status": "Pending",
    "responsible_agency": "Department of Sanitation",
    "final_address": "2761 New York St",
    "address_councildis": "D",
    "status": "Assigned to Contractor",
    "contractor": "Metro Disposal",
    "rowid": "893187",
    "final_x": "3687535.89775",
    "final_y": "556896.893914",
    "longitude": "-90.04811239818365",
    "latitude": "30.025088407760908",
    "geocoded_column": {
      "latitude": "30.025088407760908",
      "longitude": "-90.04811239818365"
    }
  },
  {
    "service_request": "2022-893186",
    "request_type": "Trash/Recycling",
    "request_reason": "Request a Large Item Pick Up",
    "date_created": "2022-06-20T17:25:06.000",
    "date_modified": "2022-06-20T17:25:06.000",
    "request_status": "Pending",
    "responsible_agency": "Department of Sanitation",
    "final_address": "2115 Marengo St, New Orleans, Louisiana, 70115",
    "address_councildis": "B",
    "status": "Assigned to Contractor",
    "contractor": "Richards Disposal",
    "rowid": "893186",
    "final_x": "3671814.17927",
    "final_y": "522887.001595",
    "longitude": "-90.09894838875563",
    "latitude": "29.932048288188497",
    "geocoded_column": {
      "latitude": "29.932048288188497",
      "longitude": "-90.09894838875563"
    }
  },
  {
    "service_request": "2022-893185",
    "request_type": "Traffic Signals/Signs/Striping/Streetlights",
    "request_reason": "Street Light Outage/Malfunction",
    "date_created": "2022-06-20T17:24:47.000",
    "date_modified": "2022-06-20T17:24:48.000",
    "request_status": "Pending",
    "responsible_agency": "Department of Public Works",
    "final_address": "3913 Clematis St",
    "address_councildis": "D",
    "status": "Pending",
    "contractor": "Royal Engineering",
    "rowid": "893185",
    "final_x": "3685788.74774",
    "final_y": "547234.038417",
    "longitude": "-90.0539740173137",
    "latitude": "29.99857285651332",
    "geocoded_column": {
      "latitude": "29.99857285651332",
      "longitude": "-90.0539740173137"
    }
  },
  {
    "service_request": "2022-893184",
    "request_type": "Abandoned Vehicles",
    "request_reason": "Abandoned/Junk Vehicles",
    "date_created": "2022-06-20T17:19:32.000",
    "date_modified": "2022-06-20T17:19:32.000",
    "request_status": "Pending",
    "responsible_agency": "Department of Public Works",
    "final_address": "1309 S Gayoso St",
    "address_councildis": "B",
    "status": "Pending",
    "rowid": "893184",
    "final_x": "3671013.52724",
    "final_y": "531219.661698",
    "longitude": "-90.10119310593954",
    "latitude": "29.95498407999172",
    "geocoded_column": {
      "latitude": "29.95498407999172",
      "longitude": "-90.10119310593954"
    }
  },
  {
    "service_request": "2022-893183",
    "request_type": "Trash/Recycling",
    "request_reason": "Request a Large Item Pick Up",
    "date_created": "2022-06-20T17:15:43.000",
    "date_modified": "2022-06-20T17:15:44.000",
    "request_status": "Pending",
    "responsible_agency": "Department of Sanitation",
    "final_address": "825 Chapelle St",
    "address_councildis": "A",
    "status": "Assigned to Contractor",
    "contractor": "Metro Disposal",
    "rowid": "893183",
    "final_x": "3669893.98535",
    "final_y": "552640.832214",
    "longitude": "-90.10400252184554",
    "latitude": "30.013918047176645",
    "geocoded_column": {
      "latitude": "30.013918047176645",
      "longitude": "-90.10400252184554"
    }
  },
  {
    "service_request": "2022-893182",
    "request_type": "Trash/Recycling",
    "request_reason": "MIssed Recycling Pick-Up",
    "date_created": "2022-06-20T17:10:42.000",
    "date_modified": "2022-06-20T17:10:43.000",
    "request_status": "Pending",
    "responsible_agency": "Department of Sanitation",
    "final_address": "1454 Farragut St",
    "address_councildis": "C",
    "status": "Assigned to Contractor",
    "contractor": "Richards Disposal",
    "rowid": "893182",
    "final_x": "3692379.17584",
    "final_y": "525732.194557",
    "longitude": "-90.03392519114193",
    "latitude": "29.93924641382243",
    "geocoded_column": {
      "latitude": "29.93924641382243",
      "longitude": "-90.03392519114193"
    }
  },
  {
    "service_request": "2022-893181",
    "request_type": "Trash/Recycling",
    "request_reason": "Order Recycling Cart",
    "date_created": "2022-06-20T17:02:01.000",
    "date_modified": "2022-06-20T17:02:01.000",
    "request_status": "Pending",
    "responsible_agency": "Department of Sanitation",
    "final_address": "3314 Vincennes Pl",
    "address_councildis": "A",
    "status": "Pending",
    "rowid": "893181",
    "final_x": "3667837.65869",
    "final_y": "528337.517824",
    "longitude": "-90.11131839533823",
    "latitude": "29.947152645061838",
    "geocoded_column": {
      "latitude": "29.947152645061838",
      "longitude": "-90.11131839533823"
    }
  },
  {
    "service_request": "2022-893180",
    "request_type": "Trash/Recycling",
    "request_reason": "Replace Trash Cart",
    "date_created": "2022-06-20T16:49:49.000",
    "date_modified": "2022-06-20T16:50:25.000",
    "request_status": "Pending",
    "responsible_agency": "Department of Sanitation",
    "final_address": "2508 Governor Nicholls St",
    "address_councildis": "D",
    "status": "Assigned to Contractor",
    "contractor": "Richards Disposal",
    "rowid": "893180",
    "final_x": "3678537.92846",
    "final_y": "537821.74804",
    "longitude": "-90.07720533948887",
    "latitude": "29.972912950437756",
    "geocoded_column": {
      "latitude": "29.972912950437756",
      "longitude": "-90.07720533948887"
    }
  },
  {
    "service_request": "2022-893179",
    "request_type": "Trash/Recycling",
    "request_reason": "Return Recycling Cart",
    "date_created": "2022-06-20T16:48:11.000",
    "date_modified": "2022-06-20T16:48:12.000",
    "request_status": "Pending",
    "responsible_agency": "Department of Sanitation",
    "final_address": "BARONNE ST & DELACHAISE ST",
    "address_councildis": "B",
    "status": "Pending",
    "rowid": "893179",
    "final_x": "3673543.1",
    "final_y": "522074.98",
    "longitude": "-90.09351808987154",
    "latitude": "29.929764164830203",
    "geocoded_column": {
      "latitude": "29.929764164830203",
      "longitude": "-90.09351808987154"
    }
  },
  {
    "service_request": "2022-893178",
    "request_type": "Trash/Recycling",
    "request_reason": "Order Trash Cart",
    "date_created": "2022-06-20T16:43:37.000",
    "date_modified": "2022-06-20T16:43:37.000",
    "request_status": "Pending",
    "responsible_agency": "Department of Sanitation",
    "final_address": "4701 Cerise Ave",
    "address_councildis": "E",
    "status": "Assigned to Contractor",
    "contractor": "Metro Disposal",
    "rowid": "893178",
    "final_x": "3708706.12683",
    "final_y": "555418.937177",
    "longitude": "-89.98127351040813",
    "latitude": "30.020354701856554",
    "geocoded_column": {
      "latitude": "30.020354701856554",
      "longitude": "-89.98127351040813"
    }
  },
  {
    "service_request": "2022-893177",
    "request_type": "Roads/Drainage",
    "request_reason": "Damaged Sidewalk",
    "date_created": "2022-06-20T16:32:52.000",
    "date_modified": "2022-06-20T16:32:53.000",
    "request_status": "Pending",
    "responsible_agency": "Department of Public Works",
    "final_address": "2941 Eagle St",
    "address_councildis": "A",
    "status": "Pending",
    "rowid": "893177",
    "final_x": "3664452.50311",
    "final_y": "534742.445126",
    "longitude": "-90.12179282750107",
    "latitude": "29.964862945710703",
    "geocoded_column": {
      "latitude": "29.964862945710703",
      "longitude": "-90.12179282750107"
    }
  },
  {
    "service_request": "2022-893176",
    "request_type": "Trash/Recycling",
    "request_reason": "Request a Large Item Pick Up",
    "date_created": "2022-06-20T16:29:07.000",
    "date_modified": "2022-06-20T16:29:08.000",
    "request_status": "Pending",
    "responsible_agency": "Department of Sanitation",
    "final_address": "8921 Birch St",
    "address_councildis": "A",
    "status": "Assigned to Contractor",
    "contractor": "Richards Disposal",
    "rowid": "893176",
    "final_x": "3660726.30112",
    "final_y": "531457.134275",
    "longitude": "-90.13366862215743",
    "latitude": "29.955937212163935",
    "geocoded_column": {
      "latitude": "29.955937212163935",
      "longitude": "-90.13366862215743"
    }
  },
  {
    "service_request": "2022-893175",
    "request_type": "Trash/Recycling",
    "request_reason": "Repair Trash Cart",
    "date_created": "2022-06-20T16:27:58.000",
    "date_modified": "2022-06-20T16:27:58.000",
    "request_status": "Pending",
    "responsible_agency": "Department of Sanitation",
    "final_address": "3308 Trafalgar St",
    "address_councildis": "A",
    "status": "Assigned to Contractor",
    "contractor": "Metro Disposal",
    "rowid": "893175",
    "final_x": "3677935.1373",
    "final_y": "543136.985485",
    "longitude": "-90.07892529935974",
    "latitude": "29.987546171330816",
    "geocoded_column": {
      "latitude": "29.987546171330816",
      "longitude": "-90.07892529935974"
    }
  },
  {
    "service_request": "2022-893174",
    "request_type": "Trash/Recycling",
    "request_reason": "Order Recycling Cart",
    "date_created": "2022-06-20T16:26:03.000",
    "date_modified": "2022-06-20T16:26:03.000",
    "request_status": "Pending",
    "responsible_agency": "Department of Sanitation",
    "final_address": "2315 St Roch Ave",
    "address_councildis": "D",
    "status": "Pending",
    "rowid": "893174",
    "final_x": "3686204.47106",
    "final_y": "540974.112459",
    "longitude": "-90.05288173124053",
    "latitude": "29.981347523971692",
    "geocoded_column": {
      "latitude": "29.981347523971692",
      "longitude": "-90.05288173124053"
    }
  },
  {
    "service_request": "2022-893173",
    "request_type": "Abandoned Vehicles",
    "request_reason": "Abandoned/Junk Vehicles",
    "date_created": "2022-06-20T16:25:34.000",
    "date_modified": "2022-06-20T16:25:34.000",
    "request_status": "Pending",
    "responsible_agency": "Department of Public Works",
    "final_address": "1201 Bienville St, New Orleans, Louisiana, 70112",
    "address_councildis": "C",
    "status": "Pending",
    "rowid": "893173",
    "final_x": "3680214.96136",
    "final_y": "532455.287812",
    "longitude": "-90.07209550229297",
    "latitude": "29.958106361958762",
    "geocoded_column": {
      "latitude": "29.958106361958762",
      "longitude": "-90.07209550229297"
    }
  },
  {
    "service_request": "2022-893172",
    "request_type": "Trash/Recycling",
    "request_reason": "Order Trash Cart",
    "date_created": "2022-06-20T16:25:12.000",
    "date_modified": "2022-06-20T16:25:13.000",
    "request_status": "Pending",
    "responsible_agency": "Department of Sanitation",
    "final_address": "2315 St Roch Ave",
    "address_councildis": "D",
    "status": "Assigned to Contractor",
    "contractor": "Metro Disposal",
    "rowid": "893172",
    "final_x": "3686204.47106",
    "final_y": "540974.112459",
    "longitude": "-90.05288173124053",
    "latitude": "29.981347523971692",
    "geocoded_column": {
      "latitude": "29.981347523971692",
      "longitude": "-90.05288173124053"
    }
  },
  {
    "service_request": "2022-893170",
    "request_type": "Trash/Recycling",
    "request_reason": "Order Trash Cart",
    "date_created": "2022-06-20T16:17:09.000",
    "date_modified": "2022-06-20T16:17:09.000",
    "request_status": "Pending",
    "responsible_agency": "Department of Sanitation",
    "final_address": "7631 Berg Rd",
    "address_councildis": "E",
    "status": "Assigned to Contractor",
    "contractor": "Metro Disposal",
    "rowid": "893170",
    "final_x": "3711984.97317",
    "final_y": "566745.603875",
    "longitude": "-89.97048780352027",
    "latitude": "30.0513917251867",
    "geocoded_column": {
      "latitude": "30.0513917251867",
      "longitude": "-89.97048780352027"
    }
  },
  {
    "service_request": "2022-893169",
    "request_type": "Traffic Signals/Signs/Striping/Streetlights",
    "request_reason": "Traffic Signal Malfunctioning/Damaged",
    "date_created": "2022-06-20T16:10:45.000",
    "date_modified": "2022-06-20T16:10:45.000",
    "request_status": "Pending",
    "responsible_agency": "Department of Public Works",
    "final_address": "5501 Canal Blvd",
    "address_councildis": "A",
    "status": "Pending",
    "rowid": "893169",
    "final_x": "3668310.57402",
    "final_y": "543921.843214",
    "longitude": "-90.10929958440802",
    "latitude": "29.98999046801561",
    "geocoded_column": {
      "latitude": "29.98999046801561",
      "longitude": "-90.10929958440802"
    }
  },
  {
    "service_request": "2022-893168",
    "request_type": "Property Maintenance",
    "request_reason": "Property Maintenance",
    "date_created": "2022-06-20T16:08:34.000",
    "date_modified": "2022-06-20T16:08:34.000",
    "request_status": "Pending",
    "responsible_agency": "Department of Code Enforcement",
    "final_address": "1643 Rivertree Ct",
    "address_councildis": "C",
    "status": "Pending",
    "rowid": "893168",
    "final_x": "3701367.48708",
    "final_y": "524716.215996",
    "longitude": "-90.0055853243854",
    "latitude": "29.936169495753223",
    "geocoded_column": {
      "latitude": "29.936169495753223",
      "longitude": "-90.0055853243854"
    }
  },
  {
    "service_request": "2022-893167",
    "request_type": "Trash/Recycling",
    "request_reason": "Replace Trash Cart",
    "date_created": "2022-06-20T16:02:20.000",
    "date_modified": "2022-06-20T16:02:21.000",
    "request_status": "Pending",
    "responsible_agency": "Department of Sanitation",
    "final_address": "820 Greenwood St",
    "address_councildis": "A",
    "status": "Assigned to Contractor",
    "contractor": "Metro Disposal",
    "rowid": "893167",
    "final_x": "3668725.44154",
    "final_y": "542805.480973",
    "longitude": "-90.1080268335701",
    "latitude": "29.986908660856482",
    "geocoded_column": {
      "latitude": "29.986908660856482",
      "longitude": "-90.1080268335701"
    }
  },
  {
    "service_request": "2022-893166",
    "request_type": "Roads/Drainage",
    "request_reason": "Pothole",
    "date_created": "2022-06-20T15:56:07.000",
    "date_modified": "2022-06-20T15:56:07.000",
    "request_status": "Pending",
    "responsible_agency": "Department of Public Works",
    "final_address": "2854 Grand Route St John St",
    "address_councildis": "A",
    "status": "Pending",
    "rowid": "893166",
    "final_x": "3677842.60526",
    "final_y": "540231.492235",
    "longitude": "-90.07931801483132",
    "latitude": "29.979559858502576",
    "geocoded_column": {
      "latitude": "29.979559858502576",
      "longitude": "-90.07931801483132"
    }
  },
  {
    "service_request": "2022-893165",
    "request_type": "Traffic Signals/Signs/Striping/Streetlights",
    "request_reason": "Traffic Sign Missing/Damaged",
    "date_created": "2022-06-20T15:56:06.000",
    "date_modified": "2022-06-20T15:56:06.000",
    "request_status": "Pending",
    "responsible_agency": "Department of Public Works",
    "final_address": "900 Piety St",
    "address_councildis": "C",
    "status": "Pending",
    "rowid": "893165",
    "final_x": "3689621.06787",
    "final_y": "535034.80423",
    "longitude": "-90.0423019477998",
    "latitude": "29.96491109863251",
    "geocoded_column": {
      "latitude": "29.96491109863251",
      "longitude": "-90.0423019477998"
    }
  },
  {
    "service_request": "2022-893164",
    "request_type": "Trash/Recycling",
    "request_reason": "Replace Trash Cart",
    "date_created": "2022-06-20T15:52:56.000",
    "date_modified": "2022-06-20T15:52:57.000",
    "request_status": "Pending",
    "responsible_agency": "Department of Sanitation",
    "final_address": "734 Third St",
    "address_councildis": "B",
    "status": "Assigned to Contractor",
    "contractor": "Richards Disposal",
    "rowid": "893164",
    "final_x": "3678189.74555",
    "final_y": "520136.64844",
    "longitude": "-90.0789164219553",
    "latitude": "29.92429532031728",
    "geocoded_column": {
      "latitude": "29.92429532031728",
      "longitude": "-90.0789164219553"
    }
  },
  {
    "service_request": "2022-893163",
    "request_type": "Traffic Signals/Signs/Striping/Streetlights",
    "request_reason": "Street Light Outage/Malfunction",
    "date_created": "2022-06-20T15:51:50.000",
    "date_modified": "2022-06-20T15:51:51.000",
    "request_status": "Pending",
    "responsible_agency": "Department of Public Works",
    "final_address": "2210 Mercedes Blvd",
    "address_councildis": "C",
    "status": "Pending",
    "contractor": "Royal Engineering",
    "rowid": "893163",
    "final_x": "3698154.21757",
    "final_y": "522895.010683",
    "longitude": "-90.01579575967794",
    "latitude": "29.93126379941732",
    "geocoded_column": {
      "latitude": "29.93126379941732",
      "longitude": "-90.01579575967794"
    }
  },
  {
    "service_request": "2022-893162",
    "request_type": "Roads/Drainage",
    "request_reason": "Pothole",
    "date_created": "2022-06-20T15:50:02.000",
    "date_modified": "2022-06-20T16:19:01.000",
    "request_status": "Pending",
    "responsible_agency": "Department of Public Works",
    "final_address": "2000 Canal St",
    "address_councildis": "B",
    "status": "Pending",
    "rowid": "893162",
    "final_x": "3677244.2644",
    "final_y": "533337.961476",
    "longitude": "-90.0814456925121",
    "latitude": "29.9606229931878",
    "geocoded_column": {
      "latitude": "29.9606229931878",
      "longitude": "-90.0814456925121"
    }
  },
  {
    "service_request": "2022-893160",
    "request_type": "Roads/Drainage",
    "request_reason": "Street Subsidence (Sinking)",
    "date_created": "2022-06-20T15:43:16.000",
    "date_modified": "2022-06-20T15:43:16.000",
    "request_status": "Pending",
    "responsible_agency": "Department of Public Works",
    "final_address": "1727 Agriculture St",
    "address_councildis": "D",
    "status": "Pending",
    "rowid": "893160",
    "final_x": "3680913.23087",
    "final_y": "543053.822477",
    "longitude": "-90.06952143331321",
    "latitude": "29.987227520238235",
    "geocoded_column": {
      "latitude": "29.987227520238235",
      "longitude": "-90.06952143331321"
    }
  },
  {
    "service_request": "2022-893158",
    "request_type": "Trash/Recycling",
    "request_reason": "Request a Large Item Pick Up",
    "date_created": "2022-06-20T15:40:02.000",
    "date_modified": "2022-06-20T15:40:03.000",
    "request_status": "Pending",
    "responsible_agency": "Department of Sanitation",
    "final_address": "950 Taft Pl",
    "address_councildis": "A",
    "status": "Assigned to Contractor",
    "contractor": "Richards Disposal",
    "rowid": "893158",
    "final_x": "3673937.09288",
    "final_y": "540510.422027",
    "longitude": "-90.0916436638989",
    "latitude": "29.980443768105573",
    "geocoded_column": {
      "latitude": "29.980443768105573",
      "longitude": "-90.0916436638989"
    }
  },
  {
    "service_request": "2022-893155",
    "request_type": "Trash/Recycling",
    "request_reason": "Request a Large Item Pick Up",
    "date_created": "2022-06-20T15:27:14.000",
    "date_modified": "2022-06-20T15:27:17.000",
    "request_status": "Pending",
    "responsible_agency": "Department of Sanitation",
    "final_address": "1023 Jourdan Ave",
    "address_councildis": "E",
    "status": "Assigned to Contractor",
    "contractor": "Metro Disposal",
    "rowid": "893155",
    "final_x": "3695023.6776",
    "final_y": "534268.735493",
    "longitude": "-90.02526854221097",
    "latitude": "29.962636198146978",
    "geocoded_column": {
      "latitude": "29.962636198146978",
      "longitude": "-90.02526854221097"
    }
  },
  {
    "service_request": "2022-893154",
    "request_type": "Trash/Recycling",
    "request_reason": "Request a Large Item Pick Up",
    "date_created": "2022-06-20T15:14:46.000",
    "date_modified": "2022-06-20T15:14:47.000",
    "request_status": "Pending",
    "responsible_agency": "Department of Sanitation",
    "final_address": "2425 DAbadie St",
    "address_councildis": "D",
    "status": "Assigned to Contractor",
    "contractor": "Metro Disposal",
    "rowid": "893154",
    "final_x": "3680224.95618",
    "final_y": "540254.978699",
    "longitude": "-90.07179277972477",
    "latitude": "29.979552532408672",
    "geocoded_column": {
      "latitude": "29.979552532408672",
      "longitude": "-90.07179277972477"
    }
  },
  {
    "service_request": "2022-893153",
    "request_type": "Trash/Recycling",
    "request_reason": "Request a Large Item Pick Up",
    "date_created": "2022-06-20T15:12:50.000",
    "date_modified": "2022-06-20T15:12:50.000",
    "request_status": "Pending",
    "responsible_agency": "Department of Sanitation",
    "final_address": "4627 S Claiborne Ave",
    "address_councildis": "B",
    "status": "Assigned to Contractor",
    "contractor": "Richards Disposal",
    "rowid": "893153",
    "final_x": "3669366.70708",
    "final_y": "525879.283709",
    "longitude": "-90.1065736974965",
    "latitude": "29.94034837190073",
    "geocoded_column": {
      "latitude": "29.94034837190073",
      "longitude": "-90.1065736974965"
    }
  },
  {
    "service_request": "2022-893152",
    "request_type": "Trash/Recycling",
    "request_reason": "Request a Large Item Pick Up",
    "date_created": "2022-06-20T15:11:29.000",
    "date_modified": "2022-06-20T15:11:29.000",
    "case_close_date": "2022-06-07T19:00:00.000",
    "request_status": "Pending",
    "responsible_agency": "Department of Sanitation",
    "final_address": "2268 Robert E Lee Blvd",
    "address_councildis": "D",
    "status": "Assigned to Contractor",
    "contractor": "Metro Disposal",
    "rowid": "893152",
    "final_x": "3684142.33948",
    "final_y": "555708.110233",
    "longitude": "-90.05887727498666",
    "latitude": "30.021923915774792",
    "geocoded_column": {
      "latitude": "30.021923915774792",
      "longitude": "-90.05887727498666"
    }
  },
  {
    "service_request": "2022-893151",
    "request_type": "Traffic Signals/Signs/Striping/Streetlights",
    "request_reason": "Street Light Outage/Malfunction",
    "date_created": "2022-06-20T15:07:21.000",
    "date_modified": "2022-06-20T15:07:21.000",
    "request_status": "Pending",
    "responsible_agency": "Department of Public Works",
    "final_address": "831 Pacific Ave",
    "address_councildis": "C",
    "status": "Pending",
    "contractor": "Royal Engineering",
    "rowid": "893151",
    "final_x": "3688403.64739",
    "final_y": "528426.378816",
    "longitude": "-90.04638086550617",
    "latitude": "29.94677786941864",
    "geocoded_column": {
      "latitude": "29.94677786941864",
      "longitude": "-90.04638086550617"
    }
  },
  {
    "service_request": "2022-893150",
    "request_type": "Trash/Recycling",
    "request_reason": "Order Trash Cart",
    "date_created": "2022-06-20T15:03:03.000",
    "date_modified": "2022-06-20T15:03:04.000",
    "request_status": "Pending",
    "responsible_agency": "Department of Sanitation",
    "final_address": "1025 Lyons St, New Orleans, Louisiana, 70115",
    "address_councildis": "B",
    "status": "Assigned to Contractor",
    "contractor": "Richards Disposal",
    "rowid": "893150",
    "final_x": "3669266.73025",
    "final_y": "519209.667831",
    "longitude": "-90.10711468312647",
    "latitude": "29.922012004960877",
    "geocoded_column": {
      "latitude": "29.922012004960877",
      "longitude": "-90.10711468312647"
    }
  },
  {
    "service_request": "2022-893149",
    "request_type": "Trash/Recycling",
    "request_reason": "Request a Large Item Pick Up",
    "date_created": "2022-06-20T15:02:36.000",
    "date_modified": "2022-06-20T15:02:37.000",
    "request_status": "Pending",
    "responsible_agency": "Department of Sanitation",
    "final_address": "3511 Post Oak Ave",
    "address_councildis": "C",
    "status": "Assigned to Contractor",
    "contractor": "Richards Disposal",
    "rowid": "893149",
    "final_x": "3703267.95038",
    "final_y": "514680.551603",
    "longitude": "-89.99995423523995",
    "latitude": "29.908514197413414",
    "geocoded_column": {
      "latitude": "29.908514197413414",
      "longitude": "-89.99995423523995"
    }
  },
  {
    "service_request": "2022-893148",
    "request_type": "Trash/Recycling",
    "request_reason": "Replace Trash Cart",
    "date_created": "2022-06-20T14:59:41.000",
    "date_modified": "2022-06-20T14:59:42.000",
    "request_status": "Pending",
    "responsible_agency": "Department of Sanitation",
    "final_address": "2319 Broadway St",
    "address_councildis": "A",
    "status": "Assigned to Contractor",
    "contractor": "Richards Disposal",
    "rowid": "893148",
    "final_x": "3666573.98375",
    "final_y": "529993.508289",
    "longitude": "-90.11525272487187",
    "latitude": "29.951743077747913",
    "geocoded_column": {
      "latitude": "29.951743077747913",
      "longitude": "-90.11525272487187"
    }
  },
  {
    "service_request": "2022-893147",
    "request_type": "Trash/Recycling",
    "request_reason": "Repair Trash Cart",
    "date_created": "2022-06-20T14:58:07.000",
    "date_modified": "2022-06-20T14:58:08.000",
    "request_status": "Pending",
    "responsible_agency": "Department of Sanitation",
    "final_address": "2317 Broadway St",
    "address_councildis": "A",
    "status": "Assigned to Contractor",
    "contractor": "Richards Disposal",
    "rowid": "893147",
    "final_x": "3666565.65037",
    "final_y": "529982.258241",
    "longitude": "-90.1152794154047",
    "latitude": "29.95171238736036",
    "geocoded_column": {
      "latitude": "29.95171238736036",
      "longitude": "-90.1152794154047"
    }
  },
  {
    "service_request": "2022-893146",
    "request_type": "Trash/Recycling",
    "request_reason": "Request a Large Item Pick Up",
    "date_created": "2022-06-20T14:58:07.000",
    "date_modified": "2022-06-20T14:58:09.000",
    "request_status": "Pending",
    "responsible_agency": "Department of Sanitation",
    "final_address": "4783 Hickerson Dr",
    "address_councildis": "E",
    "status": "Assigned to Contractor",
    "contractor": "Metro Disposal",
    "rowid": "893146",
    "final_x": "3710346.06206",
    "final_y": "556055.075161",
    "longitude": "-89.97606805991322",
    "latitude": "30.022050523122193",
    "geocoded_column": {
      "latitude": "30.022050523122193",
      "longitude": "-89.97606805991322"
    }
  },
  {
    "service_request": "2022-893144",
    "request_type": "Property Maintenance",
    "request_reason": "Property Maintenance",
    "date_created": "2022-06-20T14:57:07.000",
    "date_modified": "2022-06-20T14:57:07.000",
    "request_status": "Pending",
    "responsible_agency": "Department of Code Enforcement",
    "final_address": "5421 Eads St",
    "address_councildis": "D",
    "status": "Pending",
    "rowid": "893144",
    "final_x": "3686994.2557",
    "final_y": "553146.693911",
    "longitude": "-90.04995662227049",
    "latitude": "30.014793439613022",
    "geocoded_column": {
      "latitude": "30.014793439613022",
      "longitude": "-90.04995662227049"
    }
  },
  {
    "service_request": "2022-893142",
    "request_type": "Traffic Signals/Signs/Striping/Streetlights",
    "request_reason": "Street Light Outage/Malfunction",
    "date_created": "2022-06-20T14:42:56.000",
    "date_modified": "2022-06-20T14:42:57.000",
    "request_status": "Pending",
    "responsible_agency": "Department of Public Works",
    "final_address": "6041 Chestnut St",
    "address_councildis": "A",
    "status": "Pending",
    "contractor": "Royal Engineering",
    "rowid": "893142",
    "final_x": "3664595.74509",
    "final_y": "520076.414328",
    "longitude": "-90.1218301616872",
    "latitude": "29.924531906528248",
    "geocoded_column": {
      "latitude": "29.924531906528248",
      "longitude": "-90.1218301616872"
    }
  },
  {
    "service_request": "2022-893141",
    "request_type": "Traffic Signals/Signs/Striping/Streetlights",
    "request_reason": "Request for Traffic Calming due to Speeding",
    "date_created": "2022-06-20T14:40:03.000",
    "date_modified": "2022-06-20T14:40:03.000",
    "request_status": "Pending",
    "responsible_agency": "Department of Public Works",
    "final_address": "2040 Burgundy St",
    "address_councildis": "C",
    "status": "Pending",
    "rowid": "893141",
    "final_x": "3684608.2358",
    "final_y": "535515.768774",
    "longitude": "-90.05811523035665",
    "latitude": "29.966387933778154",
    "geocoded_column": {
      "latitude": "29.966387933778154",
      "longitude": "-90.05811523035665"
    }
  },
  {
    "service_request": "2022-893140",
    "request_type": "Abandoned Vehicles",
    "request_reason": "Abandoned/Junk Vehicles",
    "date_created": "2022-06-20T14:38:30.000",
    "date_modified": "2022-06-20T14:38:31.000",
    "request_status": "Pending",
    "responsible_agency": "Department of Public Works",
    "final_address": "1450 Josephine St",
    "address_councildis": "B",
    "status": "Pending",
    "rowid": "893140",
    "final_x": "3678247.27253",
    "final_y": "523444.999739",
    "longitude": "-90.07862047326248",
    "latitude": "29.933390474531205",
    "geocoded_column": {
      "latitude": "29.933390474531205",
      "longitude": "-90.07862047326248"
    }
  },
  {
    "service_request": "2022-893139",
    "request_type": "Abandoned Vehicles",
    "request_reason": "Abandoned/Junk Vehicles",
    "date_created": "2022-06-20T14:29:47.000",
    "date_modified": "2022-06-20T14:29:47.000",
    "request_status": "Pending",
    "responsible_agency": "Department of Public Works",
    "final_address": "1709 Audubon St",
    "address_councildis": "A",
    "status": "Pending",
    "rowid": "893139",
    "final_x": "3665496.65786",
    "final_y": "527860.019839",
    "longitude": "-90.11872582640824",
    "latitude": "29.94590812104547",
    "geocoded_column": {
      "latitude": "29.94590812104547",
      "longitude": "-90.11872582640824"
    }
  },
  {
    "service_request": "2022-893138",
    "request_type": "Trash/Recycling",
    "request_reason": "Request a Large Item Pick Up",
    "date_created": "2022-06-20T14:29:44.000",
    "date_modified": "2022-06-20T14:29:44.000",
    "request_status": "Pending",
    "responsible_agency": "Department of Sanitation",
    "final_address": "6008 Craigie Rd",
    "address_councildis": "E",
    "status": "Assigned to Contractor",
    "contractor": "Metro Disposal",
    "rowid": "893138",
    "final_x": "3695299.29181",
    "final_y": "558535.760412",
    "longitude": "-90.02352221429607",
    "latitude": "30.029352951523247",
    "geocoded_column": {
      "latitude": "30.029352951523247",
      "longitude": "-90.02352221429607"
    }
  },
  {
    "service_request": "2022-893137",
    "request_type": "Roads/Drainage",
    "request_reason": "Pothole",
    "date_created": "2022-06-20T14:27:27.000",
    "date_modified": "2022-06-20T14:27:28.000",
    "request_status": "Pending",
    "responsible_agency": "Department of Public Works",
    "final_address": "1228 Pine St",
    "address_councildis": "A",
    "status": "Pending",
    "rowid": "893137",
    "final_x": "3664038.21626",
    "final_y": "526896.058686",
    "longitude": "-90.12336277709858",
    "latitude": "29.9432999654711",
    "geocoded_column": {
      "latitude": "29.9432999654711",
      "longitude": "-90.12336277709858"
    }
  },
  {
    "service_request": "2022-893136",
    "request_type": "Mosquito, Termite & Rodent Control",
    "request_reason": "Mosquito Complaint",
    "date_created": "2022-06-20T14:26:11.000",
    "date_modified": "2022-06-20T14:26:11.000",
    "request_status": "Pending",
    "responsible_agency": "Mosquito, Termite & Rodent Control Board",
    "final_address": "4220 Coliseum St",
    "address_councildis": "B",
    "status": "Pending",
    "rowid": "893136",
    "final_x": "3671521.69703",
    "final_y": "519791.022072",
    "longitude": "-90.09997692939872",
    "latitude": "29.92354399745472",
    "geocoded_column": {
      "latitude": "29.92354399745472",
      "longitude": "-90.09997692939872"
    }
  },
  {
    "service_request": "2022-893135",
    "request_type": "Abandoned Vehicles",
    "request_reason": "Abandoned/Junk Vehicles",
    "date_created": "2022-06-20T14:25:06.000",
    "date_modified": "2022-06-20T14:25:06.000",
    "request_status": "Pending",
    "responsible_agency": "Department of Public Works",
    "final_address": "1709 Audubon St",
    "address_councildis": "A",
    "status": "Pending",
    "rowid": "893135",
    "final_x": "3665496.65786",
    "final_y": "527860.019839",
    "longitude": "-90.11872582640824",
    "latitude": "29.94590812104547",
    "geocoded_column": {
      "latitude": "29.94590812104547",
      "longitude": "-90.11872582640824"
    }
  },
  {
    "service_request": "2022-893134",
    "request_type": "Property Maintenance",
    "request_reason": "Property Maintenance",
    "date_created": "2022-06-20T14:19:54.000",
    "date_modified": "2022-06-20T14:19:54.000",
    "request_status": "Pending",
    "responsible_agency": "Department of Code Enforcement",
    "final_address": "2725 Dreux Ave",
    "address_councildis": "D",
    "status": "Pending",
    "rowid": "893134",
    "final_x": "3687530.48764",
    "final_y": "552342.826134",
    "longitude": "-90.04829087633311",
    "latitude": "30.01256657384575",
    "geocoded_column": {
      "latitude": "30.01256657384575",
      "longitude": "-90.04829087633311"
    }
  },
  {
    "service_request": "2022-893133",
    "request_type": "Property Maintenance",
    "request_reason": "Property Maintenance",
    "date_created": "2022-06-20T14:19:00.000",
    "date_modified": "2022-06-20T14:19:00.000",
    "request_status": "Pending",
    "responsible_agency": "Department of Code Enforcement",
    "final_address": "2725 Dreux Ave",
    "address_councildis": "D",
    "status": "Pending",
    "rowid": "893133",
    "final_x": "3687530.48764",
    "final_y": "552342.826134",
    "longitude": "-90.04829087633311",
    "latitude": "30.01256657384575",
    "geocoded_column": {
      "latitude": "30.01256657384575",
      "longitude": "-90.04829087633311"
    }
  },
  {
    "service_request": "2022-893131",
    "request_type": "Roads/Drainage",
    "request_reason": "Man hole cover issue",
    "date_created": "2022-06-20T14:09:50.000",
    "date_modified": "2022-06-20T14:09:51.000",
    "request_status": "Pending",
    "responsible_agency": "Department of Public Works",
    "final_address": "JEFFERSON AVE & CAMP ST",
    "address_councildis": "B",
    "status": "Pending",
    "rowid": "893131",
    "final_x": "3666870.0",
    "final_y": "519152.18",
    "longitude": "-90.11468211356055",
    "latitude": "29.921924239228343",
    "geocoded_column": {
      "latitude": "29.921924239228343",
      "longitude": "-90.11468211356055"
    }
  },
  {
    "service_request": "2022-893130",
    "request_type": "Traffic Signals/Signs/Striping/Streetlights",
    "request_reason": "Street Light Outage/Malfunction",
    "date_created": "2022-06-20T14:08:06.000",
    "date_modified": "2022-06-20T14:08:07.000",
    "request_status": "Pending",
    "responsible_agency": "Department of Public Works",
    "final_address": "833 St Ann St",
    "address_councildis": "C",
    "status": "Pending",
    "contractor": "Royal Engineering",
    "rowid": "893130",
    "final_x": "3682293.30895",
    "final_y": "533172.523332",
    "longitude": "-90.06550760407573",
    "latitude": "29.960015448494726",
    "geocoded_column": {
      "latitude": "29.960015448494726",
      "longitude": "-90.06550760407573"
    }
  },
  {
    "service_request": "2022-893129",
    "request_type": "Trash/Recycling",
    "request_reason": "Request a Large Item Pick Up",
    "date_created": "2022-06-20T14:05:59.000",
    "date_modified": "2022-06-20T14:06:00.000",
    "request_status": "Pending",
    "responsible_agency": "Department of Sanitation",
    "final_address": "627 Delaronde St",
    "address_councildis": "C",
    "status": "Assigned to Contractor",
    "contractor": "Richards Disposal",
    "rowid": "893129",
    "final_x": "3687445.70556",
    "final_y": "531173.10925",
    "longitude": "-90.04930824612593",
    "latitude": "29.954359987366526",
    "geocoded_column": {
      "latitude": "29.954359987366526",
      "longitude": "-90.04930824612593"
    }
  },
  {
    "service_request": "2022-893128",
    "request_type": "Trash/Recycling",
    "request_reason": "Request a Large Item Pick Up",
    "date_created": "2022-06-20T14:05:00.000",
    "date_modified": "2022-06-20T14:05:01.000",
    "request_status": "Pending",
    "responsible_agency": "Department of Sanitation",
    "final_address": "622 Delaronde St",
    "address_councildis": "C",
    "status": "Assigned to Contractor",
    "contractor": "Richards Disposal",
    "rowid": "893128",
    "final_x": "3687404.23785",
    "final_y": "531276.819714",
    "longitude": "-90.04943551507834",
    "latitude": "29.95464643316275",
    "geocoded_column": {
      "latitude": "29.95464643316275",
      "longitude": "-90.04943551507834"
    }
  },
  {
    "service_request": "2022-893127",
    "request_type": "Mosquito, Termite & Rodent Control",
    "request_reason": "Mosquito Complaint",
    "date_created": "2022-06-20T14:01:39.000",
    "date_modified": "2022-06-20T14:01:39.000",
    "request_status": "Pending",
    "responsible_agency": "Mosquito, Termite & Rodent Control Board",
    "final_address": "3641 Post Oak Ave",
    "address_councildis": "C",
    "status": "Pending",
    "rowid": "893127",
    "final_x": "3703827.2915",
    "final_y": "514435.422963",
    "longitude": "-89.9981978967589",
    "latitude": "29.907822268121915",
    "geocoded_column": {
      "latitude": "29.907822268121915",
      "longitude": "-89.9981978967589"
    }
  },
  {
    "service_request": "2022-893126",
    "request_type": "Trash/Recycling",
    "request_reason": "Request a Large Item Pick Up",
    "date_created": "2022-06-20T13:59:38.000",
    "date_modified": "2022-06-20T13:59:39.000",
    "request_status": "Pending",
    "responsible_agency": "Department of Sanitation",
    "final_address": "3641 Post Oak Ave",
    "address_councildis": "C",
    "status": "Assigned to Contractor",
    "contractor": "Richards Disposal",
    "rowid": "893126",
    "final_x": "3703827.2915",
    "final_y": "514435.422963",
    "longitude": "-89.9981978967589",
    "latitude": "29.907822268121915",
    "geocoded_column": {
      "latitude": "29.907822268121915",
      "longitude": "-89.9981978967589"
    }
  },
  {
    "service_request": "2022-893125",
    "request_type": "Trash/Recycling",
    "request_reason": "Missed Trash Pick-Up",
    "date_created": "2022-06-20T13:59:03.000",
    "date_modified": "2022-06-20T13:59:04.000",
    "request_status": "Pending",
    "responsible_agency": "Department of Sanitation",
    "final_address": "1229 Murl St",
    "address_councildis": "C",
    "status": "Assigned to Contractor",
    "contractor": "Richards Disposal",
    "rowid": "893125",
    "final_x": "3695375.34109",
    "final_y": "526773.04915",
    "longitude": "-90.024428430153",
    "latitude": "29.94201463870082",
    "geocoded_column": {
      "latitude": "29.94201463870082",
      "longitude": "-90.024428430153"
    }
  },
  {
    "service_request": "2022-893124",
    "request_type": "Traffic Signals/Signs/Striping/Streetlights",
    "request_reason": "Additional signage",
    "date_created": "2022-06-20T13:58:32.000",
    "date_modified": "2022-06-20T13:58:33.000",
    "request_status": "Pending",
    "responsible_agency": "Department of Public Works",
    "final_address": "3004 Canal St",
    "address_councildis": "B",
    "status": "Pending",
    "rowid": "893124",
    "final_x": "3674226.78638",
    "final_y": "535810.104199",
    "longitude": "-90.09088965833772",
    "latitude": "29.96751085843024",
    "geocoded_column": {
      "latitude": "29.96751085843024",
      "longitude": "-90.09088965833772"
    }
  },
  {
    "service_request": "2022-893123",
    "request_type": "Mosquito, Termite & Rodent Control",
    "request_reason": "Mosquito Complaint",
    "date_created": "2022-06-20T13:54:58.000",
    "date_modified": "2022-06-20T13:54:58.000",
    "request_status": "Pending",
    "responsible_agency": "Mosquito, Termite & Rodent Control Board",
    "final_address": "5309 Dauphine St",
    "address_councildis": "E",
    "status": "Pending",
    "rowid": "893123",
    "final_x": "3696565.22755",
    "final_y": "532948.17914",
    "longitude": "-90.02044834105651",
    "latitude": "29.958956657194236",
    "geocoded_column": {
      "latitude": "29.958956657194236",
      "longitude": "-90.02044834105651"
    }
  },
  {
    "service_request": "2022-893122",
    "request_type": "Abandoned Vehicles",
    "request_reason": "Abandoned/Junk Vehicles",
    "date_created": "2022-06-20T13:51:29.000",
    "date_modified": "2022-06-20T13:53:48.000",
    "request_status": "Pending",
    "responsible_agency": "Department of Public Works",
    "final_address": "3335 Delachaise St",
    "address_councildis": "B",
    "status": "Pending",
    "rowid": "893122",
    "final_x": "3671531.26119",
    "final_y": "527362.192511",
    "longitude": "-90.09968943124605",
    "latitude": "29.94436198910485",
    "geocoded_column": {
      "latitude": "29.94436198910485",
      "longitude": "-90.09968943124605"
    }
  },
  {
    "service_request": "2022-893121",
    "request_type": "Trash/Recycling",
    "request_reason": "Request a Large Item Pick Up",
    "date_created": "2022-06-20T13:50:56.000",
    "date_modified": "2022-06-20T13:50:56.000",
    "request_status": "Pending",
    "responsible_agency": "Department of Sanitation",
    "final_address": "2017 Mandeville St",
    "address_councildis": "D",
    "status": "Assigned to Contractor",
    "contractor": "Metro Disposal",
    "rowid": "893121",
    "final_x": "3685538.19362",
    "final_y": "539855.739274",
    "longitude": "-90.05502554351101",
    "latitude": "29.978292847155352",
    "geocoded_column": {
      "latitude": "29.978292847155352",
      "longitude": "-90.05502554351101"
    }
  },
  {
    "service_request": "2022-893120",
    "request_type": "Roads/Drainage",
    "request_reason": "Man hole cover issue",
    "date_created": "2022-06-20T13:50:00.000",
    "date_modified": "2022-06-20T13:50:00.000",
    "request_status": "Pending",
    "responsible_agency": "Department of Public Works",
    "final_address": "1001 Toulouse St",
    "address_councildis": "C",
    "status": "Pending",
    "rowid": "893120",
    "final_x": "3681378.5261",
    "final_y": "532924.284036",
    "longitude": "-90.06840494138473",
    "latitude": "29.95936067450926",
    "geocoded_column": {
      "latitude": "29.95936067450926",
      "longitude": "-90.06840494138473"
    }
  },
  {
    "service_request": "2022-893119",
    "request_type": "Trash/Recycling",
    "request_reason": "Request a Large Item Pick Up",
    "date_created": "2022-06-20T13:48:54.000",
    "date_modified": "2022-06-20T13:48:55.000",
    "case_close_date": "2021-12-21T18:00:00.000",
    "request_status": "Pending",
    "responsible_agency": "Department of Sanitation",
    "final_address": "2700 N Villere St",
    "address_councildis": "C",
    "status": "Assigned to Contractor",
    "contractor": "Metro Disposal",
    "rowid": "893119",
    "final_x": "3687730.79727",
    "final_y": "537463.54228",
    "longitude": "-90.04818526658384",
    "latitude": "29.971647706369954",
    "geocoded_column": {
      "latitude": "29.971647706369954",
      "longitude": "-90.04818526658384"
    }
  },
  {
    "service_request": "2022-893118",
    "request_type": "Trash/Recycling",
    "request_reason": "Replace Trash Cart",
    "date_created": "2022-06-20T13:40:18.000",
    "date_modified": "2022-06-20T13:40:19.000",
    "request_status": "Pending",
    "responsible_agency": "Department of Sanitation",
    "final_address": "229 S Norman C Francis Prkwy",
    "address_councildis": "B",
    "status": "Assigned to Contractor",
    "contractor": "Richards Disposal",
    "rowid": "893118",
    "final_x": "3672689.45761",
    "final_y": "536295.441543",
    "longitude": "-90.09572802848359",
    "latitude": "29.968891118253556",
    "geocoded_column": {
      "latitude": "29.968891118253556",
      "longitude": "-90.09572802848359"
    }
  },
  {
    "service_request": "2022-893117",
    "request_type": "Trash/Recycling",
    "request_reason": "Request a Large Item Pick Up",
    "date_created": "2022-06-20T13:40:04.000",
    "date_modified": "2022-06-20T13:40:05.000",
    "request_status": "Pending",
    "responsible_agency": "Department of Sanitation",
    "final_address": "8317 Belfast St",
    "address_councildis": "A",
    "status": "Assigned to Contractor",
    "contractor": "Richards Disposal",
    "rowid": "893117",
    "final_x": "3664979.68916",
    "final_y": "532982.294468",
    "longitude": "-90.12018684999636",
    "latitude": "29.960007771583083",
    "geocoded_column": {
      "latitude": "29.960007771583083",
      "longitude": "-90.12018684999636"
    }
  },
  {
    "service_request": "2022-893116",
    "request_type": "Property Maintenance",
    "request_reason": "Property Maintenance",
    "date_created": "2022-06-20T13:33:48.000",
    "date_modified": "2022-06-20T13:33:48.000",
    "request_status": "Pending",
    "responsible_agency": "Department of Code Enforcement",
    "final_address": "5954 N Roman St",
    "address_councildis": "E",
    "status": "Pending",
    "rowid": "893116",
    "final_x": "3700000.91197",
    "final_y": "535945.756807",
    "longitude": "-90.00949002046836",
    "latitude": "29.96709023439103",
    "geocoded_column": {
      "latitude": "29.96709023439103",
      "longitude": "-90.00949002046836"
    }
  },
  {
    "service_request": "2022-893115",
    "request_type": "Property Maintenance",
    "request_reason": "Property Maintenance",
    "date_created": "2022-06-20T13:33:17.000",
    "date_modified": "2022-06-20T13:33:17.000",
    "request_status": "Pending",
    "responsible_agency": "Department of Code Enforcement",
    "final_address": "5920 N Roman St",
    "address_councildis": "E",
    "status": "Pending",
    "rowid": "893115",
    "final_x": "3699974.45348",
    "final_y": "535959.073287",
    "longitude": "-90.00957309018831",
    "latitude": "29.967127690432477",
    "geocoded_column": {
      "latitude": "29.967127690432477",
      "longitude": "-90.00957309018831"
    }
  },
  {
    "service_request": "2022-893114",
    "request_type": "Property Maintenance",
    "request_reason": "Property Maintenance",
    "date_created": "2022-06-20T13:32:06.000",
    "date_modified": "2022-06-20T13:32:07.000",
    "request_status": "Pending",
    "responsible_agency": "Department of Code Enforcement",
    "final_address": "5914 N Roman St",
    "address_councildis": "E",
    "status": "Pending",
    "rowid": "893114",
    "final_x": "3699946.03069",
    "final_y": "535971.962695",
    "longitude": "-90.00966237878818",
    "latitude": "29.96716403452071",
    "geocoded_column": {
      "latitude": "29.96716403452071",
      "longitude": "-90.00966237878818"
    }
  },
  {
    "service_request": "2022-893113",
    "request_type": "Traffic Signals/Signs/Striping/Streetlights",
    "request_reason": "Additional signage",
    "date_created": "2022-06-20T13:30:40.000",
    "date_modified": "2022-06-20T13:30:40.000",
    "request_status": "Pending",
    "responsible_agency": "Department of Public Works",
    "final_address": "1125 Montegut St",
    "address_councildis": "C",
    "status": "Pending",
    "rowid": "893113",
    "final_x": "3688534.22729",
    "final_y": "536401.970631",
    "longitude": "-90.04568559558535",
    "latitude": "29.968703954838244",
    "geocoded_column": {
      "latitude": "29.968703954838244",
      "longitude": "-90.04568559558535"
    }
  },
  {
    "service_request": "2022-893112",
    "request_type": "Trash/Recycling",
    "request_reason": "Illegal Dumping",
    "date_created": "2022-06-20T13:29:56.000",
    "date_modified": "2022-06-20T13:29:56.000",
    "request_status": "Pending",
    "responsible_agency": "Department of Sanitation",
    "final_address": "400 Burgundy St",
    "address_councildis": "C",
    "status": "Pending",
    "rowid": "893112",
    "final_x": "3681070.44309",
    "final_y": "532261.208323",
    "longitude": "-90.06940089000652",
    "latitude": "29.957546789714907",
    "geocoded_column": {
      "latitude": "29.957546789714907",
      "longitude": "-90.06940089000652"
    }
  },
  {
    "service_request": "2022-893111",
    "request_type": "Roads/Drainage",
    "request_reason": "Accessibility Ramps, Curbs and Sidewalk Repair",
    "date_created": "2022-06-20T13:27:51.000",
    "date_modified": "2022-06-20T13:27:51.000",
    "request_status": "Pending",
    "responsible_agency": "Department of Public Works",
    "final_address": "920 St Louis St Unit 5",
    "address_councildis": "C",
    "status": "Pending",
    "rowid": "893111",
    "final_x": "3681348.64309",
    "final_y": "532346.447299",
    "longitude": "-90.06851944603731",
    "latitude": "29.957772727070946",
    "geocoded_column": {
      "latitude": "29.957772727070946",
      "longitude": "-90.06851944603731"
    }
  },
  {
    "service_request": "2022-893110",
    "request_type": "Trash/Recycling",
    "request_reason": "Request a Large Item Pick Up",
    "date_created": "2022-06-20T13:25:53.000",
    "date_modified": "2022-06-20T13:25:54.000",
    "request_status": "Pending",
    "responsible_agency": "Department of Sanitation",
    "final_address": "621 N Pierce St, New Orleans, Louisiana, 70119",
    "address_councildis": "A",
    "status": "Assigned to Contractor",
    "contractor": "Richards Disposal",
    "rowid": "893110",
    "final_x": "3672654.93019",
    "final_y": "539638.471242",
    "longitude": "-90.09572303795275",
    "latitude": "29.978084342701408",
    "geocoded_column": {
      "latitude": "29.978084342701408",
      "longitude": "-90.09572303795275"
    }
  },
  {
    "service_request": "2022-893109",
    "request_type": "Trash/Recycling",
    "request_reason": "Request a Large Item Pick Up",
    "date_created": "2022-06-20T13:20:02.000",
    "date_modified": "2022-06-20T13:20:04.000",
    "request_status": "Pending",
    "responsible_agency": "Department of Sanitation",
    "final_address": "713 General Pershing St",
    "address_councildis": "B",
    "status": "Assigned to Contractor",
    "contractor": "Richards Disposal",
    "rowid": "893109",
    "final_x": "3671552.71246",
    "final_y": "518222.396278",
    "longitude": "-90.099932324492",
    "latitude": "29.919229857794033",
    "geocoded_column": {
      "latitude": "29.919229857794033",
      "longitude": "-90.099932324492"
    }
  },
  {
    "service_request": "2022-893108",
    "request_type": "Abandoned Vehicles",
    "request_reason": "Abandoned/Junk Vehicles",
    "date_created": "2022-06-20T13:18:37.000",
    "date_modified": "2022-06-20T13:18:37.000",
    "request_status": "Pending",
    "responsible_agency": "Department of Public Works",
    "final_address": "1823 Magazine St",
    "address_councildis": "B",
    "status": "Pending",
    "rowid": "893108",
    "final_x": "3679833.19778",
    "final_y": "522929.478267",
    "longitude": "-90.07363169426444",
    "latitude": "29.931925113765615",
    "geocoded_column": {
      "latitude": "29.931925113765615",
      "longitude": "-90.07363169426444"
    }
  },
  {
    "service_request": "2022-893107",
    "request_type": "Roads/Drainage",
    "request_reason": "Street Subsidence (Sinking)",
    "date_created": "2022-06-20T13:15:15.000",
    "date_modified": "2022-06-20T13:22:24.000",
    "request_status": "Pending",
    "responsible_agency": "Department of Public Works",
    "final_address": "5733 St Anthony Ave",
    "address_councildis": "D",
    "status": "Pending",
    "rowid": "893107",
    "final_x": "3682194.69404",
    "final_y": "554182.029784",
    "longitude": "-90.06508470030492",
    "latitude": "30.01778717364291",
    "geocoded_column": {
      "latitude": "30.01778717364291",
      "longitude": "-90.06508470030492"
    }
  },
  {
    "service_request": "2022-893106",
    "request_type": "Trash/Recycling",
    "request_reason": "Repair Trash Cart",
    "date_created": "2022-06-20T13:15:09.000",
    "date_modified": "2022-06-20T13:15:10.000",
    "request_status": "Pending",
    "responsible_agency": "Department of Sanitation",
    "final_address": "3612 Timber Bluff Ln",
    "address_councildis": "C",
    "status": "Assigned to Contractor",
    "contractor": "Richards Disposal",
    "rowid": "893106",
    "final_x": "3704212.76721",
    "final_y": "511082.628208",
    "longitude": "-89.99710469463503",
    "latitude": "29.89859086557144",
    "geocoded_column": {
      "latitude": "29.89859086557144",
      "longitude": "-89.99710469463503"
    }
  },
  {
    "service_request": "2022-893105",
    "request_type": "Trash/Recycling",
    "request_reason": "Request a Large Item Pick Up",
    "date_created": "2022-06-20T13:14:15.000",
    "date_modified": "2022-06-20T13:14:16.000",
    "case_close_date": "2021-10-05T19:00:00.000",
    "request_status": "Pending",
    "responsible_agency": "Department of Sanitation",
    "final_address": "4101 Dauphine St",
    "address_councildis": "C",
    "status": "Assigned to Contractor",
    "contractor": "Metro Disposal",
    "rowid": "893105",
    "final_x": "3691862.08694",
    "final_y": "534112.240517",
    "longitude": "-90.03525798103014",
    "latitude": "29.962304753636957",
    "geocoded_column": {
      "latitude": "29.962304753636957",
      "longitude": "-90.03525798103014"
    }
  },
  {
    "service_request": "2022-893104",
    "request_type": "Traffic Signals/Signs/Striping/Streetlights",
    "request_reason": "Street Light Outage/Malfunction",
    "date_created": "2022-06-20T13:11:27.000",
    "date_modified": "2022-06-20T13:11:28.000",
    "request_status": "Pending",
    "responsible_agency": "Department of Public Works",
    "final_address": "9901 Morrison Rd",
    "address_councildis": "E",
    "status": "Pending",
    "contractor": "Royal Engineering",
    "rowid": "893104",
    "final_x": "3708503.15032",
    "final_y": "563583.392608",
    "longitude": "-89.98161052533963",
    "latitude": "30.04281032074826",
    "geocoded_column": {
      "latitude": "30.04281032074826",
      "longitude": "-89.98161052533963"
    }
  },
  {
    "service_request": "2022-893103",
    "request_type": "Trash/Recycling",
    "request_reason": "Request a Large Item Pick Up",
    "date_created": "2022-06-20T13:10:44.000",
    "date_modified": "2022-06-20T13:10:45.000",
    "request_status": "Pending",
    "responsible_agency": "Department of Sanitation",
    "final_address": "206 River Oaks Dr",
    "address_councildis": "C",
    "status": "Assigned to Contractor",
    "contractor": "Richards Disposal",
    "rowid": "893103",
    "final_x": "3701640.07473",
    "final_y": "523168.076091",
    "longitude": "-90.00478143194462",
    "latitude": "29.93190396229803",
    "geocoded_column": {
      "latitude": "29.93190396229803",
      "longitude": "-90.00478143194462"
    }
  },
  {
    "service_request": "2022-893102",
    "request_type": "Trash/Recycling",
    "request_reason": "Request a Large Item Pick Up",
    "date_created": "2022-06-20T13:09:32.000",
    "date_modified": "2022-06-20T13:09:33.000",
    "request_status": "Pending",
    "responsible_agency": "Department of Sanitation",
    "final_address": "207 River Oaks Dr",
    "address_councildis": "C",
    "status": "Assigned to Contractor",
    "contractor": "Richards Disposal",
    "rowid": "893102",
    "final_x": "3701542.86692",
    "final_y": "523224.971067",
    "longitude": "-90.00508622249473",
    "latitude": "29.932063502452092",
    "geocoded_column": {
      "latitude": "29.932063502452092",
      "longitude": "-90.00508622249473"
    }
  },
  {
    "service_request": "2022-893101",
    "request_type": "Trash/Recycling",
    "request_reason": "Request a Large Item Pick Up",
    "date_created": "2022-06-20T13:09:17.000",
    "date_modified": "2022-06-20T13:09:18.000",
    "request_status": "Pending",
    "responsible_agency": "Department of Sanitation",
    "final_address": "175 English Turn Dr",
    "address_councildis": "C",
    "status": "Assigned to Contractor",
    "contractor": "Richards Disposal",
    "rowid": "893101",
    "final_x": "3719572.94687",
    "final_y": "512205.434353",
    "longitude": "-89.94858821751548",
    "latitude": "29.90117672162757",
    "geocoded_column": {
      "latitude": "29.90117672162757",
      "longitude": "-89.94858821751548"
    }
  },
  {
    "service_request": "2022-893100",
    "request_type": "Traffic Signals/Signs/Striping/Streetlights",
    "request_reason": "Street Light Outage/Malfunction",
    "date_created": "2022-06-20T13:08:27.000",
    "date_modified": "2022-06-20T13:08:29.000",
    "request_status": "Pending",
    "responsible_agency": "Department of Public Works",
    "final_address": "832 Howard Ave",
    "address_councildis": "B",
    "status": "Pending",
    "contractor": "Royal Engineering",
    "rowid": "893100",
    "final_x": "3679514.29301",
    "final_y": "527440.570367",
    "longitude": "-90.07448198687975",
    "latitude": "29.94433876063502",
    "geocoded_column": {
      "latitude": "29.94433876063502",
      "longitude": "-90.07448198687975"
    }
  },
  {
    "service_request": "2022-893099",
    "request_type": "Trash/Recycling",
    "request_reason": "Repair Trash Cart",
    "date_created": "2022-06-20T13:07:47.000",
    "date_modified": "2022-06-20T13:07:48.000",
    "request_status": "Pending",
    "responsible_agency": "Department of Sanitation",
    "final_address": "1632 Seventh St",
    "address_councildis": "B",
    "status": "Assigned to Contractor",
    "contractor": "Richards Disposal",
    "rowid": "893099",
    "final_x": "3675048.90824",
    "final_y": "522314.828538",
    "longitude": "-90.08875628537346",
    "latitude": "29.930378784072836",
    "geocoded_column": {
      "latitude": "29.930378784072836",
      "longitude": "-90.08875628537346"
    }
  },
  {
    "service_request": "2022-893098",
    "request_type": "Trash/Recycling",
    "request_reason": "Replace Trash Cart",
    "date_created": "2022-06-20T13:04:03.000",
    "date_modified": "2022-06-20T13:04:04.000",
    "request_status": "Pending",
    "responsible_agency": "Department of Sanitation",
    "final_address": "2207 S Gayoso St",
    "address_councildis": "A",
    "status": "Assigned to Contractor",
    "contractor": "Richards Disposal",
    "rowid": "893098",
    "final_x": "3669445.89614",
    "final_y": "528809.724864",
    "longitude": "-90.10622460349789",
    "latitude": "29.948403801409494",
    "geocoded_column": {
      "latitude": "29.948403801409494",
      "longitude": "-90.10622460349789"
    }
  },
  {
    "service_request": "2022-893096",
    "request_type": "Trash/Recycling",
    "request_reason": "Order Trash Cart",
    "date_created": "2022-06-20T13:01:19.000",
    "date_modified": "2022-06-20T13:01:20.000",
    "request_status": "Pending",
    "responsible_agency": "Department of Sanitation",
    "final_address": "13880 Hayne Blvd",
    "address_councildis": "E",
    "status": "Assigned to Contractor",
    "contractor": "Metro Disposal",
    "rowid": "893096",
    "final_x": "3717312.07608",
    "final_y": "572737.358441",
    "longitude": "-89.95342269019115",
    "latitude": "30.06769127361587",
    "geocoded_column": {
      "latitude": "30.06769127361587",
      "longitude": "-89.95342269019115"
    }
  },
  {
    "service_request": "2022-893095",
    "request_type": "Trash/Recycling",
    "request_reason": "Order Recycling Cart",
    "date_created": "2022-06-20T12:59:59.000",
    "date_modified": "2022-06-20T12:59:59.000",
    "request_status": "Pending",
    "responsible_agency": "Department of Sanitation",
    "final_address": "3315 General Pershing St",
    "address_councildis": "B",
    "status": "Pending",
    "rowid": "893095",
    "final_x": "3670677.7531",
    "final_y": "527094.858751",
    "longitude": "-90.10239327604894",
    "latitude": "29.94365214777185",
    "geocoded_column": {
      "latitude": "29.94365214777185",
      "longitude": "-90.10239327604894"
    }
  },
  {
    "service_request": "2022-893094",
    "request_type": "Trash/Recycling",
    "request_reason": "Repair Trash Cart",
    "date_created": "2022-06-20T12:57:55.000",
    "date_modified": "2022-06-20T12:57:56.000",
    "request_status": "Pending",
    "responsible_agency": "Department of Sanitation",
    "final_address": "2008 Barracks St",
    "address_councildis": "D",
    "status": "Assigned to Contractor",
    "contractor": "Richards Disposal",
    "rowid": "893094",
    "final_x": "3680156.34075",
    "final_y": "537039.25716",
    "longitude": "-90.07212128645206",
    "latitude": "29.970712486703015",
    "geocoded_column": {
      "latitude": "29.970712486703015",
      "longitude": "-90.07212128645206"
    }
  },
  {
    "service_request": "2022-893093",
    "request_type": "Property Maintenance",
    "request_reason": "Property Maintenance",
    "date_created": "2022-06-20T12:55:31.000",
    "date_modified": "2022-06-20T12:55:31.000",
    "request_status": "Pending",
    "responsible_agency": "Department of Code Enforcement",
    "final_address": "1616 S Gayoso St",
    "address_councildis": "B",
    "status": "Pending",
    "rowid": "893093",
    "final_x": "3670622.59943",
    "final_y": "530437.881922",
    "longitude": "-90.10245402977579",
    "latitude": "29.952845996205077",
    "geocoded_column": {
      "latitude": "29.952845996205077",
      "longitude": "-90.10245402977579"
    }
  },