[
  {
    "service_request": "2024-1149035",
    "request_type": "Trash/Recycling",
    "request_reason": "Order Recycling Cart",
    "date_created": "2024-11-15T23:55:30.000",
    "date_modified": "2024-11-15T23:55:30.000",
    "request_status": "Pending",
    "responsible_agency": "Department of Sanitation",
    "final_address": "1030 Louisa St",
    "address_councildis": "C",
    "status": "Pending",
    "rowid": "1149035",
    "final_x": "3689480.21148",
    "final_y": "535693.991943",
    "longitude": "-90.04272331534797",
    "latitude": "29.96672799731623",
    "geocoded_column": {
      "latitude": "29.96672799731623",
      "longitude": "-90.04272331534797"
    }
  },
  {
    "service_request": "2024-1149034",
    "request_type": "Safety & Permits",
    "request_reason": "Zoning Enforcement",
    "date_created": "2024-11-15T23:49:08.000",
    "date_modified": "2024-11-15T23:49:08.000",
    "request_status": "Pending",
    "responsible_agency": "Safety and Permits",
    "final_address": "1672 Rousselin Dr",
    "address_councildis": "D",
    "status": "Pending",
    "rowid": "1149034",
    "final_x": "3679718.36635",
    "final_y": "540412.744779",
    "longitude": "-90.0733873143451",
    "latitude": "29.98000166061185",
    "geocoded_column": {
      "latitude": "29.98000166061185",
      "longitude": "-90.0733873143451"
    }
  },
  {
    "service_request": "2024-1149033",
    "request_type": "Roads and Streets",
    "request_reason": "Road Shoulder Damage",
    "date_created": "2024-11-15T23:01:34.000",
    "date_modified": "2024-11-15T23:01:34.000",
    "request_status": "Pending",
    "responsible_agency": "Department of Public Works",
    "final_address": "242 Roselyn Park Pl",
    "address_councildis": "C",
    "status": "Pending",
    "rowid": "1149033",
    "final_x": "3702687.22359",
    "final_y": "523230.760507",
    "longitude": "-90.00147341843538",
    "latitude": "29.932042896740132",
    "geocoded_column": {
      "latitude": "29.932042896740132",
      "longitude": "-90.00147341843538"
    }
  },
  {
    "service_request": "2024-1149032",
    "request_type": "Safety & Permits",
    "request_reason": "Zoning Enforcement",
    "date_created": "2024-11-15T21:36:58.000",
    "date_modified": "2024-11-15T21:36:58.000",
    "request_status": "Pending",
    "responsible_agency": "Safety and Permits",
    "final_address": "710 Poland Ave",
    "address_councildis": "C",
    "status": "Pending",
    "rowid": "1149032",
    "final_x": "3692608.42774",
    "final_y": "533630.574853",
    "longitude": "-90.03291841660752",
    "latitude": "29.960957072647826",
    "geocoded_column": {
      "latitude": "29.960957072647826",
      "longitude": "-90.03291841660752"
    }
  },
  {
    "service_request": "2024-1149031",
    "request_type": "Parks & Parkways",
    "request_reason": "Request Tree Service (Right of Way/Public Property)",
    "date_created": "2024-11-15T21:31:08.000",
    "date_modified": "2024-11-15T21:31:08.000",
    "request_status": "Pending",
    "responsible_agency": "Department of Parks & Parkway",
    "final_address": "5966 Memphis St",
    "address_councildis": "A",
    "status": "Pending",
    "rowid": "1149031",
    "final_x": "3669090.03521",
    "final_y": "547161.947025",
    "longitude": "-90.10672790798479",
    "latitude": "29.998876719506544",
    "geocoded_column": {
      "latitude": "29.998876719506544",
      "longitude": "-90.10672790798479"
    }
  },
  {
    "service_request": "2024-1149030",
    "request_type": "Traffic Signals",
    "request_reason": "Traffic Signal Malfunctioning or Damaged",
    "date_created": "2024-11-15T21:22:22.000",
    "date_modified": "2024-11-15T21:22:22.000",
    "request_status": "Pending",
    "responsible_agency": "Department of Public Works",
    "final_address": "5803 Canal Blvd",
    "address_councildis": "A",
    "status": "Pending",
    "rowid": "1149030",
    "final_x": "3668525.43457",
    "final_y": "546007.265552",
    "longitude": "-90.10855048413956",
    "latitude": "29.995718350696553",
    "geocoded_column": {
      "latitude": "29.995718350696553",
      "longitude": "-90.10855048413956"
    }
  },
  {
    "service_request": "2024-1149029",
    "request_type": "Roads and Streets",
    "request_reason": "Pothole",
    "date_created": "2024-11-15T21:19:26.000",
    "date_modified": "2024-11-15T21:19:26.000",
    "request_status": "Pending",
    "responsible_agency": "Department of Public Works",
    "final_address": "5901 Marshal Foch St",
    "address_councildis": "A",
    "status": "Pending",
    "rowid": "1149029",
    "final_x": "3669857.18631",
    "final_y": "546561.546321",
    "longitude": "-90.10432480421605",
    "latitude": "29.997203222552038",
    "geocoded_column": {
      "latitude": "29.997203222552038",
      "longitude": "-90.10432480421605"
    }
  },
  {
    "service_request": "2024-1149028",
    "request_type": "Roads and Streets",
    "request_reason": "Push-up/Pavement Expansion",
    "date_created": "2024-11-15T21:15:31.000",
    "date_modified": "2024-11-15T21:15:31.000",
    "request_status": "Pending",
    "responsible_agency": "Department of Public Works",
    "final_address": "925 Polk St",
    "address_councildis": "A",
    "status": "Pending",
    "rowid": "1149028",
    "final_x": "3670029.71553",
    "final_y": "547219.511761",
    "longitude": "-90.1037574859959",
    "latitude": "29.999007309988126",
    "geocoded_column": {
      "latitude": "29.999007309988126",
      "longitude": "-90.1037574859959"
    }
  },
  {
    "service_request": "2024-1149027",
    "request_type": "Traffic Signals",
    "request_reason": "Traffic Signal Malfunctioning or Damaged",
    "date_created": "2024-11-15T21:13:15.000",
    "date_modified": "2024-11-15T21:13:15.000",
    "request_status": "Pending",
    "responsible_agency": "Department of Public Works",
    "final_address": "2922 Napoleon Ave",
    "address_councildis": "B",
    "status": "Pending",
    "rowid": "1149027",
    "final_x": "3670247.0137",
    "final_y": "525534.925437",
    "longitude": "-90.10380608657479",
    "latitude": "29.93937555390728",
    "geocoded_column": {
      "latitude": "29.93937555390728",
      "longitude": "-90.10380608657479"
    }
  },
  {
    "service_request": "2024-1149026",
    "request_type": "Traffic Signals",
    "request_reason": "Traffic Signal Malfunctioning or Damaged",
    "date_created": "2024-11-15T21:10:13.000",
    "date_modified": "2024-11-15T21:10:13.000",
    "request_status": "Pending",
    "responsible_agency": "Department of Public Works",
    "final_address": "6215 Canal Blvd",
    "address_councildis": "A",
    "status": "Pending",
    "rowid": "1149026",
    "final_x": "3668784.0073",
    "final_y": "548869.370195",
    "longitude": "-90.10763696036453",
    "latitude": "30.003580544985436",
    "geocoded_column": {
      "latitude": "30.003580544985436",
      "longitude": "-90.10763696036453"
    }
  },
  {
    "service_request": "2024-1149025",
    "request_type": "Trash/Recycling",
    "request_reason": "Replace Trash Cart",
    "date_created": "2024-11-15T20:26:12.000",
    "date_modified": "2024-11-15T20:26:13.000",
    "request_status": "Pending",
    "responsible_agency": "Department of Sanitation",
    "final_address": "745 Baronne St",
    "address_councildis": "B",
    "status": "Assigned to Contractor",
    "contractor": "Empire Services",
    "rowid": "1149025",
    "final_x": "3679596.86095",
    "final_y": "528410.757504",
    "longitude": "-90.07418763567163",
    "latitude": "29.94700395692527",
    "geocoded_column": {
      "latitude": "29.94700395692527",
      "longitude": "-90.07418763567163"
    }
  },
  {
    "service_request": "2024-1149024",
    "request_type": "Trash/Recycling",
    "request_reason": "Request a Large Item Pick Up",
    "date_created": "2024-11-15T20:16:30.000",
    "date_modified": "2024-11-15T20:16:31.000",
    "request_status": "Pending",
    "responsible_agency": "Department of Sanitation",
    "final_address": "3000 Republic St",
    "address_councildis": "D",
    "status": "Assigned to Contractor",
    "contractor": "IV Waste",
    "rowid": "1149024",
    "final_x": "3680598.02031",
    "final_y": "543388.339342",
    "longitude": "-90.07050542593687",
    "latitude": "29.988156879929004",
    "geocoded_column": {
      "latitude": "29.988156879929004",
      "longitude": "-90.07050542593687"
    }
  },
  {
    "service_request": "2024-1149023",
    "request_type": "Roads and Streets",
    "request_reason": "Debris in Driving Lanes",
    "date_created": "2024-11-15T19:45:40.000",
    "date_modified": "2024-11-15T19:45:40.000",
    "request_status": "Pending",
    "responsible_agency": "Department of Public Works",
    "final_address": "4316 S Carrollton Ave",
    "address_councildis": "A",
    "status": "Pending",
    "rowid": "1149023",
    "final_x": "3669949.91604",
    "final_y": "536903.956616",
    "longitude": "-90.10435908792314",
    "latitude": "29.97064540712877",
    "geocoded_column": {
      "latitude": "29.97064540712877",
      "longitude": "-90.10435908792314"
    }
  },
  {
    "service_request": "2024-1149022",
    "request_type": "Trash/Recycling",
    "request_reason": "Request a Large Item Pick Up",
    "date_created": "2024-11-15T19:30:06.000",
    "date_modified": "2024-11-15T19:30:07.000",
    "request_status": "Pending",
    "responsible_agency": "Department of Sanitation",
    "final_address": "5521 Patio Way",
    "address_councildis": "E",
    "status": "Assigned to Contractor",
    "contractor": "Waste Pro",
    "rowid": "1149022",
    "final_x": "3725433.21203",
    "final_y": "564037.521057",
    "longitude": "-89.92808786239462",
    "latitude": "30.043498963333835",
    "geocoded_column": {
      "latitude": "30.043498963333835",
      "longitude": "-89.92808786239462"
    }
  },
  {
    "service_request": "2024-1149021",
    "request_type": "Street and Traffic Signs",
    "request_reason": "Traffic or Parking Sign Damaged or Missing",
    "date_created": "2024-11-15T19:27:19.000",
    "date_modified": "2024-11-15T19:27:19.000",
    "request_status": "Pending",
    "responsible_agency": "Department of Public Works",
    "final_address": "2243 St Claude Ave",
    "address_councildis": "C",
    "status": "Pending",
    "rowid": "1149021",
    "final_x": "3685479.80028",
    "final_y": "536451.580103",
    "longitude": "-90.05532988702392",
    "latitude": "29.96893439034252",
    "geocoded_column": {
      "latitude": "29.96893439034252",
      "longitude": "-90.05532988702392"
    }
  },
  {
    "service_request": "2024-1149020",
    "request_type": "Trash/Recycling",
    "request_reason": "Request a Large Item Pick Up",
    "date_created": "2024-11-15T19:20:38.000",
    "date_modified": "2024-11-15T19:20:39.000",
    "request_status": "Pending",
    "responsible_agency": "Department of Sanitation",
    "final_address": "4518 Croyden Ave",
    "address_councildis": "C",
    "status": "Assigned to Contractor",
    "contractor": "Richards Disposal",
    "rowid": "1149020",
    "final_x": "3702259.59818",
    "final_y": "524132.619772",
    "longitude": "-90.00279031853512",
    "latitude": "29.934536355549838",
    "geocoded_column": {
      "latitude": "29.934536355549838",
      "longitude": "-90.00279031853512"
    }
  },
  {
    "service_request": "2024-1149019",
    "request_type": "Abandoned Vehicles",
    "request_reason": "Vehicle Blocking Your Driveway",
    "date_created": "2024-11-15T17:56:32.000",
    "date_modified": "2024-11-15T17:56:32.000",
    "request_status": "Pending",
    "responsible_agency": "Department of Public Works",
    "final_address": "4560 Francis Dr",
    "address_councildis": "D",
    "status": "Pending",
    "rowid": "1149019",
    "final_x": "3698285.01213",
    "final_y": "553385.434711",
    "longitude": "-90.01427480954976",
    "latitude": "30.015097335270656",
    "geocoded_column": {
      "latitude": "30.015097335270656",
      "longitude": "-90.01427480954976"
    }
  },
  {
    "service_request": "2024-1149018",
    "request_type": "Property Maintenance",
    "request_reason": "Property Maintenance",
    "date_created": "2024-11-15T17:17:36.000",
    "date_modified": "2024-11-15T17:17:36.000",
    "request_status": "Pending",
    "responsible_agency": "Department of Code Enforcement",
    "final_address": "5500 St Anthony Ave",
    "address_councildis": "D",
    "status": "Pending",
    "rowid": "1149018",
    "final_x": "3682057.15087",
    "final_y": "552942.299223",
    "longitude": "-90.06556262186075",
    "latitude": "30.014382551490602",
    "geocoded_column": {
      "latitude": "30.014382551490602",
      "longitude": "-90.06556262186075"
    }
  },
  {
    "service_request": "2024-1149017",
    "request_type": "Abandoned Vehicles",
    "request_reason": "Abandoned/Junk Vehicles",
    "date_created": "2024-11-15T17:15:02.000",
    "date_modified": "2024-11-15T17:15:02.000",
    "request_status": "Pending",
    "responsible_agency": "Department of Public Works",
    "final_address": "5500 St Anthony Ave",
    "address_councildis": "D",
    "status": "Pending",
    "rowid": "1149017",
    "final_x": "3682057.15087",
    "final_y": "552942.299223",
    "longitude": "-90.06556262186075",
    "latitude": "30.014382551490602",
    "geocoded_column": {
      "latitude": "30.014382551490602",
      "longitude": "-90.06556262186075"
    }
  },
  {
    "service_request": "2024-1149016",
    "request_type": "Abandoned Vehicles",
    "request_reason": "Abandoned/Junk Vehicles",
    "date_created": "2024-11-15T17:12:25.000",
    "date_modified": "2024-11-15T17:12:25.000",
    "request_status": "Pending",
    "responsible_agency": "Department of Public Works",
    "final_address": "5322 Wilton Dr",
    "address_councildis": "D",
    "status": "Pending",
    "rowid": "1149016",
    "final_x": "3681858.50236",
    "final_y": "552728.48335",
    "longitude": "-90.06619772280641",
    "latitude": "30.013800677365293",
    "geocoded_column": {
      "latitude": "30.013800677365293",
      "longitude": "-90.06619772280641"
    }
  },
  {
    "service_request": "2024-1149015",
    "request_type": "Trash/Recycling",
    "request_reason": "Illegal Dumping",
    "date_created": "2024-11-15T16:58:43.000",
    "date_modified": "2024-11-15T16:58:43.000",
    "request_status": "Pending",
    "responsible_agency": "Department of Sanitation",
    "final_address": "9800 BLK Grant St",
    "address_councildis": "E",
    "status": "Pending",
    "rowid": "1149015",
    "final_x": "3711937.37268",
    "final_y": "555126.589338",
    "longitude": "-89.97107485135072",
    "latitude": "30.01944562681986",
    "geocoded_column": {
      "latitude": "30.01944562681986",
      "longitude": "-89.97107485135072"
    }
  },
  {
    "service_request": "2024-1149014",
    "request_type": "Trash/Recycling",
    "request_reason": "Illegal Dumping",
    "date_created": "2024-11-15T16:49:54.000",
    "date_modified": "2024-11-15T16:49:54.000",
    "request_status": "Pending",
    "responsible_agency": "Department of Sanitation",
    "final_address": "2425 Law St",
    "address_councildis": "D",
    "status": "Pending",
    "rowid": "1149014",
    "final_x": "3685634.551",
    "final_y": "541966.329996",
    "longitude": "-90.05464682423352",
    "latitude": "29.984093271117256",
    "geocoded_column": {
      "latitude": "29.984093271117256",
      "longitude": "-90.05464682423352"
    }
  },
  {
    "service_request": "2024-1149013",
    "request_type": "Trash/Recycling",
    "request_reason": "Order Recycling Cart",
    "date_created": "2024-11-15T16:43:33.000",
    "date_modified": "2024-11-15T16:43:34.000",
    "request_status": "Pending",
    "responsible_agency": "Department of Sanitation",
    "final_address": "4910 Coronado Dr",
    "address_councildis": "E",
    "status": "Pending",
    "rowid": "1149013",
    "final_x": "3713967.08171",
    "final_y": "557386.093659",
    "longitude": "-89.96457644052262",
    "latitude": "30.025591864824165",
    "geocoded_column": {
      "latitude": "30.025591864824165",
      "longitude": "-89.96457644052262"
    }
  },
  {
    "service_request": "2024-1149012",
    "request_type": "Trash/Recycling",
    "request_reason": "Request a Large Item Pick Up",
    "date_created": "2024-11-15T16:43:23.000",
    "date_modified": "2024-11-15T16:44:12.000",
    "request_status": "Pending",
    "responsible_agency": "Department of Sanitation",
    "final_address": "3515 Annunciation St",
    "address_councildis": "B",
    "status": "Assigned to Contractor",
    "contractor": "IV Waste",
    "rowid": "1149012",
    "final_x": "3674672.57486",
    "final_y": "518357.40127",
    "longitude": "-90.09007986406098",
    "latitude": "29.919508368066086",
    "geocoded_column": {
      "latitude": "29.919508368066086",
      "longitude": "-90.09007986406098"
    }
  },
  {
    "service_request": "2024-1149011",
    "request_type": "Trash/Recycling",
    "request_reason": "Illegal Dumping",
    "date_created": "2024-11-15T16:41:43.000",
    "date_modified": "2024-11-15T16:41:43.000",
    "request_status": "Pending",
    "responsible_agency": "Department of Sanitation",
    "final_address": "2425 Law St",
    "address_councildis": "D",
    "status": "Pending",
    "rowid": "1149011",
    "final_x": "3685634.551",
    "final_y": "541966.329996",
    "longitude": "-90.05464682423352",
    "latitude": "29.984093271117256",
    "geocoded_column": {
      "latitude": "29.984093271117256",
      "longitude": "-90.05464682423352"
    }
  },
  {
    "service_request": "2024-1149010",
    "request_type": "Drainage",
    "request_reason": "Catch Basin Clogged",
    "date_created": "2024-11-15T16:38:47.000",
    "date_modified": "2024-11-15T16:38:48.000",
    "request_status": "Pending",
    "responsible_agency": "Department of Public Works",
    "final_address": "3424 Esplanade Ave",
    "address_councildis": "A",
    "status": "Pending",
    "rowid": "1149010",
    "final_x": "3675133.02305",
    "final_y": "541190.800844",
    "longitude": "-90.08784304001769",
    "latitude": "29.982278886936417",
    "geocoded_column": {
      "latitude": "29.982278886936417",
      "longitude": "-90.08784304001769"
    }
  },
  {
    "service_request": "2024-1149009",
    "request_type": "Trash/Recycling",
    "request_reason": "Request a Large Item Pick Up",
    "date_created": "2024-11-15T16:37:23.000",
    "date_modified": "2024-11-15T16:37:24.000",
    "request_status": "Pending",
    "responsible_agency": "Department of Sanitation",
    "final_address": "7800 Trapier Ave",
    "address_councildis": "E",
    "status": "Assigned to Contractor",
    "contractor": "Waste Pro",
    "rowid": "1149009",
    "final_x": "3706271.98065",
    "final_y": "563968.873761",
    "longitude": "-89.9886475685734",
    "latitude": "30.043942423601237",
    "geocoded_column": {
      "latitude": "30.043942423601237",
      "longitude": "-89.9886475685734"
    }
  },
  {
    "service_request": "2024-1149008",
    "request_type": "Utility Poles",
    "request_reason": "Wires Sagging/Hanging Low",
    "date_created": "2024-11-15T16:35:35.000",
    "date_modified": "2024-11-15T16:35:40.000",
    "request_status": "Pending",
    "responsible_agency": "Utility Company Collective",
    "final_address": "800 Cadiz St",
    "address_councildis": "B",
    "status": "Pending",
    "rowid": "1149008",
    "final_x": "3670293.38535",
    "final_y": "518453.806006",
    "longitude": "-90.10389955475033",
    "latitude": "29.9199033747488",
    "geocoded_column": {
      "latitude": "29.9199033747488",
      "longitude": "-90.10389955475033"
    }
  },
  {
    "service_request": "2024-1149007",
    "request_type": "Abandoned Vehicles",
    "request_reason": "Abandoned/Junk Vehicles",
    "date_created": "2024-11-15T16:24:25.000",
    "date_modified": "2024-11-15T16:24:25.000",
    "request_status": "Pending",
    "responsible_agency": "Department of Public Works",
    "final_address": "1832 General Taylor St",
    "address_councildis": "B",
    "status": "Pending",
    "rowid": "1149007",
    "final_x": "3672355.27726",
    "final_y": "522036.497786",
    "longitude": "-90.09726915768195",
    "latitude": "29.92969363761707",
    "geocoded_column": {
      "latitude": "29.92969363761707",
      "longitude": "-90.09726915768195"
    }
  },
  {
    "service_request": "2024-1149006",
    "request_type": "Abandoned Vehicles",
    "request_reason": "Abandoned/Junk Vehicles",
    "date_created": "2024-11-15T16:23:24.000",
    "date_modified": "2024-11-15T16:23:24.000",
    "request_status": "Pending",
    "responsible_agency": "Department of Public Works",
    "final_address": "3519 Dryades St",
    "address_councildis": "B",
    "status": "Pending",
    "rowid": "1149006",
    "final_x": "3673232.21652",
    "final_y": "522382.16601",
    "longitude": "-90.09448901223185",
    "latitude": "29.930618072893335",
    "geocoded_column": {
      "latitude": "29.930618072893335",
      "longitude": "-90.09448901223185"
    }
  },
  {
    "service_request": "2024-1149005",
    "request_type": "Abandoned Vehicles",
    "request_reason": "Abandoned/Junk Vehicles",
    "date_created": "2024-11-15T16:22:59.000",
    "date_modified": "2024-11-15T16:22:59.000",
    "request_status": "Pending",
    "responsible_agency": "Department of Public Works",
    "final_address": "3613 Dryades St",
    "address_councildis": "B",
    "status": "Pending",
    "rowid": "1149005",
    "final_x": "3672958.79182",
    "final_y": "522337.844794",
    "longitude": "-90.09535368708403",
    "latitude": "29.93050432954108",
    "geocoded_column": {
      "latitude": "29.93050432954108",
      "longitude": "-90.09535368708403"
    }
  },
  {
    "service_request": "2024-1149004",
    "request_type": "Abandoned Vehicles",
    "request_reason": "Abandoned/Junk Vehicles",
    "date_created": "2024-11-15T16:22:22.000",
    "date_modified": "2024-11-15T16:22:22.000",
    "request_status": "Pending",
    "responsible_agency": "Department of Public Works",
    "final_address": "1912 Foucher St",
    "address_councildis": "B",
    "status": "Pending",
    "rowid": "1149004",
    "final_x": "3673054.33377",
    "final_y": "522410.486842",
    "longitude": "-90.09504959677437",
    "latitude": "29.93070123303622",
    "geocoded_column": {
      "latitude": "29.93070123303622",
      "longitude": "-90.09504959677437"
    }
  },
  {
    "service_request": "2024-1149003",
    "request_type": "Abandoned Vehicles",
    "request_reason": "Abandoned/Junk Vehicles",
    "date_created": "2024-11-15T16:21:50.000",
    "date_modified": "2024-11-15T16:21:50.000",
    "request_status": "Pending",
    "responsible_agency": "Department of Public Works",
    "final_address": "3812 Carondelet St",
    "address_councildis": "B",
    "status": "Pending",
    "rowid": "1149003",
    "final_x": "3672681.54177",
    "final_y": "521366.682041",
    "longitude": "-90.09626202457973",
    "latitude": "29.92784217825584",
    "geocoded_column": {
      "latitude": "29.92784217825584",
      "longitude": "-90.09626202457973"
    }
  },
  {
    "service_request": "2024-1149002",
    "request_type": "Roads and Streets",
    "request_reason": "Push-up/Pavement Expansion",
    "date_created": "2024-11-15T16:21:30.000",
    "date_modified": "2024-11-15T16:21:30.000",
    "request_status": "Pending",
    "responsible_agency": "Department of Public Works",
    "final_address": "10064 S Interstate 10 Service Rd",
    "address_councildis": "E",
    "status": "Pending",
    "rowid": "1149002",
    "final_x": "3711352.19595",
    "final_y": "561908.673823",
    "longitude": "-89.9726693289657",
    "latitude": "30.038112793769713",
    "geocoded_column": {
      "latitude": "30.038112793769713",
      "longitude": "-89.9726693289657"
    }
  },
  {
    "service_request": "2024-1149001",
    "request_type": "Trash/Recycling",
    "request_reason": "Request a Large Item Pick Up",
    "date_created": "2024-11-15T16:20:34.000",
    "date_modified": "2024-11-15T16:20:35.000",
    "request_status": "Pending",
    "responsible_agency": "Department of Sanitation",
    "final_address": "1654 Jefferson Ave",
    "address_councildis": "A",
    "status": "Assigned to Contractor",
    "contractor": "IV Waste",
    "rowid": "1149001",
    "final_x": "3667379.33121",
    "final_y": "522069.24505",
    "longitude": "-90.11297629652972",
    "latitude": "29.929930340096607",
    "geocoded_column": {
      "latitude": "29.929930340096607",
      "longitude": "-90.11297629652972"
    }
  },
  {
    "service_request": "2024-1149000",
    "request_type": "Trash/Recycling",
    "request_reason": "Order Recycling Cart",
    "date_created": "2024-11-15T16:18:32.000",
    "date_modified": "2024-11-15T16:18:32.000",
    "request_status": "Pending",
    "responsible_agency": "Department of Sanitation",
    "final_address": "715 Joseph St",
    "address_councildis": "A",
    "status": "Pending",
    "rowid": "1149000",
    "final_x": "3666109.37229",
    "final_y": "518668.256055",
    "longitude": "-90.11709931751693",
    "latitude": "29.920615822160165",
    "geocoded_column": {
      "latitude": "29.920615822160165",
      "longitude": "-90.11709931751693"
    }
  },
  {
    "service_request": "2024-1148999",
    "request_type": "Traffic Signals",
    "request_reason": "Traffic Signal Malfunctioning or Damaged",
    "date_created": "2024-11-15T16:18:20.000",
    "date_modified": "2024-11-15T16:18:20.000",
    "request_status": "Pending",
    "responsible_agency": "Department of Public Works",
    "final_address": "ST CHARLES AVE & 2ND ST",
    "address_councildis": "B",
    "status": "Pending",
    "rowid": "1148999",
    "final_x": "3676717.9",
    "final_y": "523010.18",
    "longitude": "-90.08346358842",
    "latitude": "29.932240822053796",
    "geocoded_column": {
      "latitude": "29.932240822053796",
      "longitude": "-90.08346358842"
    }
  },
  {
    "service_request": "2024-1148998",
    "request_type": "Trash/Recycling",
    "request_reason": "Repair Trash Cart",
    "date_created": "2024-11-15T16:18:04.000",
    "date_modified": "2024-11-15T16:18:05.000",
    "request_status": "Pending",
    "responsible_agency": "Department of Sanitation",
    "final_address": "3700 Plymouth Pl",
    "address_councildis": "C",
    "status": "Assigned to Contractor",
    "contractor": "Richards Disposal",
    "rowid": "1148998",
    "final_x": "3702797.94026",
    "final_y": "516905.579573",
    "longitude": "-90.0013560157761",
    "latitude": "29.914647295419",
    "geocoded_column": {
      "latitude": "29.914647295419",
      "longitude": "-90.0013560157761"
    }
  },
  {
    "service_request": "2024-1148997",
    "request_type": "Trash/Recycling",
    "request_reason": "Request a Large Item Pick Up",
    "date_created": "2024-11-15T16:17:25.000",
    "date_modified": "2024-11-15T16:17:26.000",
    "request_status": "Pending",
    "responsible_agency": "Department of Sanitation",
    "final_address": "1925 General Pershing St",
    "address_councildis": "B",
    "status": "Assigned to Contractor",
    "contractor": "IV Waste",
    "rowid": "1148997",
    "final_x": "3671165.31079",
    "final_y": "522198.229754",
    "longitude": "-90.10102019018744",
    "latitude": "29.93017359157156",
    "geocoded_column": {
      "latitude": "29.93017359157156",
      "longitude": "-90.10102019018744"
    }
  },
  {
    "service_request": "2024-1148996",
    "request_type": "Trash/Recycling",
    "request_reason": "Request a Large Item Pick Up",
    "date_created": "2024-11-15T16:14:24.000",
    "date_modified": "2024-11-15T16:14:24.000",
    "request_status": "Pending",
    "responsible_agency": "Department of Sanitation",
    "final_address": "7070 Salem Dr",
    "address_councildis": "E",
    "status": "Assigned to Contractor",
    "contractor": "Waste Pro",
    "rowid": "1148996",
    "final_x": "3706539.14603",
    "final_y": "560972.477598",
    "longitude": "-89.9879144088087",
    "latitude": "30.035694897287563",
    "geocoded_column": {
      "latitude": "30.035694897287563",
      "longitude": "-89.9879144088087"
    }
  },
  {
    "service_request": "2024-1148995",
    "request_type": "Trash/Recycling",
    "request_reason": "Request a Large Item Pick Up",
    "date_created": "2024-11-15T16:14:22.000",
    "date_modified": "2024-11-15T16:14:23.000",
    "request_status": "Pending",
    "responsible_agency": "Department of Sanitation",
    "final_address": "1520 Leonidas St",
    "address_councildis": "A",
    "status": "Assigned to Contractor",
    "contractor": "IV Waste",
    "rowid": "1148995",
    "final_x": "3661433.00781",
    "final_y": "530496.156866",
    "longitude": "-90.13146890333454",
    "latitude": "29.953274470274106",
    "geocoded_column": {
      "latitude": "29.953274470274106",
      "longitude": "-90.13146890333454"
    }
  },
  {
    "service_request": "2024-1148994",
    "request_type": "Streetlights",
    "request_reason": "Streetlight Outage/Malfunction",
    "date_created": "2024-11-15T16:10:38.000",
    "date_modified": "2024-11-15T16:10:38.000",
    "request_status": "Pending",
    "responsible_agency": "Department of Public Works",
    "final_address": "1330 Bordeaux St",
    "address_councildis": "B",
    "status": "Pending",
    "contractor": "Legacy Professional Services",
    "rowid": "1148994",
    "final_x": "3669415.25863",
    "final_y": "520050.75404",
    "longitude": "-90.10661741641665",
    "latitude": "29.924320353887616",
    "geocoded_column": {
      "latitude": "29.924320353887616",
      "longitude": "-90.10661741641665"
    }
  },
  {
    "service_request": "2024-1148993",
    "request_type": "Safety & Permits",
    "request_reason": "Licenses & Permits",
    "date_created": "2024-11-15T16:08:31.000",
    "date_modified": "2024-11-15T16:08:31.000",
    "request_status": "Pending",
    "responsible_agency": "Safety and Permits",
    "final_address": "5115 Arts St",
    "address_councildis": "D",
    "status": "Pending",
    "rowid": "1148993",
    "final_x": "3685915.2751",
    "final_y": "551668.569813",
    "longitude": "-90.05341783925712",
    "latitude": "30.010762324541968",
    "geocoded_column": {
      "latitude": "30.010762324541968",
      "longitude": "-90.05341783925712"
    }
  },
  {
    "service_request": "2024-1148992",
    "request_type": "Abandoned Vehicles",
    "request_reason": "Abandoned/Junk Vehicles",
    "date_created": "2024-11-15T16:05:39.000",
    "date_modified": "2024-11-15T16:05:39.000",
    "request_status": "Pending",
    "responsible_agency": "Department of Public Works",
    "final_address": "1014 Lowerline St",
    "address_councildis": "A",
    "status": "Pending",
    "rowid": "1148992",
    "final_x": "3663329.91591",
    "final_y": "526369.571902",
    "longitude": "-90.12561659196714",
    "latitude": "29.941872841902153",
    "geocoded_column": {
      "latitude": "29.941872841902153",
      "longitude": "-90.12561659196714"
    }
  },
  {
    "service_request": "2024-1148991",
    "request_type": "Streetlights",
    "request_reason": "Streetlight Outage/Malfunction",
    "date_created": "2024-11-15T15:57:43.000",
    "date_modified": "2024-11-15T15:57:44.000",
    "request_status": "Pending",
    "responsible_agency": "Department of Public Works",
    "final_address": "7241 Westhaven Rd",
    "address_councildis": "E",
    "status": "Pending",
    "contractor": "Legacy Professional Services",
    "rowid": "1148991",
    "final_x": "3703498.04158",
    "final_y": "560557.951518",
    "longitude": "-89.99754004337055",
    "latitude": "30.034652945413136",
    "geocoded_column": {
      "latitude": "30.034652945413136",
      "longitude": "-89.99754004337055"
    }
  },
  {
    "service_request": "2024-1148990",
    "request_type": "Health Related Request",
    "request_reason": "Homeless Encampment Complaint",
    "date_created": "2024-11-15T15:53:31.000",
    "date_modified": "2024-11-15T16:00:23.000",
    "request_status": "Pending",
    "responsible_agency": "Health Department",
    "final_address": "1127 Music St",
    "address_councildis": "C",
    "rowid": "1148990",
    "final_x": "3686862.23106",
    "final_y": "536749.05524",
    "longitude": "-90.05095357683722",
    "latitude": "29.96970987428545",
    "geocoded_column": {
      "latitude": "29.96970987428545",
      "longitude": "-90.05095357683722"
    }
  },
  {
    "service_request": "2024-1148989",
    "request_type": "Trash/Recycling",
    "request_reason": "Repair Trash Cart",
    "date_created": "2024-11-15T15:50:37.000",
    "date_modified": "2024-11-15T15:50:38.000",
    "request_status": "Pending",
    "responsible_agency": "Department of Sanitation",
    "final_address": "4001 Piedmont Dr",
    "address_councildis": "D",
    "status": "Assigned to Contractor",
    "contractor": "IV Waste",
    "rowid": "1148989",
    "final_x": "3685362.96405",
    "final_y": "547288.824657",
    "longitude": "-90.05531713661561",
    "latitude": "29.998736563850876",
    "geocoded_column": {
      "latitude": "29.998736563850876",
      "longitude": "-90.05531713661561"
    }
  },
  {
    "service_request": "2024-1148988",
    "request_type": "Roads and Streets",
    "request_reason": "Pothole",
    "date_created": "2024-11-15T15:50:14.000",
    "date_modified": "2024-11-15T15:50:15.000",
    "request_status": "Pending",
    "responsible_agency": "Department of Public Works",
    "final_address": "3000 BLK Tulane Ave",
    "address_councildis": "B",
    "status": "Pending",
    "rowid": "1148988",
    "final_x": "3673032.96591",
    "final_y": "534419.840069",
    "longitude": "-90.09470723449785",
    "latitude": "29.96372363868358",
    "geocoded_column": {
      "latitude": "29.96372363868358",
      "longitude": "-90.09470723449785"
    }
  },
  {
    "service_request": "2024-1148987",
    "request_type": "Roads and Streets",
    "request_reason": "Sidewalk Damaged or Missing",
    "date_created": "2024-11-15T15:50:09.000",
    "date_modified": "2024-11-15T15:50:10.000",
    "request_status": "Pending",
    "responsible_agency": "Department of Public Works",
    "final_address": "336 Pine St",
    "address_councildis": "A",
    "status": "Pending",
    "rowid": "1148987",
    "final_x": "3661740.50784",
    "final_y": "523483.127931",
    "longitude": "-90.13073035694588",
    "latitude": "29.933982002002175",
    "geocoded_column": {
      "latitude": "29.933982002002175",
      "longitude": "-90.13073035694588"
    }
  },
  {
    "service_request": "2024-1148986",
    "request_type": "Roads and Streets",
    "request_reason": "Debris in Driving Lanes",
    "date_created": "2024-11-15T15:46:51.000",
    "date_modified": "2024-11-15T15:46:52.000",
    "request_status": "Pending",
    "responsible_agency": "Department of Public Works",
    "final_address": "336 Pine St",
    "address_councildis": "A",
    "status": "Pending",
    "rowid": "1148986",
    "final_x": "3661740.50784",
    "final_y": "523483.127931",
    "longitude": "-90.13073035694588",
    "latitude": "29.933982002002175",
    "geocoded_column": {
      "latitude": "29.933982002002175",
      "longitude": "-90.13073035694588"
    }
  },
  {
    "service_request": "2024-1148985",
    "request_type": "Trash/Recycling",
    "request_reason": "Request a Large Item Pick Up",
    "date_created": "2024-11-15T15:45:33.000",
    "date_modified": "2024-11-15T15:45:35.000",
    "request_status": "Pending",
    "responsible_agency": "Department of Sanitation",
    "final_address": "2600 Marr Ave",
    "address_councildis": "C",
    "status": "Assigned to Contractor",
    "contractor": "Richards Disposal",
    "rowid": "1148985",
    "final_x": "3691475.87177",
    "final_y": "520991.160697",
    "longitude": "-90.0369463710458",
    "latitude": "29.926238313840795",
    "geocoded_column": {
      "latitude": "29.926238313840795",
      "longitude": "-90.0369463710458"
    }
  },
  {
    "service_request": "2024-1148984",
    "request_type": "Trash/Recycling",
    "request_reason": "Order Trash Cart",
    "date_created": "2024-11-15T15:45:22.000",
    "date_modified": "2024-11-15T15:45:43.000",
    "request_status": "Pending",
    "responsible_agency": "Department of Sanitation",
    "final_address": "1803 Casa Calvo St",
    "address_councildis": "C",
    "status": "Assigned to Contractor",
    "contractor": "Richards Disposal",
    "rowid": "1148984",
    "final_x": "3691944.72867",
    "final_y": "524667.432508",
    "longitude": "-90.03533486989791",
    "latitude": "29.93633222126794",
    "geocoded_column": {
      "latitude": "29.93633222126794",
      "longitude": "-90.03533486989791"
    }
  },
  {
    "service_request": "2024-1148983",
    "request_type": "Abandoned Vehicles",
    "request_reason": "Abandoned/Junk Vehicles",
    "date_created": "2024-11-15T15:34:27.000",
    "date_modified": "2024-11-15T15:34:27.000",
    "request_status": "Pending",
    "responsible_agency": "Department of Public Works",
    "final_address": "2200 BLK Westbend Pkwy",
    "address_councildis": "C",
    "status": "Pending",
    "rowid": "1148983",
    "final_x": "3696778.74354",
    "final_y": "522362.173895",
    "longitude": "-90.02015721087088",
    "latitude": "29.92984209743868",
    "geocoded_column": {
      "latitude": "29.92984209743868",
      "longitude": "-90.02015721087088"
    }
  },
  {
    "service_request": "2024-1148982",
    "request_type": "Trash/Recycling",
    "request_reason": "Illegal Dumping",
    "date_created": "2024-11-15T15:30:53.000",
    "date_modified": "2024-11-15T15:30:54.000",
    "request_status": "Pending",
    "responsible_agency": "Department of Sanitation",
    "final_address": "2885 Ridgeway Blvd",
    "address_councildis": "E",
    "status": "Pending",
    "rowid": "1148982",
    "final_x": "3744129.45173",
    "final_y": "595598.780798",
    "longitude": "-89.867725202822",
    "latitude": "30.129634412475347",
    "geocoded_column": {
      "latitude": "30.129634412475347",
      "longitude": "-89.867725202822"
    }
  },
  {
    "service_request": "2024-1148981",
    "request_type": "Abandoned Vehicles",
    "request_reason": "Abandoned/Junk Vehicles",
    "date_created": "2024-11-15T15:30:36.000",
    "date_modified": "2024-11-15T15:30:36.000",
    "request_status": "Pending",
    "responsible_agency": "Department of Public Works",
    "final_address": "935 N Prieur St",
    "address_councildis": "D",
    "status": "Pending",
    "rowid": "1148981",
    "final_x": "3679504.25979",
    "final_y": "536082.252615",
    "longitude": "-90.0742138484199",
    "latitude": "29.968100771493827",
    "geocoded_column": {
      "latitude": "29.968100771493827",
      "longitude": "-90.0742138484199"
    }
  },
  {
    "service_request": "2024-1148980",
    "request_type": "Abandoned Vehicles",
    "request_reason": "Abandoned/Junk Vehicles",
    "date_created": "2024-11-15T15:28:07.000",
    "date_modified": "2024-11-15T15:28:08.000",
    "request_status": "Pending",
    "responsible_agency": "Department of Public Works",
    "final_address": "2200 BLK Westbend Pkwy",
    "address_councildis": "C",
    "status": "Pending",
    "rowid": "1148980",
    "final_x": "3696778.74354",
    "final_y": "522362.173895",
    "longitude": "-90.02015721087088",
    "latitude": "29.92984209743868",
    "geocoded_column": {
      "latitude": "29.92984209743868",
      "longitude": "-90.02015721087088"
    }
  },
  {
    "service_request": "2024-1148979",
    "request_type": "Trash/Recycling",
    "request_reason": "Repair Trash Cart",
    "date_created": "2024-11-15T15:27:26.000",
    "date_modified": "2024-11-15T15:27:27.000",
    "request_status": "Pending",
    "responsible_agency": "Department of Sanitation",
    "final_address": "1224 Hillary St",
    "address_councildis": "A",
    "status": "Assigned to Contractor",
    "contractor": "IV Waste",
    "rowid": "1148979",
    "final_x": "3663394.29082",
    "final_y": "527333.365055",
    "longitude": "-90.12538126752506",
    "latitude": "29.944521099175823",
    "geocoded_column": {
      "latitude": "29.944521099175823",
      "longitude": "-90.12538126752506"
    }
  },
  {
    "service_request": "2024-1148978",
    "request_type": "Property Maintenance",
    "request_reason": "Property Maintenance",
    "date_created": "2024-11-15T15:27:23.000",
    "date_modified": "2024-11-15T15:27:23.000",
    "request_status": "Pending",
    "responsible_agency": "Department of Code Enforcement",
    "final_address": "935 N Prieur St",
    "address_councildis": "D",
    "status": "Pending",
    "rowid": "1148978",
    "final_x": "3679504.25979",
    "final_y": "536082.252615",
    "longitude": "-90.0742138484199",
    "latitude": "29.968100771493827",
    "geocoded_column": {
      "latitude": "29.968100771493827",
      "longitude": "-90.0742138484199"
    }
  },
  {
    "service_request": "2024-1148977",
    "request_type": "Trash/Recycling",
    "request_reason": "Request a Large Item Pick Up",
    "date_created": "2024-11-15T15:25:19.000",
    "date_modified": "2024-11-15T15:25:20.000",
    "request_status": "Pending",
    "responsible_agency": "Department of Sanitation",
    "final_address": "2319 Mazant St",
    "address_councildis": "D",
    "status": "Assigned to Contractor",
    "contractor": "IV Waste",
    "rowid": "1148977",
    "final_x": "3693308.30179",
    "final_y": "539904.893002",
    "longitude": "-90.03048307508968",
    "latitude": "29.9781873639797",
    "geocoded_column": {
      "latitude": "29.9781873639797",
      "longitude": "-90.03048307508968"
    }
  },
  {
    "service_request": "2024-1148976",
    "request_type": "Property Maintenance",
    "request_reason": "Property Maintenance",
    "date_created": "2024-11-15T15:24:46.000",
    "date_modified": "2024-11-15T15:24:46.000",
    "request_status": "Pending",
    "responsible_agency": "Department of Code Enforcement",
    "final_address": "931 N Prieur St",
    "address_councildis": "D",
    "status": "Pending",
    "rowid": "1148976",
    "final_x": "3679484.73519",
    "final_y": "536061.982791",
    "longitude": "-90.07427621123675",
    "latitude": "29.96804562633569",
    "geocoded_column": {
      "latitude": "29.96804562633569",
      "longitude": "-90.07427621123675"
    }
  },
  {
    "service_request": "2024-1148975",
    "request_type": "Trash/Recycling",
    "request_reason": "MIssed Recycling Pick-Up",
    "date_created": "2024-11-15T15:16:43.000",
    "date_modified": "2024-11-15T16:10:17.000",
    "case_close_date": "2024-11-15T10:10:17.000",
    "request_status": "Closed",
    "responsible_agency": "Department of Sanitation",
    "final_address": "1624 Arts St",
    "address_councildis": "D",
    "status": "Invalid Request",
    "contractor": "IV Waste",
    "contractor_action": "Invalid",
    "rowid": "1148975",
    "final_x": "3687009.43318",
    "final_y": "538536.852297",
    "longitude": "-90.05042548639291",
    "latitude": "29.97462115937053",
    "geocoded_column": {
      "latitude": "29.97462115937053",
      "longitude": "-90.05042548639291"
    }
  },
  {
    "service_request": "2024-1148974",
    "request_type": "Trash/Recycling",
    "request_reason": "Request a Large Item Pick Up",
    "date_created": "2024-11-15T15:15:37.000",
    "date_modified": "2024-11-15T15:15:37.000",
    "request_status": "Pending",
    "responsible_agency": "Department of Sanitation",
    "final_address": "5104 Marigny St",
    "address_councildis": "D",
    "status": "Assigned to Contractor",
    "contractor": "IV Waste",
    "rowid": "1148974",
    "final_x": "3684288.67369",
    "final_y": "551485.038421",
    "longitude": "-90.05856334974636",
    "latitude": "30.010307538709817",
    "geocoded_column": {
      "latitude": "30.010307538709817",
      "longitude": "-90.05856334974636"
    }
  },
  {
    "service_request": "2024-1148973",
    "request_type": "Abandoned Vehicles",
    "request_reason": "Abandoned/Junk Vehicles",
    "date_created": "2024-11-15T15:15:15.000",
    "date_modified": "2024-11-15T15:15:16.000",
    "request_status": "Pending",
    "responsible_agency": "Department of Public Works",
    "final_address": "2100 Easter Ln",
    "address_councildis": "C",
    "status": "Pending",
    "rowid": "1148973",
    "final_x": "3699541.93053",
    "final_y": "523625.943035",
    "longitude": "-90.01138833234367",
    "latitude": "29.93322966253509",
    "geocoded_column": {
      "latitude": "29.93322966253509",
      "longitude": "-90.01138833234367"
    }
  },
  {
    "service_request": "2024-1148972",
    "request_type": "Abandoned Vehicles",
    "request_reason": "Abandoned/Junk Vehicles",
    "date_created": "2024-11-15T15:15:04.000",
    "date_modified": "2024-11-15T15:15:05.000",
    "request_status": "Pending",
    "responsible_agency": "Department of Public Works",
    "final_address": "3511 Rue Denise",
    "address_councildis": "C",
    "status": "Pending",
    "rowid": "1148972",
    "final_x": "3704221.91914",
    "final_y": "517747.13791",
    "longitude": "-89.99683049573632",
    "latitude": "29.91691569926426",
    "geocoded_column": {
      "latitude": "29.91691569926426",
      "longitude": "-89.99683049573632"
    }
  },
  {
    "service_request": "2024-1148971",
    "request_type": "Trash/Recycling",
    "request_reason": "Request a Large Item Pick Up",
    "date_created": "2024-11-15T15:13:04.000",
    "date_modified": "2024-11-15T15:13:05.000",
    "request_status": "Pending",
    "responsible_agency": "Department of Sanitation",
    "final_address": "811 Tricou St",
    "address_councildis": "E",
    "status": "Assigned to Contractor",
    "contractor": "Waste Pro",
    "rowid": "1148971",
    "final_x": "3699771.81188",
    "final_y": "532063.588547",
    "longitude": "-90.0103550671905",
    "latitude": "29.956422934233036",
    "geocoded_column": {
      "latitude": "29.956422934233036",
      "longitude": "-90.0103550671905"
    }
  },
  {
    "service_request": "2024-1148970",
    "request_type": "Abandoned Vehicles",
    "request_reason": "Abandoned/Junk Vehicles",
    "date_created": "2024-11-15T15:05:08.000",
    "date_modified": "2024-11-15T15:05:08.000",
    "request_status": "Pending",
    "responsible_agency": "Department of Public Works",
    "final_address": "10 Fortress Rd",
    "address_councildis": "D",
    "status": "Pending",
    "rowid": "1148970",
    "final_x": "3676558.97902",
    "final_y": "554613.978968",
    "longitude": "-90.08287649402884",
    "latitude": "30.01914518999604",
    "geocoded_column": {
      "latitude": "30.01914518999604",
      "longitude": "-90.08287649402884"
    }
  },
  {
    "service_request": "2024-1148969",
    "request_type": "Trash/Recycling",
    "request_reason": "Illegal Dumping",
    "date_created": "2024-11-15T15:03:59.000",
    "date_modified": "2024-11-15T15:04:00.000",
    "request_status": "Pending",
    "responsible_agency": "Department of Sanitation",
    "final_address": "7600 BLK Lady Gray St",
    "address_councildis": "E",
    "status": "Pending",
    "rowid": "1148969",
    "final_x": "3709913.65363",
    "final_y": "565375.15447",
    "longitude": "-89.97708578170075",
    "latitude": "30.047691119012416",
    "geocoded_column": {
      "latitude": "30.047691119012416",
      "longitude": "-89.97708578170075"
    }
  },
  {
    "service_request": "2024-1148968",
    "request_type": "Abandoned Vehicles",
    "request_reason": "Abandoned/Junk Vehicles",
    "date_created": "2024-11-15T15:03:50.000",
    "date_modified": "2024-11-15T15:03:52.000",
    "request_status": "Pending",
    "responsible_agency": "Department of Public Works",
    "final_address": "6600 BLK Colbert St",
    "address_councildis": "A",
    "status": "Pending",
    "rowid": "1148968",
    "final_x": "3667816.59051",
    "final_y": "551785.149498",
    "longitude": "-90.1105949010424",
    "latitude": "30.01162633955998",
    "geocoded_column": {
      "latitude": "30.01162633955998",
      "longitude": "-90.1105949010424"
    }
  },
  {
    "service_request": "2024-1148967",
    "request_type": "Property Maintenance",
    "request_reason": "Property Maintenance",
    "date_created": "2024-11-15T15:01:19.000",
    "date_modified": "2024-11-15T15:19:19.000",
    "case_close_date": "2024-11-15T09:19:19.000",
    "request_status": "Closed",
    "responsible_agency": "Department of Code Enforcement",
    "final_address": "232 28Th St",
    "address_councildis": "A",
    "status": "Referred to Code Enforcement",
    "rowid": "1148967",
    "final_x": "3665528.8752",
    "final_y": "550170.05538",
    "longitude": "-90.11787690485842",
    "latitude": "30.007252319739372",
    "geocoded_column": {
      "latitude": "30.007252319739372",
      "longitude": "-90.11787690485842"
    }
  },
  {
    "service_request": "2024-1148966",
    "request_type": "Trash/Recycling",
    "request_reason": "Request a Large Item Pick Up",
    "date_created": "2024-11-15T14:56:55.000",
    "date_modified": "2024-11-15T14:56:56.000",
    "request_status": "Pending",
    "responsible_agency": "Department of Sanitation",
    "final_address": "11 Caddo Pl",
    "address_councildis": "E",
    "status": "Assigned to Contractor",
    "contractor": "Waste Pro",
    "rowid": "1148966",
    "final_x": "3726021.58848",
    "final_y": "564469.256161",
    "longitude": "-89.92621161364927",
    "latitude": "30.04466620166058",
    "geocoded_column": {
      "latitude": "30.04466620166058",
      "longitude": "-89.92621161364927"
    }
  },
  {
    "service_request": "2024-1148965",
    "request_type": "Roads and Streets",
    "request_reason": "Pothole",
    "date_created": "2024-11-15T14:55:25.000",
    "date_modified": "2024-11-15T14:55:25.000",
    "request_status": "Pending",
    "responsible_agency": "Department of Public Works",
    "final_address": "3217 Laurel St",
    "address_councildis": "B",
    "status": "Pending",
    "rowid": "1148965",
    "final_x": "3675994.90523",
    "final_y": "519299.841463",
    "longitude": "-90.08587353568628",
    "latitude": "29.92206025825879",
    "geocoded_column": {
      "latitude": "29.92206025825879",
      "longitude": "-90.08587353568628"
    }
  },
  {
    "service_request": "2024-1148964",
    "request_type": "Trash/Recycling",
    "request_reason": "Request a Large Item Pick Up",
    "date_created": "2024-11-15T14:55:12.000",
    "date_modified": "2024-11-15T14:55:49.000",
    "request_status": "Pending",
    "responsible_agency": "Department of Sanitation",
    "final_address": "4613 Haydel St",
    "address_councildis": "E",
    "status": "Assigned to Contractor",
    "contractor": "Waste Pro",
    "rowid": "1148964",
    "final_x": "3699157.19338",
    "final_y": "553776.853463",
    "longitude": "-90.01150488012743",
    "latitude": "30.01614595260955",
    "geocoded_column": {
      "latitude": "30.01614595260955",
      "longitude": "-90.01150488012743"
    }
  },
  {
    "service_request": "2024-1148963",
    "request_type": "Property Maintenance",
    "request_reason": "Property Maintenance",
    "date_created": "2024-11-15T14:54:25.000",
    "date_modified": "2024-11-15T15:10:19.000",
    "case_close_date": "2024-11-15T09:10:19.000",
    "request_status": "Closed",
    "responsible_agency": "Department of Code Enforcement",
    "final_address": "2014 Columbus St",
    "address_councildis": "D",
    "status": "Referred to Code Enforcement",
    "rowid": "1148963",
    "final_x": "3680470.02978",
    "final_y": "538114.437897",
    "longitude": "-90.07109321391708",
    "latitude": "29.97365936551508",
    "geocoded_column": {
      "latitude": "29.97365936551508",
      "longitude": "-90.07109321391708"
    }
  },
  {
    "service_request": "2024-1148962",
    "request_type": "Trash/Recycling",
    "request_reason": "Request a Large Item Pick Up",
    "date_created": "2024-11-15T14:51:27.000",
    "date_modified": "2024-11-15T14:51:28.000",
    "request_status": "Pending",
    "responsible_agency": "Department of Sanitation",
    "final_address": "4635 Sierra Madre Dr",
    "address_councildis": "E",
    "status": "Assigned to Contractor",
    "contractor": "Waste Pro",
    "rowid": "1148962",
    "final_x": "3714026.86136",
    "final_y": "555873.482713",
    "longitude": "-89.96444464748352",
    "latitude": "30.02143081926736",
    "geocoded_column": {
      "latitude": "30.02143081926736",
      "longitude": "-89.96444464748352"
    }
  },
  {
    "service_request": "2024-1148961",
    "request_type": "Parks & Parkways",
    "request_reason": "Request Tree Service (Right of Way/Public Property)",
    "date_created": "2024-11-15T14:43:27.000",
    "date_modified": "2024-11-15T14:43:28.000",
    "request_status": "Pending",
    "responsible_agency": "Department of Parks & Parkway",
    "final_address": "935 Poland Ave",
    "address_councildis": "C",
    "status": "Pending",
    "rowid": "1148961",
    "final_x": "3692973.22256",
    "final_y": "534485.078469",
    "longitude": "-90.03173581623815",
    "latitude": "29.963295268556184",
    "geocoded_column": {
      "latitude": "29.963295268556184",
      "longitude": "-90.03173581623815"
    }
  },
  {
    "service_request": "2024-1148960",
    "request_type": "Trash/Recycling",
    "request_reason": "Order Recycling Cart",
    "date_created": "2024-11-15T14:42:35.000",
    "date_modified": "2024-11-15T14:42:35.000",
    "request_status": "Pending",
    "responsible_agency": "Department of Sanitation",
    "final_address": "1647 Dufossat St. NOLA 70115",
    "status": "Pending",
    "rowid": "1148960",
    "longitude": "0.0",
    "latitude": "0.0",
    "geocoded_column": {
      "latitude": "0.0",
      "longitude": "0.0"
    }
  },
  {
    "service_request": "2024-1148959",
    "request_type": "Trash/Recycling",
    "request_reason": "Repair Recycling Cart",
    "date_created": "2024-11-15T14:41:47.000",
    "date_modified": "2024-11-15T14:41:48.000",
    "request_status": "Pending",
    "responsible_agency": "Department of Sanitation",
    "final_address": "7811 Willow St",
    "address_councildis": "A",
    "status": "Pending",
    "rowid": "1148959",
    "final_x": "3663219.30835",
    "final_y": "528227.817408",
    "longitude": "-90.12590398256522",
    "latitude": "29.946985627617398",
    "geocoded_column": {
      "latitude": "29.946985627617398",
      "longitude": "-90.12590398256522"
    }
  },
  {
    "service_request": "2024-1148958",
    "request_type": "Trash/Recycling",
    "request_reason": "Request a Large Item Pick Up",
    "date_created": "2024-11-15T14:38:37.000",
    "date_modified": "2024-11-15T14:38:38.000",
    "request_status": "Pending",
    "responsible_agency": "Department of Sanitation",
    "final_address": "7137 E Tamaron Blvd",
    "address_councildis": "E",
    "status": "Assigned to Contractor",
    "contractor": "Waste Pro",
    "rowid": "1148958",
    "final_x": "3718509.09817",
    "final_y": "569119.853862",
    "longitude": "-89.94977679864725",
    "latitude": "30.05770495501694",
    "geocoded_column": {
      "latitude": "30.05770495501694",
      "longitude": "-89.94977679864725"
    }
  },
  {
    "service_request": "2024-1148957",
    "request_type": "Street and Traffic Signs",
    "request_reason": "Street Name Sign Damaged or Missing",
    "date_created": "2024-11-15T14:34:05.000",
    "date_modified": "2024-11-15T14:34:06.000",
    "request_status": "Pending",
    "responsible_agency": "Department of Public Works",
    "final_address": "2372 Odin St",
    "address_councildis": "D",
    "status": "Pending",
    "rowid": "1148957",
    "final_x": "3685062.58172",
    "final_y": "553112.247575",
    "longitude": "-90.05606098184164",
    "latitude": "30.01475807269631",
    "geocoded_column": {
      "latitude": "30.01475807269631",
      "longitude": "-90.05606098184164"
    }
  },
  {
    "service_request": "2024-1148956",
    "request_type": "Trash/Recycling",
    "request_reason": "Request a Large Item Pick Up",
    "date_created": "2024-11-15T14:31:27.000",
    "date_modified": "2024-11-15T14:31:29.000",
    "request_status": "Pending",
    "responsible_agency": "Department of Sanitation",
    "final_address": "1571 Henry Clay Ave",
    "address_councildis": "A",
    "status": "Assigned to Contractor",
    "contractor": "IV Waste",
    "rowid": "1148956",
    "final_x": "3665103.08288",
    "final_y": "522618.44953",
    "longitude": "-90.12014370182915",
    "latitude": "29.931506942162873",
    "geocoded_column": {
      "latitude": "29.931506942162873",
      "longitude": "-90.12014370182915"
    }
  },
  {
    "service_request": "2024-1148955",
    "request_type": "Parks & Parkways",
    "request_reason": "Request Tree Service (Right of Way/Public Property)",
    "date_created": "2024-11-15T14:30:36.000",
    "date_modified": "2024-11-15T14:30:36.000",
    "request_status": "Pending",
    "responsible_agency": "Department of Parks & Parkway",
    "final_address": "2536 Canal St",
    "address_councildis": "B",
    "status": "Pending",
    "rowid": "1148955",
    "final_x": "3675828.23694",
    "final_y": "534625.420614",
    "longitude": "-90.08587297060359",
    "latitude": "29.964205535383257",
    "geocoded_column": {
      "latitude": "29.964205535383257",
      "longitude": "-90.08587297060359"
    }
  },
  {
    "service_request": "2024-1148954",
    "request_type": "Parks & Parkways",
    "request_reason": "Request Tree Service (Right of Way/Public Property)",
    "date_created": "2024-11-15T14:30:17.000",
    "date_modified": "2024-11-15T14:30:18.000",
    "request_status": "Pending",
    "responsible_agency": "Department of Parks & Parkway",
    "final_address": "2530 Canal St",
    "address_councildis": "B",
    "status": "Pending",
    "rowid": "1148954",
    "final_x": "3675840.34817",
    "final_y": "534610.603654",
    "longitude": "-90.0858352337431",
    "latitude": "29.964164431190312",
    "geocoded_column": {
      "latitude": "29.964164431190312",
      "longitude": "-90.0858352337431"
    }
  },
  {
    "service_request": "2024-1148953",
    "request_type": "Trash/Recycling",
    "request_reason": "Repair Trash Cart",
    "date_created": "2024-11-15T14:27:02.000",
    "date_modified": "2024-11-15T14:27:03.000",
    "request_status": "Pending",
    "responsible_agency": "Department of Sanitation",
    "final_address": "3113 Joliet St",
    "address_councildis": "A",
    "status": "Assigned to Contractor",
    "contractor": "IV Waste",
    "rowid": "1148953",
    "final_x": "3665579.77447",
    "final_y": "534415.573253",
    "longitude": "-90.11824390815434",
    "latitude": "29.963931334184064",
    "geocoded_column": {
      "latitude": "29.963931334184064",
      "longitude": "-90.11824390815434"
    }
  },
  {
    "service_request": "2024-1148952",
    "request_type": "Trash/Recycling",
    "request_reason": "Request a Large Item Pick Up",
    "date_created": "2024-11-15T14:22:18.000",
    "date_modified": "2024-11-15T14:22:19.000",
    "request_status": "Pending",
    "responsible_agency": "Department of Sanitation",
    "final_address": "8613 Bill St",
    "address_councildis": "E",
    "status": "Assigned to Contractor",
    "contractor": "Waste Pro",
    "rowid": "1148952",
    "final_x": "3703781.94474",
    "final_y": "563279.71088",
    "longitude": "-89.99654252981792",
    "latitude": "30.042127610764336",
    "geocoded_column": {
      "latitude": "30.042127610764336",
      "longitude": "-89.99654252981792"
    }
  },
  {
    "service_request": "2024-1148951",
    "request_type": "Abandoned Vehicles",
    "request_reason": "Abandoned/Junk Vehicles",
    "date_created": "2024-11-15T14:17:03.000",
    "date_modified": "2024-11-15T14:18:01.000",
    "request_status": "Pending",
    "responsible_agency": "Department of Public Works",
    "final_address": "3637 Annunciation St",
    "address_councildis": "B",
    "status": "Pending",
    "rowid": "1148951",
    "final_x": "3674167.64731",
    "final_y": "518210.331254",
    "longitude": "-90.09167870156362",
    "latitude": "29.919119027092076",
    "geocoded_column": {
      "latitude": "29.919119027092076",
      "longitude": "-90.09167870156362"
    }
  },
  {
    "service_request": "2024-1148950",
    "request_type": "Safety & Permits",
    "request_reason": "Zoning Enforcement",
    "date_created": "2024-11-15T14:16:12.000",
    "date_modified": "2024-11-15T14:16:14.000",
    "request_status": "Pending",
    "responsible_agency": "Safety and Permits",
    "final_address": "2438 Painters St",
    "address_councildis": "D",
    "status": "Pending",
    "rowid": "1148950",
    "final_x": "3687123.17327",
    "final_y": "541630.3019",
    "longitude": "-90.04995684269589",
    "latitude": "29.98312355169213",
    "geocoded_column": {
      "latitude": "29.98312355169213",
      "longitude": "-90.04995684269589"
    }
  },
  {
    "service_request": "2024-1148949",
    "request_type": "Trash/Recycling",
    "request_reason": "Return Trash Cart",
    "date_created": "2024-11-15T14:14:27.000",
    "date_modified": "2024-11-15T14:14:28.000",
    "request_status": "Pending",
    "responsible_agency": "Department of Sanitation",
    "final_address": "6942 Thor Ct",
    "address_councildis": "E",
    "status": "Assigned to Contractor",
    "contractor": "Waste Pro",
    "rowid": "1148949",
    "final_x": "3702578.52266",
    "final_y": "558475.138012",
    "longitude": "-90.00052239656036",
    "latitude": "30.028955460918343",
    "geocoded_column": {
      "latitude": "30.028955460918343",
      "longitude": "-90.00052239656036"
    }
  },
  {
    "service_request": "2024-1148948",
    "request_type": "Parks & Parkways",
    "request_reason": "Request Tree Service (Right of Way/Public Property)",
    "date_created": "2024-11-15T14:11:12.000",
    "date_modified": "2024-11-15T14:11:12.000",
    "request_status": "Pending",
    "responsible_agency": "Department of Parks & Parkway",
    "final_address": "4115 Royal St",
    "address_councildis": "C",
    "status": "Pending",
    "rowid": "1148948",
    "final_x": "3691874.27868",
    "final_y": "533726.590981",
    "longitude": "-90.03523327791491",
    "latitude": "29.96124397273046",
    "geocoded_column": {
      "latitude": "29.96124397273046",
      "longitude": "-90.03523327791491"
    }
  },
  {
    "service_request": "2024-1148947",
    "request_type": "Parks & Parkways",
    "request_reason": "Request Tree Service (Right of Way/Public Property)",
    "date_created": "2024-11-15T14:11:09.000",
    "date_modified": "2024-11-15T14:11:09.000",
    "request_status": "Pending",
    "responsible_agency": "Department of Parks & Parkway",
    "final_address": "4115 Royal St",
    "address_councildis": "C",
    "status": "Pending",
    "rowid": "1148947",
    "final_x": "3691874.27868",
    "final_y": "533726.590981",
    "longitude": "-90.03523327791491",
    "latitude": "29.96124397273046",
    "geocoded_column": {
      "latitude": "29.96124397273046",
      "longitude": "-90.03523327791491"
    }
  },
  {
    "service_request": "2024-1148946",
    "request_type": "Trash/Recycling",
    "request_reason": "Request a Large Item Pick Up",
    "date_created": "2024-11-15T14:09:20.000",
    "date_modified": "2024-11-15T17:09:33.000",
    "case_close_date": "2024-11-15T11:09:33.000",
    "request_status": "Closed",
    "responsible_agency": "Department of Sanitation",
    "final_address": "7060 Lake Willow Dr",
    "address_councildis": "E",
    "status": "Assigned to Contractor",
    "contractor": "Waste Pro",
    "contractor_action": "Completed",
    "rowid": "1148946",
    "final_x": "3702191.74276",
    "final_y": "559184.812572",
    "longitude": "-90.00171853788154",
    "latitude": "30.030919155469594",
    "geocoded_column": {
      "latitude": "30.030919155469594",
      "longitude": "-90.00171853788154"
    }
  },
  {
    "service_request": "2024-1148945",
    "request_type": "Trash/Recycling",
    "request_reason": "Request a Large Item Pick Up",
    "date_created": "2024-11-15T14:08:51.000",
    "date_modified": "2024-11-15T14:08:52.000",
    "request_status": "Pending",
    "responsible_agency": "Department of Sanitation",
    "final_address": "618 Piety St",
    "address_councildis": "C",
    "status": "Assigned to Contractor",
    "contractor": "IV Waste",
    "rowid": "1148945",
    "final_x": "3689376.79043",
    "final_y": "534118.173189",
    "longitude": "-90.04310595252907",
    "latitude": "29.96239824869982",
    "geocoded_column": {
      "latitude": "29.96239824869982",
      "longitude": "-90.04310595252907"
    }
  },
  {
    "service_request": "2024-1148944",
    "request_type": "Abandoned Vehicles",
    "request_reason": "Abandoned/Junk Vehicles",
    "date_created": "2024-11-15T14:07:05.000",
    "date_modified": "2024-11-15T14:07:05.000",
    "request_status": "Pending",
    "responsible_agency": "Department of Public Works",
    "final_address": "DUPLESSIS ST & ROBERT E LEE BLVD",
    "address_councildis": "D",
    "status": "Inspected",
    "rowid": "1148944",
    "final_x": "3677955.2",
    "final_y": "555246.38",
    "longitude": "-90.07844303221988",
    "latitude": "30.02084209347879",
    "geocoded_column": {
      "latitude": "30.02084209347879",
      "longitude": "-90.07844303221988"
    }
  },
  {
    "service_request": "2024-1148943",
    "request_type": "Trash/Recycling",
    "request_reason": "Repair Recycling Cart",
    "date_created": "2024-11-15T14:02:28.000",
    "date_modified": "2024-11-15T14:02:29.000",
    "request_status": "Pending",
    "responsible_agency": "Department of Sanitation",
    "final_address": "2676 Halsey Ave",
    "address_councildis": "C",
    "status": "Pending",
    "rowid": "1148943",
    "final_x": "3697714.89475",
    "final_y": "521147.451833",
    "longitude": "-90.0172460031417",
    "latitude": "29.9264724947184",
    "geocoded_column": {
      "latitude": "29.9264724947184",
      "longitude": "-90.0172460031417"
    }
  },
  {
    "service_request": "2024-1148942",
    "request_type": "Trash/Recycling",
    "request_reason": "Repair Trash Cart",
    "date_created": "2024-11-15T13:58:54.000",
    "date_modified": "2024-11-15T13:58:55.000",
    "request_status": "Pending",
    "responsible_agency": "Department of Sanitation",
    "final_address": "1227 Fourth St",
    "address_councildis": "B",
    "status": "Assigned to Contractor",
    "contractor": "IV Waste",
    "rowid": "1148942",
    "final_x": "3677044.93813",
    "final_y": "521543.338937",
    "longitude": "-90.08248171026146",
    "latitude": "29.928197674315165",
    "geocoded_column": {
      "latitude": "29.928197674315165",
      "longitude": "-90.08248171026146"
    }
  },
  {
    "service_request": "2024-1148941",
    "request_type": "Trash/Recycling",
    "request_reason": "Repair Trash Cart",
    "date_created": "2024-11-15T13:58:16.000",
    "date_modified": "2024-11-15T13:58:17.000",
    "request_status": "Pending",
    "responsible_agency": "Department of Sanitation",
    "final_address": "3427 Camphor St",
    "address_councildis": "A",
    "status": "Assigned to Contractor",
    "contractor": "IV Waste",
    "rowid": "1148941",
    "final_x": "3663723.84269",
    "final_y": "537881.590793",
    "longitude": "-90.12398927487018",
    "latitude": "29.973515725191607",
    "geocoded_column": {
      "latitude": "29.973515725191607",
      "longitude": "-90.12398927487018"
    }
  },
  {
    "service_request": "2024-1148940",
    "request_type": "Trash/Recycling",
    "request_reason": "Missed Trash Pick-Up",
    "date_created": "2024-11-15T13:58:16.000",
    "date_modified": "2024-11-15T15:18:13.000",
    "case_close_date": "2024-11-15T09:18:13.000",
    "request_status": "Closed",
    "responsible_agency": "Department of Sanitation",
    "final_address": "2718 St Philip St",
    "address_councildis": "A",
    "status": "Invalid Request",
    "contractor": "IV Waste",
    "contractor_action": "Invalid",
    "rowid": "1148940",
    "final_x": "3677206.47362",
    "final_y": "537960.067465",
    "longitude": "-90.08140555801188",
    "latitude": "29.973333348519475",
    "geocoded_column": {
      "latitude": "29.973333348519475",
      "longitude": "-90.08140555801188"
    }
  },
  {
    "service_request": "2024-1148939",
    "request_type": "Streetlights",
    "request_reason": "Streetlight Outage/Malfunction",
    "date_created": "2024-11-15T13:54:29.000",
    "date_modified": "2024-11-15T13:54:31.000",
    "request_status": "Pending",
    "responsible_agency": "Department of Public Works",
    "final_address": "3915 Baudin St",
    "address_councildis": "B",
    "status": "Pending",
    "contractor": "Legacy Professional Services",
    "rowid": "1148939",
    "final_x": "3670716.8795",
    "final_y": "536660.539655",
    "longitude": "-90.10194518097812",
    "latitude": "29.96995345103195",
    "geocoded_column": {
      "latitude": "29.96995345103195",
      "longitude": "-90.10194518097812"
    }
  },
  {
    "service_request": "2024-1148938",
    "request_type": "Trash/Recycling",
    "request_reason": "Request a Large Item Pick Up",
    "date_created": "2024-11-15T13:54:04.000",
    "date_modified": "2024-11-15T13:54:05.000",
    "request_status": "Pending",
    "responsible_agency": "Department of Sanitation",
    "final_address": "7191 Queensway Dr",
    "address_councildis": "E",
    "status": "Assigned to Contractor",
    "contractor": "Waste Pro",
    "rowid": "1148938",
    "final_x": "3718776.74316",
    "final_y": "570077.507687",
    "longitude": "-89.94889424304824",
    "latitude": "30.06032921603417",
    "geocoded_column": {
      "latitude": "30.06032921603417",
      "longitude": "-89.94889424304824"
    }
  },
  {
    "service_request": "2024-1148937",
    "request_type": "Parks & Parkways",
    "request_reason": "Request Tree Service (Right of Way/Public Property)",
    "date_created": "2024-11-15T13:49:14.000",
    "date_modified": "2024-11-15T13:49:14.000",
    "request_status": "Pending",
    "responsible_agency": "Department of Parks & Parkway",
    "final_address": "4115 Royal St",
    "address_councildis": "C",
    "status": "Pending",
    "rowid": "1148937",
    "final_x": "3691874.27868",
    "final_y": "533726.590981",
    "longitude": "-90.03523327791491",
    "latitude": "29.96124397273046",
    "geocoded_column": {
      "latitude": "29.96124397273046",
      "longitude": "-90.03523327791491"
    }
  },
  {
    "service_request": "2024-1148936",
    "request_type": "Property Maintenance",
    "request_reason": "Property Maintenance",
    "date_created": "2024-11-15T13:48:02.000",
    "date_modified": "2024-11-15T14:53:43.000",
    "case_close_date": "2024-11-15T08:53:43.000",
    "request_status": "Closed",
    "responsible_agency": "Department of Code Enforcement",
    "final_address": "2150 Selma St",
    "address_councildis": "D",
    "status": "Referred to Code Enforcement",
    "rowid": "1148936",
    "final_x": "3683476.62351",
    "final_y": "551422.336661",
    "longitude": "-90.06113111702807",
    "latitude": "30.01015994747259",
    "geocoded_column": {
      "latitude": "30.01015994747259",
      "longitude": "-90.06113111702807"
    }
  },
  {
    "service_request": "2024-1148935",
    "request_type": "Parks & Parkways",
    "request_reason": "Park Maintenance/Clean Up",
    "date_created": "2024-11-15T13:47:45.000",
    "date_modified": "2024-11-15T13:47:45.000",
    "request_status": "Pending",
    "responsible_agency": "Department of Parks & Parkway",
    "final_address": "2200 BLK Leonidas St",
    "address_councildis": "A",
    "status": "Pending",
    "rowid": "1148935",
    "final_x": "3663251.82503",
    "final_y": "532431.508415",
    "longitude": "-90.1256614264254",
    "latitude": "29.958543477385465",
    "geocoded_column": {
      "latitude": "29.958543477385465",
      "longitude": "-90.1256614264254"
    }
  },
  {
    "service_request": "2024-1148934",
    "request_type": "Trash/Recycling",
    "request_reason": "Request a Large Item Pick Up",
    "date_created": "2024-11-15T13:45:22.000",
    "date_modified": "2024-11-15T13:45:23.000",
    "request_status": "Pending",
    "responsible_agency": "Department of Sanitation",
    "final_address": "4654 Camelia St",
    "address_councildis": "E",
    "status": "Assigned to Contractor",
    "contractor": "Waste Pro",
    "rowid": "1148934",
    "final_x": "3701505.13649",
    "final_y": "553791.565527",
    "longitude": "-90.00408592499102",
    "latitude": "30.0161117207474",
    "geocoded_column": {
      "latitude": "30.0161117207474",
      "longitude": "-90.00408592499102"
    }
  },
  {
    "service_request": "2024-1148933",
    "request_type": "Roads and Streets",
    "request_reason": "Debris in Driving Lanes",
    "date_created": "2024-11-15T13:45:20.000",
    "date_modified": "2024-11-15T13:45:20.000",
    "request_status": "Pending",
    "responsible_agency": "Department of Public Works",
    "final_address": "2235 Bayou Rd",
    "address_councildis": "D",
    "status": "Pending",
    "rowid": "1148933",
    "final_x": "3679457.78946",
    "final_y": "538122.852041",
    "longitude": "-90.07428979396738",
    "latitude": "29.973713123221998",
    "geocoded_column": {
      "latitude": "29.973713123221998",
      "longitude": "-90.07428979396738"
    }
  },
  {
    "service_request": "2024-1148932",
    "request_type": "Abandoned Vehicles",
    "request_reason": "Abandoned/Junk Vehicles",
    "date_created": "2024-11-15T13:44:52.000",
    "date_modified": "2024-11-15T13:44:52.000",
    "request_status": "Pending",
    "responsible_agency": "Department of Public Works",
    "final_address": "HAMILTON ST & PEAR ST",
    "address_councildis": "A",
    "status": "Pending",
    "rowid": "1148932",
    "final_x": "3666528.1",
    "final_y": "538618.08",
    "longitude": "-90.11510807817966",
    "latitude": "29.975459145480762",
    "geocoded_column": {
      "latitude": "29.975459145480762",
      "longitude": "-90.11510807817966"
    }
  },
  {
    "service_request": "2024-1148931",
    "request_type": "Trash/Recycling",
    "request_reason": "Request a Large Item Pick Up",
    "date_created": "2024-11-15T13:41:45.000",
    "date_modified": "2024-11-15T13:41:46.000",
    "request_status": "Pending",
    "responsible_agency": "Department of Sanitation",
    "final_address": "4730 S Liberty St",
    "address_councildis": "B",
    "status": "Assigned to Contractor",
    "contractor": "IV Waste",
    "rowid": "1148931",
    "final_x": "3669238.76391",
    "final_y": "523169.812475",
    "longitude": "-90.1070691823057",
    "latitude": "29.932901964031803",
    "geocoded_column": {
      "latitude": "29.932901964031803",
      "longitude": "-90.1070691823057"
    }
  },
  {
    "service_request": "2024-1148930",
    "request_type": "Trash/Recycling",
    "request_reason": "Request a Large Item Pick Up",
    "date_created": "2024-11-15T13:41:43.000",
    "date_modified": "2024-11-15T13:41:44.000",
    "request_status": "Pending",
    "responsible_agency": "Department of Sanitation",
    "final_address": "7158 Foch Rd",
    "address_councildis": "D",
    "status": "Assigned to Contractor",
    "contractor": "Waste Pro",
    "rowid": "1148930",
    "final_x": "3696284.51453",
    "final_y": "557197.923099",
    "longitude": "-90.02045738605958",
    "latitude": "30.02564340590333",
    "geocoded_column": {
      "latitude": "30.02564340590333",
      "longitude": "-90.02045738605958"
    }
  },
  {
    "service_request": "2024-1148929",
    "request_type": "Property Maintenance",
    "request_reason": "Property Maintenance",
    "date_created": "2024-11-15T13:39:53.000",
    "date_modified": "2024-11-15T14:34:50.000",
    "case_close_date": "2024-11-15T08:34:50.000",
    "request_status": "Closed",
    "responsible_agency": "Department of Code Enforcement",
    "final_address": "3920 Hamilton St",
    "address_councildis": "A",
    "status": "Referred to Code Enforcement",
    "rowid": "1148929",
    "final_x": "3665910.02324",
    "final_y": "538017.283145",
    "longitude": "-90.11708028108102",
    "latitude": "29.973825208792732",
    "geocoded_column": {
      "latitude": "29.973825208792732",
      "longitude": "-90.11708028108102"
    }
  },
  {
    "service_request": "2024-1148928",
    "request_type": "Trash/Recycling",
    "request_reason": "Missed Trash Pick-Up",
    "date_created": "2024-11-15T13:39:32.000",
    "date_modified": "2024-11-15T13:39:33.000",
    "request_status": "Pending",
    "responsible_agency": "Department of Sanitation",
    "final_address": "7216 Warfield St",
    "address_councildis": "E",
    "status": "Assigned to Contractor",
    "contractor": "Waste Pro",
    "rowid": "1148928",
    "final_x": "3702110.01885",
    "final_y": "553068.461335",
    "longitude": "-90.00220131847162",
    "latitude": "30.014104151730102",
    "geocoded_column": {
      "latitude": "30.014104151730102",
      "longitude": "-90.00220131847162"
    }
  },
  {
    "service_request": "2024-1148927",
    "request_type": "Trash/Recycling",
    "request_reason": "Repair Trash Cart",
    "date_created": "2024-11-15T13:38:39.000",
    "date_modified": "2024-11-15T13:38:40.000",
    "request_status": "Pending",
    "responsible_agency": "Department of Sanitation",
    "final_address": "806 Valmont St",
    "address_councildis": "B",
    "status": "Assigned to Contractor",
    "contractor": "IV Waste",
    "rowid": "1148927",
    "final_x": "3667398.56641",
    "final_y": "518339.092406",
    "longitude": "-90.11304098000207",
    "latitude": "29.919673036234713",
    "geocoded_column": {
      "latitude": "29.919673036234713",
      "longitude": "-90.11304098000207"
    }
  },
  {
    "service_request": "2024-1148926",
    "request_type": "Trash/Recycling",
    "request_reason": "Request a Large Item Pick Up",
    "date_created": "2024-11-15T13:36:52.000",
    "date_modified": "2024-11-15T13:36:53.000",
    "request_status": "Pending",
    "responsible_agency": "Department of Sanitation",
    "final_address": "1310 Mandeville St",
    "address_councildis": "C",
    "status": "Assigned to Contractor",
    "contractor": "IV Waste",
    "rowid": "1148926",
    "final_x": "3685676.25423",
    "final_y": "537203.193544",
    "longitude": "-90.05468298624942",
    "latitude": "29.97099503925033",
    "geocoded_column": {
      "latitude": "29.97099503925033",
      "longitude": "-90.05468298624942"
    }
  },
  {
    "service_request": "2024-1148925",
    "request_type": "Trash/Recycling",
    "request_reason": "Request a Large Item Pick Up",
    "date_created": "2024-11-15T13:35:05.000",
    "date_modified": "2024-11-15T13:35:06.000",
    "request_status": "Pending",
    "responsible_agency": "Department of Sanitation",
    "final_address": "7901 Sandy Cove Dr",
    "address_councildis": "E",
    "status": "Assigned to Contractor",
    "contractor": "Waste Pro",
    "rowid": "1148925",
    "final_x": "3715064.60619",
    "final_y": "570176.955943",
    "longitude": "-89.96062426203768",
    "latitude": "30.060725458099952",
    "geocoded_column": {
      "latitude": "30.060725458099952",
      "longitude": "-89.96062426203768"
    }
  },
  {
    "service_request": "2024-1148924",
    "request_type": "Property Maintenance",
    "request_reason": "Property Maintenance",
    "date_created": "2024-11-15T13:34:57.000",
    "date_modified": "2024-11-15T14:58:26.000",
    "case_close_date": "2024-11-15T08:58:26.000",
    "request_status": "Closed",
    "responsible_agency": "Department of Code Enforcement",
    "final_address": "9024 Dixon St",
    "address_councildis": "A",
    "status": "Referred to Code Enforcement",
    "rowid": "1148924",
    "final_x": "3665881.40992",
    "final_y": "537729.601928",
    "longitude": "-90.11718029173966",
    "latitude": "29.97303501640699",
    "geocoded_column": {
      "latitude": "29.97303501640699",
      "longitude": "-90.11718029173966"
    }
  },
  {
    "service_request": "2024-1148923",
    "request_type": "Trash/Recycling",
    "request_reason": "Request a Large Item Pick Up",
    "date_created": "2024-11-15T13:34:24.000",
    "date_modified": "2024-11-15T13:34:25.000",
    "request_status": "Pending",
    "responsible_agency": "Department of Sanitation",
    "final_address": "4240 San Remo St",
    "address_councildis": "E",
    "status": "Assigned to Contractor",
    "contractor": "Waste Pro",
    "rowid": "1148923",
    "final_x": "3760542.22076",
    "final_y": "572808.848873",
    "longitude": "-89.8167645108458",
    "latitude": "30.066385487408574",
    "geocoded_column": {
      "latitude": "30.066385487408574",
      "longitude": "-89.8167645108458"
    }
  },
  {
    "service_request": "2024-1148922",
    "request_type": "Drainage",
    "request_reason": "Ditch and Culvert Maintenance",
    "date_created": "2024-11-15T13:30:08.000",
    "date_modified": "2024-11-15T13:30:09.000",
    "request_status": "Pending",
    "responsible_agency": "Department of Public Works",
    "final_address": "3801 Royal St",
    "address_councildis": "C",
    "status": "Pending",
    "rowid": "1148922",
    "final_x": "3690883.31472",
    "final_y": "533974.677189",
    "longitude": "-90.03835370050633",
    "latitude": "29.96195695476531",
    "geocoded_column": {
      "latitude": "29.96195695476531",
      "longitude": "-90.03835370050633"
    }
  },
  {
    "service_request": "2024-1148921",
    "request_type": "Property Maintenance",
    "request_reason": "Property Maintenance",
    "date_created": "2024-11-15T13:27:36.000",
    "date_modified": "2024-11-15T15:26:55.000",
    "case_close_date": "2024-11-15T09:26:55.000",
    "request_status": "Closed",
    "responsible_agency": "Department of Code Enforcement",
    "final_address": "9034 Dixon St",
    "address_councildis": "A",
    "status": "Referred to Code Enforcement",
    "rowid": "1148921",
    "final_x": "3665840.8706",
    "final_y": "537775.19028",
    "longitude": "-90.11730679536399",
    "latitude": "29.973161552221555",
    "geocoded_column": {
      "latitude": "29.973161552221555",
      "longitude": "-90.11730679536399"
    }
  },
  {
    "service_request": "2024-1148920",
    "request_type": "Parks & Parkways",
    "request_reason": "Request Tree Service (Right of Way/Public Property)",
    "date_created": "2024-11-15T13:26:52.000",
    "date_modified": "2024-11-15T14:07:22.000",
    "request_status": "Pending",
    "responsible_agency": "Department of Parks & Parkway",
    "final_address": "6875 Vicksburg St",
    "address_councildis": "A",
    "rowid": "1148920",
    "final_x": "3669503.14753",
    "final_y": "553238.342807",
    "longitude": "-90.10521713959453",
    "latitude": "30.01557251405682",
    "geocoded_column": {
      "latitude": "30.01557251405682",
      "longitude": "-90.10521713959453"
    }
  },
  {
    "service_request": "2024-1148919",
    "request_type": "Property Maintenance",
    "request_reason": "Property Maintenance",
    "date_created": "2024-11-15T13:26:03.000",
    "date_modified": "2024-11-15T13:26:03.000",
    "request_status": "Pending",
    "responsible_agency": "Department of Code Enforcement",
    "final_address": "9034 Dixon St",
    "address_councildis": "A",
    "status": "Pending",
    "rowid": "1148919",
    "final_x": "3665840.8706",
    "final_y": "537775.19028",
    "longitude": "-90.11730679536399",
    "latitude": "29.973161552221555",
    "geocoded_column": {
      "latitude": "29.973161552221555",
      "longitude": "-90.11730679536399"
    }
  },
  {
    "service_request": "2024-1148918",
    "request_type": "Trash/Recycling",
    "request_reason": "Request a Large Item Pick Up",
    "date_created": "2024-11-15T13:25:03.000",
    "date_modified": "2024-11-15T13:25:04.000",
    "request_status": "Pending",
    "responsible_agency": "Department of Sanitation",
    "final_address": "2228 Governor Nicholls St",
    "address_councildis": "D",
    "status": "Assigned to Contractor",
    "contractor": "IV Waste",
    "rowid": "1148918",
    "final_x": "3679225.66581",
    "final_y": "537251.087176",
    "longitude": "-90.0750531246099",
    "latitude": "29.971323080709496",
    "geocoded_column": {
      "latitude": "29.971323080709496",
      "longitude": "-90.0750531246099"
    }
  },
  {
    "service_request": "2024-1148917",
    "request_type": "Roads and Streets",
    "request_reason": "Pothole",
    "date_created": "2024-11-15T13:24:08.000",
    "date_modified": "2024-11-15T13:24:08.000",
    "request_status": "Pending",
    "responsible_agency": "Department of Public Works",
    "final_address": "MANDEVILLE ST & MADRID ST",
    "address_councildis": "D",
    "status": "Pending",
    "rowid": "1148917",
    "final_x": "3684249.0",
    "final_y": "555389.08",
    "longitude": "-90.05855147054774",
    "latitude": "30.02104343780445",
    "geocoded_column": {
      "latitude": "30.02104343780445",
      "longitude": "-90.05855147054774"
    }
  },
  {
    "service_request": "2024-1148916",
    "request_type": "Parks & Parkways",
    "request_reason": "Request Tree Service (Right of Way/Public Property)",
    "date_created": "2024-11-15T13:23:46.000",
    "date_modified": "2024-11-15T13:23:48.000",
    "request_status": "Pending",
    "responsible_agency": "Department of Parks & Parkway",
    "final_address": "4100 Royal St",
    "address_councildis": "C",
    "status": "Pending",
    "rowid": "1148916",
    "final_x": "3691881.57142",
    "final_y": "533502.255684",
    "longitude": "-90.03521827436086",
    "latitude": "29.960626902003145",
    "geocoded_column": {
      "latitude": "29.960626902003145",
      "longitude": "-90.03521827436086"
    }
  },
  {
    "service_request": "2024-1148915",
    "request_type": "Property Maintenance",
    "request_reason": "Property Maintenance",
    "date_created": "2024-11-15T13:19:54.000",
    "date_modified": "2024-11-15T13:19:54.000",
    "request_status": "Pending",
    "responsible_agency": "Department of Code Enforcement",
    "final_address": "9034 Dixon St",
    "address_councildis": "A",
    "status": "Pending",
    "rowid": "1148915",
    "final_x": "3665840.8706",
    "final_y": "537775.19028",
    "longitude": "-90.11730679536399",
    "latitude": "29.973161552221555",
    "geocoded_column": {
      "latitude": "29.973161552221555",
      "longitude": "-90.11730679536399"
    }
  },
  {
    "service_request": "2024-1148914",
    "request_type": "Trash/Recycling",
    "request_reason": "Request a Large Item Pick Up",
    "date_created": "2024-11-15T13:18:23.000",
    "date_modified": "2024-11-15T13:18:24.000",
    "request_status": "Pending",
    "responsible_agency": "Department of Sanitation",
    "final_address": "2826 Bell St",
    "address_councildis": "A",
    "status": "Assigned to Contractor",
    "contractor": "IV Waste",
    "rowid": "1148914",
    "final_x": "3677127.9332",
    "final_y": "539162.665226",
    "longitude": "-90.08161211479586",
    "latitude": "29.97664243908734",
    "geocoded_column": {
      "latitude": "29.97664243908734",
      "longitude": "-90.08161211479586"
    }
  },
  {
    "service_request": "2024-1148913",
    "request_type": "Trash/Recycling",
    "request_reason": "Order Trash Cart",
    "date_created": "2024-11-15T13:17:06.000",
    "date_modified": "2024-11-15T13:17:08.000",
    "request_status": "Pending",
    "responsible_agency": "Department of Sanitation",
    "final_address": "3018 Cherry St Apt A",
    "address_councildis": "A",
    "status": "Assigned to Contractor",
    "contractor": "IV Waste",
    "rowid": "1148913",
    "final_x": "3663261.66823",
    "final_y": "536162.388743",
    "longitude": "-90.12550615923004",
    "latitude": "29.968801891793156",
    "geocoded_column": {
      "latitude": "29.968801891793156",
      "longitude": "-90.12550615923004"
    }
  },
  {
    "service_request": "2024-1148912",
    "request_type": "Trash/Recycling",
    "request_reason": "Start Trash Service",
    "date_created": "2024-11-15T13:15:34.000",
    "date_modified": "2024-11-15T13:15:35.000",
    "request_status": "Pending",
    "responsible_agency": "Department of Sanitation",
    "final_address": "2726 OReilly St",
    "address_councildis": "D",
    "status": "Assigned to Contractor",
    "contractor": "IV Waste",
    "rowid": "1148912",
    "final_x": "3679479.55957",
    "final_y": "541683.880652",
    "longitude": "-90.07409744443206",
    "latitude": "29.983504060317227",
    "geocoded_column": {
      "latitude": "29.983504060317227",
      "longitude": "-90.07409744443206"
    }
  },
  {
    "service_request": "2024-1148911",
    "request_type": "Trash/Recycling",
    "request_reason": "Request a Large Item Pick Up",
    "date_created": "2024-11-15T13:15:02.000",
    "date_modified": "2024-11-15T13:15:03.000",
    "request_status": "Pending",
    "responsible_agency": "Department of Sanitation",
    "final_address": "1919 Stephen Girard St",
    "address_councildis": "D",
    "status": "Assigned to Contractor",
    "contractor": "IV Waste",
    "rowid": "1148911",
    "final_x": "3681925.28597",
    "final_y": "548709.777363",
    "longitude": "-90.0661271400447",
    "latitude": "30.00274865515197",
    "geocoded_column": {
      "latitude": "30.00274865515197",
      "longitude": "-90.0661271400447"
    }
  },
  {
    "service_request": "2024-1148910",
    "request_type": "Trash/Recycling",
    "request_reason": "Request a Large Item Pick Up",
    "date_created": "2024-11-15T13:14:36.000",
    "date_modified": "2024-11-15T13:14:37.000",
    "request_status": "Pending",
    "responsible_agency": "Department of Sanitation",
    "final_address": "10721 Guildford Rd",
    "address_councildis": "E",
    "status": "Assigned to Contractor",
    "contractor": "Waste Pro",
    "rowid": "1148910",
    "final_x": "3711097.13176",
    "final_y": "563821.193185",
    "longitude": "-89.97340365603904",
    "latitude": "30.043379781664218",
    "geocoded_column": {
      "latitude": "30.043379781664218",
      "longitude": "-89.97340365603904"
    }
  },
  {
    "service_request": "2024-1148909",
    "request_type": "Trash/Recycling",
    "request_reason": "Request a Large Item Pick Up",
    "date_created": "2024-11-15T13:12:32.000",
    "date_modified": "2024-11-15T13:12:32.000",
    "request_status": "Pending",
    "responsible_agency": "Department of Sanitation",
    "final_address": "2729 Palmyra St",
    "address_councildis": "B",
    "status": "Assigned to Contractor",
    "contractor": "IV Waste",
    "rowid": "1148909",
    "final_x": "3674691.36712",
    "final_y": "534694.33255",
    "longitude": "-90.08946075195831",
    "latitude": "29.964429003409926",
    "geocoded_column": {
      "latitude": "29.964429003409926",
      "longitude": "-90.08946075195831"
    }
  },
  {
    "service_request": "2024-1148908",
    "request_type": "Property Maintenance",
    "request_reason": "Property Maintenance",
    "date_created": "2024-11-15T13:11:30.000",
    "date_modified": "2024-11-15T13:11:30.000",
    "request_status": "Pending",
    "responsible_agency": "Department of Code Enforcement",
    "final_address": "9028 Dixon St",
    "address_councildis": "A",
    "status": "Pending",
    "rowid": "1148908",
    "final_x": "3665867.40634",
    "final_y": "537746.086216",
    "longitude": "-90.11722396541809",
    "latitude": "29.973080751379246",
    "geocoded_column": {
      "latitude": "29.973080751379246",
      "longitude": "-90.11722396541809"
    }
  },
  {
    "service_request": "2024-1148907",
    "request_type": "Trash/Recycling",
    "request_reason": "Request a Large Item Pick Up",
    "date_created": "2024-11-15T13:10:56.000",
    "date_modified": "2024-11-15T13:10:57.000",
    "request_status": "Pending",
    "responsible_agency": "Department of Sanitation",
    "final_address": "2529 Palmyra St",
    "address_councildis": "B",
    "status": "Assigned to Contractor",
    "contractor": "IV Waste",
    "rowid": "1148907",
    "final_x": "3675494.80097",
    "final_y": "534089.912389",
    "longitude": "-90.08694432925597",
    "latitude": "29.9627430455754",
    "geocoded_column": {
      "latitude": "29.9627430455754",
      "longitude": "-90.08694432925597"
    }
  },
  {
    "service_request": "2024-1148906",
    "request_type": "Trash/Recycling",
    "request_reason": "Replace Trash Cart",
    "date_created": "2024-11-15T13:09:49.000",
    "date_modified": "2024-11-15T13:09:51.000",
    "request_status": "Pending",
    "responsible_agency": "Department of Sanitation",
    "final_address": "7549 Scottwood Dr",
    "address_councildis": "E",
    "status": "Assigned to Contractor",
    "contractor": "Waste Pro",
    "rowid": "1148906",
    "final_x": "3717572.2693",
    "final_y": "570468.880039",
    "longitude": "-89.95268658470668",
    "latitude": "30.061445286789013",
    "geocoded_column": {
      "latitude": "30.061445286789013",
      "longitude": "-89.95268658470668"
    }
  },
  {
    "service_request": "2024-1148905",
    "request_type": "Property Maintenance",
    "request_reason": "Property Maintenance",
    "date_created": "2024-11-15T13:09:20.000",
    "date_modified": "2024-11-15T13:09:20.000",
    "request_status": "Pending",
    "responsible_agency": "Department of Code Enforcement",
    "final_address": "9028 Dixon St",
    "address_councildis": "A",
    "status": "Pending",
    "rowid": "1148905",
    "final_x": "3665867.40634",
    "final_y": "537746.086216",
    "longitude": "-90.11722396541809",
    "latitude": "29.973080751379246",
    "geocoded_column": {
      "latitude": "29.973080751379246",
      "longitude": "-90.11722396541809"
    }
  },
  {
    "service_request": "2024-1148904",
    "request_type": "Trash/Recycling",
    "request_reason": "Request a Large Item Pick Up",
    "date_created": "2024-11-15T13:02:52.000",
    "date_modified": "2024-11-15T13:02:53.000",
    "request_status": "Pending",
    "responsible_agency": "Department of Sanitation",
    "final_address": "14101 Knightway Dr",
    "address_councildis": "E",
    "status": "Assigned to Contractor",
    "contractor": "Waste Pro",
    "rowid": "1148904",
    "final_x": "3718517.71852",
    "final_y": "570444.554279",
    "longitude": "-89.949698989532",
    "latitude": "30.061347043913674",
    "geocoded_column": {
      "latitude": "30.061347043913674",
      "longitude": "-89.949698989532"
    }
  },
  {
    "service_request": "2024-1148903",
    "request_type": "City-Owned Cemeteries",
    "request_reason": "Property Maintenance",
    "date_created": "2024-11-15T13:01:00.000",
    "date_modified": "2024-11-15T13:01:00.000",
    "request_status": "Pending",
    "responsible_agency": "Department of Property Management",
    "final_address": "1820 Hillary St",
    "address_councildis": "A",
    "status": "Pending",
    "rowid": "1148903",
    "final_x": "3664752.85479",
    "final_y": "528920.621952",
    "longitude": "-90.12103884419172",
    "latitude": "29.948846093639155",
    "geocoded_column": {
      "latitude": "29.948846093639155",
      "longitude": "-90.12103884419172"
    }
  },
  {
    "service_request": "2024-1148902",
    "request_type": "Trash/Recycling",
    "request_reason": "Return Trash Cart",
    "date_created": "2024-11-15T12:59:01.000",
    "date_modified": "2024-11-15T12:59:02.000",
    "request_status": "Pending",
    "responsible_agency": "Department of Sanitation",
    "final_address": "1102 Milan St",
    "address_councildis": "B",
    "status": "Assigned to Contractor",
    "contractor": "IV Waste",
    "rowid": "1148902",
    "final_x": "3671688.12961",
    "final_y": "519630.328504",
    "longitude": "-90.09945702449536",
    "latitude": "29.923097214481167",
    "geocoded_column": {
      "latitude": "29.923097214481167",
      "longitude": "-90.09945702449536"
    }
  },
  {
    "service_request": "2024-1148901",
    "request_type": "Trash/Recycling",
    "request_reason": "MIssed Recycling Pick-Up",
    "date_created": "2024-11-15T12:57:15.000",
    "date_modified": "2024-11-15T12:57:16.000",
    "request_status": "Pending",
    "responsible_agency": "Department of Sanitation",
    "final_address": "7704 S Interstate 10 Service Rd",
    "address_councildis": "E",
    "status": "Assigned to Contractor",
    "contractor": "Waste Pro",
    "rowid": "1148901",
    "final_x": "3702383.36023",
    "final_y": "557854.588059",
    "longitude": "-90.00116189660335",
    "latitude": "30.02725542917181",
    "geocoded_column": {
      "latitude": "30.02725542917181",
      "longitude": "-90.00116189660335"
    }
  },
  {
    "service_request": "2024-1148900",
    "request_type": "Trash/Recycling",
    "request_reason": "Repair Recycling Cart",
    "date_created": "2024-11-15T12:56:50.000",
    "date_modified": "2024-11-15T12:56:51.000",
    "request_status": "Pending",
    "responsible_agency": "Department of Sanitation",
    "final_address": "2326 Bartholomew St",
    "address_councildis": "D",
    "status": "Pending",
    "rowid": "1148900",
    "final_x": "3692928.97801",
    "final_y": "540039.733131",
    "longitude": "-90.03167627249324",
    "latitude": "29.97856997990579",
    "geocoded_column": {
      "latitude": "29.97856997990579",
      "longitude": "-90.03167627249324"
    }
  },
  {
    "service_request": "2024-1148899",
    "request_type": "Trash/Recycling",
    "request_reason": "Request a Large Item Pick Up",
    "date_created": "2024-11-15T12:54:19.000",
    "date_modified": "2024-11-15T12:54:20.000",
    "request_status": "Pending",
    "responsible_agency": "Department of Sanitation",
    "final_address": "4801 Donna Dr",
    "address_councildis": "E",
    "status": "Assigned to Contractor",
    "contractor": "Waste Pro",
    "rowid": "1148899",
    "final_x": "3711004.71723",
    "final_y": "556315.04105",
    "longitude": "-89.97397715206938",
    "latitude": "30.02274385867559",
    "geocoded_column": {
      "latitude": "30.02274385867559",
      "longitude": "-89.97397715206938"
    }
  },
  {
    "service_request": "2024-1148898",
    "request_type": "Property Maintenance",
    "request_reason": "Property Maintenance",
    "date_created": "2024-11-15T12:53:57.000",
    "date_modified": "2024-11-15T12:53:57.000",
    "request_status": "Pending",
    "responsible_agency": "Department of Code Enforcement",
    "final_address": "4774 Werner Dr",
    "address_councildis": "E",
    "status": "Pending",
    "rowid": "1148898",
    "final_x": "3704703.37866",
    "final_y": "555568.298777",
    "longitude": "-89.99391535015586",
    "latitude": "30.020894649780413",
    "geocoded_column": {
      "latitude": "30.020894649780413",
      "longitude": "-89.99391535015586"
    }
  },
  {
    "service_request": "2024-1148897",
    "request_type": "Trash/Recycling",
    "request_reason": "Request a Large Item Pick Up",
    "date_created": "2024-11-15T12:53:49.000",
    "date_modified": "2024-11-15T12:53:50.000",
    "request_status": "Pending",
    "responsible_agency": "Department of Sanitation",
    "final_address": "10722 Hayne Blvd",
    "address_councildis": "E",
    "status": "Assigned to Contractor",
    "contractor": "Waste Pro",
    "rowid": "1148897",
    "final_x": "3709078.41739",
    "final_y": "566656.751779",
    "longitude": "-89.97967771915506",
    "latitude": "30.0512421519337",
    "geocoded_column": {
      "latitude": "30.0512421519337",
      "longitude": "-89.97967771915506"
    }
  },