[
  {
    "service_request": "2025-1196378",
    "request_type": "Parks & Parkways",
    "request_reason": "Request Tree Service (Right of Way/Public Property)",
    "date_created": "2025-05-29T23:53:57.000",
    "date_modified": "2025-05-29T23:53:59.000",
    "request_status": "Pending",
    "responsible_agency": "Department of Parks & Parkway",
    "final_address": "7000 BLK Milne Blvd",
    "address_councildis": "A",
    "status": "Pending",
    "rowid": "1196378",
    "final_x": "3667747.65594",
    "final_y": "554305.403644",
    "longitude": "-90.11072773492938",
    "latitude": "30.018558173573517",
    "geocoded_column": {
      "latitude": "30.018558173573517",
      "longitude": "-90.11072773492938"
    }
  },
  {
    "service_request": "2025-1196377",
    "request_type": "Parks & Parkways",
    "request_reason": "Request Tree Service (Right of Way/Public Property)",
    "date_created": "2025-05-29T23:52:00.000",
    "date_modified": "2025-05-29T23:52:03.000",
    "request_status": "Pending",
    "responsible_agency": "Department of Parks & Parkway",
    "final_address": "6400 BLK Milne Blvd",
    "address_councildis": "A",
    "status": "Pending",
    "rowid": "1196377",
    "final_x": "3667349.38213",
    "final_y": "550547.431501",
    "longitude": "-90.11211268960302",
    "latitude": "30.00823674814072",
    "geocoded_column": {
      "latitude": "30.00823674814072",
      "longitude": "-90.11211268960302"
    }
  },
  {
    "service_request": "2025-1196376",
    "request_type": "Roads and Streets",
    "request_reason": "Pothole",
    "date_created": "2025-05-29T23:41:54.000",
    "date_modified": "2025-05-29T23:41:55.000",
    "request_status": "Pending",
    "responsible_agency": "Department of Public Works",
    "final_address": "CRYSTAL ST & CAMEO ST",
    "address_councildis": "D",
    "status": "Pending",
    "rowid": "1196376",
    "final_x": "3667734.3",
    "final_y": "556105.38",
    "longitude": "-90.11070925112473",
    "latitude": "30.023507861990154",
    "geocoded_column": {
      "latitude": "30.023507861990154",
      "longitude": "-90.11070925112473"
    }
  },
  {
    "service_request": "2025-1196375",
    "request_type": "Drainage",
    "request_reason": "Drainage Manhole Cover Missing or Damaged",
    "date_created": "2025-05-29T23:37:47.000",
    "date_modified": "2025-05-29T23:37:49.000",
    "request_status": "Pending",
    "responsible_agency": "Sewerage & Water Board",
    "final_address": "419 Jewel St",
    "address_councildis": "D",
    "status": "Pending",
    "rowid": "1196375",
    "final_x": "3667946.10253",
    "final_y": "555947.783321",
    "longitude": "-90.11004531296189",
    "latitude": "30.02306831143944",
    "geocoded_column": {
      "latitude": "30.02306831143944",
      "longitude": "-90.11004531296189"
    }
  },
  {
    "service_request": "2025-1196374",
    "request_type": "Drainage",
    "request_reason": "Drainage Manhole Cover Missing or Damaged",
    "date_created": "2025-05-29T23:33:50.000",
    "date_modified": "2025-05-29T23:33:52.000",
    "request_status": "Pending",
    "responsible_agency": "Sewerage & Water Board",
    "final_address": "322 Jewel St",
    "address_councildis": "D",
    "status": "Pending",
    "rowid": "1196374",
    "final_x": "3667622.65697",
    "final_y": "555757.947353",
    "longitude": "-90.11107373158005",
    "latitude": "30.0225558207235",
    "geocoded_column": {
      "latitude": "30.0225558207235",
      "longitude": "-90.11107373158005"
    }
  },
  {
    "service_request": "2025-1196373",
    "request_type": "Roads and Streets",
    "request_reason": "Debris in Driving Lanes",
    "date_created": "2025-05-29T23:31:08.000",
    "date_modified": "2025-05-29T23:31:11.000",
    "request_status": "Pending",
    "responsible_agency": "Department of Public Works",
    "final_address": "6747 Milne Blvd",
    "address_councildis": "A",
    "status": "Pending",
    "rowid": "1196373",
    "final_x": "3667636.1938",
    "final_y": "552544.26447",
    "longitude": "-90.11113926963569",
    "latitude": "30.01371893123407",
    "geocoded_column": {
      "latitude": "30.01371893123407",
      "longitude": "-90.11113926963569"
    }
  },
  {
    "service_request": "2025-1196372",
    "request_type": "Streetlights",
    "request_reason": "Streetlight Outage/Malfunction",
    "date_created": "2025-05-29T23:27:31.000",
    "date_modified": "2025-05-29T23:27:34.000",
    "request_status": "Pending",
    "responsible_agency": "Department of Public Works",
    "final_address": "7000 BLK Milne Blvd",
    "address_councildis": "A",
    "status": "Pending",
    "contractor": "Legacy Professional Services",
    "rowid": "1196372",
    "final_x": "3667747.65594",
    "final_y": "554305.403644",
    "longitude": "-90.11072773492938",
    "latitude": "30.018558173573517",
    "geocoded_column": {
      "latitude": "30.018558173573517",
      "longitude": "-90.11072773492938"
    }
  },
  {
    "service_request": "2025-1196371",
    "request_type": "Street and Traffic Signs",
    "request_reason": "Street Name Sign Damaged or Missing",
    "date_created": "2025-05-29T23:19:31.000",
    "date_modified": "2025-05-29T23:19:33.000",
    "request_status": "Pending",
    "responsible_agency": "Department of Public Works",
    "final_address": "LANE ST & MILNE BLVD",
    "address_councildis": "A",
    "status": "Pending",
    "rowid": "1196371",
    "final_x": "3667328.0",
    "final_y": "550778.98",
    "longitude": "-90.11217244640252",
    "latitude": "30.008874052309505",
    "geocoded_column": {
      "latitude": "30.008874052309505",
      "longitude": "-90.11217244640252"
    }
  },
  {
    "service_request": "2025-1196370",
    "request_type": "Streetlights",
    "request_reason": "Streetlight Outage/Malfunction",
    "date_created": "2025-05-29T23:15:31.000",
    "date_modified": "2025-05-29T23:15:34.000",
    "request_status": "Pending",
    "responsible_agency": "Department of Public Works",
    "final_address": "CANAL BLVD & AMETHYST ST",
    "address_councildis": "D",
    "status": "Pending",
    "contractor": "Legacy Professional Services",
    "rowid": "1196370",
    "final_x": "3669409.5",
    "final_y": "556744.58",
    "longitude": "-90.10539430522898",
    "latitude": "30.025216178516906",
    "geocoded_column": {
      "latitude": "30.025216178516906",
      "longitude": "-90.10539430522898"
    }
  },
  {
    "service_request": "2025-1196369",
    "request_type": "Streetlights",
    "request_reason": "Streetlight Outage/Malfunction",
    "date_created": "2025-05-29T23:09:58.000",
    "date_modified": "2025-05-29T23:09:59.000",
    "request_status": "Pending",
    "responsible_agency": "Department of Public Works",
    "final_address": "WEST END BLVD & JEWEL ST",
    "address_councildis": "D",
    "status": "Pending",
    "contractor": "Legacy Professional Services",
    "rowid": "1196369",
    "final_x": "3667066.5",
    "final_y": "555845.58",
    "longitude": "-90.1128281128501",
    "latitude": "30.02281307987026",
    "geocoded_column": {
      "latitude": "30.02281307987026",
      "longitude": "-90.1128281128501"
    }
  },
  {
    "service_request": "2025-1196368",
    "request_type": "Trash/Recycling",
    "request_reason": "Order Second Trash Cart",
    "date_created": "2025-05-29T23:07:40.000",
    "date_modified": "2025-05-29T23:07:41.000",
    "request_status": "Pending",
    "responsible_agency": "Department of Sanitation",
    "final_address": "14712 Curran Rd",
    "address_councildis": "E",
    "status": "Assigned to Contractor",
    "contractor": "Waste Pro",
    "rowid": "1196368",
    "final_x": "3720167.01561",
    "final_y": "573662.612522",
    "longitude": "-89.94436233545348",
    "latitude": "30.070140487556074",
    "geocoded_column": {
      "latitude": "30.070140487556074",
      "longitude": "-89.94436233545348"
    }
  },
  {
    "service_request": "2025-1196367",
    "request_type": "Drainage",
    "request_reason": "Catch Basin Clogged",
    "date_created": "2025-05-29T23:06:24.000",
    "date_modified": "2025-05-29T23:06:26.000",
    "request_status": "Pending",
    "responsible_agency": "Sewerage & Water Board",
    "final_address": "CAMEO ST & OPAL ST",
    "address_councildis": "D",
    "status": "Pending",
    "rowid": "1196367",
    "final_x": "3667645.3",
    "final_y": "555314.88",
    "longitude": "-90.11101711899795",
    "latitude": "30.021336878647052",
    "geocoded_column": {
      "latitude": "30.021336878647052",
      "longitude": "-90.11101711899795"
    }
  },
  {
    "service_request": "2025-1196366",
    "request_type": "Streetlights",
    "request_reason": "Streetlight Outage/Malfunction",
    "date_created": "2025-05-29T22:38:13.000",
    "date_modified": "2025-05-29T22:38:16.000",
    "request_status": "Pending",
    "responsible_agency": "Department of Public Works",
    "final_address": "1033 Dauphine St",
    "address_councildis": "C",
    "status": "Pending",
    "contractor": "Legacy Professional Services",
    "rowid": "1196366",
    "final_x": "3682789.1357",
    "final_y": "534010.210373",
    "longitude": "-90.06391258729992",
    "latitude": "29.96230370679873",
    "geocoded_column": {
      "latitude": "29.96230370679873",
      "longitude": "-90.06391258729992"
    }
  },
  {
    "service_request": "2025-1196365",
    "request_type": "Trash/Recycling",
    "request_reason": "Missed Trash Pick-Up",
    "date_created": "2025-05-29T21:44:42.000",
    "date_modified": "2025-05-29T21:44:44.000",
    "request_status": "Pending",
    "responsible_agency": "Department of Sanitation",
    "final_address": "7702 Spruce St, New Orleans, Louisiana, 70118",
    "address_councildis": "A",
    "status": "Assigned to Contractor",
    "contractor": "IV Waste",
    "rowid": "1196365",
    "final_x": "3664885.21504",
    "final_y": "529457.164545",
    "longitude": "-90.12060299432557",
    "latitude": "29.950317561143777",
    "geocoded_column": {
      "latitude": "29.950317561143777",
      "longitude": "-90.12060299432557"
    }
  },
  {
    "service_request": "2025-1196364",
    "request_type": "Trash/Recycling",
    "request_reason": "Repair Trash Cart",
    "date_created": "2025-05-29T21:23:44.000",
    "date_modified": "2025-05-29T21:23:46.000",
    "request_status": "Pending",
    "responsible_agency": "Department of Sanitation",
    "final_address": "4043 Buick St",
    "address_councildis": "D",
    "status": "Assigned to Contractor",
    "contractor": "IV Waste",
    "rowid": "1196364",
    "final_x": "3688884.93251",
    "final_y": "548185.10325",
    "longitude": "-90.0441593854434",
    "latitude": "30.001092521833755",
    "geocoded_column": {
      "latitude": "30.001092521833755",
      "longitude": "-90.0441593854434"
    }
  },
  {
    "service_request": "2025-1196363",
    "request_type": "Streetlights",
    "request_reason": "Streetlight Outage/Malfunction",
    "date_created": "2025-05-29T21:07:49.000",
    "date_modified": "2025-05-29T21:07:52.000",
    "request_status": "Pending",
    "responsible_agency": "Department of Public Works",
    "final_address": "7263 Canal Blvd",
    "address_councildis": "D",
    "status": "Pending",
    "contractor": "Legacy Professional Services",
    "rowid": "1196363",
    "final_x": "3669371.82766",
    "final_y": "555282.053849",
    "longitude": "-90.10556286244523",
    "latitude": "30.021195863670865",
    "geocoded_column": {
      "latitude": "30.021195863670865",
      "longitude": "-90.10556286244523"
    }
  },
  {
    "service_request": "2025-1196362",
    "request_type": "Trash/Recycling",
    "request_reason": "Request a Large Item Pick Up",
    "date_created": "2025-05-29T20:59:16.000",
    "date_modified": "2025-05-29T20:59:17.000",
    "request_status": "Pending",
    "responsible_agency": "Department of Sanitation",
    "final_address": "408 14Th St",
    "address_councildis": "A",
    "status": "Assigned to Contractor",
    "contractor": "IV Waste",
    "rowid": "1196362",
    "final_x": "3664774.6418",
    "final_y": "548099.861394",
    "longitude": "-90.12032898531201",
    "latitude": "30.001581977930055",
    "geocoded_column": {
      "latitude": "30.001581977930055",
      "longitude": "-90.12032898531201"
    }
  },
  {
    "service_request": "2025-1196361",
    "request_type": "Trash/Recycling",
    "request_reason": "Request a Large Item Pick Up",
    "date_created": "2025-05-29T20:58:58.000",
    "date_modified": "2025-05-29T20:59:01.000",
    "request_status": "Pending",
    "responsible_agency": "Department of Sanitation",
    "final_address": "5335 Royal St",
    "address_councildis": "E",
    "status": "Assigned to Contractor",
    "contractor": "Waste Pro",
    "rowid": "1196361",
    "final_x": "3696664.10883",
    "final_y": "532554.880452",
    "longitude": "-90.02015033356973",
    "latitude": "29.95787210905299",
    "geocoded_column": {
      "latitude": "29.95787210905299",
      "longitude": "-90.02015033356973"
    }
  },
  {
    "service_request": "2025-1196360",
    "request_type": "General Services",
    "request_reason": "General Service Request",
    "date_created": "2025-05-29T20:52:07.000",
    "date_modified": "2025-05-29T20:52:10.000",
    "request_status": "Pending",
    "responsible_agency": "Orleans Parish Communication District",
    "final_address": "1620 Dumaine St",
    "address_councildis": "C",
    "status": "Pending",
    "rowid": "1196360",
    "final_x": "3680371.10152",
    "final_y": "535010.807494",
    "longitude": "-90.07151359108283",
    "latitude": "29.96512844429875",
    "geocoded_column": {
      "latitude": "29.96512844429875",
      "longitude": "-90.07151359108283"
    }
  },
  {
    "service_request": "2025-1196359",
    "request_type": "Trash/Recycling",
    "request_reason": "Replace Recycling Cart",
    "date_created": "2025-05-29T20:34:46.000",
    "date_modified": "2025-05-29T20:34:47.000",
    "request_status": "Pending",
    "responsible_agency": "Department of Sanitation",
    "final_address": "5871 Marcia Ave",
    "address_councildis": "A",
    "status": "Pending",
    "rowid": "1196359",
    "final_x": "3664882.27175",
    "final_y": "546878.761489",
    "longitude": "-90.12002981723253",
    "latitude": "29.998221239041793",
    "geocoded_column": {
      "latitude": "29.998221239041793",
      "longitude": "-90.12002981723253"
    }
  },
  {
    "service_request": "2025-1196358",
    "request_type": "Trash/Recycling",
    "request_reason": "Order Trash Cart",
    "date_created": "2025-05-29T20:30:16.000",
    "date_modified": "2025-05-29T20:30:18.000",
    "request_status": "Pending",
    "responsible_agency": "Department of Sanitation",
    "final_address": "2740 Conti St",
    "address_councildis": "B",
    "status": "Assigned to Contractor",
    "contractor": "IV Waste",
    "rowid": "1196358",
    "final_x": "3675719.80616",
    "final_y": "536235.596487",
    "longitude": "-90.08616004142955",
    "latitude": "29.968636219409987",
    "geocoded_column": {
      "latitude": "29.968636219409987",
      "longitude": "-90.08616004142955"
    }
  },
  {
    "service_request": "2025-1196357",
    "request_type": "General Services",
    "request_reason": "General Service Request",
    "date_created": "2025-05-29T20:17:06.000",
    "date_modified": "2025-05-29T20:17:09.000",
    "request_status": "Pending",
    "responsible_agency": "Orleans Parish Communication District",
    "final_address": "4305 Magazine St",
    "address_councildis": "B",
    "status": "Pending",
    "rowid": "1196357",
    "final_x": "3671368.13396",
    "final_y": "518869.406839",
    "longitude": "-90.10049297307201",
    "latitude": "29.92101439314952",
    "geocoded_column": {
      "latitude": "29.92101439314952",
      "longitude": "-90.10049297307201"
    }
  },
  {
    "service_request": "2025-1196356",
    "request_type": "Property Maintenance",
    "request_reason": "Property Maintenance",
    "date_created": "2025-05-29T20:12:19.000",
    "date_modified": "2025-05-29T20:12:21.000",
    "request_status": "Pending",
    "responsible_agency": "Department of Code Enforcement",
    "final_address": "6442 Canal Blvd",
    "address_councildis": "A",
    "status": "Pending",
    "rowid": "1196356",
    "final_x": "3668600.95854",
    "final_y": "550420.171732",
    "longitude": "-90.10816285861978",
    "latitude": "30.007850091051214",
    "geocoded_column": {
      "latitude": "30.007850091051214",
      "longitude": "-90.10816285861978"
    }
  },
  {
    "service_request": "2025-1196355",
    "request_type": "Trash/Recycling",
    "request_reason": "Replace Recycling Cart",
    "date_created": "2025-05-29T20:07:45.000",
    "date_modified": "2025-05-29T20:07:47.000",
    "request_status": "Pending",
    "responsible_agency": "Department of Sanitation",
    "final_address": "3461 Desaix Blvd",
    "address_councildis": "D",
    "status": "Pending",
    "rowid": "1196355",
    "final_x": "3676335.89345",
    "final_y": "543769.37755",
    "longitude": "-90.08395498222514",
    "latitude": "29.989333072675002",
    "geocoded_column": {
      "latitude": "29.989333072675002",
      "longitude": "-90.08395498222514"
    }
  },
  {
    "service_request": "2025-1196354",
    "request_type": "Trash/Recycling",
    "request_reason": "Request a Large Item Pick Up",
    "date_created": "2025-05-29T20:06:29.000",
    "date_modified": "2025-05-29T20:06:32.000",
    "request_status": "Pending",
    "responsible_agency": "Department of Sanitation",
    "final_address": "7525 Sandy Cove Dr",
    "address_councildis": "E",
    "status": "Assigned to Contractor",
    "contractor": "Waste Pro",
    "rowid": "1196354",
    "final_x": "3716007.59192",
    "final_y": "568955.403686",
    "longitude": "-89.95768990110459",
    "latitude": "30.057335598660284",
    "geocoded_column": {
      "latitude": "30.057335598660284",
      "longitude": "-89.95768990110459"
    }
  },
  {
    "service_request": "2025-1196353",
    "request_type": "Trash/Recycling",
    "request_reason": "Order Recycling Cart",
    "date_created": "2025-05-29T19:56:31.000",
    "date_modified": "2025-05-29T19:56:35.000",
    "request_status": "Pending",
    "responsible_agency": "Department of Sanitation",
    "final_address": "5370 Charlotte Dr",
    "address_councildis": "D",
    "status": "Pending",
    "rowid": "1196353",
    "final_x": "3680000.29474",
    "final_y": "552172.783894",
    "longitude": "-90.07208802758089",
    "latitude": "30.01232907638667",
    "geocoded_column": {
      "latitude": "30.01232907638667",
      "longitude": "-90.07208802758089"
    }
  },
  {
    "service_request": "2025-1196352",
    "request_type": "General Services",
    "request_reason": "General Service Request",
    "date_created": "2025-05-29T19:47:04.000",
    "date_modified": "2025-05-29T19:47:06.000",
    "request_status": "Pending",
    "responsible_agency": "Orleans Parish Communication District",
    "final_address": "7721 Alabama St",
    "address_councildis": "D",
    "status": "Pending",
    "rowid": "1196352",
    "final_x": "3694833.8689",
    "final_y": "558921.358492",
    "longitude": "-90.02497902065419",
    "latitude": "30.030427819723226",
    "geocoded_column": {
      "latitude": "30.030427819723226",
      "longitude": "-90.02497902065419"
    }
  },
  {
    "service_request": "2025-1196351",
    "request_type": "Drainage",
    "request_reason": "Catch Basin Damaged",
    "date_created": "2025-05-29T19:45:09.000",
    "date_modified": "2025-05-29T19:45:10.000",
    "request_status": "Pending",
    "responsible_agency": "Sewerage & Water Board",
    "final_address": "500 Lake Marina Ave",
    "address_councildis": "A",
    "status": "Pending",
    "rowid": "1196351",
    "final_x": "3665086.84116",
    "final_y": "555262.967193",
    "longitude": "-90.11910291645061",
    "latitude": "30.021268932165952",
    "geocoded_column": {
      "latitude": "30.021268932165952",
      "longitude": "-90.11910291645061"
    }
  },
  {
    "service_request": "2025-1196349",
    "request_type": "General Services",
    "request_reason": "General Service Request",
    "date_created": "2025-05-29T19:41:27.000",
    "date_modified": "2025-05-29T19:41:29.000",
    "request_status": "Pending",
    "responsible_agency": "Orleans Parish Communication District",
    "final_address": "2357 St Thomas St",
    "address_councildis": "B",
    "status": "Pending",
    "rowid": "1196349",
    "final_x": "3679235.88066",
    "final_y": "520115.927864",
    "longitude": "-90.07561485439388",
    "latitude": "29.924206813004698",
    "geocoded_column": {
      "latitude": "29.924206813004698",
      "longitude": "-90.07561485439388"
    }
  },
  {
    "service_request": "2025-1196350",
    "request_type": "General Services",
    "request_reason": "General Service Request",
    "date_created": "2025-05-29T19:41:27.000",
    "date_modified": "2025-05-29T19:41:29.000",
    "request_status": "Pending",
    "responsible_agency": "Orleans Parish Communication District",
    "final_address": "2357 St Thomas St",
    "address_councildis": "B",
    "status": "Pending",
    "rowid": "1196350",
    "final_x": "3679235.88066",
    "final_y": "520115.927864",
    "longitude": "-90.07561485439388",
    "latitude": "29.924206813004698",
    "geocoded_column": {
      "latitude": "29.924206813004698",
      "longitude": "-90.07561485439388"
    }
  },
  {
    "service_request": "2025-1196348",
    "request_type": "Trash/Recycling",
    "request_reason": "Missed Trash Pick-Up",
    "date_created": "2025-05-29T19:40:37.000",
    "date_modified": "2025-05-29T19:40:40.000",
    "request_status": "Pending",
    "responsible_agency": "Department of Sanitation",
    "final_address": "4610 Babylon St",
    "address_councildis": "D",
    "status": "Assigned to Contractor",
    "contractor": "Waste Pro",
    "rowid": "1196348",
    "final_x": "3696652.11811",
    "final_y": "553658.276439",
    "longitude": "-90.01942406933725",
    "latitude": "30.015899132183748",
    "geocoded_column": {
      "latitude": "30.015899132183748",
      "longitude": "-90.01942406933725"
    }
  },
  {
    "service_request": "2025-1196347",
    "request_type": "Trash/Recycling",
    "request_reason": "Repair Recycling Cart",
    "date_created": "2025-05-29T19:26:33.000",
    "date_modified": "2025-05-29T19:26:35.000",
    "request_status": "Pending",
    "responsible_agency": "Department of Sanitation",
    "final_address": "8101 Aberdeen Rd",
    "address_councildis": "E",
    "status": "Pending",
    "rowid": "1196347",
    "final_x": "3702605.22698",
    "final_y": "561323.91267",
    "longitude": "-90.00033328861402",
    "latitude": "30.036787627777265",
    "geocoded_column": {
      "latitude": "30.036787627777265",
      "longitude": "-90.00033328861402"
    }
  },
  {
    "service_request": "2025-1196346",
    "request_type": "Trash/Recycling",
    "request_reason": "Order Trash Cart",
    "date_created": "2025-05-29T18:54:04.000",
    "date_modified": "2025-05-29T18:54:06.000",
    "request_status": "Pending",
    "responsible_agency": "Department of Sanitation",
    "final_address": "0 BLK Blanc Pl",
    "address_councildis": "B",
    "status": "Assigned to Contractor",
    "contractor": "IV Waste",
    "rowid": "1196346",
    "final_x": "3667951.08401",
    "final_y": "520874.262829",
    "longitude": "-90.11121159835395",
    "latitude": "29.926627762655404",
    "geocoded_column": {
      "latitude": "29.926627762655404",
      "longitude": "-90.11121159835395"
    }
  },
  {
    "service_request": "2025-1196345",
    "request_type": "Trash/Recycling",
    "request_reason": "Missed Trash Pick-Up",
    "date_created": "2025-05-29T18:42:58.000",
    "date_modified": "2025-05-29T18:43:00.000",
    "request_status": "Pending",
    "responsible_agency": "Department of Sanitation",
    "final_address": "3422 Livingston St",
    "address_councildis": "A",
    "status": "Assigned to Contractor",
    "contractor": "IV Waste",
    "rowid": "1196345",
    "final_x": "3663691.69472",
    "final_y": "537668.050376",
    "longitude": "-90.12409792257263",
    "latitude": "29.972929492729595",
    "geocoded_column": {
      "latitude": "29.972929492729595",
      "longitude": "-90.12409792257263"
    }
  },
  {
    "service_request": "2025-1196344",
    "request_type": "Abandoned Vehicles",
    "request_reason": "Abandoned/Junk Vehicles",
    "date_created": "2025-05-29T18:36:13.000",
    "date_modified": "2025-05-29T18:36:15.000",
    "request_status": "Pending",
    "responsible_agency": "Department of Public Works",
    "final_address": "2761 Banks St",
    "address_councildis": "B",
    "status": "Pending",
    "rowid": "1196344",
    "final_x": "3674252.60635",
    "final_y": "534513.144389",
    "longitude": "-90.09085253092961",
    "latitude": "29.963943886233192",
    "geocoded_column": {
      "latitude": "29.963943886233192",
      "longitude": "-90.09085253092961"
    }
  },
  {
    "service_request": "2025-1196343",
    "request_type": "Abandoned Vehicles",
    "request_reason": "Abandoned/Junk Vehicles",
    "date_created": "2025-05-29T18:33:36.000",
    "date_modified": "2025-05-29T18:33:38.000",
    "request_status": "Pending",
    "responsible_agency": "Department of Public Works",
    "final_address": "2761 Banks St",
    "address_councildis": "B",
    "status": "Pending",
    "rowid": "1196343",
    "final_x": "3674252.60635",
    "final_y": "534513.144389",
    "longitude": "-90.09085253092961",
    "latitude": "29.963943886233192",
    "geocoded_column": {
      "latitude": "29.963943886233192",
      "longitude": "-90.09085253092961"
    }
  },
  {
    "service_request": "2025-1196342",
    "request_type": "Trash/Recycling",
    "request_reason": "Repair Recycling Cart",
    "date_created": "2025-05-29T18:12:17.000",
    "date_modified": "2025-05-29T18:12:21.000",
    "request_status": "Pending",
    "responsible_agency": "Department of Sanitation",
    "final_address": "906 Washington Ave",
    "address_councildis": "B",
    "status": "Pending",
    "rowid": "1196342",
    "final_x": "3677369.74101",
    "final_y": "520235.422392",
    "longitude": "-90.08150148681219",
    "latitude": "29.92459157518719",
    "geocoded_column": {
      "latitude": "29.92459157518719",
      "longitude": "-90.08150148681219"
    }
  },
  {
    "service_request": "2025-1196341",
    "request_type": "Drainage",
    "request_reason": "Street Flooding",
    "date_created": "2025-05-29T18:10:22.000",
    "date_modified": "2025-05-29T18:10:25.000",
    "request_status": "Pending",
    "responsible_agency": "Sewerage & Water Board",
    "final_address": "1446 St Mary St",
    "address_councildis": "B",
    "status": "Pending",
    "rowid": "1196341",
    "final_x": "3678782.602",
    "final_y": "523831.458939",
    "longitude": "-90.0769170920591",
    "latitude": "29.93443698102529",
    "geocoded_column": {
      "latitude": "29.93443698102529",
      "longitude": "-90.0769170920591"
    }
  },
  {
    "service_request": "2025-1196340",
    "request_type": "Trash/Recycling",
    "request_reason": "Request a Large Item Pick Up",
    "date_created": "2025-05-29T17:52:13.000",
    "date_modified": "2025-05-29T17:52:15.000",
    "request_status": "Pending",
    "responsible_agency": "Department of Sanitation",
    "final_address": "7422 Spring Lake Dr",
    "address_councildis": "E",
    "status": "Assigned to Contractor",
    "contractor": "Waste Pro",
    "rowid": "1196340",
    "final_x": "3700962.68266",
    "final_y": "559045.724124",
    "longitude": "-90.00560746905768",
    "latitude": "30.030575932428277",
    "geocoded_column": {
      "latitude": "30.030575932428277",
      "longitude": "-90.00560746905768"
    }
  },
  {
    "service_request": "2025-1196339",
    "request_type": "Roads and Streets",
    "request_reason": "Pothole",
    "date_created": "2025-05-29T17:50:21.000",
    "date_modified": "2025-05-29T17:50:23.000",
    "request_status": "Pending",
    "responsible_agency": "Department of Public Works",
    "final_address": "903 Clouet St",
    "address_councildis": "C",
    "status": "Pending",
    "rowid": "1196339",
    "final_x": "3688840.93071",
    "final_y": "535251.283654",
    "longitude": "-90.04475787732783",
    "latitude": "29.965530487611744",
    "geocoded_column": {
      "latitude": "29.965530487611744",
      "longitude": "-90.04475787732783"
    }
  },
  {
    "service_request": "2025-1196338",
    "request_type": "Roads and Streets",
    "request_reason": "Pothole",
    "date_created": "2025-05-29T17:47:14.000",
    "date_modified": "2025-05-29T17:47:17.000",
    "request_status": "Pending",
    "responsible_agency": "Department of Public Works",
    "final_address": "903 Clouet St",
    "address_councildis": "C",
    "status": "Pending",
    "rowid": "1196338",
    "final_x": "3688840.93071",
    "final_y": "535251.283654",
    "longitude": "-90.04475787732783",
    "latitude": "29.965530487611744",
    "geocoded_column": {
      "latitude": "29.965530487611744",
      "longitude": "-90.04475787732783"
    }
  },
  {
    "service_request": "2025-1196337",
    "request_type": "Drainage",
    "request_reason": "Catch Basin Clogged",
    "date_created": "2025-05-29T17:41:06.000",
    "date_modified": "2025-05-29T17:41:09.000",
    "request_status": "Pending",
    "responsible_agency": "Sewerage & Water Board",
    "final_address": "3200 Banks St",
    "address_councildis": "B",
    "status": "Pending",
    "rowid": "1196337",
    "final_x": "3673077.26459",
    "final_y": "535245.009734",
    "longitude": "-90.09453917147644",
    "latitude": "29.965991261455468",
    "geocoded_column": {
      "latitude": "29.965991261455468",
      "longitude": "-90.09453917147644"
    }
  },
  {
    "service_request": "2025-1196336",
    "request_type": "Trash/Recycling",
    "request_reason": "Request a Large Item Pick Up",
    "date_created": "2025-05-29T17:40:54.000",
    "date_modified": "2025-05-29T17:40:57.000",
    "request_status": "Pending",
    "responsible_agency": "Department of Sanitation",
    "final_address": "2914 Banks St",
    "address_councildis": "B",
    "status": "Assigned to Contractor",
    "contractor": "IV Waste",
    "rowid": "1196336",
    "final_x": "3673726.06062",
    "final_y": "534733.992134",
    "longitude": "-90.09250776393813",
    "latitude": "29.964566832133123",
    "geocoded_column": {
      "latitude": "29.964566832133123",
      "longitude": "-90.09250776393813"
    }
  },
  {
    "service_request": "2025-1196335",
    "request_type": "Property Maintenance",
    "request_reason": "Property Maintenance",
    "date_created": "2025-05-29T17:31:48.000",
    "date_modified": "2025-05-29T17:31:51.000",
    "request_status": "Pending",
    "responsible_agency": "Department of Code Enforcement",
    "final_address": "3103 N Villere St",
    "address_councildis": "C",
    "status": "Pending",
    "rowid": "1196335",
    "final_x": "3689377.15702",
    "final_y": "537116.060808",
    "longitude": "-90.04299818784764",
    "latitude": "29.970641378989026",
    "geocoded_column": {
      "latitude": "29.970641378989026",
      "longitude": "-90.04299818784764"
    }
  },
  {
    "service_request": "2025-1196334",
    "request_type": "Property Maintenance",
    "request_reason": "Property Maintenance",
    "date_created": "2025-05-29T17:30:19.000",
    "date_modified": "2025-05-29T17:30:22.000",
    "request_status": "Pending",
    "responsible_agency": "Department of Code Enforcement",
    "final_address": "3117 N Villere St",
    "address_councildis": "C",
    "status": "Pending",
    "rowid": "1196334",
    "final_x": "3689429.97321",
    "final_y": "537103.568072",
    "longitude": "-90.04283183289137",
    "latitude": "29.97060539285459",
    "geocoded_column": {
      "latitude": "29.97060539285459",
      "longitude": "-90.04283183289137"
    }
  },
  {
    "service_request": "2025-1196333",
    "request_type": "Property Maintenance",
    "request_reason": "Property Maintenance",
    "date_created": "2025-05-29T17:28:06.000",
    "date_modified": "2025-05-29T17:28:08.000",
    "request_status": "Pending",
    "responsible_agency": "Department of Code Enforcement",
    "final_address": "3146 N Villere St",
    "address_councildis": "C",
    "status": "Pending",
    "rowid": "1196333",
    "final_x": "3689639.18159",
    "final_y": "536983.077768",
    "longitude": "-90.04217541804807",
    "latitude": "29.97026760649237",
    "geocoded_column": {
      "latitude": "29.97026760649237",
      "longitude": "-90.04217541804807"
    }
  },
  {
    "service_request": "2025-1196332",
    "request_type": "Trash/Recycling",
    "request_reason": "Replace Recycling Cart",
    "date_created": "2025-05-29T17:25:39.000",
    "date_modified": "2025-05-29T17:25:41.000",
    "request_status": "Pending",
    "responsible_agency": "Department of Sanitation",
    "final_address": "607 N Salcedo St",
    "address_councildis": "A",
    "status": "Pending",
    "rowid": "1196332",
    "final_x": "3675207.72929",
    "final_y": "537621.8706",
    "longitude": "-90.08772961966766",
    "latitude": "29.972463317902942",
    "geocoded_column": {
      "latitude": "29.972463317902942",
      "longitude": "-90.08772961966766"
    }
  },
  {
    "service_request": "2025-1196331",
    "request_type": "Street and Traffic Signs",
    "request_reason": "New Disabled Parking Sign Request ",
    "date_created": "2025-05-29T17:21:55.000",
    "date_modified": "2025-05-29T17:21:57.000",
    "request_status": "Pending",
    "responsible_agency": "Department of Public Works",
    "final_address": "2508 Bienville Ave",
    "address_councildis": "B",
    "status": "Pending",
    "rowid": "1196331",
    "final_x": "3676491.21934",
    "final_y": "535136.860166",
    "longitude": "-90.08376171354287",
    "latitude": "29.965591957860646",
    "geocoded_column": {
      "latitude": "29.965591957860646",
      "longitude": "-90.08376171354287"
    }
  },
  {
    "service_request": "2025-1196330",
    "request_type": "Trash/Recycling",
    "request_reason": "Request a Large Item Pick Up",
    "date_created": "2025-05-29T17:18:41.000",
    "date_modified": "2025-05-29T17:18:44.000",
    "request_status": "Pending",
    "responsible_agency": "Department of Sanitation",
    "final_address": "2726 Cleveland Ave",
    "address_councildis": "B",
    "status": "Assigned to Contractor",
    "contractor": "IV Waste",
    "rowid": "1196330",
    "final_x": "3674849.11694",
    "final_y": "534902.677382",
    "longitude": "-90.08895544441638",
    "latitude": "29.96499717183034",
    "geocoded_column": {
      "latitude": "29.96499717183034",
      "longitude": "-90.08895544441638"
    }
  },
  {
    "service_request": "2025-1196329",
    "request_type": "Trash/Recycling",
    "request_reason": "Request a Large Item Pick Up",
    "date_created": "2025-05-29T17:16:23.000",
    "date_modified": "2025-05-29T17:16:25.000",
    "request_status": "Pending",
    "responsible_agency": "Department of Sanitation",
    "final_address": "609 Vallette St",
    "address_councildis": "C",
    "status": "Assigned to Contractor",
    "contractor": "Richards Disposal",
    "rowid": "1196329",
    "final_x": "3687474.15081",
    "final_y": "529408.955969",
    "longitude": "-90.04928085160925",
    "latitude": "29.949508294018955",
    "geocoded_column": {
      "latitude": "29.949508294018955",
      "longitude": "-90.04928085160925"
    }
  },
  {
    "service_request": "2025-1196328",
    "request_type": "Parks & Parkways",
    "request_reason": "Request Tree Service (Right of Way/Public Property)",
    "date_created": "2025-05-29T17:15:58.000",
    "date_modified": "2025-05-29T17:15:59.000",
    "request_status": "Pending",
    "responsible_agency": "Department of Parks & Parkway",
    "final_address": "2312 S Claiborne Ave",
    "address_councildis": "B",
    "status": "Pending",
    "rowid": "1196328",
    "final_x": "3674362.44635",
    "final_y": "527361.124607",
    "longitude": "-90.09075058881969",
    "latitude": "29.944274935502424",
    "geocoded_column": {
      "latitude": "29.944274935502424",
      "longitude": "-90.09075058881969"
    }
  },
  {
    "service_request": "2025-1196327",
    "request_type": "Trash/Recycling",
    "request_reason": "Repair Trash Cart",
    "date_created": "2025-05-29T17:13:36.000",
    "date_modified": "2025-05-29T17:13:39.000",
    "request_status": "Pending",
    "responsible_agency": "Department of Sanitation",
    "final_address": "0 BLK Downs St",
    "address_councildis": "A",
    "status": "Assigned to Contractor",
    "contractor": "IV Waste",
    "rowid": "1196327",
    "final_x": "3667484.28671",
    "final_y": "553136.896467",
    "longitude": "-90.11159925491211",
    "latitude": "30.01535291518968",
    "geocoded_column": {
      "latitude": "30.01535291518968",
      "longitude": "-90.11159925491211"
    }
  },
  {
    "service_request": "2025-1196326",
    "request_type": "Alley Ways",
    "request_reason": "Alley Way Regrading",
    "date_created": "2025-05-29T17:12:41.000",
    "date_modified": "2025-05-29T17:12:44.000",
    "request_status": "Pending",
    "responsible_agency": "Department of Public Works",
    "final_address": "6846 Milne Blvd",
    "address_councildis": "A",
    "status": "Pending",
    "rowid": "1196326",
    "final_x": "3667454.65709",
    "final_y": "553032.719447",
    "longitude": "-90.11169638030633",
    "latitude": "30.015067333681788",
    "geocoded_column": {
      "latitude": "30.015067333681788",
      "longitude": "-90.11169638030633"
    }
  },
  {
    "service_request": "2025-1196325",
    "request_type": "Roads and Streets",
    "request_reason": "Pothole",
    "date_created": "2025-05-29T16:58:54.000",
    "date_modified": "2025-05-29T16:58:56.000",
    "request_status": "Pending",
    "responsible_agency": "Department of Public Works",
    "final_address": "800 BLK Esplanade Ave",
    "address_councildis": "C",
    "status": "Pending",
    "rowid": "1196325",
    "final_x": "3683596.89556",
    "final_y": "534730.283674",
    "longitude": "-90.06133655953825",
    "latitude": "29.964259029973537",
    "geocoded_column": {
      "latitude": "29.964259029973537",
      "longitude": "-90.06133655953825"
    }
  },
  {
    "service_request": "2025-1196324",
    "request_type": "Drainage",
    "request_reason": "Street Flooding",
    "date_created": "2025-05-29T16:56:57.000",
    "date_modified": "2025-05-29T16:56:59.000",
    "request_status": "Pending",
    "responsible_agency": "Sewerage & Water Board",
    "final_address": "2334 Congress St",
    "address_councildis": "D",
    "status": "Pending",
    "rowid": "1196324",
    "final_x": "3691868.63139",
    "final_y": "540377.935115",
    "longitude": "-90.03501312348907",
    "latitude": "29.979532992531656",
    "geocoded_column": {
      "latitude": "29.979532992531656",
      "longitude": "-90.03501312348907"
    }
  },
  {
    "service_request": "2025-1196323",
    "request_type": "Trash/Recycling",
    "request_reason": "Request a Large Item Pick Up",
    "date_created": "2025-05-29T16:51:38.000",
    "date_modified": "2025-05-29T16:51:41.000",
    "request_status": "Pending",
    "responsible_agency": "Department of Sanitation",
    "final_address": "5705 Willow St",
    "address_councildis": "A",
    "status": "Assigned to Contractor",
    "contractor": "IV Waste",
    "rowid": "1196323",
    "final_x": "3667520.01556",
    "final_y": "525484.605565",
    "longitude": "-90.11241729675683",
    "latitude": "29.93931736867204",
    "geocoded_column": {
      "latitude": "29.93931736867204",
      "longitude": "-90.11241729675683"
    }
  },
  {
    "service_request": "2025-1196322",
    "request_type": "Trash/Recycling",
    "request_reason": "Repair Trash Cart",
    "date_created": "2025-05-29T16:50:34.000",
    "date_modified": "2025-05-29T16:50:37.000",
    "request_status": "Pending",
    "responsible_agency": "Department of Sanitation",
    "final_address": "7661 Jonlee Dr",
    "address_councildis": "E",
    "status": "Assigned to Contractor",
    "contractor": "Waste Pro",
    "rowid": "1196322",
    "final_x": "3716996.91205",
    "final_y": "570808.271143",
    "longitude": "-89.95449235515908",
    "latitude": "30.062397520594082",
    "geocoded_column": {
      "latitude": "30.062397520594082",
      "longitude": "-89.95449235515908"
    }
  },
  {
    "service_request": "2025-1196321",
    "request_type": "Trash/Recycling",
    "request_reason": "Illegal Dumping",
    "date_created": "2025-05-29T16:49:05.000",
    "date_modified": "2025-05-29T16:49:08.000",
    "request_status": "Pending",
    "responsible_agency": "Department of Sanitation",
    "final_address": "3200 Kabel Dr",
    "address_councildis": "C",
    "status": "Pending",
    "rowid": "1196321",
    "final_x": "3700721.24279",
    "final_y": "519463.747959",
    "longitude": "-90.00781734592223",
    "latitude": "29.921747599046594",
    "geocoded_column": {
      "latitude": "29.921747599046594",
      "longitude": "-90.00781734592223"
    }
  },
  {
    "service_request": "2025-1196320",
    "request_type": "Trash/Recycling",
    "request_reason": "Request a Large Item Pick Up",
    "date_created": "2025-05-29T16:44:57.000",
    "date_modified": "2025-05-29T16:44:59.000",
    "request_status": "Pending",
    "responsible_agency": "Department of Sanitation",
    "final_address": "516 Bouny St",
    "address_councildis": "C",
    "status": "Assigned to Contractor",
    "contractor": "Richards Disposal",
    "rowid": "1196320",
    "final_x": "3686230.85193",
    "final_y": "529650.958849",
    "longitude": "-90.05319796114544",
    "latitude": "29.950211971002595",
    "geocoded_column": {
      "latitude": "29.950211971002595",
      "longitude": "-90.05319796114544"
    }
  },
  {
    "service_request": "2025-1196319",
    "request_type": "Streetlights",
    "request_reason": "Streetlight Outage/Malfunction",
    "date_created": "2025-05-29T16:44:43.000",
    "date_modified": "2025-05-29T16:44:44.000",
    "request_status": "Pending",
    "responsible_agency": "Department of Public Works",
    "final_address": "7600 Ebbtide Dr",
    "address_councildis": "E",
    "status": "Pending",
    "contractor": "Legacy Professional Services",
    "rowid": "1196319",
    "final_x": "3702174.46013",
    "final_y": "561329.484318",
    "longitude": "-90.00169438974616",
    "latitude": "30.036816719711684",
    "geocoded_column": {
      "latitude": "30.036816719711684",
      "longitude": "-90.00169438974616"
    }
  },
  {
    "service_request": "2025-1196318",
    "request_type": "Abandoned Vehicles",
    "request_reason": "Abandoned/Junk Vehicles",
    "date_created": "2025-05-29T16:44:23.000",
    "date_modified": "2025-05-29T16:44:26.000",
    "request_status": "Pending",
    "responsible_agency": "Department of Public Works",
    "final_address": "1735 Urquhart St",
    "address_councildis": "C",
    "status": "Pending",
    "rowid": "1196318",
    "final_x": "3683385.99663",
    "final_y": "536940.908616",
    "longitude": "-90.061925100226",
    "latitude": "29.97034392112823",
    "geocoded_column": {
      "latitude": "29.97034392112823",
      "longitude": "-90.061925100226"
    }
  },
  {
    "service_request": "2025-1196317",
    "request_type": "Taxi Issues",
    "request_reason": "Taxi Complaint",
    "date_created": "2025-05-29T16:39:07.000",
    "date_modified": "2025-05-29T16:39:09.000",
    "request_status": "Pending",
    "responsible_agency": "Department of Public Works",
    "final_address": "100 Convention Center Blvd",
    "address_councildis": "B",
    "status": "Pending",
    "rowid": "1196317",
    "final_x": "3682859.80194",
    "final_y": "529373.321089",
    "longitude": "-90.06385166001269",
    "latitude": "29.949551686794337",
    "geocoded_column": {
      "latitude": "29.949551686794337",
      "longitude": "-90.06385166001269"
    }
  },
  {
    "service_request": "2025-1196316",
    "request_type": "Trash/Recycling",
    "request_reason": "Repair Trash Cart",
    "date_created": "2025-05-29T16:39:06.000",
    "date_modified": "2025-05-29T16:39:08.000",
    "request_status": "Pending",
    "responsible_agency": "Department of Sanitation",
    "final_address": "2139 Forstall St",
    "address_councildis": "E",
    "status": "Assigned to Contractor",
    "contractor": "Waste Pro",
    "rowid": "1196316",
    "final_x": "3697416.03031",
    "final_y": "538229.406665",
    "longitude": "-90.01757023588158",
    "latitude": "29.973451316376135",
    "geocoded_column": {
      "latitude": "29.973451316376135",
      "longitude": "-90.01757023588158"
    }
  },
  {
    "service_request": "2025-1196315",
    "request_type": "Trash/Recycling",
    "request_reason": "Request a Large Item Pick Up",
    "date_created": "2025-05-29T16:38:15.000",
    "date_modified": "2025-05-29T16:38:17.000",
    "request_status": "Pending",
    "responsible_agency": "Department of Sanitation",
    "final_address": "7412 Spring Lake Dr",
    "address_councildis": "E",
    "status": "Assigned to Contractor",
    "contractor": "Waste Pro",
    "rowid": "1196315",
    "final_x": "3700896.40778",
    "final_y": "559004.543964",
    "longitude": "-90.00581840503236",
    "latitude": "30.030464814328667",
    "geocoded_column": {
      "latitude": "30.030464814328667",
      "longitude": "-90.00581840503236"
    }
  },
  {
    "service_request": "2025-1196314",
    "request_type": "Trash/Recycling",
    "request_reason": "Order Trash Cart",
    "date_created": "2025-05-29T16:36:45.000",
    "date_modified": "2025-05-29T16:36:47.000",
    "request_status": "Pending",
    "responsible_agency": "Department of Sanitation",
    "final_address": "2139 Forstall St",
    "address_councildis": "E",
    "status": "Assigned to Contractor",
    "contractor": "Waste Pro",
    "rowid": "1196314",
    "final_x": "3697416.03031",
    "final_y": "538229.406665",
    "longitude": "-90.01757023588158",
    "latitude": "29.973451316376135",
    "geocoded_column": {
      "latitude": "29.973451316376135",
      "longitude": "-90.01757023588158"
    }
  },
  {
    "service_request": "2025-1196313",
    "request_type": "Trash/Recycling",
    "request_reason": "Repair Trash Cart",
    "date_created": "2025-05-29T16:30:56.000",
    "date_modified": "2025-05-29T16:30:58.000",
    "request_status": "Pending",
    "responsible_agency": "Department of Sanitation",
    "final_address": "4219 Baronne St",
    "address_councildis": "B",
    "status": "Assigned to Contractor",
    "contractor": "IV Waste",
    "rowid": "1196313",
    "final_x": "3671342.18395",
    "final_y": "521697.394681",
    "longitude": "-90.10047884001018",
    "latitude": "29.92879122424502",
    "geocoded_column": {
      "latitude": "29.92879122424502",
      "longitude": "-90.10047884001018"
    }
  },
  {
    "service_request": "2025-1196312",
    "request_type": "Streetlights",
    "request_reason": "Streetlight Outage/Malfunction",
    "date_created": "2025-05-29T16:26:43.000",
    "date_modified": "2025-05-29T16:28:23.000",
    "request_status": "Pending",
    "responsible_agency": "Department of Public Works",
    "final_address": "7809 Woodbine Dr",
    "address_councildis": "E",
    "status": "Pending",
    "contractor": "Legacy Professional Services",
    "rowid": "1196312",
    "final_x": "3701849.49853",
    "final_y": "561892.950623",
    "longitude": "-90.00270065261904",
    "latitude": "30.038376411868388",
    "geocoded_column": {
      "latitude": "30.038376411868388",
      "longitude": "-90.00270065261904"
    }
  },
  {
    "service_request": "2025-1196311",
    "request_type": "Trash/Recycling",
    "request_reason": "Request a Large Item Pick Up",
    "date_created": "2025-05-29T16:26:41.000",
    "date_modified": "2025-05-29T16:26:43.000",
    "request_status": "Pending",
    "responsible_agency": "Department of Sanitation",
    "final_address": "2113 Forstall St",
    "address_councildis": "E",
    "status": "Assigned to Contractor",
    "contractor": "Waste Pro",
    "rowid": "1196311",
    "final_x": "3697376.07978",
    "final_y": "538043.400137",
    "longitude": "-90.01770315219639",
    "latitude": "29.972941126644542",
    "geocoded_column": {
      "latitude": "29.972941126644542",
      "longitude": "-90.01770315219639"
    }
  },
  {
    "service_request": "2025-1196310",
    "request_type": "Safety & Permits",
    "request_reason": "Licenses & Permits",
    "date_created": "2025-05-29T16:24:18.000",
    "date_modified": "2025-05-29T16:24:19.000",
    "request_status": "Pending",
    "responsible_agency": "Safety and Permits",
    "final_address": "1132 Carondelet St",
    "address_councildis": "B",
    "status": "Pending",
    "rowid": "1196310",
    "final_x": "3679418.5005",
    "final_y": "526676.783806",
    "longitude": "-90.074810917695",
    "latitude": "29.942241495135715",
    "geocoded_column": {
      "latitude": "29.942241495135715",
      "longitude": "-90.074810917695"
    }
  },
  {
    "service_request": "2025-1196309",
    "request_type": "Trash/Recycling",
    "request_reason": "Order Recycling Cart",
    "date_created": "2025-05-29T16:19:59.000",
    "date_modified": "2025-05-29T16:20:00.000",
    "request_status": "Pending",
    "responsible_agency": "Department of Sanitation",
    "final_address": "2109 Burgundy St",
    "address_councildis": "C",
    "status": "Pending",
    "rowid": "1196309",
    "final_x": "3684714.47253",
    "final_y": "535591.623238",
    "longitude": "-90.05777707031241",
    "latitude": "29.96659325590297",
    "geocoded_column": {
      "latitude": "29.96659325590297",
      "longitude": "-90.05777707031241"
    }
  },
  {
    "service_request": "2025-1196308",
    "request_type": "Drainage",
    "request_reason": "Street Flooding",
    "date_created": "2025-05-29T16:19:56.000",
    "date_modified": "2025-05-29T16:19:59.000",
    "request_status": "Pending",
    "responsible_agency": "Sewerage & Water Board",
    "final_address": "3500 Rue Delphine",
    "address_councildis": "C",
    "status": "Pending",
    "rowid": "1196308",
    "final_x": "3703102.21092",
    "final_y": "517846.93759",
    "longitude": "-90.00036107393338",
    "latitude": "29.917225977920406",
    "geocoded_column": {
      "latitude": "29.917225977920406",
      "longitude": "-90.00036107393338"
    }
  },
  {
    "service_request": "2025-1196307",
    "request_type": "Mosquito, Termite & Rodent Control",
    "request_reason": "Mosquito Complaint",
    "date_created": "2025-05-29T16:19:29.000",
    "date_modified": "2025-05-29T16:19:32.000",
    "request_status": "Pending",
    "responsible_agency": "Mosquito, Termite & Rodent Control Board",
    "final_address": "7710 Sandpiper Dr",
    "address_councildis": "E",
    "status": "Pending",
    "rowid": "1196307",
    "final_x": "3715649.61816",
    "final_y": "569931.468838",
    "longitude": "-89.958784384936",
    "latitude": "30.06003118679438",
    "geocoded_column": {
      "latitude": "30.06003118679438",
      "longitude": "-89.958784384936"
    }
  },
  {
    "service_request": "2025-1196306",
    "request_type": "Abandoned Vehicles",
    "request_reason": "Abandoned/Junk Vehicles",
    "date_created": "2025-05-29T16:19:12.000",
    "date_modified": "2025-05-29T16:19:13.000",
    "request_status": "Pending",
    "responsible_agency": "Department of Public Works",
    "final_address": "3325 Piedmont Dr",
    "address_councildis": "D",
    "status": "Pending",
    "rowid": "1196306",
    "final_x": "3686568.22767",
    "final_y": "545202.549199",
    "longitude": "-90.05158342961923",
    "latitude": "29.992963037996233",
    "geocoded_column": {
      "latitude": "29.992963037996233",
      "longitude": "-90.05158342961923"
    }
  },
  {
    "service_request": "2025-1196305",
    "request_type": "Trash/Recycling",
    "request_reason": "Missed Trash Pick-Up",
    "date_created": "2025-05-29T16:18:42.000",
    "date_modified": "2025-05-29T16:18:44.000",
    "request_status": "Pending",
    "responsible_agency": "Department of Sanitation",
    "final_address": "2113 Forstall St",
    "address_councildis": "E",
    "status": "Assigned to Contractor",
    "contractor": "Waste Pro",
    "rowid": "1196305",
    "final_x": "3697376.07978",
    "final_y": "538043.400137",
    "longitude": "-90.01770315219639",
    "latitude": "29.972941126644542",
    "geocoded_column": {
      "latitude": "29.972941126644542",
      "longitude": "-90.01770315219639"
    }
  },
  {
    "service_request": "2025-1196304",
    "request_type": "Property Maintenance",
    "request_reason": "Property Maintenance",
    "date_created": "2025-05-29T16:13:56.000",
    "date_modified": "2025-05-29T16:13:58.000",
    "request_status": "Pending",
    "responsible_agency": "Department of Code Enforcement",
    "final_address": "2229 Bayou Rd",
    "address_councildis": "D",
    "status": "Pending",
    "rowid": "1196304",
    "final_x": "3679483.49704",
    "final_y": "538091.606473",
    "longitude": "-90.07420968823536",
    "latitude": "29.973626431944076",
    "geocoded_column": {
      "latitude": "29.973626431944076",
      "longitude": "-90.07420968823536"
    }
  },
  {
    "service_request": "2025-1196303",
    "request_type": "Drainage",
    "request_reason": "Catch Basin Clogged",
    "date_created": "2025-05-29T16:13:11.000",
    "date_modified": "2025-05-29T16:13:13.000",
    "request_status": "Pending",
    "responsible_agency": "Sewerage & Water Board",
    "final_address": "1604 Audubon St",
    "address_councildis": "A",
    "status": "Pending",
    "rowid": "1196303",
    "final_x": "3665201.64813",
    "final_y": "527574.810431",
    "longitude": "-90.11966681336528",
    "latitude": "29.945132482317792",
    "geocoded_column": {
      "latitude": "29.945132482317792",
      "longitude": "-90.11966681336528"
    }
  },
  {
    "service_request": "2025-1196302",
    "request_type": "Trash/Recycling",
    "request_reason": "Order Second Trash Cart",
    "date_created": "2025-05-29T16:12:49.000",
    "date_modified": "2025-05-29T16:12:50.000",
    "request_status": "Pending",
    "responsible_agency": "Department of Sanitation",
    "final_address": "5625 Rosemary Pl",
    "address_councildis": "A",
    "status": "Assigned to Contractor",
    "contractor": "IV Waste",
    "rowid": "1196302",
    "final_x": "3667226.07143",
    "final_y": "544895.264335",
    "longitude": "-90.11269249437093",
    "latitude": "29.992698853974655",
    "geocoded_column": {
      "latitude": "29.992698853974655",
      "longitude": "-90.11269249437093"
    }
  },
  {
    "service_request": "2025-1196301",
    "request_type": "Street and Traffic Signs",
    "request_reason": "Street Name Sign Damaged or Missing",
    "date_created": "2025-05-29T16:01:10.000",
    "date_modified": "2025-05-29T16:01:12.000",
    "request_status": "Pending",
    "responsible_agency": "Department of Public Works",
    "final_address": "VERMILLION BLVD & MEXICO ST",
    "address_councildis": "D",
    "status": "Pending",
    "rowid": "1196301",
    "final_x": "3682995.7",
    "final_y": "556108.88",
    "longitude": "-90.0624863122675",
    "latitude": "30.0230609026601",
    "geocoded_column": {
      "latitude": "30.0230609026601",
      "longitude": "-90.0624863122675"
    }
  },
  {
    "service_request": "2025-1196300",
    "request_type": "Trash/Recycling",
    "request_reason": "Change Size of Trash Cart",
    "date_created": "2025-05-29T15:59:37.000",
    "date_modified": "2025-05-29T15:59:39.000",
    "request_status": "Pending",
    "responsible_agency": "Department of Sanitation",
    "final_address": "710 Webster St",
    "address_councildis": "A",
    "status": "Assigned to Contractor",
    "contractor": "IV Waste",
    "rowid": "1196300",
    "final_x": "3664001.82093",
    "final_y": "519216.008119",
    "longitude": "-90.12373365851342",
    "latitude": "29.922183312161255",
    "geocoded_column": {
      "latitude": "29.922183312161255",
      "longitude": "-90.12373365851342"
    }
  },
  {
    "service_request": "2025-1196299",
    "request_type": "Abandoned Vehicles",
    "request_reason": "Abandoned/Junk Vehicles",
    "date_created": "2025-05-29T15:57:18.000",
    "date_modified": "2025-05-29T15:57:20.000",
    "request_status": "Pending",
    "responsible_agency": "Department of Public Works",
    "final_address": "4806 Conti St",
    "address_councildis": "A",
    "status": "Pending",
    "rowid": "1196299",
    "final_x": "3669458.21236",
    "final_y": "541012.964107",
    "longitude": "-90.1057729289794",
    "latitude": "29.981958283637145",
    "geocoded_column": {
      "latitude": "29.981958283637145",
      "longitude": "-90.1057729289794"
    }
  },
  {
    "service_request": "2025-1196298",
    "request_type": "Abandoned Vehicles",
    "request_reason": "Abandoned/Junk Vehicles",
    "date_created": "2025-05-29T15:56:06.000",
    "date_modified": "2025-05-29T15:56:07.000",
    "request_status": "Pending",
    "responsible_agency": "Department of Public Works",
    "final_address": "4806 Conti St",
    "address_councildis": "A",
    "status": "Pending",
    "rowid": "1196298",
    "final_x": "3669458.21236",
    "final_y": "541012.964107",
    "longitude": "-90.1057729289794",
    "latitude": "29.981958283637145",
    "geocoded_column": {
      "latitude": "29.981958283637145",
      "longitude": "-90.1057729289794"
    }
  },
  {
    "service_request": "2025-1196297",
    "request_type": "Trash/Recycling",
    "request_reason": "Request a Large Item Pick Up",
    "date_created": "2025-05-29T15:55:51.000",
    "date_modified": "2025-05-29T15:56:18.000",
    "request_status": "Pending",
    "responsible_agency": "Department of Sanitation",
    "final_address": "6400 Center St",
    "address_councildis": "A",
    "status": "Assigned to Contractor",
    "contractor": "IV Waste",
    "rowid": "1196297",
    "final_x": "3664811.6153",
    "final_y": "550780.586069",
    "longitude": "-90.12012251579594",
    "latitude": "30.00895196827797",
    "geocoded_column": {
      "latitude": "30.00895196827797",
      "longitude": "-90.12012251579594"
    }
  },
  {
    "service_request": "2025-1196296",
    "request_type": "Abandoned Vehicles",
    "request_reason": "Abandoned/Junk Vehicles",
    "date_created": "2025-05-29T15:55:13.000",
    "date_modified": "2025-05-29T15:55:15.000",
    "request_status": "Pending",
    "responsible_agency": "Department of Public Works",
    "final_address": "4806 Conti St",
    "address_councildis": "A",
    "status": "Pending",
    "rowid": "1196296",
    "final_x": "3669458.21236",
    "final_y": "541012.964107",
    "longitude": "-90.1057729289794",
    "latitude": "29.981958283637145",
    "geocoded_column": {
      "latitude": "29.981958283637145",
      "longitude": "-90.1057729289794"
    }
  },
  {
    "service_request": "2025-1196295",
    "request_type": "Trash/Recycling",
    "request_reason": "Request a Large Item Pick Up",
    "date_created": "2025-05-29T15:53:35.000",
    "date_modified": "2025-05-29T15:53:37.000",
    "request_status": "Pending",
    "responsible_agency": "Department of Sanitation",
    "final_address": "7813 Shelly St",
    "address_councildis": "E",
    "status": "Assigned to Contractor",
    "contractor": "Waste Pro",
    "rowid": "1196295",
    "final_x": "3695886.37475",
    "final_y": "559491.168989",
    "longitude": "-90.02163249361384",
    "latitude": "30.031961493954004",
    "geocoded_column": {
      "latitude": "30.031961493954004",
      "longitude": "-90.02163249361384"
    }
  },
  {
    "service_request": "2025-1196294",
    "request_type": "Trash/Recycling",
    "request_reason": "Request a Large Item Pick Up",
    "date_created": "2025-05-29T15:52:46.000",
    "date_modified": "2025-05-29T15:52:47.000",
    "request_status": "Pending",
    "responsible_agency": "Department of Sanitation",
    "final_address": "7430 Hanover Rd",
    "address_councildis": "E",
    "status": "Assigned to Contractor",
    "contractor": "Waste Pro",
    "rowid": "1196294",
    "final_x": "3709377.51537",
    "final_y": "563364.422432",
    "longitude": "-89.97885538422103",
    "latitude": "30.04217984985386",
    "geocoded_column": {
      "latitude": "30.04217984985386",
      "longitude": "-89.97885538422103"
    }
  },
  {
    "service_request": "2025-1196293",
    "request_type": "Trash/Recycling",
    "request_reason": "Request a Large Item Pick Up",
    "date_created": "2025-05-29T15:50:48.000",
    "date_modified": "2025-05-29T15:50:50.000",
    "request_status": "Pending",
    "responsible_agency": "Department of Sanitation",
    "final_address": "5668 General Diaz St",
    "address_councildis": "A",
    "status": "Assigned to Contractor",
    "contractor": "IV Waste",
    "rowid": "1196293",
    "final_x": "3669106.75802",
    "final_y": "545004.936527",
    "longitude": "-90.10674802226166",
    "latitude": "29.992945192653305",
    "geocoded_column": {
      "latitude": "29.992945192653305",
      "longitude": "-90.10674802226166"
    }
  },
  {
    "service_request": "2025-1196292",
    "request_type": "Trash/Recycling",
    "request_reason": "Order Recycling Cart",
    "date_created": "2025-05-29T15:50:21.000",
    "date_modified": "2025-05-29T15:50:22.000",
    "request_status": "Pending",
    "responsible_agency": "Department of Sanitation",
    "final_address": "1109 Terry St",
    "address_councildis": "C",
    "status": "Pending",
    "rowid": "1196292",
    "final_x": "3696950.00125",
    "final_y": "527306.101759",
    "longitude": "-90.01943762138147",
    "latitude": "29.94343079469172",
    "geocoded_column": {
      "latitude": "29.94343079469172",
      "longitude": "-90.01943762138147"
    }
  },
  {
    "service_request": "2025-1196291",
    "request_type": "Trash/Recycling",
    "request_reason": "Repair Trash Cart",
    "date_created": "2025-05-29T15:50:12.000",
    "date_modified": "2025-05-29T15:50:14.000",
    "request_status": "Pending",
    "responsible_agency": "Department of Sanitation",
    "final_address": "3319 Lancaster St",
    "address_councildis": "C",
    "status": "Assigned to Contractor",
    "contractor": "Richards Disposal",
    "rowid": "1196291",
    "final_x": "3709879.17361",
    "final_y": "518474.965814",
    "longitude": "-89.97894684402749",
    "latitude": "29.918734319844418",
    "geocoded_column": {
      "latitude": "29.918734319844418",
      "longitude": "-89.97894684402749"
    }
  },
  {
    "service_request": "2025-1196290",
    "request_type": "Parks & Parkways",
    "request_reason": "Request Tree Service (Right of Way/Public Property)",
    "date_created": "2025-05-29T15:49:26.000",
    "date_modified": "2025-05-29T15:49:29.000",
    "request_status": "Pending",
    "responsible_agency": "Department of Parks & Parkway",
    "final_address": "6900 BLK Marshal Foch St",
    "address_councildis": "A",
    "status": "Pending",
    "rowid": "1196290",
    "final_x": "3670405.30482",
    "final_y": "553535.957348",
    "longitude": "-90.10235662634653",
    "latitude": "30.016364230391076",
    "geocoded_column": {
      "latitude": "30.016364230391076",
      "longitude": "-90.10235662634653"
    }
  },
  {
    "service_request": "2025-1196289",
    "request_type": "Abandoned Vehicles",
    "request_reason": "Abandoned/Junk Vehicles",
    "date_created": "2025-05-29T15:48:36.000",
    "date_modified": "2025-05-29T15:51:17.000",
    "request_status": "Pending",
    "responsible_agency": "Department of Public Works",
    "final_address": "CAMBRONNE ST & FRERET ST",
    "address_councildis": "A",
    "status": "Pending",
    "rowid": "1196289",
    "final_x": "3660695.1",
    "final_y": "528577.08",
    "longitude": "-90.13386234385776",
    "latitude": "29.948018884975912",
    "geocoded_column": {
      "latitude": "29.948018884975912",
      "longitude": "-90.13386234385776"
    }
  },
  {
    "service_request": "2025-1196288",
    "request_type": "Property Maintenance",
    "request_reason": "Property Maintenance",
    "date_created": "2025-05-29T15:47:50.000",
    "date_modified": "2025-05-29T15:47:52.000",
    "request_status": "Pending",
    "responsible_agency": "Department of Code Enforcement",
    "final_address": "616 Lizardi St",
    "address_councildis": "E",
    "status": "Pending",
    "rowid": "1196288",
    "final_x": "3696020.60842",
    "final_y": "532453.2281",
    "longitude": "-90.0221859869385",
    "latitude": "29.957612863365963",
    "geocoded_column": {
      "latitude": "29.957612863365963",
      "longitude": "-90.0221859869385"
    }
  },
  {
    "service_request": "2025-1196287",
    "request_type": "Health Related Request",
    "request_reason": "Homeless Encampment Complaint",
    "date_created": "2025-05-29T15:46:46.000",
    "date_modified": "2025-05-29T15:46:48.000",
    "request_status": "Pending",
    "responsible_agency": "Health Department",
    "final_address": "CITY PARK AVE & I 10 E & METAIRIE RD",
    "address_councildis": "A",
    "status": "Pending",
    "rowid": "1196287",
    "final_x": "3666908.3",
    "final_y": "540680.08",
    "longitude": "-90.11383798908375",
    "latitude": "29.981117832474713",
    "geocoded_column": {
      "latitude": "29.981117832474713",
      "longitude": "-90.11383798908375"
    }
  },
  {
    "service_request": "2025-1196286",
    "request_type": "Drainage",
    "request_reason": "Catch Basin Clogged",
    "date_created": "2025-05-29T15:44:19.000",
    "date_modified": "2025-05-29T15:44:21.000",
    "request_status": "Pending",
    "responsible_agency": "Sewerage & Water Board",
    "final_address": "5036 Stephen Girard Ave",
    "address_councildis": "D",
    "status": "Pending",
    "rowid": "1196286",
    "final_x": "3692857.75305",
    "final_y": "551124.465365",
    "longitude": "-90.03150346944612",
    "latitude": "30.009051182581985",
    "geocoded_column": {
      "latitude": "30.009051182581985",
      "longitude": "-90.03150346944612"
    }
  },
  {
    "service_request": "2025-1196285",
    "request_type": "Trash/Recycling",
    "request_reason": "Request a Large Item Pick Up",
    "date_created": "2025-05-29T15:43:50.000",
    "date_modified": "2025-05-29T15:43:51.000",
    "request_status": "Pending",
    "responsible_agency": "Department of Sanitation",
    "final_address": "1631 Second St",
    "address_councildis": "B",
    "status": "Assigned to Contractor",
    "contractor": "IV Waste",
    "rowid": "1196285",
    "final_x": "3676552.69006",
    "final_y": "523322.062011",
    "longitude": "-90.08397440548256",
    "latitude": "29.93310334989885",
    "geocoded_column": {
      "latitude": "29.93310334989885",
      "longitude": "-90.08397440548256"
    }
  },
  {
    "service_request": "2025-1196284",
    "request_type": "Roads and Streets",
    "request_reason": "Street Subsidence (Sinking)",
    "date_created": "2025-05-29T15:42:01.000",
    "date_modified": "2025-05-29T15:42:03.000",
    "request_status": "Pending",
    "responsible_agency": "Department of Public Works",
    "final_address": "3285 Elmwood Park Dr",
    "address_councildis": "C",
    "status": "Pending",
    "rowid": "1196284",
    "final_x": "3695268.92234",
    "final_y": "517967.612406",
    "longitude": "-90.0250818256429",
    "latitude": "29.917806034977218",
    "geocoded_column": {
      "latitude": "29.917806034977218",
      "longitude": "-90.0250818256429"
    }
  },
  {
    "service_request": "2025-1196283",
    "request_type": "Trash/Recycling",
    "request_reason": "Request a Large Item Pick Up",
    "date_created": "2025-05-29T15:41:52.000",
    "date_modified": "2025-05-29T15:54:07.000",
    "request_status": "Pending",
    "responsible_agency": "Department of Sanitation",
    "final_address": "1901 Montegut St",
    "address_councildis": "D",
    "status": "Pending",
    "rowid": "1196283",
    "final_x": "3689278.79081",
    "final_y": "539162.113994",
    "longitude": "-90.04323608737957",
    "latitude": "29.97627034909598",
    "geocoded_column": {
      "latitude": "29.97627034909598",
      "longitude": "-90.04323608737957"
    }
  },
  {
    "service_request": "2025-1196282",
    "request_type": "Property Maintenance",
    "request_reason": "Property Maintenance",
    "date_created": "2025-05-29T15:40:18.000",
    "date_modified": "2025-05-29T15:40:20.000",
    "request_status": "Pending",
    "responsible_agency": "Department of Code Enforcement",
    "final_address": "7039 Canal Blvd",
    "address_councildis": "A",
    "status": "Pending",
    "rowid": "1196282",
    "final_x": "3669359.37127",
    "final_y": "554407.178008",
    "longitude": "-90.10563183983915",
    "latitude": "30.01879063314464",
    "geocoded_column": {
      "latitude": "30.01879063314464",
      "longitude": "-90.10563183983915"
    }
  },
  {
    "service_request": "2025-1196281",
    "request_type": "Trash/Recycling",
    "request_reason": "Request a Large Item Pick Up",
    "date_created": "2025-05-29T15:38:38.000",
    "date_modified": "2025-05-29T15:38:39.000",
    "request_status": "Pending",
    "responsible_agency": "Department of Sanitation",
    "final_address": "7721 Alabama St",
    "address_councildis": "D",
    "status": "Assigned to Contractor",
    "contractor": "Waste Pro",
    "rowid": "1196281",
    "final_x": "3694833.8689",
    "final_y": "558921.358492",
    "longitude": "-90.02497902065419",
    "latitude": "30.030427819723226",
    "geocoded_column": {
      "latitude": "30.030427819723226",
      "longitude": "-90.02497902065419"
    }
  },
  {
    "service_request": "2025-1196280",
    "request_type": "Trash/Recycling",
    "request_reason": "MIssed Recycling Pick-Up",
    "date_created": "2025-05-29T15:36:49.000",
    "date_modified": "2025-05-29T15:36:51.000",
    "request_status": "Pending",
    "responsible_agency": "Department of Sanitation",
    "final_address": "5208 Dauphine St",
    "address_councildis": "E",
    "status": "Assigned to Contractor",
    "contractor": "Waste Pro",
    "rowid": "1196280",
    "final_x": "3696293.98999",
    "final_y": "532950.308804",
    "longitude": "-90.0213047597758",
    "latitude": "29.95897105559996",
    "geocoded_column": {
      "latitude": "29.95897105559996",
      "longitude": "-90.0213047597758"
    }
  },
  {
    "service_request": "2025-1196279",
    "request_type": "Drainage",
    "request_reason": "Catch Basin Clogged",
    "date_created": "2025-05-29T15:36:11.000",
    "date_modified": "2025-05-29T15:36:14.000",
    "request_status": "Pending",
    "responsible_agency": "Sewerage & Water Board",
    "final_address": "6462 General Diaz St",
    "address_councildis": "A",
    "status": "Pending",
    "rowid": "1196279",
    "final_x": "3669720.19143",
    "final_y": "550367.993364",
    "longitude": "-90.1046286267855",
    "latitude": "30.00767366577779",
    "geocoded_column": {
      "latitude": "30.00767366577779",
      "longitude": "-90.1046286267855"
    }
  },
  {
    "service_request": "2025-1196278",
    "request_type": "Property Maintenance",
    "request_reason": "Property Maintenance",
    "date_created": "2025-05-29T15:30:49.000",
    "date_modified": "2025-05-29T15:30:51.000",
    "request_status": "Pending",
    "responsible_agency": "Department of Code Enforcement",
    "final_address": "8144 Jeannette St",
    "address_councildis": "A",
    "status": "Pending",
    "rowid": "1196278",
    "final_x": "3662411.95309",
    "final_y": "529333.019457",
    "longitude": "-90.1284164205473",
    "latitude": "29.950047946800662",
    "geocoded_column": {
      "latitude": "29.950047946800662",
      "longitude": "-90.1284164205473"
    }
  },
  {
    "service_request": "2025-1196277",
    "request_type": "Trash/Recycling",
    "request_reason": "Repair Recycling Cart",
    "date_created": "2025-05-29T15:29:53.000",
    "date_modified": "2025-05-29T15:29:55.000",
    "request_status": "Pending",
    "responsible_agency": "Department of Sanitation",
    "final_address": "239 Nashville Ave",
    "address_councildis": "A",
    "status": "Pending",
    "rowid": "1196277",
    "final_x": "3665188.96589",
    "final_y": "517213.568757",
    "longitude": "-90.12005324650185",
    "latitude": "29.916642717122908",
    "geocoded_column": {
      "latitude": "29.916642717122908",
      "longitude": "-90.12005324650185"
    }
  },
  {
    "service_request": "2025-1196276",
    "request_type": "Trash/Recycling",
    "request_reason": "Request a Large Item Pick Up",
    "date_created": "2025-05-29T15:29:36.000",
    "date_modified": "2025-05-29T15:29:46.000",
    "request_status": "Pending",
    "responsible_agency": "Department of Sanitation",
    "final_address": "3113 Constance St",
    "address_councildis": "B",
    "status": "Assigned to Contractor",
    "contractor": "IV Waste",
    "rowid": "1196276",
    "final_x": "3676188.91009",
    "final_y": "519861.366776",
    "longitude": "-90.08524183608371",
    "latitude": "29.923598462699143",
    "geocoded_column": {
      "latitude": "29.923598462699143",
      "longitude": "-90.08524183608371"
    }
  },
  {
    "service_request": "2025-1196275",
    "request_type": "Trash/Recycling",
    "request_reason": "Repair Trash Cart",
    "date_created": "2025-05-29T15:29:01.000",
    "date_modified": "2025-05-29T15:29:10.000",
    "request_status": "Pending",
    "responsible_agency": "Department of Sanitation",
    "final_address": "239 Nashville Ave",
    "address_councildis": "A",
    "status": "Assigned to Contractor",
    "contractor": "IV Waste",
    "rowid": "1196275",
    "final_x": "3665188.96589",
    "final_y": "517213.568757",
    "longitude": "-90.12005324650185",
    "latitude": "29.916642717122908",
    "geocoded_column": {
      "latitude": "29.916642717122908",
      "longitude": "-90.12005324650185"
    }
  },
  {
    "service_request": "2025-1196274",
    "request_type": "Alley Ways",
    "request_reason": "Alley Way Regrading",
    "date_created": "2025-05-29T15:28:21.000",
    "date_modified": "2025-05-29T15:28:22.000",
    "request_status": "Pending",
    "responsible_agency": "Department of Public Works",
    "final_address": "6325 Catina St",
    "address_councildis": "A",
    "status": "Pending",
    "rowid": "1196274",
    "final_x": "3666978.08033",
    "final_y": "549679.709012",
    "longitude": "-90.11331493998712",
    "latitude": "30.00586168917232",
    "geocoded_column": {
      "latitude": "30.00586168917232",
      "longitude": "-90.11331493998712"
    }
  },
  {
    "service_request": "2025-1196273",
    "request_type": "Drainage",
    "request_reason": "Drainage Manhole Cover Missing or Damaged",
    "date_created": "2025-05-29T15:24:20.000",
    "date_modified": "2025-05-29T15:24:22.000",
    "request_status": "Pending",
    "responsible_agency": "Sewerage & Water Board",
    "final_address": "5030 Constance St Apt 4",
    "address_councildis": "B",
    "status": "Pending",
    "rowid": "1196273",
    "final_x": "3668396.3769",
    "final_y": "518134.337718",
    "longitude": "-90.10989827498098",
    "latitude": "29.919080768334073",
    "geocoded_column": {
      "latitude": "29.919080768334073",
      "longitude": "-90.10989827498098"
    }
  },
  {
    "service_request": "2025-1196272",
    "request_type": "Trash/Recycling",
    "request_reason": "Illegal Dumping",
    "date_created": "2025-05-29T15:22:43.000",
    "date_modified": "2025-05-29T15:22:44.000",
    "request_status": "Pending",
    "responsible_agency": "Department of Sanitation",
    "final_address": "1812 Nunez St",
    "address_councildis": "C",
    "status": "Pending",
    "rowid": "1196272",
    "final_x": "3687277.08137",
    "final_y": "524748.742204",
    "longitude": "-90.05006787841484",
    "latitude": "29.936700358130203",
    "geocoded_column": {
      "latitude": "29.936700358130203",
      "longitude": "-90.05006787841484"
    }
  },
  {
    "service_request": "2025-1196271",
    "request_type": "Trash/Recycling",
    "request_reason": "Request a Large Item Pick Up",
    "date_created": "2025-05-29T15:22:01.000",
    "date_modified": "2025-05-29T15:22:04.000",
    "request_status": "Pending",
    "responsible_agency": "Department of Sanitation",
    "final_address": "1139 Terry St",
    "address_councildis": "C",
    "status": "Assigned to Contractor",
    "contractor": "Richards Disposal",
    "rowid": "1196271",
    "final_x": "3696941.0216",
    "final_y": "527091.059967",
    "longitude": "-90.01947375727",
    "latitude": "29.942839787627104",
    "geocoded_column": {
      "latitude": "29.942839787627104",
      "longitude": "-90.01947375727"
    }
  },
  {
    "service_request": "2025-1196270",
    "request_type": "Trash/Recycling",
    "request_reason": "Request a Large Item Pick Up",
    "date_created": "2025-05-29T15:21:57.000",
    "date_modified": "2025-05-29T15:21:59.000",
    "request_status": "Pending",
    "responsible_agency": "Department of Sanitation",
    "final_address": "1332 Lesseps St",
    "address_councildis": "D",
    "status": "Assigned to Contractor",
    "contractor": "IV Waste",
    "rowid": "1196270",
    "final_x": "3692912.72137",
    "final_y": "536085.893447",
    "longitude": "-90.03186945373436",
    "latitude": "29.967698834795762",
    "geocoded_column": {
      "latitude": "29.967698834795762",
      "longitude": "-90.03186945373436"
    }
  },
  {
    "service_request": "2025-1196269",
    "request_type": "Trash/Recycling",
    "request_reason": "Request a Large Item Pick Up",
    "date_created": "2025-05-29T15:14:25.000",
    "date_modified": "2025-05-29T15:14:26.000",
    "request_status": "Pending",
    "responsible_agency": "Department of Sanitation",
    "final_address": "6001 Curran Rd",
    "address_councildis": "E",
    "status": "Assigned to Contractor",
    "contractor": "Waste Pro",
    "rowid": "1196269",
    "final_x": "3695208.17866",
    "final_y": "558877.741468",
    "longitude": "-90.023797778141",
    "latitude": "30.03029613239927",
    "geocoded_column": {
      "latitude": "30.03029613239927",
      "longitude": "-90.023797778141"
    }
  },
  {
    "service_request": "2025-1196268",
    "request_type": "Drainage",
    "request_reason": "Street Flooding",
    "date_created": "2025-05-29T15:12:48.000",
    "date_modified": "2025-05-29T15:12:50.000",
    "request_status": "Pending",
    "responsible_agency": "Sewerage & Water Board",
    "final_address": "5818 Bellaire Dr",
    "address_councildis": "A",
    "status": "Pending",
    "rowid": "1196268",
    "final_x": "3664151.4578",
    "final_y": "546814.317905",
    "longitude": "-90.1223406147744",
    "latitude": "29.998065298917243",
    "geocoded_column": {
      "latitude": "29.998065298917243",
      "longitude": "-90.1223406147744"
    }
  },
  {
    "service_request": "2025-1196267",
    "request_type": "Parks & Parkways",
    "request_reason": "Request Tree Service (Right of Way/Public Property)",
    "date_created": "2025-05-29T15:12:25.000",
    "date_modified": "2025-05-29T15:12:27.000",
    "request_status": "Pending",
    "responsible_agency": "Department of Parks & Parkway",
    "final_address": "501 S Cortez St",
    "address_councildis": "B",
    "status": "Pending",
    "rowid": "1196267",
    "final_x": "3671042.87502",
    "final_y": "536310.541127",
    "longitude": "-90.10092754119889",
    "latitude": "29.96898143561401",
    "geocoded_column": {
      "latitude": "29.96898143561401",
      "longitude": "-90.10092754119889"
    }
  },
  {
    "service_request": "2025-1196266",
    "request_type": "Drainage",
    "request_reason": "Street Flooding",
    "date_created": "2025-05-29T15:11:14.000",
    "date_modified": "2025-05-29T15:11:16.000",
    "request_status": "Pending",
    "responsible_agency": "Sewerage & Water Board",
    "final_address": "1420 Japonica St",
    "address_councildis": "D",
    "status": "Pending",
    "rowid": "1196266",
    "final_x": "3693911.02173",
    "final_y": "536139.230535",
    "longitude": "-90.02871489166051",
    "latitude": "29.967814277194933",
    "geocoded_column": {
      "latitude": "29.967814277194933",
      "longitude": "-90.02871489166051"
    }
  },
  {
    "service_request": "2025-1196265",
    "request_type": "Streetlights",
    "request_reason": "Streetlight Outage/Malfunction",
    "date_created": "2025-05-29T15:10:52.000",
    "date_modified": "2025-05-29T15:10:55.000",
    "request_status": "Pending",
    "responsible_agency": "Department of Public Works",
    "final_address": "307 Filmore Ave",
    "address_councildis": "A",
    "status": "Pending",
    "contractor": "Legacy Professional Services",
    "rowid": "1196265",
    "final_x": "3667622.03047",
    "final_y": "552192.867542",
    "longitude": "-90.11119586019558",
    "latitude": "30.012753128472422",
    "geocoded_column": {
      "latitude": "30.012753128472422",
      "longitude": "-90.11119586019558"
    }
  },
  {
    "service_request": "2025-1196264",
    "request_type": "Trash/Recycling",
    "request_reason": "Replace Recycling Cart",
    "date_created": "2025-05-29T15:06:17.000",
    "date_modified": "2025-05-29T15:06:18.000",
    "request_status": "Pending",
    "responsible_agency": "Department of Sanitation",
    "final_address": "5818 Bellaire Dr",
    "address_councildis": "A",
    "status": "Pending",
    "rowid": "1196264",
    "final_x": "3664151.4578",
    "final_y": "546814.317905",
    "longitude": "-90.1223406147744",
    "latitude": "29.998065298917243",
    "geocoded_column": {
      "latitude": "29.998065298917243",
      "longitude": "-90.1223406147744"
    }
  },
  {
    "service_request": "2025-1196263",
    "request_type": "Safety & Permits",
    "request_reason": "Zoning Enforcement",
    "date_created": "2025-05-29T15:05:24.000",
    "date_modified": "2025-05-29T15:05:26.000",
    "request_status": "Pending",
    "responsible_agency": "Safety and Permits",
    "final_address": "7906 W Laverne St",
    "address_councildis": "D",
    "status": "Pending",
    "rowid": "1196263",
    "final_x": "3694834.35126",
    "final_y": "559435.375837",
    "longitude": "-90.02495894939261",
    "latitude": "30.03184115600653",
    "geocoded_column": {
      "latitude": "30.03184115600653",
      "longitude": "-90.02495894939261"
    }
  },
  {
    "service_request": "2025-1196262",
    "request_type": "Trash/Recycling",
    "request_reason": "Replace Trash Cart",
    "date_created": "2025-05-29T15:04:27.000",
    "date_modified": "2025-05-29T15:04:29.000",
    "request_status": "Pending",
    "responsible_agency": "Department of Sanitation",
    "final_address": "7914 W Laverne St",
    "address_councildis": "D",
    "status": "Assigned to Contractor",
    "contractor": "Waste Pro",
    "rowid": "1196262",
    "final_x": "3694807.52221",
    "final_y": "559508.982301",
    "longitude": "-90.02504107454988",
    "latitude": "30.032044387963634",
    "geocoded_column": {
      "latitude": "30.032044387963634",
      "longitude": "-90.02504107454988"
    }
  },
  {
    "service_request": "2025-1196261",
    "request_type": "Trash/Recycling",
    "request_reason": "Request a Large Item Pick Up",
    "date_created": "2025-05-29T15:03:41.000",
    "date_modified": "2025-05-29T15:03:44.000",
    "request_status": "Pending",
    "responsible_agency": "Department of Sanitation",
    "final_address": "7914 W Laverne St",
    "address_councildis": "D",
    "status": "Assigned to Contractor",
    "contractor": "Waste Pro",
    "rowid": "1196261",
    "final_x": "3694807.52221",
    "final_y": "559508.982301",
    "longitude": "-90.02504107454988",
    "latitude": "30.032044387963634",
    "geocoded_column": {
      "latitude": "30.032044387963634",
      "longitude": "-90.02504107454988"
    }
  },
  {
    "service_request": "2025-1196260",
    "request_type": "Safety & Permits",
    "request_reason": "Zoning Enforcement",
    "date_created": "2025-05-29T15:03:34.000",
    "date_modified": "2025-05-29T15:03:36.000",
    "request_status": "Pending",
    "responsible_agency": "Safety and Permits",
    "final_address": "2324 Toledano St Apt A",
    "address_councildis": "B",
    "status": "Pending",
    "rowid": "1196260",
    "final_x": "3673457.63956",
    "final_y": "524175.890748",
    "longitude": "-90.09371612406682",
    "latitude": "29.93554353125411",
    "geocoded_column": {
      "latitude": "29.93554353125411",
      "longitude": "-90.09371612406682"
    }
  },
  {
    "service_request": "2025-1196259",
    "request_type": "Trash/Recycling",
    "request_reason": "Replace Trash Cart",
    "date_created": "2025-05-29T15:02:58.000",
    "date_modified": "2025-05-29T15:03:00.000",
    "request_status": "Pending",
    "responsible_agency": "Department of Sanitation",
    "final_address": "5818 Bellaire Dr",
    "address_councildis": "A",
    "status": "Assigned to Contractor",
    "contractor": "IV Waste",
    "rowid": "1196259",
    "final_x": "3664151.4578",
    "final_y": "546814.317905",
    "longitude": "-90.1223406147744",
    "latitude": "29.998065298917243",
    "geocoded_column": {
      "latitude": "29.998065298917243",
      "longitude": "-90.1223406147744"
    }
  },
  {
    "service_request": "2025-1196258",
    "request_type": "Trash/Recycling",
    "request_reason": "Replace Recycling Cart",
    "date_created": "2025-05-29T15:01:20.000",
    "date_modified": "2025-05-29T15:01:21.000",
    "request_status": "Pending",
    "responsible_agency": "Department of Sanitation",
    "final_address": "5818 Bellaire Dr",
    "address_councildis": "A",
    "status": "Pending",
    "rowid": "1196258",
    "final_x": "3664151.4578",
    "final_y": "546814.317905",
    "longitude": "-90.1223406147744",
    "latitude": "29.998065298917243",
    "geocoded_column": {
      "latitude": "29.998065298917243",
      "longitude": "-90.1223406147744"
    }
  },
  {
    "service_request": "2025-1196257",
    "request_type": "Trash/Recycling",
    "request_reason": "Replace Trash Cart",
    "date_created": "2025-05-29T14:59:21.000",
    "date_modified": "2025-05-29T14:59:24.000",
    "request_status": "Pending",
    "responsible_agency": "Department of Sanitation",
    "final_address": "2508 Bienville Ave",
    "address_councildis": "B",
    "status": "Assigned to Contractor",
    "contractor": "IV Waste",
    "rowid": "1196257",
    "final_x": "3676491.21934",
    "final_y": "535136.860166",
    "longitude": "-90.08376171354287",
    "latitude": "29.965591957860646",
    "geocoded_column": {
      "latitude": "29.965591957860646",
      "longitude": "-90.08376171354287"
    }
  },
  {
    "service_request": "2025-1196256",
    "request_type": "Drainage",
    "request_reason": "Street Flooding",
    "date_created": "2025-05-29T14:56:28.000",
    "date_modified": "2025-05-29T14:56:30.000",
    "request_status": "Pending",
    "responsible_agency": "Sewerage & Water Board",
    "final_address": "CHEF MENTEUR HWY & DOWNMAN RD & CHEF MENTEUR BRIDGE",
    "address_councildis": "D",
    "status": "Pending",
    "rowid": "1196256",
    "final_x": "3696211.9",
    "final_y": "551507.88",
    "longitude": "-90.02089277553281",
    "latitude": "30.010000220946775",
    "geocoded_column": {
      "latitude": "30.010000220946775",
      "longitude": "-90.02089277553281"
    }
  },
  {
    "service_request": "2025-1196255",
    "request_type": "Property Maintenance",
    "request_reason": "Property Maintenance",
    "date_created": "2025-05-29T14:55:25.000",
    "date_modified": "2025-05-29T14:55:26.000",
    "request_status": "Pending",
    "responsible_agency": "Department of Code Enforcement",
    "final_address": "2309 Baronne St",
    "address_councildis": "B",
    "status": "Pending",
    "rowid": "1196255",
    "final_x": "3676676.82216",
    "final_y": "523960.35142",
    "longitude": "-90.08356055055965",
    "latitude": "29.93485471487099",
    "geocoded_column": {
      "latitude": "29.93485471487099",
      "longitude": "-90.08356055055965"
    }
  },
  {
    "service_request": "2025-1196254",
    "request_type": "Parks & Parkways",
    "request_reason": "Request Tree Service (Right of Way/Public Property)",
    "date_created": "2025-05-29T14:54:40.000",
    "date_modified": "2025-05-29T14:54:41.000",
    "request_status": "Pending",
    "responsible_agency": "Department of Parks & Parkway",
    "final_address": "1318 Burbank Dr",
    "address_councildis": "D",
    "status": "Pending",
    "rowid": "1196254",
    "final_x": "3677100.26664",
    "final_y": "554159.006744",
    "longitude": "-90.0811819200486",
    "latitude": "30.017877927302543",
    "geocoded_column": {
      "latitude": "30.017877927302543",
      "longitude": "-90.0811819200486"
    }
  },
  {
    "service_request": "2025-1196253",
    "request_type": "Trash/Recycling",
    "request_reason": "Request a Large Item Pick Up",
    "date_created": "2025-05-29T14:52:36.000",
    "date_modified": "2025-05-29T14:52:38.000",
    "request_status": "Pending",
    "responsible_agency": "Department of Sanitation",
    "final_address": "1016 First St",
    "address_councildis": "B",
    "status": "Assigned to Contractor",
    "contractor": "IV Waste",
    "rowid": "1196253",
    "final_x": "3678158.71381",
    "final_y": "521296.637881",
    "longitude": "-90.07897429372254",
    "latitude": "29.927485847998724",
    "geocoded_column": {
      "latitude": "29.927485847998724",
      "longitude": "-90.07897429372254"
    }
  },
  {
    "service_request": "2025-1196252",
    "request_type": "Drainage",
    "request_reason": "Catch Basin Clogged",
    "date_created": "2025-05-29T14:51:55.000",
    "date_modified": "2025-05-29T14:51:56.000",
    "request_status": "Pending",
    "responsible_agency": "Sewerage & Water Board",
    "final_address": "851 Harrison Ave",
    "address_councildis": "A",
    "status": "Pending",
    "rowid": "1196252",
    "final_x": "3669786.86702",
    "final_y": "549319.015827",
    "longitude": "-90.10445352052868",
    "latitude": "30.004787378537902",
    "geocoded_column": {
      "latitude": "30.004787378537902",
      "longitude": "-90.10445352052868"
    }
  },
  {
    "service_request": "2025-1196251",
    "request_type": "Trash/Recycling",
    "request_reason": "Repair Trash Cart",
    "date_created": "2025-05-29T14:51:21.000",
    "date_modified": "2025-05-29T14:51:23.000",
    "request_status": "Pending",
    "responsible_agency": "Department of Sanitation",
    "final_address": "2524 Milan St",
    "address_councildis": "B",
    "status": "Assigned to Contractor",
    "contractor": "IV Waste",
    "rowid": "1196251",
    "final_x": "3671216.05255",
    "final_y": "524332.710012",
    "longitude": "-90.10078752530576",
    "latitude": "29.936041223880583",
    "geocoded_column": {
      "latitude": "29.936041223880583",
      "longitude": "-90.10078752530576"
    }
  },
  {
    "service_request": "2025-1196250",
    "request_type": "Drainage",
    "request_reason": "Catch Basin Clogged",
    "date_created": "2025-05-29T14:51:17.000",
    "date_modified": "2025-05-29T14:51:19.000",
    "request_status": "Pending",
    "responsible_agency": "Sewerage & Water Board",
    "final_address": "851 Harrison Ave",
    "address_councildis": "A",
    "status": "Pending",
    "rowid": "1196250",
    "final_x": "3669786.86702",
    "final_y": "549319.015827",
    "longitude": "-90.10445352052868",
    "latitude": "30.004787378537902",
    "geocoded_column": {
      "latitude": "30.004787378537902",
      "longitude": "-90.10445352052868"
    }
  },
  {
    "service_request": "2025-1196249",
    "request_type": "Street and Traffic Signs",
    "request_reason": "Additional Signage Request",
    "date_created": "2025-05-29T14:50:06.000",
    "date_modified": "2025-05-29T14:50:08.000",
    "request_status": "Pending",
    "responsible_agency": "Department of Public Works",
    "final_address": "LEAKE AVE & CONSTANCE ST",
    "address_councildis": "A",
    "status": "Pending",
    "rowid": "1196249",
    "final_x": "3660861.1",
    "final_y": "520819.78",
    "longitude": "-90.13359466277736",
    "latitude": "29.926683977975447",
    "geocoded_column": {
      "latitude": "29.926683977975447",
      "longitude": "-90.13359466277736"
    }
  },
  {
    "service_request": "2025-1196248",
    "request_type": "Trash/Recycling",
    "request_reason": "Order Second Trash Cart",
    "date_created": "2025-05-29T14:49:34.000",
    "date_modified": "2025-05-29T14:51:18.000",
    "request_status": "Pending",
    "responsible_agency": "Department of Sanitation",
    "final_address": "6735 Lake Willow Dr",
    "address_councildis": "E",
    "status": "Assigned to Contractor",
    "contractor": "Waste Pro",
    "rowid": "1196248",
    "final_x": "3703831.60542",
    "final_y": "559470.678621",
    "longitude": "-89.99652602655435",
    "latitude": "30.031652673229978",
    "geocoded_column": {
      "latitude": "30.031652673229978",
      "longitude": "-89.99652602655435"
    }
  },
  {
    "service_request": "2025-1196247",
    "request_type": "Abandoned Vehicles",
    "request_reason": "Abandoned/Junk Vehicles",
    "date_created": "2025-05-29T14:49:26.000",
    "date_modified": "2025-05-29T14:49:29.000",
    "request_status": "Pending",
    "responsible_agency": "Department of Public Works",
    "final_address": "1534 France St",
    "address_councildis": "D",
    "status": "Pending",
    "rowid": "1196247",
    "final_x": "3692791.90147",
    "final_y": "536941.367496",
    "longitude": "-90.03222032753692",
    "latitude": "29.970054858478235",
    "geocoded_column": {
      "latitude": "29.970054858478235",
      "longitude": "-90.03222032753692"
    }
  },
  {
    "service_request": "2025-1196246",
    "request_type": "Drainage",
    "request_reason": "Catch Basin Clogged",
    "date_created": "2025-05-29T14:47:28.000",
    "date_modified": "2025-05-29T14:47:30.000",
    "request_status": "Pending",
    "responsible_agency": "Sewerage & Water Board",
    "final_address": "6300 Argonne Blvd",
    "address_councildis": "A",
    "status": "Pending",
    "rowid": "1196246",
    "final_x": "3670263.31745",
    "final_y": "549349.481619",
    "longitude": "-90.10294728065384",
    "latitude": "30.00485709009762",
    "geocoded_column": {
      "latitude": "30.00485709009762",
      "longitude": "-90.10294728065384"
    }
  },
  {
    "service_request": "2025-1196245",
    "request_type": "Drainage",
    "request_reason": "Catch Basin Clogged",
    "date_created": "2025-05-29T14:46:48.000",
    "date_modified": "2025-05-29T14:46:50.000",
    "request_status": "Pending",
    "responsible_agency": "Sewerage & Water Board",
    "final_address": "6300 Argonne Blvd",
    "address_councildis": "A",
    "status": "Pending",
    "rowid": "1196245",
    "final_x": "3670263.31745",
    "final_y": "549349.481619",
    "longitude": "-90.10294728065384",
    "latitude": "30.00485709009762",
    "geocoded_column": {
      "latitude": "30.00485709009762",
      "longitude": "-90.10294728065384"
    }
  },
  {
    "service_request": "2025-1196244",
    "request_type": "Drainage",
    "request_reason": "Catch Basin Clogged",
    "date_created": "2025-05-29T14:44:47.000",
    "date_modified": "2025-05-29T14:44:49.000",
    "request_status": "Pending",
    "responsible_agency": "Sewerage & Water Board",
    "final_address": "1100 BLK Eagle St",
    "address_councildis": "A",
    "status": "Pending",
    "rowid": "1196244",
    "final_x": "3660086.45801",
    "final_y": "529992.446693",
    "longitude": "-90.13573737551869",
    "latitude": "29.95192819603047",
    "geocoded_column": {
      "latitude": "29.95192819603047",
      "longitude": "-90.13573737551869"
    }
  },
  {
    "service_request": "2025-1196243",
    "request_type": "Trash/Recycling",
    "request_reason": "Request a Large Item Pick Up",
    "date_created": "2025-05-29T14:44:43.000",
    "date_modified": "2025-05-29T14:44:45.000",
    "request_status": "Pending",
    "responsible_agency": "Department of Sanitation",
    "final_address": "622 St Roch Ave",
    "address_councildis": "C",
    "status": "Assigned to Contractor",
    "contractor": "IV Waste",
    "rowid": "1196243",
    "final_x": "3686594.2431",
    "final_y": "534830.460038",
    "longitude": "-90.05186766759324",
    "latitude": "29.964442648989678",
    "geocoded_column": {
      "latitude": "29.964442648989678",
      "longitude": "-90.05186766759324"
    }
  },
  {
    "service_request": "2025-1196242",
    "request_type": "Drainage",
    "request_reason": "Catch Basin Clogged",
    "date_created": "2025-05-29T14:42:58.000",
    "date_modified": "2025-05-29T14:43:00.000",
    "request_status": "Pending",
    "responsible_agency": "Sewerage & Water Board",
    "final_address": "1100 BLK Eagle St",
    "address_councildis": "A",
    "status": "Pending",
    "rowid": "1196242",
    "final_x": "3660086.45801",
    "final_y": "529992.446693",
    "longitude": "-90.13573737551869",
    "latitude": "29.95192819603047",
    "geocoded_column": {
      "latitude": "29.95192819603047",
      "longitude": "-90.13573737551869"
    }
  },
  {
    "service_request": "2025-1196241",
    "request_type": "Drainage",
    "request_reason": "Catch Basin Clogged",
    "date_created": "2025-05-29T14:42:27.000",
    "date_modified": "2025-05-29T14:42:28.000",
    "request_status": "Pending",
    "responsible_agency": "Sewerage & Water Board",
    "final_address": "1100 BLK Eagle St",
    "address_councildis": "A",
    "status": "Pending",
    "rowid": "1196241",
    "final_x": "3660086.45801",
    "final_y": "529992.446693",
    "longitude": "-90.13573737551869",
    "latitude": "29.95192819603047",
    "geocoded_column": {
      "latitude": "29.95192819603047",
      "longitude": "-90.13573737551869"
    }
  },
  {
    "service_request": "2025-1196240",
    "request_type": "Trash/Recycling",
    "request_reason": "Repair Trash Cart",
    "date_created": "2025-05-29T14:38:57.000",
    "date_modified": "2025-05-29T14:39:00.000",
    "request_status": "Pending",
    "responsible_agency": "Department of Sanitation",
    "final_address": "923 Constantinople St",
    "address_councildis": "B",
    "status": "Assigned to Contractor",
    "contractor": "IV Waste",
    "rowid": "1196240",
    "final_x": "3672536.41236",
    "final_y": "519137.427511",
    "longitude": "-90.09679610752718",
    "latitude": "29.921716749837113",
    "geocoded_column": {
      "latitude": "29.921716749837113",
      "longitude": "-90.09679610752718"
    }
  },
  {
    "service_request": "2025-1196239",
    "request_type": "Trash/Recycling",
    "request_reason": "Repair Trash Cart",
    "date_created": "2025-05-29T14:38:37.000",
    "date_modified": "2025-05-29T14:38:39.000",
    "request_status": "Pending",
    "responsible_agency": "Department of Sanitation",
    "final_address": "2657 Bruxelles St",
    "address_councildis": "D",
    "status": "Assigned to Contractor",
    "contractor": "IV Waste",
    "rowid": "1196239",
    "final_x": "3680396.6004",
    "final_y": "542130.176909",
    "longitude": "-90.07118542061652",
    "latitude": "29.98470347637647",
    "geocoded_column": {
      "latitude": "29.98470347637647",
      "longitude": "-90.07118542061652"
    }
  },