[
  {
    "service_request": "2026-1278792",
    "request_type": "Trash/Recycling",
    "request_reason": "Request a Large Item Pick Up",
    "date_created": "2026-05-04T23:47:32.000",
    "date_modified": "2026-05-04T23:47:35.000",
    "request_status": "Pending",
    "responsible_agency": "Department of Sanitation",
    "final_address": "804 Opelousas Ave",
    "address_councildis": "C",
    "status": "Assigned to Contractor",
    "contractor": "Richards Disposal",
    "rowid": "1278792",
    "final_x": "3687888.47369",
    "final_y": "529190.460288",
    "longitude": "-90.04798038997696",
    "latitude": "29.948894732483637",
    "geocoded_column": {
      "latitude": "29.948894732483637",
      "longitude": "-90.04798038997696"
    }
  },
  {
    "service_request": "2026-1278791",
    "request_type": "Trash/Recycling",
    "request_reason": "Order Recycling Cart",
    "date_created": "2026-05-04T22:47:39.000",
    "date_modified": "2026-05-04T22:47:40.000",
    "request_status": "Pending",
    "responsible_agency": "Department of Sanitation",
    "final_address": "1601 Mandeville St",
    "address_councildis": "D",
    "status": "Pending",
    "rowid": "1278791",
    "final_x": "3685659.35785",
    "final_y": "538242.584841",
    "longitude": "-90.05469971763027",
    "latitude": "29.973853520802738",
    "geocoded_column": {
      "latitude": "29.973853520802738",
      "longitude": "-90.05469971763027"
    }
  },
  {
    "service_request": "2026-1278790",
    "request_type": "Health Related Request",
    "request_reason": "Noise Ordinance Complaint",
    "date_created": "2026-05-04T22:43:54.000",
    "date_modified": "2026-05-04T22:43:57.000",
    "request_status": "Pending",
    "responsible_agency": "Health Department",
    "final_address": "800 Bourbon St, New Orleans, Louisiana, 70116",
    "address_councildis": "C",
    "status": "Pending",
    "rowid": "1278790",
    "final_x": "3682553.51528",
    "final_y": "533013.631428",
    "longitude": "-90.06469148499534",
    "latitude": "29.95957063099051",
    "geocoded_column": {
      "latitude": "29.95957063099051",
      "longitude": "-90.06469148499534"
    }
  },
  {
    "service_request": "2026-1278789",
    "request_type": "Trash/Recycling",
    "request_reason": "Replace Trash Cart",
    "date_created": "2026-05-04T22:14:55.000",
    "date_modified": "2026-05-04T22:14:57.000",
    "request_status": "Pending",
    "responsible_agency": "Department of Sanitation",
    "final_address": "1314 Ursulines Ave",
    "address_councildis": "C",
    "status": "Assigned to Contractor",
    "contractor": "IV Waste",
    "rowid": "1278789",
    "final_x": "3681576.56335",
    "final_y": "535032.243974",
    "longitude": "-90.06770606427742",
    "latitude": "29.965150831154816",
    "geocoded_column": {
      "latitude": "29.965150831154816",
      "longitude": "-90.06770606427742"
    }
  },
  {
    "service_request": "2026-1278788",
    "request_type": "Roads and Streets",
    "request_reason": "Pothole",
    "date_created": "2026-05-04T22:11:30.000",
    "date_modified": "2026-05-04T22:11:31.000",
    "request_status": "Pending",
    "responsible_agency": "Department of Public Works",
    "final_address": "811 Behrman Ave",
    "address_councildis": "C",
    "status": "Pending",
    "rowid": "1278788",
    "final_x": "3691411.00809",
    "final_y": "528461.308992",
    "longitude": "-90.03688432059984",
    "latitude": "29.946780696786504",
    "geocoded_column": {
      "latitude": "29.946780696786504",
      "longitude": "-90.03688432059984"
    }
  },
  {
    "service_request": "2026-1278787",
    "request_type": "Trash/Recycling",
    "request_reason": "Request a Large Item Pick Up",
    "date_created": "2026-05-04T22:06:38.000",
    "date_modified": "2026-05-04T22:06:40.000",
    "request_status": "Pending",
    "responsible_agency": "Department of Sanitation",
    "final_address": "10130 Brookfield Dr",
    "address_councildis": "E",
    "status": "Assigned to Contractor",
    "contractor": "Waste Pro",
    "rowid": "1278787",
    "final_x": "3710048.50904",
    "final_y": "562830.161568",
    "longitude": "-89.97675479641984",
    "latitude": "30.040689019917604",
    "geocoded_column": {
      "latitude": "30.040689019917604",
      "longitude": "-89.97675479641984"
    }
  },
  {
    "service_request": "2026-1278786",
    "request_type": "Property Maintenance",
    "request_reason": "Property Maintenance",
    "date_created": "2026-05-04T22:00:31.000",
    "date_modified": "2026-05-04T22:00:32.000",
    "request_status": "Pending",
    "responsible_agency": "Department of Code Enforcement",
    "final_address": "8870 Chef Menteur Hwy",
    "address_councildis": "E",
    "status": "Pending",
    "rowid": "1278786",
    "final_x": "3708341.20548",
    "final_y": "553377.934871",
    "longitude": "-89.98250256578213",
    "latitude": "30.014754571641472",
    "geocoded_column": {
      "latitude": "30.014754571641472",
      "longitude": "-89.98250256578213"
    }
  },
  {
    "service_request": "2026-1278785",
    "request_type": "Mosquito, Termite & Rodent Control",
    "request_reason": "Rodent Complaint (Mice & Rats)",
    "date_created": "2026-05-04T22:00:01.000",
    "date_modified": "2026-05-04T22:00:03.000",
    "request_status": "Pending",
    "responsible_agency": "Mosquito, Termite & Rodent Control Board",
    "final_address": "2525 Pressburg St",
    "address_councildis": "D",
    "status": "Pending",
    "rowid": "1278785",
    "final_x": "3685938.09468",
    "final_y": "554824.423448",
    "longitude": "-90.05323435527293",
    "latitude": "30.01943906243818",
    "geocoded_column": {
      "latitude": "30.01943906243818",
      "longitude": "-90.05323435527293"
    }
  },
  {
    "service_request": "2026-1278784",
    "request_type": "Trash/Recycling",
    "request_reason": "Replace Trash Cart",
    "date_created": "2026-05-04T21:48:27.000",
    "date_modified": "2026-05-04T21:48:29.000",
    "request_status": "Pending",
    "responsible_agency": "Department of Sanitation",
    "final_address": "5771 Norland Ave",
    "address_councildis": "C",
    "status": "Assigned to Contractor",
    "contractor": "Richards Disposal",
    "rowid": "1278784",
    "final_x": "3705010.21931",
    "final_y": "520396.923064",
    "longitude": "-89.99424456579828",
    "latitude": "29.924176384551753",
    "geocoded_column": {
      "latitude": "29.924176384551753",
      "longitude": "-89.99424456579828"
    }
  },
  {
    "service_request": "2026-1278783",
    "request_type": "Roads and Streets",
    "request_reason": "Curb Damage",
    "date_created": "2026-05-04T21:30:40.000",
    "date_modified": "2026-05-04T21:30:41.000",
    "request_status": "Pending",
    "responsible_agency": "Department of Public Works",
    "final_address": "11120 Winchester Park Dr",
    "address_councildis": "E",
    "status": "Pending",
    "rowid": "1278783",
    "final_x": "3715044.51826",
    "final_y": "561186.714142",
    "longitude": "-89.96102810195885",
    "latitude": "30.0360066194624",
    "geocoded_column": {
      "latitude": "30.0360066194624",
      "longitude": "-89.96102810195885"
    }
  },
  {
    "service_request": "2026-1278782",
    "request_type": "Trash/Recycling",
    "request_reason": "Replace Recycling Cart",
    "date_created": "2026-05-04T21:26:25.000",
    "date_modified": "2026-05-04T21:26:28.000",
    "request_status": "Pending",
    "responsible_agency": "Department of Sanitation",
    "final_address": "3812 N Johnson St",
    "address_councildis": "D",
    "status": "Pending",
    "rowid": "1278782",
    "final_x": "3692158.80227",
    "final_y": "538750.781961",
    "longitude": "-90.03415492052876",
    "latitude": "29.975049858106217",
    "geocoded_column": {
      "latitude": "29.975049858106217",
      "longitude": "-90.03415492052876"
    }
  },
  {
    "service_request": "2026-1278781",
    "request_type": "Trash/Recycling",
    "request_reason": "Request a Large Item Pick Up",
    "date_created": "2026-05-04T21:06:04.000",
    "date_modified": "2026-05-04T21:06:06.000",
    "request_status": "Pending",
    "responsible_agency": "Department of Sanitation",
    "final_address": "12541 Carmel Pl",
    "address_councildis": "E",
    "status": "Assigned to Contractor",
    "contractor": "Waste Pro",
    "rowid": "1278781",
    "final_x": "3716413.40312",
    "final_y": "566952.666148",
    "longitude": "-89.95648326765347",
    "latitude": "30.051815492725947",
    "geocoded_column": {
      "latitude": "30.051815492725947",
      "longitude": "-89.95648326765347"
    }
  },
  {
    "service_request": "2026-1278780",
    "request_type": "Trash/Recycling",
    "request_reason": "Replace Trash Cart",
    "date_created": "2026-05-04T20:52:46.000",
    "date_modified": "2026-05-04T20:52:48.000",
    "request_status": "Pending",
    "responsible_agency": "Department of Sanitation",
    "final_address": "528 S Rocheblave St",
    "address_councildis": "B",
    "status": "Assigned to Contractor",
    "contractor": "IV Waste",
    "rowid": "1278780",
    "final_x": "3675055.8987",
    "final_y": "533026.620484",
    "longitude": "-90.08836680911038",
    "latitude": "29.95983247010194",
    "geocoded_column": {
      "latitude": "29.95983247010194",
      "longitude": "-90.08836680911038"
    }
  },
  {
    "service_request": "2026-1278779",
    "request_type": "Trash/Recycling",
    "request_reason": "Request a Large Item Pick Up",
    "date_created": "2026-05-04T20:52:23.000",
    "date_modified": "2026-05-04T20:52:25.000",
    "request_status": "Pending",
    "responsible_agency": "Department of Sanitation",
    "final_address": "7301 Chatelain Dr",
    "address_councildis": "E",
    "status": "Assigned to Contractor",
    "contractor": "Waste Pro",
    "rowid": "1278779",
    "final_x": "3715272.30098",
    "final_y": "567227.589732",
    "longitude": "-89.96007948312568",
    "latitude": "30.052609072070528",
    "geocoded_column": {
      "latitude": "30.052609072070528",
      "longitude": "-89.96007948312568"
    }
  },
  {
    "service_request": "2026-1278778",
    "request_type": "Healthy Homes",
    "request_reason": "Healthy Homes",
    "date_created": "2026-05-04T20:43:18.000",
    "date_modified": "2026-05-04T20:43:20.000",
    "request_status": "Pending",
    "responsible_agency": "Department of Code Enforcement",
    "final_address": "837 Governor Nicholls St",
    "address_councildis": "C",
    "status": "Pending",
    "rowid": "1278778",
    "final_x": "3683144.7334",
    "final_y": "534343.189125",
    "longitude": "-90.06277800310595",
    "latitude": "29.963208447012107",
    "geocoded_column": {
      "latitude": "29.963208447012107",
      "longitude": "-90.06277800310595"
    }
  },
  {
    "service_request": "2026-1278777",
    "request_type": "Trash/Recycling",
    "request_reason": "Replace Recycling Cart",
    "date_created": "2026-05-04T20:26:42.000",
    "date_modified": "2026-05-04T20:26:44.000",
    "request_status": "Pending",
    "responsible_agency": "Department of Sanitation",
    "final_address": "5205 Perlita St",
    "address_councildis": "D",
    "status": "Pending",
    "rowid": "1278777",
    "final_x": "3678638.16123",
    "final_y": "551311.864533",
    "longitude": "-90.07642144321284",
    "latitude": "30.010003013142793",
    "geocoded_column": {
      "latitude": "30.010003013142793",
      "longitude": "-90.07642144321284"
    }
  },
  {
    "service_request": "2026-1278776",
    "request_type": "General Services",
    "request_reason": "General Service Request",
    "date_created": "2026-05-04T20:24:58.000",
    "date_modified": "2026-05-04T20:25:10.000",
    "request_status": "Pending",
    "responsible_agency": "Orleans Parish Communication District",
    "final_address": "8808 Apple St",
    "address_councildis": "A",
    "status": "Pending",
    "rowid": "1278776",
    "final_x": "3663429.66291",
    "final_y": "533808.645445",
    "longitude": "-90.1250540025879",
    "latitude": "29.962324999976925",
    "geocoded_column": {
      "latitude": "29.962324999976925",
      "longitude": "-90.1250540025879"
    }
  },
  {
    "service_request": "2026-1278775",
    "request_type": "Trash/Recycling",
    "request_reason": "Order Trash Cart",
    "date_created": "2026-05-04T20:24:16.000",
    "date_modified": "2026-05-04T20:24:18.000",
    "request_status": "Pending",
    "responsible_agency": "Department of Sanitation",
    "final_address": "5205 Perlita St",
    "address_councildis": "D",
    "status": "Assigned to Contractor",
    "contractor": "IV Waste",
    "rowid": "1278775",
    "final_x": "3678638.16123",
    "final_y": "551311.864533",
    "longitude": "-90.07642144321284",
    "latitude": "30.010003013142793",
    "geocoded_column": {
      "latitude": "30.010003013142793",
      "longitude": "-90.07642144321284"
    }
  },
  {
    "service_request": "2026-1278773",
    "request_type": "Utility Poles",
    "request_reason": "Wires Sagging/Hanging Low",
    "date_created": "2026-05-04T20:21:05.000",
    "date_modified": "2026-05-04T20:21:07.000",
    "request_status": "Pending",
    "responsible_agency": "Utility Company Collective",
    "final_address": "5828 Mandeville St",
    "address_councildis": "D",
    "status": "Pending",
    "rowid": "1278773",
    "final_x": "3684238.69628",
    "final_y": "554543.662488",
    "longitude": "-90.05861374462928",
    "latitude": "30.01871916578631",
    "geocoded_column": {
      "latitude": "30.01871916578631",
      "longitude": "-90.05861374462928"
    }
  },
  {
    "service_request": "2026-1278772",
    "request_type": "Streetlights",
    "request_reason": "Streetlight Outage/Malfunction",
    "date_created": "2026-05-04T20:16:21.000",
    "date_modified": "2026-05-04T20:16:24.000",
    "request_status": "Pending",
    "responsible_agency": "Department of Public Works",
    "final_address": "13055 Biscay St",
    "address_councildis": "E",
    "status": "Pending",
    "rowid": "1278772",
    "final_x": "3724147.46572",
    "final_y": "561695.186591",
    "longitude": "-89.93224182917986",
    "latitude": "30.037101803102285",
    "geocoded_column": {
      "latitude": "30.037101803102285",
      "longitude": "-89.93224182917986"
    }
  },
  {
    "service_request": "2026-1278771",
    "request_type": "Trash/Recycling",
    "request_reason": "Request a Large Item Pick Up",
    "date_created": "2026-05-04T19:46:07.000",
    "date_modified": "2026-05-04T19:46:10.000",
    "request_status": "Pending",
    "responsible_agency": "Department of Sanitation",
    "final_address": "2747 Ramsey Dr",
    "address_councildis": "C",
    "status": "Assigned to Contractor",
    "contractor": "Richards Disposal",
    "rowid": "1278771",
    "final_x": "3703045.57713",
    "final_y": "520594.222136",
    "longitude": "-90.00043896126392",
    "latitude": "29.924781874415988",
    "geocoded_column": {
      "latitude": "29.924781874415988",
      "longitude": "-90.00043896126392"
    }
  },
  {
    "service_request": "2026-1278770",
    "request_type": "Tree Service",
    "request_reason": "Street or Sidewalk Blocked",
    "date_created": "2026-05-04T19:41:48.000",
    "date_modified": "2026-05-04T19:41:50.000",
    "request_status": "Pending",
    "responsible_agency": "Department of Parks & Parkways",
    "final_address": "5101 Spain St",
    "address_councildis": "D",
    "status": "Pending",
    "rowid": "1278770",
    "final_x": "3684956.18709",
    "final_y": "551484.380181",
    "longitude": "-90.05645445135976",
    "latitude": "30.010285292480752",
    "geocoded_column": {
      "latitude": "30.010285292480752",
      "longitude": "-90.05645445135976"
    }
  },
  {
    "service_request": "2026-1278769",
    "request_type": "Trash/Recycling",
    "request_reason": "Request a Large Item Pick Up",
    "date_created": "2026-05-04T19:40:07.000",
    "date_modified": "2026-05-04T19:40:09.000",
    "request_status": "Pending",
    "responsible_agency": "Department of Sanitation",
    "final_address": "10920 Guildford Rd",
    "address_councildis": "E",
    "status": "Assigned to Contractor",
    "contractor": "Waste Pro",
    "rowid": "1278769",
    "final_x": "3711517.40606",
    "final_y": "563941.332385",
    "longitude": "-89.97207091423772",
    "latitude": "30.043696394401042",
    "geocoded_column": {
      "latitude": "30.043696394401042",
      "longitude": "-89.97207091423772"
    }
  },
  {
    "service_request": "2026-1278768",
    "request_type": "Trash/Recycling",
    "request_reason": "Replace Trash Cart",
    "date_created": "2026-05-04T19:40:03.000",
    "date_modified": "2026-05-04T19:40:05.000",
    "request_status": "Pending",
    "responsible_agency": "Department of Sanitation",
    "final_address": "79 Fontainebleau Dr",
    "address_councildis": "A",
    "status": "Assigned to Contractor",
    "contractor": "IV Waste",
    "rowid": "1278768",
    "final_x": "3666828.51988",
    "final_y": "530906.959426",
    "longitude": "-90.11441833685356",
    "latitude": "29.954247327921262",
    "geocoded_column": {
      "latitude": "29.954247327921262",
      "longitude": "-90.11441833685356"
    }
  },
  {
    "service_request": "2026-1278767",
    "request_type": "Trash/Recycling",
    "request_reason": "Repair Trash Cart",
    "date_created": "2026-05-04T19:30:38.000",
    "date_modified": "2026-05-04T19:30:40.000",
    "request_status": "Pending",
    "responsible_agency": "Department of Sanitation",
    "final_address": "3877 Pauger St",
    "address_councildis": "D",
    "status": "Assigned to Contractor",
    "contractor": "IV Waste",
    "rowid": "1278767",
    "final_x": "3683220.25551",
    "final_y": "544956.584399",
    "longitude": "-90.06216769714112",
    "latitude": "29.992389273806253",
    "geocoded_column": {
      "latitude": "29.992389273806253",
      "longitude": "-90.06216769714112"
    }
  },
  {
    "service_request": "2026-1278766",
    "request_type": "Trash/Recycling",
    "request_reason": "Repair Trash Cart",
    "date_created": "2026-05-04T19:16:00.000",
    "date_modified": "2026-05-04T19:16:02.000",
    "request_status": "Pending",
    "responsible_agency": "Department of Sanitation",
    "final_address": "3877 Pauger St",
    "address_councildis": "D",
    "status": "Assigned to Contractor",
    "contractor": "IV Waste",
    "rowid": "1278766",
    "final_x": "3683220.25551",
    "final_y": "544956.584399",
    "longitude": "-90.06216769714112",
    "latitude": "29.992389273806253",
    "geocoded_column": {
      "latitude": "29.992389273806253",
      "longitude": "-90.06216769714112"
    }
  },
  {
    "service_request": "2026-1278765",
    "request_type": "Trash/Recycling",
    "request_reason": "Request a Large Item Pick Up",
    "date_created": "2026-05-04T19:10:04.000",
    "date_modified": "2026-05-04T19:10:06.000",
    "request_status": "Pending",
    "responsible_agency": "Department of Sanitation",
    "final_address": "8013 Lehigh St",
    "address_councildis": "E",
    "status": "Assigned to Contractor",
    "contractor": "Waste Pro",
    "rowid": "1278765",
    "final_x": "3709803.82782",
    "final_y": "566962.542564",
    "longitude": "-89.97737351920539",
    "latitude": "30.052059369494643",
    "geocoded_column": {
      "latitude": "30.052059369494643",
      "longitude": "-89.97737351920539"
    }
  },
  {
    "service_request": "2026-1278764",
    "request_type": "Trash/Recycling",
    "request_reason": "Request a Large Item Pick Up",
    "date_created": "2026-05-04T18:50:57.000",
    "date_modified": "2026-05-04T18:50:59.000",
    "request_status": "Pending",
    "responsible_agency": "Department of Sanitation",
    "final_address": "7210 W Renaissance Ct",
    "address_councildis": "E",
    "status": "Assigned to Contractor",
    "contractor": "Waste Pro",
    "rowid": "1278764",
    "final_x": "3716478.79231",
    "final_y": "567813.865764",
    "longitude": "-89.95624388197362",
    "latitude": "30.05418127707871",
    "geocoded_column": {
      "latitude": "30.05418127707871",
      "longitude": "-89.95624388197362"
    }
  },
  {
    "service_request": "2026-1278763",
    "request_type": "Trash/Recycling",
    "request_reason": "Request a Large Item Pick Up",
    "date_created": "2026-05-04T18:42:50.000",
    "date_modified": "2026-05-04T18:42:51.000",
    "request_status": "Pending",
    "responsible_agency": "Department of Sanitation",
    "final_address": "6970 Connaught Ct",
    "address_councildis": "E",
    "status": "Assigned to Contractor",
    "contractor": "Waste Pro",
    "rowid": "1278763",
    "final_x": "3712706.01682",
    "final_y": "563629.033121",
    "longitude": "-89.96832618694617",
    "latitude": "30.04279881713724",
    "geocoded_column": {
      "latitude": "30.04279881713724",
      "longitude": "-89.96832618694617"
    }
  },
  {
    "service_request": "2026-1278762",
    "request_type": "Trash/Recycling",
    "request_reason": "Request a Large Item Pick Up",
    "date_created": "2026-05-04T18:39:33.000",
    "date_modified": "2026-05-04T18:39:35.000",
    "request_status": "Pending",
    "responsible_agency": "Department of Sanitation",
    "final_address": "339 40Th St",
    "address_councildis": "A",
    "status": "Assigned to Contractor",
    "contractor": "IV Waste",
    "rowid": "1278762",
    "final_x": "3665118.55469",
    "final_y": "553416.291287",
    "longitude": "-90.11906454458766",
    "latitude": "30.016190298539307",
    "geocoded_column": {
      "latitude": "30.016190298539307",
      "longitude": "-90.11906454458766"
    }
  },
  {
    "service_request": "2026-1278761",
    "request_type": "Property Maintenance",
    "request_reason": "Property Maintenance",
    "date_created": "2026-05-04T18:30:35.000",
    "date_modified": "2026-05-04T18:30:36.000",
    "request_status": "Pending",
    "responsible_agency": "Department of Code Enforcement",
    "final_address": "1235 Casa Calvo St",
    "address_councildis": "C",
    "status": "Pending",
    "rowid": "1278761",
    "final_x": "3692022.42173",
    "final_y": "526442.866494",
    "longitude": "-90.03502608208196",
    "latitude": "29.941211637838627",
    "geocoded_column": {
      "latitude": "29.941211637838627",
      "longitude": "-90.03502608208196"
    }
  },
  {
    "service_request": "2026-1278760",
    "request_type": "Trash/Recycling",
    "request_reason": "Request a Large Item Pick Up",
    "date_created": "2026-05-04T18:28:44.000",
    "date_modified": "2026-05-04T18:28:46.000",
    "request_status": "Pending",
    "responsible_agency": "Department of Sanitation",
    "final_address": "925 Washington Ave",
    "address_councildis": "B",
    "status": "Assigned to Contractor",
    "contractor": "IV Waste",
    "rowid": "1278760",
    "final_x": "3677367.10568",
    "final_y": "520428.266104",
    "longitude": "-90.08150315515392",
    "latitude": "29.925121912022405",
    "geocoded_column": {
      "latitude": "29.925121912022405",
      "longitude": "-90.08150315515392"
    }
  },
  {
    "service_request": "2026-1278759",
    "request_type": "Trash/Recycling",
    "request_reason": "Damaged Caused By Contractor",
    "date_created": "2026-05-04T18:01:06.000",
    "date_modified": "2026-05-04T18:01:08.000",
    "request_status": "Pending",
    "responsible_agency": "Department of Sanitation",
    "final_address": "516 S St Patrick St",
    "address_councildis": "A",
    "status": "Assigned to Contractor",
    "contractor": "IV Waste",
    "rowid": "1278759",
    "final_x": "3668128.11866",
    "final_y": "538413.698889",
    "longitude": "-90.1100616589362",
    "latitude": "29.974850294745284",
    "geocoded_column": {
      "latitude": "29.974850294745284",
      "longitude": "-90.1100616589362"
    }
  },
  {
    "service_request": "2026-1278758",
    "request_type": "General Services",
    "request_reason": "General Service Request",
    "date_created": "2026-05-04T17:58:42.000",
    "date_modified": "2026-05-04T17:58:43.000",
    "request_status": "Pending",
    "responsible_agency": "Orleans Parish Communication District",
    "final_address": "New Orleans, Louisiana",
    "status": "Pending",
    "rowid": "1278758",
    "longitude": "0.0",
    "latitude": "0.0",
    "geocoded_column": {
      "latitude": "0.0",
      "longitude": "0.0"
    }
  },
  {
    "service_request": "2026-1278757",
    "request_type": "Trash/Recycling",
    "request_reason": "Request a Large Item Pick Up",
    "date_created": "2026-05-04T17:54:27.000",
    "date_modified": "2026-05-04T17:54:28.000",
    "request_status": "Pending",
    "responsible_agency": "Department of Sanitation",
    "final_address": "3034 Cleveland Ave",
    "address_councildis": "B",
    "status": "Assigned to Contractor",
    "contractor": "IV Waste",
    "rowid": "1278757",
    "final_x": "3673837.22414",
    "final_y": "535677.338119",
    "longitude": "-90.09212444746322",
    "latitude": "29.967157405454756",
    "geocoded_column": {
      "latitude": "29.967157405454756",
      "longitude": "-90.09212444746322"
    }
  },
  {
    "service_request": "2026-1278756",
    "request_type": "Trash/Recycling",
    "request_reason": "Missed Trash Pick-Up",
    "date_created": "2026-05-04T17:38:53.000",
    "date_modified": "2026-05-04T17:51:09.000",
    "case_close_date": "2026-05-04T12:51:08.000",
    "request_status": "Closed",
    "responsible_agency": "Department of Sanitation",
    "final_address": "958 Allen Toussaint Blvd",
    "address_councildis": "A",
    "status": "Invalid Request",
    "contractor": "IV Waste",
    "contractor_action": "Invalid Request",
    "rowid": "1278756",
    "final_x": "3671058.68615",
    "final_y": "554396.458904",
    "longitude": "-90.10026296128747",
    "latitude": "30.018710986796442",
    "geocoded_column": {
      "latitude": "30.018710986796442",
      "longitude": "-90.10026296128747"
    }
  },
  {
    "service_request": "2026-1278755",
    "request_type": "Trash/Recycling",
    "request_reason": "Order Second Trash Cart",
    "date_created": "2026-05-04T17:28:26.000",
    "date_modified": "2026-05-04T17:28:28.000",
    "request_status": "Pending",
    "responsible_agency": "Department of Sanitation",
    "final_address": "2341 Easter Ln",
    "address_councildis": "C",
    "status": "Assigned to Contractor",
    "contractor": "Richards Disposal",
    "rowid": "1278755",
    "final_x": "3699125.772",
    "final_y": "522540.35545",
    "longitude": "-90.01274160779649",
    "latitude": "29.930257866592942",
    "geocoded_column": {
      "latitude": "29.930257866592942",
      "longitude": "-90.01274160779649"
    }
  },
  {
    "service_request": "2026-1278754",
    "request_type": "Trash/Recycling",
    "request_reason": "Order Second Trash Cart",
    "date_created": "2026-05-04T17:14:47.000",
    "date_modified": "2026-05-04T17:14:48.000",
    "request_status": "Pending",
    "responsible_agency": "Department of Sanitation",
    "final_address": "2525 Port St",
    "address_councildis": "D",
    "status": "Assigned to Contractor",
    "contractor": "IV Waste",
    "rowid": "1278754",
    "final_x": "3688857.239",
    "final_y": "541865.950412",
    "longitude": "-90.04447141545054",
    "latitude": "29.983717983297826",
    "geocoded_column": {
      "latitude": "29.983717983297826",
      "longitude": "-90.04447141545054"
    }
  },
  {
    "service_request": "2026-1278753",
    "request_type": "Abandoned Vehicles",
    "request_reason": "Abandoned/Junk Vehicles",
    "date_created": "2026-05-04T17:00:29.000",
    "date_modified": "2026-05-04T17:00:31.000",
    "request_status": "Pending",
    "responsible_agency": "Department of Public Works",
    "final_address": "125 22Nd St",
    "address_councildis": "A",
    "status": "Pending",
    "rowid": "1278753",
    "final_x": "3665955.17972",
    "final_y": "549334.605459",
    "longitude": "-90.11655811307352",
    "latitude": "30.004942681256026",
    "geocoded_column": {
      "latitude": "30.004942681256026",
      "longitude": "-90.11655811307352"
    }
  },
  {
    "service_request": "2026-1278752",
    "request_type": "Roads and Streets",
    "request_reason": "Curb Damage",
    "date_created": "2026-05-04T16:54:51.000",
    "date_modified": "2026-05-04T16:54:53.000",
    "request_status": "Pending",
    "responsible_agency": "Department of Public Works",
    "final_address": "6820 Glengary Rd",
    "address_councildis": "E",
    "status": "Pending",
    "rowid": "1278752",
    "final_x": "3701654.84541",
    "final_y": "557167.620507",
    "longitude": "-90.00348911671107",
    "latitude": "30.025389802067867",
    "geocoded_column": {
      "latitude": "30.025389802067867",
      "longitude": "-90.00348911671107"
    }
  },
  {
    "service_request": "2026-1278751",
    "request_type": "Trash/Recycling",
    "request_reason": "Repair Trash Cart",
    "date_created": "2026-05-04T16:53:32.000",
    "date_modified": "2026-05-04T16:53:35.000",
    "request_status": "Pending",
    "responsible_agency": "Department of Sanitation",
    "final_address": "3029 Baudin St",
    "address_councildis": "B",
    "status": "Assigned to Contractor",
    "contractor": "IV Waste",
    "rowid": "1278751",
    "final_x": "3673206.98881",
    "final_y": "534766.323718",
    "longitude": "-90.09414585356245",
    "latitude": "29.964671178784428",
    "geocoded_column": {
      "latitude": "29.964671178784428",
      "longitude": "-90.09414585356245"
    }
  },
  {
    "service_request": "2026-1278750",
    "request_type": "Utility Poles",
    "request_reason": "Utility Pole Down",
    "date_created": "2026-05-04T16:50:05.000",
    "date_modified": "2026-05-04T16:50:09.000",
    "request_status": "Pending",
    "responsible_agency": "Utility Company Collective",
    "final_address": "4101 Encampment St",
    "address_councildis": "D",
    "status": "Pending",
    "rowid": "1278750",
    "final_x": "3676658.41493",
    "final_y": "547184.990801",
    "longitude": "-90.0828184840847",
    "latitude": "29.99871513865366",
    "geocoded_column": {
      "latitude": "29.99871513865366",
      "longitude": "-90.0828184840847"
    }
  },
  {
    "service_request": "2026-1278749",
    "request_type": "Traffic Signals",
    "request_reason": "Traffic Signal Malfunctioning or Damaged",
    "date_created": "2026-05-04T16:49:16.000",
    "date_modified": "2026-05-04T16:49:18.000",
    "request_status": "Pending",
    "responsible_agency": "Department of Public Works",
    "final_address": "South Carrollton Avenue & Tulane Avenue",
    "address_councildis": "A",
    "status": "Pending",
    "rowid": "1278749",
    "final_x": "3669167.94151",
    "final_y": "536389.961927",
    "longitude": "-90.10684603928063",
    "latitude": "29.96925513215908",
    "geocoded_column": {
      "latitude": "29.96925513215908",
      "longitude": "-90.10684603928063"
    }
  },
  {
    "service_request": "2026-1278748",
    "request_type": "Trash/Recycling",
    "request_reason": "Request a Large Item Pick Up",
    "date_created": "2026-05-04T16:42:50.000",
    "date_modified": "2026-05-04T16:42:51.000",
    "request_status": "Pending",
    "responsible_agency": "Department of Sanitation",
    "final_address": "4934 Good Dr",
    "address_councildis": "E",
    "status": "Assigned to Contractor",
    "contractor": "Waste Pro",
    "rowid": "1278748",
    "final_x": "3714634.02962",
    "final_y": "557636.630427",
    "longitude": "-89.96245953120666",
    "latitude": "30.026258818375474",
    "geocoded_column": {
      "latitude": "30.026258818375474",
      "longitude": "-89.96245953120666"
    }
  },
  {
    "service_request": "2026-1278747",
    "request_type": "Trash/Recycling",
    "request_reason": "Request a Large Item Pick Up",
    "date_created": "2026-05-04T16:41:36.000",
    "date_modified": "2026-05-04T16:41:38.000",
    "request_status": "Pending",
    "responsible_agency": "Department of Sanitation",
    "final_address": "4400 Eastview Dr",
    "address_councildis": "E",
    "status": "Assigned to Contractor",
    "contractor": "Waste Pro",
    "rowid": "1278747",
    "final_x": "3705248.68695",
    "final_y": "553314.793559",
    "longitude": "-89.99227568292481",
    "latitude": "30.014680839896503",
    "geocoded_column": {
      "latitude": "30.014680839896503",
      "longitude": "-89.99227568292481"
    }
  },
  {
    "service_request": "2026-1278746",
    "request_type": "Trash/Recycling",
    "request_reason": "Request a Large Item Pick Up",
    "date_created": "2026-05-04T16:38:39.000",
    "date_modified": "2026-05-04T16:38:41.000",
    "request_status": "Pending",
    "responsible_agency": "Department of Sanitation",
    "final_address": "7507 Jonlee Dr",
    "address_councildis": "E",
    "status": "Assigned to Contractor",
    "contractor": "Waste Pro",
    "rowid": "1278746",
    "final_x": "3717571.89855",
    "final_y": "570011.66551",
    "longitude": "-89.95270517048132",
    "latitude": "30.060188149191926",
    "geocoded_column": {
      "latitude": "30.060188149191926",
      "longitude": "-89.95270517048132"
    }
  },
  {
    "service_request": "2026-1278745",
    "request_type": "Drainage",
    "request_reason": "Catch Basin Not Draining",
    "date_created": "2026-05-04T16:38:13.000",
    "date_modified": "2026-05-04T16:38:15.000",
    "request_status": "Pending",
    "responsible_agency": "Sewerage & Water Board",
    "final_address": "7513 Adventure Ave",
    "address_councildis": "E",
    "status": "Pending",
    "rowid": "1278745",
    "final_x": "3725897.92768",
    "final_y": "570486.275431",
    "longitude": "-89.92636893211555",
    "latitude": "30.0612146541383",
    "geocoded_column": {
      "latitude": "30.0612146541383",
      "longitude": "-89.92636893211555"
    }
  },
  {
    "service_request": "2026-1278744",
    "request_type": "Trash/Recycling",
    "request_reason": "Repair Recycling Cart",
    "date_created": "2026-05-04T16:34:59.000",
    "date_modified": "2026-05-04T16:35:00.000",
    "request_status": "Pending",
    "responsible_agency": "Department of Sanitation",
    "final_address": "0 BLK Blanc Pl",
    "address_councildis": "B",
    "status": "Pending",
    "rowid": "1278744",
    "final_x": "3667951.08401",
    "final_y": "520874.262829",
    "longitude": "-90.11121159835395",
    "latitude": "29.926627762655404",
    "geocoded_column": {
      "latitude": "29.926627762655404",
      "longitude": "-90.11121159835395"
    }
  },
  {
    "service_request": "2026-1278743",
    "request_type": "Property Maintenance",
    "request_reason": "Property Maintenance",
    "date_created": "2026-05-04T16:34:50.000",
    "date_modified": "2026-05-04T16:34:52.000",
    "request_status": "Pending",
    "responsible_agency": "Department of Code Enforcement",
    "final_address": "1457 Josephine St Apt C",
    "address_councildis": "B",
    "status": "Pending",
    "rowid": "1278743",
    "final_x": "3678333.33006",
    "final_y": "523444.908539",
    "longitude": "-90.07834879783184",
    "latitude": "29.93338763234674",
    "geocoded_column": {
      "latitude": "29.93338763234674",
      "longitude": "-90.07834879783184"
    }
  },
  {
    "service_request": "2026-1278742",
    "request_type": "Trash/Recycling",
    "request_reason": "Request a Large Item Pick Up",
    "date_created": "2026-05-04T16:33:00.000",
    "date_modified": "2026-05-04T16:33:02.000",
    "request_status": "Pending",
    "responsible_agency": "Department of Sanitation",
    "final_address": "11967 Curran Rd",
    "address_councildis": "E",
    "status": "Assigned to Contractor",
    "contractor": "Waste Pro",
    "rowid": "1278742",
    "final_x": "3713267.19346",
    "final_y": "568050.824421",
    "longitude": "-89.96638594870365",
    "latitude": "30.054938553469995",
    "geocoded_column": {
      "latitude": "30.054938553469995",
      "longitude": "-89.96638594870365"
    }
  },
  {
    "service_request": "2026-1278741",
    "request_type": "Tree Service",
    "request_reason": "Tree Trim",
    "date_created": "2026-05-04T16:31:37.000",
    "date_modified": "2026-05-04T16:31:40.000",
    "request_status": "Pending",
    "responsible_agency": "Department of Parks & Parkways",
    "final_address": "2256 N Villere St",
    "address_councildis": "C",
    "status": "Pending",
    "rowid": "1278741",
    "final_x": "3685495.44329",
    "final_y": "537411.267592",
    "longitude": "-90.0552466800184",
    "latitude": "29.971572717033855",
    "geocoded_column": {
      "latitude": "29.971572717033855",
      "longitude": "-90.0552466800184"
    }
  },
  {
    "service_request": "2026-1278740",
    "request_type": "Trash/Recycling",
    "request_reason": "Repair Recycling Cart",
    "date_created": "2026-05-04T16:29:28.000",
    "date_modified": "2026-05-04T16:29:29.000",
    "request_status": "Pending",
    "responsible_agency": "Department of Sanitation",
    "final_address": "628 Eighth St",
    "address_councildis": "B",
    "status": "Pending",
    "rowid": "1278740",
    "final_x": "3676955.0228",
    "final_y": "518877.905847",
    "longitude": "-90.08285737845986",
    "latitude": "29.920871295151446",
    "geocoded_column": {
      "latitude": "29.920871295151446",
      "longitude": "-90.08285737845986"
    }
  },
  {
    "service_request": "2026-1278739",
    "request_type": "Trash/Recycling",
    "request_reason": "Request a Large Item Pick Up",
    "date_created": "2026-05-04T16:28:29.000",
    "date_modified": "2026-05-04T16:28:48.000",
    "request_status": "Pending",
    "responsible_agency": "Department of Sanitation",
    "final_address": "4890 Cerise Ave",
    "address_councildis": "E",
    "status": "Assigned to Contractor",
    "contractor": "Waste Pro",
    "rowid": "1278739",
    "final_x": "3708434.4275",
    "final_y": "556714.639962",
    "longitude": "-89.98208370987345",
    "latitude": "30.02392619186717",
    "geocoded_column": {
      "latitude": "30.02392619186717",
      "longitude": "-89.98208370987345"
    }
  },
  {
    "service_request": "2026-1278738",
    "request_type": "Trash/Recycling",
    "request_reason": "Request a Large Item Pick Up",
    "date_created": "2026-05-04T16:27:22.000",
    "date_modified": "2026-05-04T16:27:23.000",
    "request_status": "Pending",
    "responsible_agency": "Department of Sanitation",
    "final_address": "1466 Prentiss Ave",
    "address_councildis": "D",
    "status": "Assigned to Contractor",
    "contractor": "IV Waste",
    "rowid": "1278738",
    "final_x": "3678369.09806",
    "final_y": "553277.296535",
    "longitude": "-90.07720344035107",
    "latitude": "30.01541535670813",
    "geocoded_column": {
      "latitude": "30.01541535670813",
      "longitude": "-90.07720344035107"
    }
  },
  {
    "service_request": "2026-1278737",
    "request_type": "Trash/Recycling",
    "request_reason": "Damaged Caused By Contractor",
    "date_created": "2026-05-04T16:23:47.000",
    "date_modified": "2026-05-04T16:23:49.000",
    "request_status": "Pending",
    "responsible_agency": "Department of Sanitation",
    "final_address": "4421 Macarthur Blvd",
    "address_councildis": "C",
    "status": "Assigned to Contractor",
    "contractor": "Richards Disposal",
    "rowid": "1278737",
    "final_x": "3700188.73085",
    "final_y": "520196.489976",
    "longitude": "-90.00947152453433",
    "latitude": "29.923779315865673",
    "geocoded_column": {
      "latitude": "29.923779315865673",
      "longitude": "-90.00947152453433"
    }
  },
  {
    "service_request": "2026-1278736",
    "request_type": "Trash/Recycling",
    "request_reason": "Request a Large Item Pick Up",
    "date_created": "2026-05-04T16:23:32.000",
    "date_modified": "2026-05-04T16:23:34.000",
    "request_status": "Pending",
    "responsible_agency": "Department of Sanitation",
    "final_address": "1220 Pine St",
    "address_councildis": "A",
    "status": "Assigned to Contractor",
    "contractor": "IV Waste",
    "rowid": "1278736",
    "final_x": "3664013.76916",
    "final_y": "526859.549566",
    "longitude": "-90.12344118027413",
    "latitude": "29.943200286893845",
    "geocoded_column": {
      "latitude": "29.943200286893845",
      "longitude": "-90.12344118027413"
    }
  },
  {
    "service_request": "2026-1278735",
    "request_type": "Trash/Recycling",
    "request_reason": "Request a Large Item Pick Up",
    "date_created": "2026-05-04T16:22:26.000",
    "date_modified": "2026-05-04T16:22:27.000",
    "request_status": "Pending",
    "responsible_agency": "Department of Sanitation",
    "final_address": "24 Morrison Ct",
    "address_councildis": "E",
    "status": "Assigned to Contractor",
    "contractor": "Waste Pro",
    "rowid": "1278735",
    "final_x": "3704088.18743",
    "final_y": "561280.22915",
    "longitude": "-89.9956484640333",
    "latitude": "30.0366199957958",
    "geocoded_column": {
      "latitude": "30.0366199957958",
      "longitude": "-89.9956484640333"
    }
  },
  {
    "service_request": "2026-1278734",
    "request_type": "Streetlights",
    "request_reason": "Streetlight Outage/Malfunction",
    "date_created": "2026-05-04T16:22:20.000",
    "date_modified": "2026-05-04T16:22:21.000",
    "request_status": "Pending",
    "responsible_agency": "Department of Public Works",
    "final_address": "7701 Hansbrough Ave",
    "address_councildis": "E",
    "status": "Pending",
    "rowid": "1278734",
    "final_x": "3707565.07672",
    "final_y": "564699.04509",
    "longitude": "-89.98453368713834",
    "latitude": "30.045908314483913",
    "geocoded_column": {
      "latitude": "30.045908314483913",
      "longitude": "-89.98453368713834"
    }
  },
  {
    "service_request": "2026-1278733",
    "request_type": "Roads and Streets",
    "request_reason": "Pothole",
    "date_created": "2026-05-04T16:21:57.000",
    "date_modified": "2026-05-04T16:21:59.000",
    "request_status": "Pending",
    "responsible_agency": "Department of Public Works",
    "final_address": "2100 BLK Dante St",
    "address_councildis": "A",
    "status": "Pending",
    "rowid": "1278733",
    "final_x": "3663670.13686",
    "final_y": "531330.608058",
    "longitude": "-90.12437718031256",
    "latitude": "29.95550422979784",
    "geocoded_column": {
      "latitude": "29.95550422979784",
      "longitude": "-90.12437718031256"
    }
  },
  {
    "service_request": "2026-1278732",
    "request_type": "Trash/Recycling",
    "request_reason": "Request a Large Item Pick Up",
    "date_created": "2026-05-04T16:21:33.000",
    "date_modified": "2026-05-04T16:22:34.000",
    "request_status": "Pending",
    "responsible_agency": "Department of Sanitation",
    "final_address": "800 Thayer St",
    "address_councildis": "C",
    "status": "Pending",
    "contractor": "Richards Disposal",
    "rowid": "1278732",
    "final_x": "3689509.37635",
    "final_y": "528612.50048",
    "longitude": "-90.04288306945129",
    "latitude": "29.947255445805734",
    "geocoded_column": {
      "latitude": "29.947255445805734",
      "longitude": "-90.04288306945129"
    }
  },
  {
    "service_request": "2026-1278731",
    "request_type": "Property Maintenance",
    "request_reason": "Property Maintenance",
    "date_created": "2026-05-04T16:21:24.000",
    "date_modified": "2026-05-04T16:21:26.000",
    "request_status": "Pending",
    "responsible_agency": "Department of Code Enforcement",
    "final_address": "1109 Kentucky St",
    "address_councildis": "D",
    "status": "Pending",
    "rowid": "1278731",
    "final_x": "3693395.9631",
    "final_y": "535074.806662",
    "longitude": "-90.03037967892003",
    "latitude": "29.96490360245179",
    "geocoded_column": {
      "latitude": "29.96490360245179",
      "longitude": "-90.03037967892003"
    }
  },
  {
    "service_request": "2026-1278730",
    "request_type": "Trash/Recycling",
    "request_reason": "Order Trash Cart",
    "date_created": "2026-05-04T16:17:46.000",
    "date_modified": "2026-05-04T16:17:47.000",
    "request_status": "Pending",
    "responsible_agency": "Department of Sanitation",
    "final_address": "1424 St Bernard Ave",
    "address_councildis": "C",
    "status": "Assigned to Contractor",
    "contractor": "IV Waste",
    "rowid": "1278730",
    "final_x": "3682435.906",
    "final_y": "537287.62708",
    "longitude": "-90.06491346666846",
    "latitude": "29.971326229854228",
    "geocoded_column": {
      "latitude": "29.971326229854228",
      "longitude": "-90.06491346666846"
    }
  },
  {
    "service_request": "2026-1278729",
    "request_type": "Trash/Recycling",
    "request_reason": "Request a Large Item Pick Up",
    "date_created": "2026-05-04T16:17:01.000",
    "date_modified": "2026-05-04T16:17:21.000",
    "request_status": "Pending",
    "responsible_agency": "Department of Sanitation",
    "final_address": "5131 Mckendall Pl",
    "address_councildis": "E",
    "status": "Assigned to Contractor",
    "contractor": "Waste Pro",
    "rowid": "1278729",
    "final_x": "3718150.74911",
    "final_y": "558838.71382",
    "longitude": "-89.95130144143958",
    "latitude": "30.02944790976015",
    "geocoded_column": {
      "latitude": "30.02944790976015",
      "longitude": "-89.95130144143958"
    }
  },
  {
    "service_request": "2026-1278728",
    "request_type": "Trash/Recycling",
    "request_reason": "Request a Large Item Pick Up",
    "date_created": "2026-05-04T16:13:29.000",
    "date_modified": "2026-05-04T16:13:31.000",
    "request_status": "Pending",
    "responsible_agency": "Department of Sanitation",
    "final_address": "4619 Lonely Oak Dr",
    "address_councildis": "E",
    "status": "Assigned to Contractor",
    "contractor": "Waste Pro",
    "rowid": "1278728",
    "final_x": "3702452.71991",
    "final_y": "553699.347031",
    "longitude": "-90.00109538860497",
    "latitude": "30.015827895543136",
    "geocoded_column": {
      "latitude": "30.015827895543136",
      "longitude": "-90.00109538860497"
    }
  },
  {
    "service_request": "2026-1278727",
    "request_type": "Roads and Streets",
    "request_reason": "Pothole",
    "date_created": "2026-05-04T16:10:27.000",
    "date_modified": "2026-05-04T16:10:29.000",
    "request_status": "Pending",
    "responsible_agency": "Department of Public Works",
    "final_address": "3300 BLK Bienville Ave",
    "address_councildis": "B",
    "status": "Pending",
    "rowid": "1278727",
    "final_x": "3673918.87719",
    "final_y": "537199.229523",
    "longitude": "-90.0918145113381",
    "latitude": "29.971339659893466",
    "geocoded_column": {
      "latitude": "29.971339659893466",
      "longitude": "-90.0918145113381"
    }
  },
  {
    "service_request": "2026-1278726",
    "request_type": "EMS",
    "request_reason": "EMS Complaint",
    "date_created": "2026-05-04T16:09:45.000",
    "date_modified": "2026-05-04T16:09:47.000",
    "request_status": "Pending",
    "responsible_agency": "Emergency Medical Services",
    "final_address": "7543 Willow St",
    "address_councildis": "A",
    "status": "Pending",
    "rowid": "1278726",
    "final_x": "3663820.97914",
    "final_y": "527681.964671",
    "longitude": "-90.12402246547424",
    "latitude": "29.945467260947996",
    "geocoded_column": {
      "latitude": "29.945467260947996",
      "longitude": "-90.12402246547424"
    }
  },
  {
    "service_request": "2026-1278725",
    "request_type": "Trash/Recycling",
    "request_reason": "Repair Trash Cart",
    "date_created": "2026-05-04T16:09:15.000",
    "date_modified": "2026-05-04T16:09:16.000",
    "request_status": "Pending",
    "responsible_agency": "Department of Sanitation",
    "final_address": "3206 Louisiana Avenue Prkwy",
    "address_councildis": "B",
    "status": "Assigned to Contractor",
    "contractor": "IV Waste",
    "rowid": "1278725",
    "final_x": "3671859.65185",
    "final_y": "526961.681662",
    "longitude": "-90.09866623074755",
    "latitude": "29.943250989446703",
    "geocoded_column": {
      "latitude": "29.943250989446703",
      "longitude": "-90.09866623074755"
    }
  },
  {
    "service_request": "2026-1278724",
    "request_type": "Trash/Recycling",
    "request_reason": "Request a Large Item Pick Up",
    "date_created": "2026-05-04T16:06:33.000",
    "date_modified": "2026-05-04T16:06:35.000",
    "request_status": "Pending",
    "responsible_agency": "Department of Sanitation",
    "final_address": "44 Marywood Ct",
    "address_councildis": "E",
    "status": "Assigned to Contractor",
    "contractor": "Waste Pro",
    "rowid": "1278724",
    "final_x": "3712233.94373",
    "final_y": "567025.747748",
    "longitude": "-89.96969035871096",
    "latitude": "30.052153862366005",
    "geocoded_column": {
      "latitude": "30.052153862366005",
      "longitude": "-89.96969035871096"
    }
  },
  {
    "service_request": "2026-1278723",
    "request_type": "Trash/Recycling",
    "request_reason": "Illegal Dumping",
    "date_created": "2026-05-04T16:05:40.000",
    "date_modified": "2026-05-04T16:05:42.000",
    "request_status": "Pending",
    "responsible_agency": "Department of Sanitation",
    "final_address": "FRERET ST & TOLEDANO ST",
    "address_councildis": "B",
    "status": "Pending",
    "rowid": "1278723",
    "final_x": "3673257.2",
    "final_y": "524695.88",
    "longitude": "-90.09433116381894",
    "latitude": "29.93697929364763",
    "geocoded_column": {
      "latitude": "29.93697929364763",
      "longitude": "-90.09433116381894"
    }
  },
  {
    "service_request": "2026-1278722",
    "request_type": "Streetlights",
    "request_reason": "Streetlight Outage/Malfunction",
    "date_created": "2026-05-04T16:03:52.000",
    "date_modified": "2026-05-04T16:03:54.000",
    "request_status": "Pending",
    "responsible_agency": "Department of Public Works",
    "final_address": "2300 BLK Reynes St",
    "address_councildis": "E",
    "status": "Pending",
    "rowid": "1278722",
    "final_x": "3697282.14772",
    "final_y": "538941.689949",
    "longitude": "-90.01796723909538",
    "latitude": "29.97541406555621",
    "geocoded_column": {
      "latitude": "29.97541406555621",
      "longitude": "-90.01796723909538"
    }
  },
  {
    "service_request": "2026-1278721",
    "request_type": "Streetlights",
    "request_reason": "Streetlight Outage/Malfunction",
    "date_created": "2026-05-04T16:02:59.000",
    "date_modified": "2026-05-04T16:03:25.000",
    "request_status": "Pending",
    "responsible_agency": "Department of Public Works",
    "final_address": "143 W Brooks St",
    "address_councildis": "A",
    "status": "Pending",
    "rowid": "1278721",
    "final_x": "3665672.23872",
    "final_y": "546645.479953",
    "longitude": "-90.1175421267843",
    "latitude": "29.99755677100168",
    "geocoded_column": {
      "latitude": "29.99755677100168",
      "longitude": "-90.1175421267843"
    }
  },
  {
    "service_request": "2026-1278720",
    "request_type": "Trash/Recycling",
    "request_reason": "Request a Large Item Pick Up",
    "date_created": "2026-05-04T16:02:28.000",
    "date_modified": "2026-05-04T16:02:30.000",
    "request_status": "Pending",
    "responsible_agency": "Department of Sanitation",
    "final_address": "711 St Roch Ave",
    "address_councildis": "C",
    "status": "Assigned to Contractor",
    "contractor": "IV Waste",
    "rowid": "1278720",
    "final_x": "3686628.8879",
    "final_y": "535101.31623",
    "longitude": "-90.05174869550882",
    "latitude": "29.965186344115143",
    "geocoded_column": {
      "latitude": "29.965186344115143",
      "longitude": "-90.05174869550882"
    }
  },
  {
    "service_request": "2026-1278719",
    "request_type": "Trash/Recycling",
    "request_reason": "Replace Trash Cart",
    "date_created": "2026-05-04T16:01:57.000",
    "date_modified": "2026-05-04T16:01:59.000",
    "request_status": "Pending",
    "responsible_agency": "Department of Sanitation",
    "final_address": "7724 Woodbine Dr",
    "address_councildis": "E",
    "status": "Assigned to Contractor",
    "contractor": "Waste Pro",
    "rowid": "1278719",
    "final_x": "3701774.05777",
    "final_y": "561679.961375",
    "longitude": "-90.00294687878706",
    "latitude": "30.03779318337346",
    "geocoded_column": {
      "latitude": "30.03779318337346",
      "longitude": "-90.00294687878706"
    }
  },
  {
    "service_request": "2026-1278718",
    "request_type": "Trash/Recycling",
    "request_reason": "Illegal Dumping",
    "date_created": "2026-05-04T16:01:31.000",
    "date_modified": "2026-05-04T16:01:33.000",
    "request_status": "Pending",
    "responsible_agency": "Department of Sanitation",
    "final_address": "929 Lizardi St",
    "address_councildis": "E",
    "status": "Pending",
    "rowid": "1278718",
    "final_x": "3696408.18147",
    "final_y": "533571.523909",
    "longitude": "-90.02092170553925",
    "latitude": "29.960675581804686",
    "geocoded_column": {
      "latitude": "29.960675581804686",
      "longitude": "-90.02092170553925"
    }
  },
  {
    "service_request": "2026-1278717",
    "request_type": "Abandoned Vehicles",
    "request_reason": "Abandoned/Junk Vehicles",
    "date_created": "2026-05-04T15:59:46.000",
    "date_modified": "2026-05-04T15:59:48.000",
    "request_status": "Pending",
    "responsible_agency": "Department of Public Works",
    "final_address": "2400 BLK Reynes St",
    "address_councildis": "E",
    "status": "Pending",
    "rowid": "1278717",
    "final_x": "3697387.45689",
    "final_y": "539318.186899",
    "longitude": "-90.01762099256136",
    "latitude": "29.976445971925664",
    "geocoded_column": {
      "latitude": "29.976445971925664",
      "longitude": "-90.01762099256136"
    }
  },
  {
    "service_request": "2026-1278716",
    "request_type": "Tree Service",
    "request_reason": "Tree Trim",
    "date_created": "2026-05-04T15:58:56.000",
    "date_modified": "2026-05-04T15:58:59.000",
    "request_status": "Pending",
    "responsible_agency": "Department of Parks & Parkways",
    "final_address": "3904 Toledano St",
    "address_councildis": "B",
    "status": "Pending",
    "rowid": "1278716",
    "final_x": "3671326.44359",
    "final_y": "529167.3632",
    "longitude": "-90.10027476811725",
    "latitude": "29.949331679263693",
    "geocoded_column": {
      "latitude": "29.949331679263693",
      "longitude": "-90.10027476811725"
    }
  },
  {
    "service_request": "2026-1278715",
    "request_type": "Trash/Recycling",
    "request_reason": "Request a Large Item Pick Up",
    "date_created": "2026-05-04T15:58:35.000",
    "date_modified": "2026-05-04T15:58:37.000",
    "request_status": "Pending",
    "responsible_agency": "Department of Sanitation",
    "final_address": "8000 Brevard Ave",
    "address_councildis": "E",
    "status": "Assigned to Contractor",
    "contractor": "Waste Pro",
    "rowid": "1278715",
    "final_x": "3705745.60004",
    "final_y": "564460.228577",
    "longitude": "-89.99029294810191",
    "latitude": "30.045310428643678",
    "geocoded_column": {
      "latitude": "30.045310428643678",
      "longitude": "-89.99029294810191"
    }
  },
  {
    "service_request": "2026-1278714",
    "request_type": "Abandoned Vehicles",
    "request_reason": "Abandoned/Junk Vehicles",
    "date_created": "2026-05-04T15:56:49.000",
    "date_modified": "2026-05-04T15:58:11.000",
    "request_status": "Pending",
    "responsible_agency": "Department of Public Works",
    "final_address": "TOULOUSE ST & N HENNESSEY ST",
    "address_councildis": "A",
    "status": "Pending",
    "rowid": "1278714",
    "final_x": "3671374.3",
    "final_y": "540377.78",
    "longitude": "-90.09974259374538",
    "latitude": "29.980155161377407",
    "geocoded_column": {
      "latitude": "29.980155161377407",
      "longitude": "-90.09974259374538"
    }
  },
  {
    "service_request": "2026-1278713",
    "request_type": "Trash/Recycling",
    "request_reason": "Request a Large Item Pick Up",
    "date_created": "2026-05-04T15:51:30.000",
    "date_modified": "2026-05-04T15:51:33.000",
    "request_status": "Pending",
    "responsible_agency": "Department of Sanitation",
    "final_address": "2217 Jefferson Ave",
    "address_councildis": "B",
    "status": "Assigned to Contractor",
    "contractor": "IV Waste",
    "rowid": "1278713",
    "final_x": "3667925.57274",
    "final_y": "523775.560507",
    "longitude": "-90.11119444611904",
    "latitude": "29.934606154926794",
    "geocoded_column": {
      "latitude": "29.934606154926794",
      "longitude": "-90.11119444611904"
    }
  },
  {
    "service_request": "2026-1278712",
    "request_type": "Trash/Recycling",
    "request_reason": "Request a Large Item Pick Up",
    "date_created": "2026-05-04T15:51:09.000",
    "date_modified": "2026-05-04T15:51:11.000",
    "request_status": "Pending",
    "responsible_agency": "Department of Sanitation",
    "final_address": "100 St John Ct P",
    "address_councildis": "A",
    "status": "Assigned to Contractor",
    "contractor": "IV Waste",
    "rowid": "1278712",
    "final_x": "3674711.48302",
    "final_y": "540097.511243",
    "longitude": "-90.08921196403185",
    "latitude": "29.979285308155116",
    "geocoded_column": {
      "latitude": "29.979285308155116",
      "longitude": "-90.08921196403185"
    }
  },
  {
    "service_request": "2026-1278711",
    "request_type": "Trash/Recycling",
    "request_reason": "Replace Trash Cart",
    "date_created": "2026-05-04T15:45:40.000",
    "date_modified": "2026-05-04T15:45:42.000",
    "request_status": "Pending",
    "responsible_agency": "Department of Sanitation",
    "final_address": "1725 St Andrew St H",
    "address_councildis": "B",
    "status": "Assigned to Contractor",
    "contractor": "IV Waste",
    "rowid": "1278711",
    "final_x": "3677861.30786",
    "final_y": "524857.267004",
    "longitude": "-90.07979016616079",
    "latitude": "29.937285361072263",
    "geocoded_column": {
      "latitude": "29.937285361072263",
      "longitude": "-90.07979016616079"
    }
  },
  {
    "service_request": "2026-1278710",
    "request_type": "Trash/Recycling",
    "request_reason": "Request a Large Item Pick Up",
    "date_created": "2026-05-04T15:43:46.000",
    "date_modified": "2026-05-04T15:43:49.000",
    "request_status": "Pending",
    "responsible_agency": "Department of Sanitation",
    "final_address": "1536 Hillary St",
    "address_councildis": "A",
    "status": "Assigned to Contractor",
    "contractor": "IV Waste",
    "rowid": "1278710",
    "final_x": "3664127.23143",
    "final_y": "528201.674496",
    "longitude": "-90.12303819190568",
    "latitude": "29.946887405035664",
    "geocoded_column": {
      "latitude": "29.946887405035664",
      "longitude": "-90.12303819190568"
    }
  },
  {
    "service_request": "2026-1278709",
    "request_type": "Healthy Homes",
    "request_reason": "Healthy Homes",
    "date_created": "2026-05-04T15:43:31.000",
    "date_modified": "2026-05-04T15:43:33.000",
    "request_status": "Pending",
    "responsible_agency": "Department of Code Enforcement",
    "final_address": "6001 Downman Rd",
    "address_councildis": "D",
    "status": "Pending",
    "rowid": "1278709",
    "final_x": "3696112.03299",
    "final_y": "554957.618712",
    "longitude": "-90.02108347211927",
    "latitude": "30.019488851075813",
    "geocoded_column": {
      "latitude": "30.019488851075813",
      "longitude": "-90.02108347211927"
    }
  },
  {
    "service_request": "2026-1278708",
    "request_type": "Trash/Recycling",
    "request_reason": "Request a Large Item Pick Up",
    "date_created": "2026-05-04T15:42:26.000",
    "date_modified": "2026-05-04T15:42:28.000",
    "request_status": "Pending",
    "responsible_agency": "Department of Sanitation",
    "final_address": "155 Lakewood Estates Dr",
    "address_councildis": "C",
    "status": "Assigned to Contractor",
    "contractor": "Richards Disposal",
    "rowid": "1278708",
    "final_x": "3701175.07031",
    "final_y": "512410.703793",
    "longitude": "-90.00664258891598",
    "latitude": "29.902339682930975",
    "geocoded_column": {
      "latitude": "29.902339682930975",
      "longitude": "-90.00664258891598"
    }
  },
  {
    "service_request": "2026-1278707",
    "request_type": "Trash/Recycling",
    "request_reason": "Repair Recycling Cart",
    "date_created": "2026-05-04T15:42:17.000",
    "date_modified": "2026-05-04T15:42:19.000",
    "request_status": "Pending",
    "responsible_agency": "Department of Sanitation",
    "final_address": "3414 Havana St",
    "address_councildis": "D",
    "status": "Pending",
    "rowid": "1278707",
    "final_x": "3680831.41307",
    "final_y": "544949.646287",
    "longitude": "-90.06971382898243",
    "latitude": "29.992442849114912",
    "geocoded_column": {
      "latitude": "29.992442849114912",
      "longitude": "-90.06971382898243"
    }
  },
  {
    "service_request": "2026-1278706",
    "request_type": "EMS",
    "request_reason": "EMS Complaint",
    "date_created": "2026-05-04T15:41:53.000",
    "date_modified": "2026-05-04T15:53:24.000",
    "request_status": "Pending",
    "responsible_agency": "Emergency Medical Services",
    "final_address": "HILLARY ST & WILLOW ST",
    "address_councildis": "A",
    "status": "Pending",
    "rowid": "1278706",
    "final_x": "3663767.9",
    "final_y": "527680.68",
    "longitude": "-90.12419009701334",
    "latitude": "29.94546526875443",
    "geocoded_column": {
      "latitude": "29.94546526875443",
      "longitude": "-90.12419009701334"
    }
  },
  {
    "service_request": "2026-1278705",
    "request_type": "Streetlights",
    "request_reason": "Streetlight Outage/Malfunction",
    "date_created": "2026-05-04T15:40:30.000",
    "date_modified": "2026-05-04T15:41:02.000",
    "request_status": "Pending",
    "responsible_agency": "Department of Public Works",
    "final_address": "4801 Nottingham Dr",
    "address_councildis": "E",
    "status": "Pending",
    "rowid": "1278705",
    "final_x": "3716450.60613",
    "final_y": "557126.927962",
    "longitude": "-89.95673878366814",
    "latitude": "30.024797456050667",
    "geocoded_column": {
      "latitude": "30.024797456050667",
      "longitude": "-89.95673878366814"
    }
  },
  {
    "service_request": "2026-1278704",
    "request_type": "Trash/Recycling",
    "request_reason": "Request a Large Item Pick Up",
    "date_created": "2026-05-04T15:40:20.000",
    "date_modified": "2026-05-04T15:40:21.000",
    "request_status": "Pending",
    "responsible_agency": "Department of Sanitation",
    "final_address": "429 Vallette St",
    "address_councildis": "C",
    "status": "Assigned to Contractor",
    "contractor": "Richards Disposal",
    "rowid": "1278704",
    "final_x": "3687504.64777",
    "final_y": "530115.964481",
    "longitude": "-90.04915954075956",
    "latitude": "29.951451385719665",
    "geocoded_column": {
      "latitude": "29.951451385719665",
      "longitude": "-90.04915954075956"
    }
  },
  {
    "service_request": "2026-1278703",
    "request_type": "Abandoned Vehicles",
    "request_reason": "Abandoned/Junk Vehicles",
    "date_created": "2026-05-04T15:39:14.000",
    "date_modified": "2026-05-04T15:39:16.000",
    "request_status": "Pending",
    "responsible_agency": "Department of Public Works",
    "final_address": "2137 Touro St",
    "address_councildis": "D",
    "status": "Pending",
    "rowid": "1278703",
    "final_x": "3683958.8301",
    "final_y": "540236.983243",
    "longitude": "-90.06000035624434",
    "latitude": "29.979389487460278",
    "geocoded_column": {
      "latitude": "29.979389487460278",
      "longitude": "-90.06000035624434"
    }
  },
  {
    "service_request": "2026-1278702",
    "request_type": "Trash/Recycling",
    "request_reason": "Request a Large Item Pick Up",
    "date_created": "2026-05-04T15:37:35.000",
    "date_modified": "2026-05-04T15:38:05.000",
    "request_status": "Pending",
    "responsible_agency": "Department of Sanitation",
    "final_address": "2138 Deslonde St",
    "address_councildis": "E",
    "status": "Assigned to Contractor",
    "contractor": "Waste Pro",
    "rowid": "1278702",
    "final_x": "3696467.72093",
    "final_y": "538468.012425",
    "longitude": "-90.02055654478",
    "latitude": "29.97413730450141",
    "geocoded_column": {
      "latitude": "29.97413730450141",
      "longitude": "-90.02055654478"
    }
  },
  {
    "service_request": "2026-1278701",
    "request_type": "Trash/Recycling",
    "request_reason": "Order Recycling Cart",
    "date_created": "2026-05-04T15:37:20.000",
    "date_modified": "2026-05-04T15:37:21.000",
    "request_status": "Pending",
    "responsible_agency": "Department of Sanitation",
    "final_address": "4022 Constance St",
    "address_councildis": "B",
    "status": "Pending",
    "rowid": "1278701",
    "final_x": "3672371.24327",
    "final_y": "518499.796471",
    "longitude": "-90.09733918752184",
    "latitude": "29.919968367794823",
    "geocoded_column": {
      "latitude": "29.919968367794823",
      "longitude": "-90.09733918752184"
    }
  },
  {
    "service_request": "2026-1278700",
    "request_type": "Trash/Recycling",
    "request_reason": "Request a Large Item Pick Up",
    "date_created": "2026-05-04T15:37:08.000",
    "date_modified": "2026-05-04T15:37:10.000",
    "request_status": "Pending",
    "responsible_agency": "Department of Sanitation",
    "final_address": "5161 Mckendall Pl",
    "address_councildis": "E",
    "status": "Assigned to Contractor",
    "contractor": "Waste Pro",
    "rowid": "1278700",
    "final_x": "3718040.40812",
    "final_y": "558988.36982",
    "longitude": "-89.9516444101616",
    "latitude": "30.02986306250867",
    "geocoded_column": {
      "latitude": "30.02986306250867",
      "longitude": "-89.9516444101616"
    }
  },
  {
    "service_request": "2026-1278699",
    "request_type": "Roads and Streets",
    "request_reason": "Curb Damage",
    "date_created": "2026-05-04T15:35:50.000",
    "date_modified": "2026-05-04T15:35:53.000",
    "request_status": "Pending",
    "responsible_agency": "Department of Public Works",
    "final_address": "1806 Palmer Ave",
    "address_councildis": "A",
    "status": "Pending",
    "rowid": "1278699",
    "final_x": "3665472.28493",
    "final_y": "523735.156603",
    "longitude": "-90.11894080787121",
    "latitude": "29.934566778288115",
    "geocoded_column": {
      "latitude": "29.934566778288115",
      "longitude": "-90.11894080787121"
    }
  },
  {
    "service_request": "2026-1278698",
    "request_type": "Trash/Recycling",
    "request_reason": "Request a Large Item Pick Up",
    "date_created": "2026-05-04T15:34:21.000",
    "date_modified": "2026-05-04T15:34:22.000",
    "request_status": "Pending",
    "responsible_agency": "Department of Sanitation",
    "final_address": "7718 Mercier St",
    "address_councildis": "E",
    "status": "Assigned to Contractor",
    "contractor": "Waste Pro",
    "rowid": "1278698",
    "final_x": "3711190.62635",
    "final_y": "566805.663267",
    "longitude": "-89.97299619837285",
    "latitude": "30.051582818138836",
    "geocoded_column": {
      "latitude": "30.051582818138836",
      "longitude": "-89.97299619837285"
    }
  },
  {
    "service_request": "2026-1278697",
    "request_type": "Roads and Streets",
    "request_reason": "Street Subsidence (Sinking)",
    "date_created": "2026-05-04T15:33:49.000",
    "date_modified": "2026-05-04T15:33:50.000",
    "request_status": "Pending",
    "responsible_agency": "Sewerage & Water Board",
    "final_address": "BARTHOLOMEW ST & N TONTI ST",
    "address_councildis": "D",
    "status": "Pending",
    "rowid": "1278697",
    "final_x": "3692924.0",
    "final_y": "539827.58",
    "longitude": "-90.03169960643476",
    "latitude": "29.97798679017948",
    "geocoded_column": {
      "latitude": "29.97798679017948",
      "longitude": "-90.03169960643476"
    }
  },
  {
    "service_request": "2026-1278696",
    "request_type": "Trash/Recycling",
    "request_reason": "Repair Trash Cart",
    "date_created": "2026-05-04T15:31:22.000",
    "date_modified": "2026-05-04T15:31:24.000",
    "request_status": "Pending",
    "responsible_agency": "Department of Sanitation",
    "final_address": "1806 Palmer Ave",
    "address_councildis": "A",
    "status": "Assigned to Contractor",
    "contractor": "IV Waste",
    "rowid": "1278696",
    "final_x": "3665472.28493",
    "final_y": "523735.156603",
    "longitude": "-90.11894080787121",
    "latitude": "29.934566778288115",
    "geocoded_column": {
      "latitude": "29.934566778288115",
      "longitude": "-90.11894080787121"
    }
  },
  {
    "service_request": "2026-1278695",
    "request_type": "Trash/Recycling",
    "request_reason": "Request a Large Item Pick Up",
    "date_created": "2026-05-04T15:29:28.000",
    "date_modified": "2026-05-04T15:29:29.000",
    "request_status": "Pending",
    "responsible_agency": "Department of Sanitation",
    "final_address": "6111 N Rampart St",
    "address_councildis": "E",
    "status": "Assigned to Contractor",
    "contractor": "Waste Pro",
    "rowid": "1278695",
    "final_x": "3699442.64061",
    "final_y": "532882.718596",
    "longitude": "-90.01136463350203",
    "latitude": "29.958685697091607",
    "geocoded_column": {
      "latitude": "29.958685697091607",
      "longitude": "-90.01136463350203"
    }
  },
  {
    "service_request": "2026-1278694",
    "request_type": "Trash/Recycling",
    "request_reason": "Request a Large Item Pick Up",
    "date_created": "2026-05-04T15:28:02.000",
    "date_modified": "2026-05-04T15:28:04.000",
    "request_status": "Pending",
    "responsible_agency": "Department of Sanitation",
    "final_address": "6111 N Rampart St",
    "address_councildis": "E",
    "status": "Assigned to Contractor",
    "contractor": "Waste Pro",
    "rowid": "1278694",
    "final_x": "3699442.64061",
    "final_y": "532882.718596",
    "longitude": "-90.01136463350203",
    "latitude": "29.958685697091607",
    "geocoded_column": {
      "latitude": "29.958685697091607",
      "longitude": "-90.01136463350203"
    }
  },
  {
    "service_request": "2026-1278693",
    "request_type": "Trash/Recycling",
    "request_reason": "Request a Large Item Pick Up",
    "date_created": "2026-05-04T15:26:44.000",
    "date_modified": "2026-05-04T15:26:45.000",
    "request_status": "Pending",
    "responsible_agency": "Department of Sanitation",
    "final_address": "7631 Ebbtide Dr",
    "address_councildis": "E",
    "status": "Assigned to Contractor",
    "contractor": "Waste Pro",
    "rowid": "1278693",
    "final_x": "3702225.60586",
    "final_y": "561585.909727",
    "longitude": "-90.00152334061491",
    "latitude": "30.03752015487368",
    "geocoded_column": {
      "latitude": "30.03752015487368",
      "longitude": "-90.00152334061491"
    }
  },
  {
    "service_request": "2026-1278692",
    "request_type": "Trash/Recycling",
    "request_reason": "Illegal Dumping",
    "date_created": "2026-05-04T15:26:43.000",
    "date_modified": "2026-05-04T15:26:44.000",
    "request_status": "Pending",
    "responsible_agency": "Department of Sanitation",
    "final_address": "ST CHARLES AVE & CALLIOPE ST",
    "address_councildis": "B",
    "status": "Pending",
    "rowid": "1278692",
    "final_x": "3679971.2",
    "final_y": "526674.08",
    "longitude": "-90.07306601775352",
    "latitude": "29.942217357085347",
    "geocoded_column": {
      "latitude": "29.942217357085347",
      "longitude": "-90.07306601775352"
    }
  },
  {
    "service_request": "2026-1278691",
    "request_type": "Trash/Recycling",
    "request_reason": "Repair Trash Cart",
    "date_created": "2026-05-04T15:25:32.000",
    "date_modified": "2026-05-04T15:25:34.000",
    "request_status": "Pending",
    "responsible_agency": "Department of Sanitation",
    "final_address": "6034 Campus Blvd",
    "address_councildis": "D",
    "status": "Assigned to Contractor",
    "contractor": "IV Waste",
    "rowid": "1278691",
    "final_x": "3688480.45577",
    "final_y": "555572.009817",
    "longitude": "-90.04517481512458",
    "latitude": "30.02141630558882",
    "geocoded_column": {
      "latitude": "30.02141630558882",
      "longitude": "-90.04517481512458"
    }
  },
  {
    "service_request": "2026-1278690",
    "request_type": "Safety & Permits",
    "request_reason": "Zoning Enforcement",
    "date_created": "2026-05-04T15:22:30.000",
    "date_modified": "2026-05-04T15:22:31.000",
    "request_status": "Pending",
    "responsible_agency": "Safety and Permits",
    "final_address": "315 Huntlee Dr",
    "address_councildis": "C",
    "status": "Pending",
    "rowid": "1278690",
    "final_x": "3701832.92868",
    "final_y": "522511.92377",
    "longitude": "-90.00419664435255",
    "latitude": "29.93009362153343",
    "geocoded_column": {
      "latitude": "29.93009362153343",
      "longitude": "-90.00419664435255"
    }
  },
  {
    "service_request": "2026-1278689",
    "request_type": "Trash/Recycling",
    "request_reason": "Request a Large Item Pick Up",
    "date_created": "2026-05-04T15:20:15.000",
    "date_modified": "2026-05-04T15:20:16.000",
    "request_status": "Pending",
    "responsible_agency": "Department of Sanitation",
    "final_address": "2036 Deslonde St",
    "address_councildis": "E",
    "status": "Assigned to Contractor",
    "contractor": "Waste Pro",
    "rowid": "1278689",
    "final_x": "3696376.39786",
    "final_y": "538091.006729",
    "longitude": "-90.02085860071462",
    "latitude": "29.973103550709936",
    "geocoded_column": {
      "latitude": "29.973103550709936",
      "longitude": "-90.02085860071462"
    }
  },
  {
    "service_request": "2026-1278688",
    "request_type": "Trash/Recycling",
    "request_reason": "Request a Large Item Pick Up",
    "date_created": "2026-05-04T15:19:39.000",
    "date_modified": "2026-05-04T16:48:42.000",
    "request_status": "Pending",
    "responsible_agency": "Department of Sanitation",
    "final_address": "927 Royal St",
    "address_councildis": "C",
    "status": "Assigned to Contractor",
    "contractor": "IV Waste",
    "rowid": "1278688",
    "final_x": "3683120.43125",
    "final_y": "533248.749124",
    "longitude": "-90.06289306572711",
    "latitude": "29.960199853157462",
    "geocoded_column": {
      "latitude": "29.960199853157462",
      "longitude": "-90.06289306572711"
    }
  },
  {
    "service_request": "2026-1278687",
    "request_type": "Trash/Recycling",
    "request_reason": "Order Recycling Cart",
    "date_created": "2026-05-04T15:15:17.000",
    "date_modified": "2026-05-04T15:15:19.000",
    "request_status": "Pending",
    "responsible_agency": "Department of Sanitation",
    "final_address": "2634 Annette St",
    "address_councildis": "D",
    "status": "Pending",
    "rowid": "1278687",
    "final_x": "3682645.38632",
    "final_y": "541975.869004",
    "longitude": "-90.06408789184474",
    "latitude": "29.984210882089144",
    "geocoded_column": {
      "latitude": "29.984210882089144",
      "longitude": "-90.06408789184474"
    }
  },
  {
    "service_request": "2026-1278686",
    "request_type": "Trash/Recycling",
    "request_reason": "Order Trash Cart",
    "date_created": "2026-05-04T15:15:05.000",
    "date_modified": "2026-05-04T15:15:07.000",
    "request_status": "Pending",
    "responsible_agency": "Department of Sanitation",
    "final_address": "2634 Annette St",
    "address_councildis": "D",
    "status": "Assigned to Contractor",
    "contractor": "IV Waste",
    "rowid": "1278686",
    "final_x": "3682645.38632",
    "final_y": "541975.869004",
    "longitude": "-90.06408789184474",
    "latitude": "29.984210882089144",
    "geocoded_column": {
      "latitude": "29.984210882089144",
      "longitude": "-90.06408789184474"
    }
  },
  {
    "service_request": "2026-1278685",
    "request_type": "Roads and Streets",
    "request_reason": "Street Subsidence (Sinking)",
    "date_created": "2026-05-04T15:13:13.000",
    "date_modified": "2026-05-04T15:15:20.000",
    "request_status": "Pending",
    "responsible_agency": "Sewerage & Water Board",
    "final_address": "3201 Feliciana St",
    "address_councildis": "D",
    "status": "Pending",
    "rowid": "1278685",
    "final_x": "3690880.44073",
    "final_y": "544401.680271",
    "longitude": "-90.03799054704496",
    "latitude": "29.990627598808782",
    "geocoded_column": {
      "latitude": "29.990627598808782",
      "longitude": "-90.03799054704496"
    }
  },
  {
    "service_request": "2026-1278684",
    "request_type": "Trash/Recycling",
    "request_reason": "Request a Large Item Pick Up",
    "date_created": "2026-05-04T15:11:04.000",
    "date_modified": "2026-05-04T15:11:06.000",
    "request_status": "Pending",
    "responsible_agency": "Department of Sanitation",
    "final_address": "10921 Roger Dr",
    "address_councildis": "E",
    "status": "Assigned to Contractor",
    "contractor": "Waste Pro",
    "rowid": "1278684",
    "final_x": "3711943.27314",
    "final_y": "563342.982176",
    "longitude": "-89.97074749115428",
    "latitude": "30.04203725396578",
    "geocoded_column": {
      "latitude": "30.04203725396578",
      "longitude": "-89.97074749115428"
    }
  },
  {
    "service_request": "2026-1278683",
    "request_type": "Trash/Recycling",
    "request_reason": "Request a Large Item Pick Up",
    "date_created": "2026-05-04T15:07:02.000",
    "date_modified": "2026-05-04T15:07:03.000",
    "request_status": "Pending",
    "responsible_agency": "Department of Sanitation",
    "final_address": "4808 Nottingham Dr",
    "address_councildis": "E",
    "status": "Assigned to Contractor",
    "contractor": "Waste Pro",
    "rowid": "1278683",
    "final_x": "3716291.67436",
    "final_y": "557163.046235",
    "longitude": "-89.95723960519923",
    "latitude": "30.024902016044113",
    "geocoded_column": {
      "latitude": "30.024902016044113",
      "longitude": "-89.95723960519923"
    }
  },
  {
    "service_request": "2026-1278682",
    "request_type": "Tree Service",
    "request_reason": "Tree Trim",
    "date_created": "2026-05-04T15:06:53.000",
    "date_modified": "2026-05-04T15:06:56.000",
    "request_status": "Pending",
    "responsible_agency": "Department of Parks & Parkways",
    "final_address": "1316 Cambronne St",
    "address_councildis": "A",
    "status": "Pending",
    "rowid": "1278682",
    "final_x": "3661479.48326",
    "final_y": "529506.047745",
    "longitude": "-90.13135494821788",
    "latitude": "29.95055064790879",
    "geocoded_column": {
      "latitude": "29.95055064790879",
      "longitude": "-90.13135494821788"
    }
  },
  {
    "service_request": "2026-1278681",
    "request_type": "Traffic Signals",
    "request_reason": "Traffic Signal Malfunctioning or Damaged",
    "date_created": "2026-05-04T15:05:42.000",
    "date_modified": "2026-05-04T15:05:44.000",
    "request_status": "Pending",
    "responsible_agency": "Department of Public Works",
    "final_address": "POYDRAS ST & S CLAIBORNE AVE",
    "address_councildis": "B",
    "status": "Pending",
    "rowid": "1278681",
    "final_x": "3676795.1",
    "final_y": "530810.68",
    "longitude": "-90.08295115364751",
    "latitude": "29.95368730370341",
    "geocoded_column": {
      "latitude": "29.95368730370341",
      "longitude": "-90.08295115364751"
    }
  },
  {
    "service_request": "2026-1278680",
    "request_type": "Trash/Recycling",
    "request_reason": "Repair Trash Cart",
    "date_created": "2026-05-04T15:04:20.000",
    "date_modified": "2026-05-04T15:07:01.000",
    "request_status": "Pending",
    "responsible_agency": "Department of Sanitation",
    "final_address": "1670 N Miro St",
    "address_councildis": "D",
    "status": "Assigned to Contractor",
    "contractor": "IV Waste",
    "rowid": "1278680",
    "final_x": "3680894.0644",
    "final_y": "539535.041162",
    "longitude": "-90.0697045445003",
    "latitude": "29.97755268159837",
    "geocoded_column": {
      "latitude": "29.97755268159837",
      "longitude": "-90.0697045445003"
    }
  },
  {
    "service_request": "2026-1278679",
    "request_type": "Trash/Recycling",
    "request_reason": "Request a Large Item Pick Up",
    "date_created": "2026-05-04T15:04:12.000",
    "date_modified": "2026-05-04T15:04:14.000",
    "request_status": "Pending",
    "responsible_agency": "Department of Sanitation",
    "final_address": "2113 Fern St",
    "address_councildis": "A",
    "status": "Assigned to Contractor",
    "contractor": "IV Waste",
    "rowid": "1278679",
    "final_x": "3664781.15648",
    "final_y": "530259.729345",
    "longitude": "-90.12090474468889",
    "latitude": "29.952527382333702",
    "geocoded_column": {
      "latitude": "29.952527382333702",
      "longitude": "-90.12090474468889"
    }
  },
  {
    "service_request": "2026-1278678",
    "request_type": "Trash/Recycling",
    "request_reason": "Request a Large Item Pick Up",
    "date_created": "2026-05-04T15:01:39.000",
    "date_modified": "2026-05-04T15:19:53.000",
    "request_status": "Pending",
    "responsible_agency": "Department of Sanitation",
    "final_address": "2632 Annette St",
    "address_councildis": "D",
    "status": "Assigned to Contractor",
    "contractor": "IV Waste",
    "rowid": "1278678",
    "final_x": "3682644.06812",
    "final_y": "541966.077324",
    "longitude": "-90.06409239802136",
    "latitude": "29.98418399855927",
    "geocoded_column": {
      "latitude": "29.98418399855927",
      "longitude": "-90.06409239802136"
    }
  },
  {
    "service_request": "2026-1278677",
    "request_type": "Trash/Recycling",
    "request_reason": "Repair Trash Cart",
    "date_created": "2026-05-04T15:01:06.000",
    "date_modified": "2026-05-04T15:02:50.000",
    "request_status": "Pending",
    "responsible_agency": "Department of Sanitation",
    "final_address": "7327 Spruce St",
    "address_councildis": "A",
    "status": "Assigned to Contractor",
    "contractor": "IV Waste",
    "rowid": "1278677",
    "final_x": "3665373.30836",
    "final_y": "529196.496576",
    "longitude": "-90.1190705670253",
    "latitude": "29.94958659518001",
    "geocoded_column": {
      "latitude": "29.94958659518001",
      "longitude": "-90.1190705670253"
    }
  },
  {
    "service_request": "2026-1278676",
    "request_type": "Trash/Recycling",
    "request_reason": "Order Trash Cart",
    "date_created": "2026-05-04T15:00:36.000",
    "date_modified": "2026-05-04T15:00:39.000",
    "request_status": "Pending",
    "responsible_agency": "Department of Sanitation",
    "final_address": "3341 Delachaise St",
    "address_councildis": "B",
    "status": "Assigned to Contractor",
    "contractor": "IV Waste",
    "rowid": "1278676",
    "final_x": "3671521.59732",
    "final_y": "527408.451903",
    "longitude": "-90.09971837050901",
    "latitude": "29.944489473405206",
    "geocoded_column": {
      "latitude": "29.944489473405206",
      "longitude": "-90.09971837050901"
    }
  },
  {
    "service_request": "2026-1278675",
    "request_type": "Traffic Signals",
    "request_reason": "Traffic Signal Malfunctioning or Damaged",
    "date_created": "2026-05-04T14:57:26.000",
    "date_modified": "2026-05-04T14:57:28.000",
    "request_status": "Pending",
    "responsible_agency": "Department of Public Works",
    "final_address": "3109 Audubon St",
    "address_councildis": "B",
    "status": "Pending",
    "rowid": "1278675",
    "final_x": "3668214.81677",
    "final_y": "531981.094019",
    "longitude": "-90.11000474032757",
    "latitude": "29.957160223184292",
    "geocoded_column": {
      "latitude": "29.957160223184292",
      "longitude": "-90.11000474032757"
    }
  },
  {
    "service_request": "2026-1278674",
    "request_type": "Tree Service",
    "request_reason": "Tree Trim",
    "date_created": "2026-05-04T14:53:18.000",
    "date_modified": "2026-05-04T14:53:20.000",
    "request_status": "Pending",
    "responsible_agency": "Department of Parks & Parkways",
    "final_address": "4700 BLK Papania Dr",
    "address_councildis": "E",
    "status": "Pending",
    "rowid": "1278674",
    "final_x": "3715566.59836",
    "final_y": "557008.65808",
    "longitude": "-89.95953655008307",
    "latitude": "30.024501433152338",
    "geocoded_column": {
      "latitude": "30.024501433152338",
      "longitude": "-89.95953655008307"
    }
  },
  {
    "service_request": "2026-1278673",
    "request_type": "Abandoned Vehicles",
    "request_reason": "Abandoned/Junk Vehicles",
    "date_created": "2026-05-04T14:52:48.000",
    "date_modified": "2026-05-04T14:52:49.000",
    "request_status": "Pending",
    "responsible_agency": "Department of Public Works",
    "final_address": "1229 St Andrew St",
    "address_councildis": "B",
    "status": "Pending",
    "rowid": "1278673",
    "final_x": "3679147.14357",
    "final_y": "523064.109755",
    "longitude": "-90.07579283041892",
    "latitude": "29.93231602707715",
    "geocoded_column": {
      "latitude": "29.93231602707715",
      "longitude": "-90.07579283041892"
    }
  },
  {
    "service_request": "2026-1278672",
    "request_type": "Trash/Recycling",
    "request_reason": "Request a Large Item Pick Up",
    "date_created": "2026-05-04T14:52:39.000",
    "date_modified": "2026-05-04T14:52:41.000",
    "request_status": "Pending",
    "responsible_agency": "Department of Sanitation",
    "final_address": "1250 Aurora Dr",
    "address_councildis": "C",
    "status": "Assigned to Contractor",
    "contractor": "Richards Disposal",
    "rowid": "1278672",
    "final_x": "3706809.99505",
    "final_y": "517262.945141",
    "longitude": "-89.98867944743144",
    "latitude": "29.915501078444493",
    "geocoded_column": {
      "latitude": "29.915501078444493",
      "longitude": "-89.98867944743144"
    }
  },
  {
    "service_request": "2026-1278671",
    "request_type": "Trash/Recycling",
    "request_reason": "Order Second Trash Cart",
    "date_created": "2026-05-04T14:52:36.000",
    "date_modified": "2026-05-04T14:52:38.000",
    "request_status": "Pending",
    "responsible_agency": "Department of Sanitation",
    "final_address": "6927 Bellaire Dr",
    "address_councildis": "A",
    "status": "Assigned to Contractor",
    "contractor": "IV Waste",
    "rowid": "1278671",
    "final_x": "3664738.18247",
    "final_y": "553920.978007",
    "longitude": "-90.12024947749516",
    "latitude": "30.017589088134084",
    "geocoded_column": {
      "latitude": "30.017589088134084",
      "longitude": "-90.12024947749516"
    }
  },
  {
    "service_request": "2026-1278670",
    "request_type": "Trash/Recycling",
    "request_reason": "Request a Large Item Pick Up",
    "date_created": "2026-05-04T14:51:03.000",
    "date_modified": "2026-05-04T14:51:04.000",
    "request_status": "Pending",
    "responsible_agency": "Department of Sanitation",
    "final_address": "2412 Fats Domino Ave",
    "address_councildis": "E",
    "status": "Assigned to Contractor",
    "contractor": "Waste Pro",
    "rowid": "1278670",
    "final_x": "3699323.6753",
    "final_y": "538778.689609",
    "longitude": "-90.0115255220463",
    "latitude": "29.974901275758604",
    "geocoded_column": {
      "latitude": "29.974901275758604",
      "longitude": "-90.0115255220463"
    }
  },
  {
    "service_request": "2026-1278669",
    "request_type": "Trash/Recycling",
    "request_reason": "Return Trash Cart",
    "date_created": "2026-05-04T14:47:35.000",
    "date_modified": "2026-05-04T14:47:37.000",
    "request_status": "Pending",
    "responsible_agency": "Department of Sanitation",
    "final_address": "3200 River Oaks Dr",
    "address_councildis": "C",
    "status": "Assigned to Contractor",
    "contractor": "Richards Disposal",
    "rowid": "1278669",
    "final_x": "3701501.84375",
    "final_y": "519451.431223",
    "longitude": "-90.00535379010971",
    "latitude": "29.921688879545165",
    "geocoded_column": {
      "latitude": "29.921688879545165",
      "longitude": "-90.00535379010971"
    }
  },
  {
    "service_request": "2026-1278668",
    "request_type": "Trash/Recycling",
    "request_reason": "Dead Animal Pick Up",
    "date_created": "2026-05-04T14:46:11.000",
    "date_modified": "2026-05-04T15:03:50.000",
    "request_status": "Pending",
    "responsible_agency": "Department of Sanitation",
    "final_address": "4237 S Johnson St",
    "address_councildis": "B",
    "status": "Pending",
    "contractor": "IV Waste",
    "rowid": "1278668",
    "final_x": "3670656.60238",
    "final_y": "527311.505727",
    "longitude": "-90.10245270687717",
    "latitude": "29.944248481130572",
    "geocoded_column": {
      "latitude": "29.944248481130572",
      "longitude": "-90.10245270687717"
    }
  },
  {
    "service_request": "2026-1278667",
    "request_type": "Trash/Recycling",
    "request_reason": "Repair Trash Cart",
    "date_created": "2026-05-04T14:43:50.000",
    "date_modified": "2026-05-04T15:04:36.000",
    "request_status": "Pending",
    "responsible_agency": "Department of Sanitation",
    "final_address": "13204 St Helena Pl",
    "address_councildis": "E",
    "status": "Assigned to Contractor",
    "contractor": "Waste Pro",
    "rowid": "1278667",
    "final_x": "3726556.74611",
    "final_y": "564424.670881",
    "longitude": "-89.92452202548104",
    "latitude": "30.044525529747112",
    "geocoded_column": {
      "latitude": "30.044525529747112",
      "longitude": "-89.92452202548104"
    }
  },
  {
    "service_request": "2026-1278666",
    "request_type": "Trash/Recycling",
    "request_reason": "Replace Trash Cart",
    "date_created": "2026-05-04T14:39:39.000",
    "date_modified": "2026-05-04T14:39:41.000",
    "request_status": "Pending",
    "responsible_agency": "Department of Sanitation",
    "final_address": "3421 Palmyra St",
    "address_councildis": "B",
    "status": "Assigned to Contractor",
    "contractor": "IV Waste",
    "rowid": "1278666",
    "final_x": "3672513.06964",
    "final_y": "536315.702919",
    "longitude": "-90.0962843832652",
    "latitude": "29.968952067520373",
    "geocoded_column": {
      "latitude": "29.968952067520373",
      "longitude": "-90.0962843832652"
    }
  },
  {
    "service_request": "2026-1278665",
    "request_type": "Trash/Recycling",
    "request_reason": "Request a Large Item Pick Up",
    "date_created": "2026-05-04T14:39:32.000",
    "date_modified": "2026-05-04T14:39:33.000",
    "request_status": "Pending",
    "responsible_agency": "Department of Sanitation",
    "final_address": "7830 Briarwood Dr",
    "address_councildis": "E",
    "status": "Assigned to Contractor",
    "contractor": "Waste Pro",
    "rowid": "1278665",
    "final_x": "3716713.60927",
    "final_y": "571863.48932",
    "longitude": "-89.95534775858627",
    "latitude": "30.06530830187214",
    "geocoded_column": {
      "latitude": "30.06530830187214",
      "longitude": "-89.95534775858627"
    }
  },
  {
    "service_request": "2026-1278664",
    "request_type": "Trash/Recycling",
    "request_reason": "Request a Large Item Pick Up",
    "date_created": "2026-05-04T14:37:54.000",
    "date_modified": "2026-05-04T14:37:56.000",
    "request_status": "Pending",
    "responsible_agency": "Department of Sanitation",
    "final_address": "10321 Brookfield Dr",
    "address_councildis": "E",
    "status": "Assigned to Contractor",
    "contractor": "Waste Pro",
    "rowid": "1278664",
    "final_x": "3710483.0236",
    "final_y": "563227.483936",
    "longitude": "-89.97536671587568",
    "latitude": "30.04176734543833",
    "geocoded_column": {
      "latitude": "30.04176734543833",
      "longitude": "-89.97536671587568"
    }
  },
  {
    "service_request": "2026-1278663",
    "request_type": "Trash/Recycling",
    "request_reason": "Request a Large Item Pick Up",
    "date_created": "2026-05-04T14:35:26.000",
    "date_modified": "2026-05-04T14:35:29.000",
    "request_status": "Pending",
    "responsible_agency": "Department of Sanitation",
    "final_address": "4944 Nottingham Dr",
    "address_councildis": "E",
    "status": "Assigned to Contractor",
    "contractor": "Waste Pro",
    "rowid": "1278663",
    "final_x": "3716220.01317",
    "final_y": "557858.229403",
    "longitude": "-89.95743966340213",
    "latitude": "30.02681585890228",
    "geocoded_column": {
      "latitude": "30.02681585890228",
      "longitude": "-89.95743966340213"
    }
  },
  {
    "service_request": "2026-1278662",
    "request_type": "Trash/Recycling",
    "request_reason": "Order Recycling Cart",
    "date_created": "2026-05-04T14:33:25.000",
    "date_modified": "2026-05-04T14:33:26.000",
    "request_status": "Pending",
    "responsible_agency": "Department of Sanitation",
    "final_address": "9022 Edinburgh St",
    "address_councildis": "A",
    "status": "Pending",
    "rowid": "1278662",
    "final_x": "3664951.77991",
    "final_y": "536691.656327",
    "longitude": "-90.12015096392541",
    "latitude": "29.970208107868693",
    "geocoded_column": {
      "latitude": "29.970208107868693",
      "longitude": "-90.12015096392541"
    }
  },
  {
    "service_request": "2026-1278661",
    "request_type": "Property Maintenance",
    "request_reason": "Property Maintenance",
    "date_created": "2026-05-04T14:32:31.000",
    "date_modified": "2026-05-04T15:39:53.000",
    "case_close_date": "2026-05-04T10:39:52.000",
    "request_status": "Closed",
    "responsible_agency": "Department of Code Enforcement",
    "final_address": "2108 N Rocheblave St",
    "address_councildis": "D",
    "status": "Referred to Code Enforcement",
    "rowid": "1278661",
    "final_x": "3683659.95893",
    "final_y": "540979.961227",
    "longitude": "-90.06091825014722",
    "latitude": "29.981441545251283",
    "geocoded_column": {
      "latitude": "29.981441545251283",
      "longitude": "-90.06091825014722"
    }
  },
  {
    "service_request": "2026-1278660",
    "request_type": "Trash/Recycling",
    "request_reason": "Request a Large Item Pick Up",
    "date_created": "2026-05-04T14:32:28.000",
    "date_modified": "2026-05-04T14:32:29.000",
    "request_status": "Pending",
    "responsible_agency": "Department of Sanitation",
    "final_address": "7571 Wave Dr",
    "address_councildis": "E",
    "status": "Assigned to Contractor",
    "contractor": "Waste Pro",
    "rowid": "1278660",
    "final_x": "3715196.37221",
    "final_y": "568582.098597",
    "longitude": "-89.96026816783579",
    "latitude": "30.056335917197696",
    "geocoded_column": {
      "latitude": "30.056335917197696",
      "longitude": "-89.96026816783579"
    }
  },
  {
    "service_request": "2026-1278659",
    "request_type": "Trash/Recycling",
    "request_reason": "Order Recycling Cart",
    "date_created": "2026-05-04T14:30:15.000",
    "date_modified": "2026-05-04T14:30:16.000",
    "request_status": "Pending",
    "responsible_agency": "Department of Sanitation",
    "final_address": "9022 Edinburgh St",
    "address_councildis": "A",
    "status": "Pending",
    "rowid": "1278659",
    "final_x": "3664951.77991",
    "final_y": "536691.656327",
    "longitude": "-90.12015096392541",
    "latitude": "29.970208107868693",
    "geocoded_column": {
      "latitude": "29.970208107868693",
      "longitude": "-90.12015096392541"
    }
  },
  {
    "service_request": "2026-1278658",
    "request_type": "Trash/Recycling",
    "request_reason": "Request a Large Item Pick Up",
    "date_created": "2026-05-04T14:29:50.000",
    "date_modified": "2026-05-04T14:29:51.000",
    "request_status": "Pending",
    "responsible_agency": "Department of Sanitation",
    "final_address": "7300 Shubrick Ave",
    "address_councildis": "E",
    "status": "Assigned to Contractor",
    "contractor": "Waste Pro",
    "rowid": "1278658",
    "final_x": "3707200.02833",
    "final_y": "562812.238496",
    "longitude": "-89.98575754486897",
    "latitude": "30.040732157998285",
    "geocoded_column": {
      "latitude": "30.040732157998285",
      "longitude": "-89.98575754486897"
    }
  },
  {
    "service_request": "2026-1278657",
    "request_type": "Streetlights",
    "request_reason": "Streetlight Outage/Malfunction",
    "date_created": "2026-05-04T14:29:16.000",
    "date_modified": "2026-05-04T14:29:18.000",
    "request_status": "Pending",
    "responsible_agency": "Department of Public Works",
    "final_address": "643 Majestic Pl",
    "address_councildis": "C",
    "status": "Pending",
    "rowid": "1278657",
    "final_x": "3687948.08111",
    "final_y": "526195.560574",
    "longitude": "-90.04789826617386",
    "latitude": "29.940657939222604",
    "geocoded_column": {
      "latitude": "29.940657939222604",
      "longitude": "-90.04789826617386"
    }
  },
  {
    "service_request": "2026-1278656",
    "request_type": "Roads and Streets",
    "request_reason": "Sidewalk Damaged or Missing",
    "date_created": "2026-05-04T14:25:41.000",
    "date_modified": "2026-05-04T14:25:43.000",
    "request_status": "Pending",
    "responsible_agency": "Department of Public Works",
    "final_address": "5419 Chamberlain Dr",
    "address_councildis": "D",
    "status": "Pending",
    "rowid": "1278656",
    "final_x": "3679551.81999",
    "final_y": "552437.273622",
    "longitude": "-90.07349576838763",
    "latitude": "30.013069893514754",
    "geocoded_column": {
      "latitude": "30.013069893514754",
      "longitude": "-90.07349576838763"
    }
  },
  {
    "service_request": "2026-1278655",
    "request_type": "Trash/Recycling",
    "request_reason": "Request a Large Item Pick Up",
    "date_created": "2026-05-04T14:25:40.000",
    "date_modified": "2026-05-04T14:25:44.000",
    "request_status": "Pending",
    "responsible_agency": "Department of Sanitation",
    "final_address": "7576 Briarheath Dr",
    "address_councildis": "E",
    "status": "Assigned to Contractor",
    "contractor": "Waste Pro",
    "rowid": "1278655",
    "final_x": "3715184.62463",
    "final_y": "566536.105251",
    "longitude": "-89.9603827876604",
    "latitude": "30.050710661669463",
    "geocoded_column": {
      "latitude": "30.050710661669463",
      "longitude": "-89.9603827876604"
    }
  },
  {
    "service_request": "2026-1278654",
    "request_type": "Property Maintenance",
    "request_reason": "Property Maintenance",
    "date_created": "2026-05-04T14:23:25.000",
    "date_modified": "2026-05-04T14:35:03.000",
    "request_status": "Pending",
    "responsible_agency": "Department of Code Enforcement",
    "final_address": "9037 Edinburgh St",
    "address_councildis": "A",
    "status": "Pending",
    "rowid": "1278654",
    "final_x": "3664930.67348",
    "final_y": "536809.049864",
    "longitude": "-90.1202136954389",
    "latitude": "29.97053151565013",
    "geocoded_column": {
      "latitude": "29.97053151565013",
      "longitude": "-90.1202136954389"
    }
  },
  {
    "service_request": "2026-1278653",
    "request_type": "Trash/Recycling",
    "request_reason": "Request a Large Item Pick Up",
    "date_created": "2026-05-04T14:23:19.000",
    "date_modified": "2026-05-04T14:23:21.000",
    "request_status": "Pending",
    "responsible_agency": "Department of Sanitation",
    "final_address": "5161 Mckendall Pl",
    "address_councildis": "E",
    "status": "Assigned to Contractor",
    "contractor": "Waste Pro",
    "rowid": "1278653",
    "final_x": "3718040.40812",
    "final_y": "558988.36982",
    "longitude": "-89.9516444101616",
    "latitude": "30.02986306250867",
    "geocoded_column": {
      "latitude": "30.02986306250867",
      "longitude": "-89.9516444101616"
    }
  },