[
  {
    "service_request": "2024-1139509",
    "request_type": "Streetlights",
    "request_reason": "Streetlight Outage/Malfunction",
    "date_created": "2024-10-08T23:42:07.000",
    "date_modified": "2024-10-08T23:42:09.000",
    "request_status": "Pending",
    "responsible_agency": "Department of Public Works",
    "final_address": "1020 Fern St",
    "address_councildis": "A",
    "status": "Pending",
    "contractor": "Legacy Professional Services",
    "rowid": "1139509",
    "final_x": "3662150.4457",
    "final_y": "527495.056831",
    "longitude": "-90.12930310611277",
    "latitude": "29.945001696926575",
    "geocoded_column": {
      "latitude": "29.945001696926575",
      "longitude": "-90.12930310611277"
    }
  },
  {
    "service_request": "2024-1139508",
    "request_type": "Streetlights",
    "request_reason": "Streetlight Outage/Malfunction",
    "date_created": "2024-10-08T23:37:01.000",
    "date_modified": "2024-10-08T23:37:02.000",
    "request_status": "Pending",
    "responsible_agency": "Department of Public Works",
    "final_address": "1020 Fern St",
    "address_councildis": "A",
    "status": "Pending",
    "contractor": "Legacy Professional Services",
    "rowid": "1139508",
    "final_x": "3662150.4457",
    "final_y": "527495.056831",
    "longitude": "-90.12930310611277",
    "latitude": "29.945001696926575",
    "geocoded_column": {
      "latitude": "29.945001696926575",
      "longitude": "-90.12930310611277"
    }
  },
  {
    "service_request": "2024-1139507",
    "request_type": "Safety & Permits",
    "request_reason": "Licenses & Permits",
    "date_created": "2024-10-08T23:19:50.000",
    "date_modified": "2024-10-08T23:19:50.000",
    "request_status": "Pending",
    "responsible_agency": "Safety and Permits",
    "final_address": "600 BLK N Broad St",
    "address_councildis": "A",
    "status": "Pending",
    "rowid": "1139507",
    "final_x": "3676515.48092",
    "final_y": "536741.439756",
    "longitude": "-90.08362983132288",
    "latitude": "29.970003279109058",
    "geocoded_column": {
      "latitude": "29.970003279109058",
      "longitude": "-90.08362983132288"
    }
  },
  {
    "service_request": "2024-1139506",
    "request_type": "Safety & Permits",
    "request_reason": "Licenses & Permits",
    "date_created": "2024-10-08T23:16:42.000",
    "date_modified": "2024-10-08T23:16:42.000",
    "request_status": "Pending",
    "responsible_agency": "Safety and Permits",
    "final_address": "6068 Canal Blvd",
    "address_councildis": "A",
    "status": "Pending",
    "rowid": "1139506",
    "final_x": "3668403.33185",
    "final_y": "547897.583826",
    "longitude": "-90.10887238651094",
    "latitude": "30.000919661027034",
    "geocoded_column": {
      "latitude": "30.000919661027034",
      "longitude": "-90.10887238651094"
    }
  },
  {
    "service_request": "2024-1139505",
    "request_type": "Trash/Recycling",
    "request_reason": "Missed Trash Pick-Up",
    "date_created": "2024-10-08T23:10:38.000",
    "date_modified": "2024-10-08T23:10:39.000",
    "request_status": "Pending",
    "responsible_agency": "Department of Sanitation",
    "final_address": "2719 Ursulines Ave",
    "address_councildis": "A",
    "status": "Assigned to Contractor",
    "contractor": "IV Waste",
    "rowid": "1139505",
    "final_x": "3677341.38965",
    "final_y": "538462.778953",
    "longitude": "-90.08096211263252",
    "latitude": "29.974711578869663",
    "geocoded_column": {
      "latitude": "29.974711578869663",
      "longitude": "-90.08096211263252"
    }
  },
  {
    "service_request": "2024-1139504",
    "request_type": "Trash/Recycling",
    "request_reason": "Replace Trash Cart",
    "date_created": "2024-10-08T22:42:16.000",
    "date_modified": "2024-10-08T22:42:17.000",
    "request_status": "Pending",
    "responsible_agency": "Department of Sanitation",
    "final_address": "3045 St Ann St",
    "address_councildis": "A",
    "status": "Assigned to Contractor",
    "contractor": "IV Waste",
    "rowid": "1139504",
    "final_x": "3675623.52961",
    "final_y": "538246.194697",
    "longitude": "-90.08639499037336",
    "latitude": "29.974167561112942",
    "geocoded_column": {
      "latitude": "29.974167561112942",
      "longitude": "-90.08639499037336"
    }
  },
  {
    "service_request": "2024-1139503",
    "request_type": "Abandoned Vehicles",
    "request_reason": "Abandoned/Junk Vehicles",
    "date_created": "2024-10-08T22:16:41.000",
    "date_modified": "2024-10-08T22:16:41.000",
    "request_status": "Pending",
    "responsible_agency": "Department of Public Works",
    "final_address": "534 S Telemachus St",
    "address_councildis": "B",
    "status": "Pending",
    "rowid": "1139503",
    "final_x": "3671222.32423",
    "final_y": "535861.903943",
    "longitude": "-90.10037607274316",
    "latitude": "29.967742525683168",
    "geocoded_column": {
      "latitude": "29.967742525683168",
      "longitude": "-90.10037607274316"
    }
  },
  {
    "service_request": "2024-1139502",
    "request_type": "Abandoned Vehicles",
    "request_reason": "Abandoned/Junk Vehicles",
    "date_created": "2024-10-08T22:15:25.000",
    "date_modified": "2024-10-08T22:15:25.000",
    "request_status": "Pending",
    "responsible_agency": "Department of Public Works",
    "final_address": "534 S Telemachus St",
    "address_councildis": "B",
    "status": "Pending",
    "rowid": "1139502",
    "final_x": "3671222.32423",
    "final_y": "535861.903943",
    "longitude": "-90.10037607274316",
    "latitude": "29.967742525683168",
    "geocoded_column": {
      "latitude": "29.967742525683168",
      "longitude": "-90.10037607274316"
    }
  },
  {
    "service_request": "2024-1139501",
    "request_type": "Trash/Recycling",
    "request_reason": "Request a Large Item Pick Up",
    "date_created": "2024-10-08T22:10:02.000",
    "date_modified": "2024-10-08T22:10:04.000",
    "request_status": "Pending",
    "responsible_agency": "Department of Sanitation",
    "final_address": "4842 Gabriel Dr",
    "address_councildis": "E",
    "status": "Assigned to Contractor",
    "contractor": "Waste Pro",
    "rowid": "1139501",
    "final_x": "3708759.61144",
    "final_y": "556382.21609",
    "longitude": "-89.98106859726059",
    "latitude": "30.023001607871134",
    "geocoded_column": {
      "latitude": "30.023001607871134",
      "longitude": "-89.98106859726059"
    }
  },
  {
    "service_request": "2024-1139500",
    "request_type": "Streetlights",
    "request_reason": "Streetlight Outage/Malfunction",
    "date_created": "2024-10-08T21:31:09.000",
    "date_modified": "2024-10-08T21:31:11.000",
    "request_status": "Pending",
    "responsible_agency": "Department of Public Works",
    "final_address": "3726 Dickens Dr",
    "address_councildis": "C",
    "status": "Pending",
    "contractor": "Legacy Professional Services",
    "rowid": "1139500",
    "final_x": "3707849.56689",
    "final_y": "517181.815093",
    "longitude": "-89.98540121076792",
    "latitude": "29.915244413546706",
    "geocoded_column": {
      "latitude": "29.915244413546706",
      "longitude": "-89.98540121076792"
    }
  },
  {
    "service_request": "2024-1139499",
    "request_type": "Streetlights",
    "request_reason": "Streetlight Outage/Malfunction",
    "date_created": "2024-10-08T21:30:16.000",
    "date_modified": "2024-10-08T21:30:25.000",
    "request_status": "Pending",
    "responsible_agency": "Department of Public Works",
    "final_address": "WOODLAND BRIDGE & WOODLAND HWY",
    "address_councildis": "C",
    "status": "Pending",
    "contractor": "Legacy Professional Services",
    "rowid": "1139499",
    "final_x": "3710002.1",
    "final_y": "513116.08",
    "longitude": "-89.97875879866287",
    "latitude": "29.90399525116702",
    "geocoded_column": {
      "latitude": "29.90399525116702",
      "longitude": "-89.97875879866287"
    }
  },
  {
    "service_request": "2024-1139498",
    "request_type": "Trash/Recycling",
    "request_reason": "Request a Large Item Pick Up",
    "date_created": "2024-10-08T21:17:20.000",
    "date_modified": "2024-10-08T21:17:21.000",
    "request_status": "Pending",
    "responsible_agency": "Department of Sanitation",
    "final_address": "2027 Burdette St",
    "address_councildis": "A",
    "status": "Assigned to Contractor",
    "contractor": "IV Waste",
    "rowid": "1139498",
    "final_x": "3664876.99789",
    "final_y": "529824.426945",
    "longitude": "-90.12061666684512",
    "latitude": "29.951327652999986",
    "geocoded_column": {
      "latitude": "29.951327652999986",
      "longitude": "-90.12061666684512"
    }
  },
  {
    "service_request": "2024-1139497",
    "request_type": "Trash/Recycling",
    "request_reason": "Illegal Dumping",
    "date_created": "2024-10-08T21:05:15.000",
    "date_modified": "2024-10-08T21:05:15.000",
    "request_status": "Pending",
    "responsible_agency": "Department of Sanitation",
    "final_address": "1017 St Philip St",
    "address_councildis": "C",
    "status": "Pending",
    "rowid": "1139497",
    "final_x": "3682254.4093",
    "final_y": "534126.849669",
    "longitude": "-90.0655970992148",
    "latitude": "29.962640702997454",
    "geocoded_column": {
      "latitude": "29.962640702997454",
      "longitude": "-90.0655970992148"
    }
  },
  {
    "service_request": "2024-1139496",
    "request_type": "Streetlights",
    "request_reason": "Streetlight Outage/Malfunction",
    "date_created": "2024-10-08T20:59:17.000",
    "date_modified": "2024-10-08T20:59:18.000",
    "request_status": "Pending",
    "responsible_agency": "Department of Public Works",
    "final_address": "6017 Chartres St",
    "address_councildis": "E",
    "status": "Pending",
    "contractor": "Legacy Professional Services",
    "rowid": "1139496",
    "final_x": "3698597.9466",
    "final_y": "531681.635139",
    "longitude": "-90.01407560934719",
    "latitude": "29.955409912387754",
    "geocoded_column": {
      "latitude": "29.955409912387754",
      "longitude": "-90.01407560934719"
    }
  },
  {
    "service_request": "2024-1139495",
    "request_type": "Trash/Recycling",
    "request_reason": "Request a Large Item Pick Up",
    "date_created": "2024-10-08T20:54:24.000",
    "date_modified": "2024-10-08T20:54:25.000",
    "request_status": "Pending",
    "responsible_agency": "Department of Sanitation",
    "final_address": "2419 Mazant St",
    "address_councildis": "D",
    "status": "Assigned to Contractor",
    "contractor": "IV Waste",
    "rowid": "1139495",
    "final_x": "3693407.7768",
    "final_y": "540284.235595",
    "longitude": "-90.03015527265391",
    "latitude": "29.97922730979968",
    "geocoded_column": {
      "latitude": "29.97922730979968",
      "longitude": "-90.03015527265391"
    }
  },
  {
    "service_request": "2024-1139494",
    "request_type": "Trash/Recycling",
    "request_reason": "Request a Large Item Pick Up",
    "date_created": "2024-10-08T20:37:25.000",
    "date_modified": "2024-10-08T20:37:26.000",
    "request_status": "Pending",
    "responsible_agency": "Department of Sanitation",
    "final_address": "4934 Arthur Dr",
    "address_councildis": "E",
    "status": "Assigned to Contractor",
    "contractor": "Waste Pro",
    "rowid": "1139494",
    "final_x": "3707498.89912",
    "final_y": "556724.41481",
    "longitude": "-89.98503940895823",
    "latitude": "30.023983370575436",
    "geocoded_column": {
      "latitude": "30.023983370575436",
      "longitude": "-89.98503940895823"
    }
  },
  {
    "service_request": "2024-1139493",
    "request_type": "Trash/Recycling",
    "request_reason": "Request a Large Item Pick Up",
    "date_created": "2024-10-08T20:37:24.000",
    "date_modified": "2024-10-08T20:37:25.000",
    "request_status": "Pending",
    "responsible_agency": "Department of Sanitation",
    "final_address": "4444 Dodt Ave, New Orleans, Louisiana, 70126",
    "address_councildis": "E",
    "status": "Assigned to Contractor",
    "contractor": "Waste Pro",
    "rowid": "1139493",
    "final_x": "3705551.04625",
    "final_y": "553695.131799",
    "longitude": "-89.99130630817118",
    "latitude": "30.01571689027482",
    "geocoded_column": {
      "latitude": "30.01571689027482",
      "longitude": "-89.99130630817118"
    }
  },
  {
    "service_request": "2024-1139492",
    "request_type": "Traffic Signals",
    "request_reason": "Traffic Signal Malfunctioning or Damaged",
    "date_created": "2024-10-08T20:29:30.000",
    "date_modified": "2024-10-08T20:29:30.000",
    "request_status": "Pending",
    "responsible_agency": "Department of Public Works",
    "final_address": "N RAMPART ST & CANAL ST & S RAMPART ST",
    "address_councildis": "C",
    "status": "Pending",
    "rowid": "1139492",
    "final_x": "3680023.1",
    "final_y": "531616.58",
    "longitude": "-90.07273048367091",
    "latitude": "29.955806004744357",
    "geocoded_column": {
      "latitude": "29.955806004744357",
      "longitude": "-90.07273048367091"
    }
  },
  {
    "service_request": "2024-1139491",
    "request_type": "Trash/Recycling",
    "request_reason": "Order Recycling Cart",
    "date_created": "2024-10-08T20:28:26.000",
    "date_modified": "2024-10-08T20:28:26.000",
    "request_status": "Pending",
    "responsible_agency": "Department of Sanitation",
    "final_address": "6036 Camp St",
    "address_councildis": "A",
    "status": "Pending",
    "rowid": "1139491",
    "final_x": "3664474.48295",
    "final_y": "519590.770936",
    "longitude": "-90.12222915006073",
    "latitude": "29.923200064259003",
    "geocoded_column": {
      "latitude": "29.923200064259003",
      "longitude": "-90.12222915006073"
    }
  },
  {
    "service_request": "2024-1139490",
    "request_type": "Streetlights",
    "request_reason": "Streetlight Outage/Malfunction",
    "date_created": "2024-10-08T19:47:48.000",
    "date_modified": "2024-10-08T19:47:49.000",
    "request_status": "Pending",
    "responsible_agency": "Department of Public Works",
    "final_address": "1400 State St",
    "address_councildis": "A",
    "status": "Pending",
    "contractor": "Legacy Professional Services",
    "rowid": "1139490",
    "final_x": "3665279.9961",
    "final_y": "521227.804793",
    "longitude": "-90.11963170657584",
    "latitude": "29.92767795713313",
    "geocoded_column": {
      "latitude": "29.92767795713313",
      "longitude": "-90.11963170657584"
    }
  },
  {
    "service_request": "2024-1139489",
    "request_type": "Streetlights",
    "request_reason": "Streetlight Outage/Malfunction",
    "date_created": "2024-10-08T19:46:19.000",
    "date_modified": "2024-10-08T19:46:20.000",
    "request_status": "Pending",
    "responsible_agency": "Department of Public Works",
    "final_address": "3000 BLK Almonaster Ave",
    "address_councildis": "D",
    "status": "Pending",
    "contractor": "Legacy Professional Services",
    "rowid": "1139489",
    "final_x": "3689308.68007",
    "final_y": "545338.689622",
    "longitude": "-90.04292200150729",
    "latitude": "29.99325280002058",
    "geocoded_column": {
      "latitude": "29.99325280002058",
      "longitude": "-90.04292200150729"
    }
  },
  {
    "service_request": "2024-1139488",
    "request_type": "Streetlights",
    "request_reason": "Streetlight Outage/Malfunction",
    "date_created": "2024-10-08T19:41:39.000",
    "date_modified": "2024-10-08T19:41:40.000",
    "request_status": "Pending",
    "responsible_agency": "Department of Public Works",
    "final_address": "2900 BLK Almonaster Ave",
    "address_councildis": "D",
    "status": "Pending",
    "contractor": "Legacy Professional Services",
    "rowid": "1139488",
    "final_x": "3689254.57585",
    "final_y": "544826.986577",
    "longitude": "-90.04311110785184",
    "latitude": "29.99184747633627",
    "geocoded_column": {
      "latitude": "29.99184747633627",
      "longitude": "-90.04311110785184"
    }
  },
  {
    "service_request": "2024-1139487",
    "request_type": "Trash/Recycling",
    "request_reason": "Request a Large Item Pick Up",
    "date_created": "2024-10-08T19:39:52.000",
    "date_modified": "2024-10-08T19:39:53.000",
    "request_status": "Pending",
    "responsible_agency": "Department of Sanitation",
    "final_address": "1808 Tennessee St",
    "address_councildis": "E",
    "status": "Assigned to Contractor",
    "contractor": "Waste Pro",
    "rowid": "1139487",
    "final_x": "3696391.13546",
    "final_y": "537041.110856",
    "longitude": "-90.02085003666046",
    "latitude": "29.970216248836593",
    "geocoded_column": {
      "latitude": "29.970216248836593",
      "longitude": "-90.02085003666046"
    }
  },
  {
    "service_request": "2024-1139486",
    "request_type": "Streetlights",
    "request_reason": "Streetlight Outage/Malfunction",
    "date_created": "2024-10-08T19:34:11.000",
    "date_modified": "2024-10-08T19:34:13.000",
    "request_status": "Pending",
    "responsible_agency": "Department of Public Works",
    "final_address": "2900 BLK Almonaster Ave",
    "address_councildis": "D",
    "status": "Pending",
    "contractor": "Legacy Professional Services",
    "rowid": "1139486",
    "final_x": "3689188.41424",
    "final_y": "544570.131448",
    "longitude": "-90.04332923218615",
    "latitude": "29.99114326545339",
    "geocoded_column": {
      "latitude": "29.99114326545339",
      "longitude": "-90.04332923218615"
    }
  },
  {
    "service_request": "2024-1139485",
    "request_type": "Streetlights",
    "request_reason": "Streetlight Outage/Malfunction",
    "date_created": "2024-10-08T19:28:44.000",
    "date_modified": "2024-10-08T19:28:45.000",
    "request_status": "Pending",
    "responsible_agency": "Department of Public Works",
    "final_address": "3000 BLK Almonaster Ave",
    "address_councildis": "D",
    "status": "Pending",
    "contractor": "Legacy Professional Services",
    "rowid": "1139485",
    "final_x": "3689355.39389",
    "final_y": "545208.955301",
    "longitude": "-90.04277905637214",
    "latitude": "29.992894630827525",
    "geocoded_column": {
      "latitude": "29.992894630827525",
      "longitude": "-90.04277905637214"
    }
  },
  {
    "service_request": "2024-1139484",
    "request_type": "Roads and Streets",
    "request_reason": "Abandoned Service Cut",
    "date_created": "2024-10-08T19:23:35.000",
    "date_modified": "2024-10-08T19:23:35.000",
    "request_status": "Pending",
    "responsible_agency": "Department of Public Works",
    "final_address": "313 Pacific Ave",
    "address_councildis": "C",
    "status": "Pending",
    "rowid": "1139484",
    "final_x": "3688495.79983",
    "final_y": "530621.786178",
    "longitude": "-90.04601203179556",
    "latitude": "29.952811640789854",
    "geocoded_column": {
      "latitude": "29.952811640789854",
      "longitude": "-90.04601203179556"
    }
  },
  {
    "service_request": "2024-1139483",
    "request_type": "Streetlights",
    "request_reason": "Streetlight Outage/Malfunction",
    "date_created": "2024-10-08T19:22:03.000",
    "date_modified": "2024-10-08T19:22:04.000",
    "request_status": "Pending",
    "responsible_agency": "Department of Public Works",
    "final_address": "2701 Higgins Blvd",
    "address_councildis": "D",
    "status": "Pending",
    "contractor": "Legacy Professional Services",
    "rowid": "1139483",
    "final_x": "3689404.51068",
    "final_y": "545147.594511",
    "longitude": "-90.04262608890794",
    "latitude": "29.992724389590062",
    "geocoded_column": {
      "latitude": "29.992724389590062",
      "longitude": "-90.04262608890794"
    }
  },
  {
    "service_request": "2024-1139482",
    "request_type": "Streetlights",
    "request_reason": "Streetlight Outage/Malfunction",
    "date_created": "2024-10-08T19:17:57.000",
    "date_modified": "2024-10-08T19:17:58.000",
    "request_status": "Pending",
    "responsible_agency": "Department of Public Works",
    "final_address": "3200 BLK Almonaster Ave",
    "address_councildis": "D",
    "status": "Pending",
    "contractor": "Legacy Professional Services",
    "rowid": "1139482",
    "final_x": "3689432.72444",
    "final_y": "545508.900568",
    "longitude": "-90.04252411011409",
    "latitude": "29.993716976981915",
    "geocoded_column": {
      "latitude": "29.993716976981915",
      "longitude": "-90.04252411011409"
    }
  },
  {
    "service_request": "2024-1139481",
    "request_type": "Property Maintenance",
    "request_reason": "Property Maintenance",
    "date_created": "2024-10-08T19:10:47.000",
    "date_modified": "2024-10-08T19:10:47.000",
    "request_status": "Pending",
    "responsible_agency": "Department of Code Enforcement",
    "final_address": "7690 Vincent Rd",
    "address_councildis": "E",
    "status": "Pending",
    "rowid": "1139481",
    "final_x": "3718223.63449",
    "final_y": "571764.564328",
    "longitude": "-89.95057822308358",
    "latitude": "30.06498628150632",
    "geocoded_column": {
      "latitude": "30.06498628150632",
      "longitude": "-89.95057822308358"
    }
  },
  {
    "service_request": "2024-1139480",
    "request_type": "Mosquito, Termite & Rodent Control",
    "request_reason": "Mosquito Complaint",
    "date_created": "2024-10-08T19:08:09.000",
    "date_modified": "2024-10-08T19:08:09.000",
    "request_status": "Pending",
    "responsible_agency": "Mosquito, Termite & Rodent Control Board",
    "final_address": "7680 Vincent Rd",
    "address_councildis": "E",
    "status": "Pending",
    "rowid": "1139480",
    "final_x": "3718262.38277",
    "final_y": "571717.571304",
    "longitude": "-89.95045752989452",
    "latitude": "30.0648557845783",
    "geocoded_column": {
      "latitude": "30.0648557845783",
      "longitude": "-89.95045752989452"
    }
  },
  {
    "service_request": "2024-1139479",
    "request_type": "Streetlights",
    "request_reason": "Streetlight Outage/Malfunction",
    "date_created": "2024-10-08T19:04:21.000",
    "date_modified": "2024-10-08T19:05:18.000",
    "request_status": "Pending",
    "responsible_agency": "Department of Public Works",
    "final_address": "3200 BLK Almonaster Ave",
    "address_councildis": "D",
    "status": "Pending",
    "contractor": "Legacy Professional Services",
    "rowid": "1139479",
    "final_x": "3689432.72444",
    "final_y": "545508.900568",
    "longitude": "-90.04252411011409",
    "latitude": "29.993716976981915",
    "geocoded_column": {
      "latitude": "29.993716976981915",
      "longitude": "-90.04252411011409"
    }
  },
  {
    "service_request": "2024-1139478",
    "request_type": "Property Maintenance",
    "request_reason": "Property Maintenance",
    "date_created": "2024-10-08T18:59:57.000",
    "date_modified": "2024-10-08T18:59:57.000",
    "request_status": "Pending",
    "responsible_agency": "Department of Code Enforcement",
    "final_address": "4518 Annunciation St",
    "address_councildis": "B",
    "status": "Pending",
    "rowid": "1139478",
    "final_x": "3670574.12923",
    "final_y": "517658.972278",
    "longitude": "-90.10304031865101",
    "latitude": "29.91770954791214",
    "geocoded_column": {
      "latitude": "29.91770954791214",
      "longitude": "-90.10304031865101"
    }
  },
  {
    "service_request": "2024-1139477",
    "request_type": "Roads and Streets",
    "request_reason": "Pothole",
    "date_created": "2024-10-08T18:55:50.000",
    "date_modified": "2024-10-08T18:55:50.000",
    "request_status": "Pending",
    "responsible_agency": "Department of Public Works",
    "final_address": "217 Pine St",
    "address_councildis": "A",
    "status": "Pending",
    "rowid": "1139477",
    "final_x": "3661352.41862",
    "final_y": "522780.50265",
    "longitude": "-90.13197880159657",
    "latitude": "29.932061197401016",
    "geocoded_column": {
      "latitude": "29.932061197401016",
      "longitude": "-90.13197880159657"
    }
  },
  {
    "service_request": "2024-1139476",
    "request_type": "Trash/Recycling",
    "request_reason": "Request a Large Item Pick Up",
    "date_created": "2024-10-08T18:55:15.000",
    "date_modified": "2024-10-08T18:55:17.000",
    "request_status": "Pending",
    "responsible_agency": "Department of Sanitation",
    "final_address": "7720 Swift St",
    "address_councildis": "E",
    "status": "Assigned to Contractor",
    "contractor": "Waste Pro",
    "rowid": "1139476",
    "final_x": "3695284.01834",
    "final_y": "559073.725212",
    "longitude": "-90.02355104612856",
    "latitude": "30.03083262940047",
    "geocoded_column": {
      "latitude": "30.03083262940047",
      "longitude": "-90.02355104612856"
    }
  },
  {
    "service_request": "2024-1139475",
    "request_type": "Roads and Streets",
    "request_reason": "Pothole",
    "date_created": "2024-10-08T18:52:24.000",
    "date_modified": "2024-10-08T18:52:24.000",
    "request_status": "Pending",
    "responsible_agency": "Department of Public Works",
    "final_address": "420 Alix St",
    "address_councildis": "C",
    "status": "Pending",
    "rowid": "1139475",
    "final_x": "3686839.18242",
    "final_y": "530310.102466",
    "longitude": "-90.0512538918816",
    "latitude": "29.95200568908624",
    "geocoded_column": {
      "latitude": "29.95200568908624",
      "longitude": "-90.0512538918816"
    }
  },
  {
    "service_request": "2024-1139474",
    "request_type": "Streetlights",
    "request_reason": "Streetlight Outage/Malfunction",
    "date_created": "2024-10-08T18:49:22.000",
    "date_modified": "2024-10-08T18:49:23.000",
    "request_status": "Pending",
    "responsible_agency": "Department of Public Works",
    "final_address": "341 Alix St",
    "address_councildis": "C",
    "status": "Pending",
    "contractor": "Legacy Professional Services",
    "rowid": "1139474",
    "final_x": "3686703.39977",
    "final_y": "530124.113281",
    "longitude": "-90.05168919729951",
    "latitude": "29.951498459223856",
    "geocoded_column": {
      "latitude": "29.951498459223856",
      "longitude": "-90.05168919729951"
    }
  },
  {
    "service_request": "2024-1139473",
    "request_type": "Health Related Request",
    "request_reason": "Homeless Encampment Complaint",
    "date_created": "2024-10-08T18:44:51.000",
    "date_modified": "2024-10-08T18:44:51.000",
    "request_status": "Pending",
    "responsible_agency": "Health Department",
    "final_address": "KERLEREC ST & N RAMPART ST",
    "address_councildis": "C",
    "status": "Pending",
    "rowid": "1139473",
    "final_x": "3683067.1",
    "final_y": "535614.98",
    "longitude": "-90.06297863420222",
    "latitude": "29.96670780110936",
    "geocoded_column": {
      "latitude": "29.96670780110936",
      "longitude": "-90.06297863420222"
    }
  },
  {
    "service_request": "2024-1139472",
    "request_type": "Trash/Recycling",
    "request_reason": "Request a Large Item Pick Up",
    "date_created": "2024-10-08T18:39:05.000",
    "date_modified": "2024-10-08T18:39:06.000",
    "request_status": "Pending",
    "responsible_agency": "Department of Sanitation",
    "final_address": "422 Homer St",
    "address_councildis": "C",
    "status": "Assigned to Contractor",
    "contractor": "Richards Disposal",
    "rowid": "1139472",
    "final_x": "3686751.17858",
    "final_y": "528359.366016",
    "longitude": "-90.05160066592279",
    "latitude": "29.946644536581744",
    "geocoded_column": {
      "latitude": "29.946644536581744",
      "longitude": "-90.05160066592279"
    }
  },
  {
    "service_request": "2024-1139471",
    "request_type": "Trash/Recycling",
    "request_reason": "Request a Large Item Pick Up",
    "date_created": "2024-10-08T18:34:45.000",
    "date_modified": "2024-10-08T18:34:47.000",
    "request_status": "Pending",
    "responsible_agency": "Department of Sanitation",
    "final_address": "5500 BLK Vicksburg St",
    "address_councildis": "A",
    "status": "Assigned to Contractor",
    "contractor": "IV Waste",
    "rowid": "1139471",
    "final_x": "3668725.6927",
    "final_y": "544262.893873",
    "longitude": "-90.10797681127953",
    "latitude": "29.990916040755273",
    "geocoded_column": {
      "latitude": "29.990916040755273",
      "longitude": "-90.10797681127953"
    }
  },
  {
    "service_request": "2024-1139470",
    "request_type": "Trash/Recycling",
    "request_reason": "Order Recycling Cart",
    "date_created": "2024-10-08T18:20:52.000",
    "date_modified": "2024-10-08T18:20:52.000",
    "request_status": "Pending",
    "responsible_agency": "Department of Sanitation",
    "final_address": "903 Jackson Ave",
    "address_councildis": "B",
    "status": "Pending",
    "rowid": "1139470",
    "final_x": "3679314.57903",
    "final_y": "521559.598393",
    "longitude": "-90.0753163981412",
    "latitude": "29.92817406029318",
    "geocoded_column": {
      "latitude": "29.92817406029318",
      "longitude": "-90.0753163981412"
    }
  },
  {
    "service_request": "2024-1139469",
    "request_type": "Trash/Recycling",
    "request_reason": "Replace Trash Cart",
    "date_created": "2024-10-08T18:07:17.000",
    "date_modified": "2024-10-08T18:07:18.000",
    "request_status": "Pending",
    "responsible_agency": "Department of Sanitation",
    "final_address": "8339 Panola St",
    "address_councildis": "A",
    "status": "Assigned to Contractor",
    "contractor": "IV Waste",
    "rowid": "1139469",
    "final_x": "3663343.48135",
    "final_y": "531443.257987",
    "longitude": "-90.12540489589722",
    "latitude": "29.955823453213792",
    "geocoded_column": {
      "latitude": "29.955823453213792",
      "longitude": "-90.12540489589722"
    }
  },
  {
    "service_request": "2024-1139468",
    "request_type": "Property Maintenance",
    "request_reason": "Property Maintenance",
    "date_created": "2024-10-08T17:43:50.000",
    "date_modified": "2024-10-08T17:43:50.000",
    "request_status": "Pending",
    "responsible_agency": "Department of Code Enforcement",
    "final_address": "2646 Westbend Prkwy",
    "address_councildis": "C",
    "status": "Pending",
    "rowid": "1139468",
    "final_x": "3696930.70871",
    "final_y": "521531.356921",
    "longitude": "-90.01970755342934",
    "latitude": "29.927552845486556",
    "geocoded_column": {
      "latitude": "29.927552845486556",
      "longitude": "-90.01970755342934"
    }
  },
  {
    "service_request": "2024-1139467",
    "request_type": "Trash/Recycling",
    "request_reason": "Illegal Dumping",
    "date_created": "2024-10-08T17:34:04.000",
    "date_modified": "2024-10-08T17:34:04.000",
    "request_status": "Pending",
    "responsible_agency": "Department of Sanitation",
    "final_address": "4939 Western St",
    "address_councildis": "D",
    "status": "Pending",
    "rowid": "1139467",
    "final_x": "3684118.51957",
    "final_y": "551036.226837",
    "longitude": "-90.05911669791848",
    "latitude": "30.009078673866547",
    "geocoded_column": {
      "latitude": "30.009078673866547",
      "longitude": "-90.05911669791848"
    }
  },
  {
    "service_request": "2024-1139466",
    "request_type": "Drainage",
    "request_reason": "Drainage Manhole Cover Missing or Damaged",
    "date_created": "2024-10-08T17:19:23.000",
    "date_modified": "2024-10-08T17:19:23.000",
    "request_status": "Pending",
    "responsible_agency": "Department of Public Works",
    "final_address": "900 BLK Homer St",
    "address_councildis": "C",
    "status": "Pending",
    "rowid": "1139466",
    "final_x": "3688289.43999",
    "final_y": "528323.611448",
    "longitude": "-90.04674510214672",
    "latitude": "29.94649882080669",
    "geocoded_column": {
      "latitude": "29.94649882080669",
      "longitude": "-90.04674510214672"
    }
  },
  {
    "service_request": "2024-1139465",
    "request_type": "Street and Traffic Signs",
    "request_reason": "Stop Sign Missing or Damaged",
    "date_created": "2024-10-08T17:15:46.000",
    "date_modified": "2024-10-08T17:15:46.000",
    "request_status": "Pending",
    "responsible_agency": "Department of Public Works",
    "final_address": "633 Whitney Ave",
    "address_councildis": "C",
    "status": "Pending",
    "rowid": "1139465",
    "final_x": "3690138.10172",
    "final_y": "529099.51392",
    "longitude": "-90.04088060737199",
    "latitude": "29.94857508087663",
    "geocoded_column": {
      "latitude": "29.94857508087663",
      "longitude": "-90.04088060737199"
    }
  },
  {
    "service_request": "2024-1139464",
    "request_type": "Parks & Parkways",
    "request_reason": "Request Tree Service (Right of Way/Public Property)",
    "date_created": "2024-10-08T17:15:45.000",
    "date_modified": "2024-10-08T17:15:45.000",
    "request_status": "Pending",
    "responsible_agency": "Department of Parks & Parkway",
    "final_address": "5024 Paris Ave",
    "address_councildis": "D",
    "status": "Pending",
    "rowid": "1139464",
    "final_x": "3679145.82754",
    "final_y": "550902.740885",
    "longitude": "-90.07483173633631",
    "latitude": "30.008862748110843",
    "geocoded_column": {
      "latitude": "30.008862748110843",
      "longitude": "-90.07483173633631"
    }
  },
  {
    "service_request": "2024-1139463",
    "request_type": "Trash/Recycling",
    "request_reason": "Request a Large Item Pick Up",
    "date_created": "2024-10-08T17:11:54.000",
    "date_modified": "2024-10-08T17:11:55.000",
    "request_status": "Pending",
    "responsible_agency": "Department of Sanitation",
    "final_address": "830 Whitney Ave",
    "address_councildis": "C",
    "status": "Assigned to Contractor",
    "contractor": "Richards Disposal",
    "rowid": "1139463",
    "final_x": "3690270.34556",
    "final_y": "528385.122304",
    "longitude": "-90.04048850948234",
    "latitude": "29.94660664713574",
    "geocoded_column": {
      "latitude": "29.94660664713574",
      "longitude": "-90.04048850948234"
    }
  },
  {
    "service_request": "2024-1139462",
    "request_type": "Trash/Recycling",
    "request_reason": "Request a Large Item Pick Up",
    "date_created": "2024-10-08T17:09:51.000",
    "date_modified": "2024-10-08T17:09:52.000",
    "request_status": "Pending",
    "responsible_agency": "Department of Sanitation",
    "final_address": "2112 L. B. Landry Ave",
    "address_councildis": "C",
    "status": "Assigned to Contractor",
    "contractor": "Richards Disposal",
    "rowid": "1139462",
    "final_x": "3690022.21859",
    "final_y": "522764.652922",
    "longitude": "-90.04147200540763",
    "latitude": "29.931159963178224",
    "geocoded_column": {
      "latitude": "29.931159963178224",
      "longitude": "-90.04147200540763"
    }
  },
  {
    "service_request": "2024-1139461",
    "request_type": "Trash/Recycling",
    "request_reason": "Replace Trash Cart",
    "date_created": "2024-10-08T16:59:14.000",
    "date_modified": "2024-10-08T16:59:15.000",
    "request_status": "Pending",
    "responsible_agency": "Department of Sanitation",
    "final_address": "10310 Chevy Chase Dr",
    "address_councildis": "E",
    "status": "Assigned to Contractor",
    "contractor": "Waste Pro",
    "rowid": "1139461",
    "final_x": "3710345.83525",
    "final_y": "563311.570656",
    "longitude": "-89.97579712943346",
    "latitude": "30.04200302002155",
    "geocoded_column": {
      "latitude": "30.04200302002155",
      "longitude": "-89.97579712943346"
    }
  },
  {
    "service_request": "2024-1139460",
    "request_type": "Trash/Recycling",
    "request_reason": "Request a Large Item Pick Up",
    "date_created": "2024-10-08T16:59:07.000",
    "date_modified": "2024-10-08T16:59:08.000",
    "request_status": "Pending",
    "responsible_agency": "Department of Sanitation",
    "final_address": "1019 Jackson Ave",
    "address_councildis": "B",
    "status": "Assigned to Contractor",
    "contractor": "IV Waste",
    "rowid": "1139460",
    "final_x": "3679031.80629",
    "final_y": "521926.067002",
    "longitude": "-90.07619635602845",
    "latitude": "29.929190262606134",
    "geocoded_column": {
      "latitude": "29.929190262606134",
      "longitude": "-90.07619635602845"
    }
  },
  {
    "service_request": "2024-1139459",
    "request_type": "Trash/Recycling",
    "request_reason": "Request a Large Item Pick Up",
    "date_created": "2024-10-08T16:59:05.000",
    "date_modified": "2024-10-08T16:59:06.000",
    "request_status": "Pending",
    "responsible_agency": "Department of Sanitation",
    "final_address": "7736 Berg Rd",
    "address_councildis": "E",
    "status": "Assigned to Contractor",
    "contractor": "Waste Pro",
    "rowid": "1139459",
    "final_x": "3711569.97208",
    "final_y": "567234.12938",
    "longitude": "-89.97178112710132",
    "latitude": "30.052748537348467",
    "geocoded_column": {
      "latitude": "30.052748537348467",
      "longitude": "-89.97178112710132"
    }
  },
  {
    "service_request": "2024-1139458",
    "request_type": "Trash/Recycling",
    "request_reason": "Missed Trash Pick-Up",
    "date_created": "2024-10-08T16:58:16.000",
    "date_modified": "2024-10-08T16:58:51.000",
    "request_status": "Pending",
    "responsible_agency": "Department of Sanitation",
    "final_address": "1019 Jackson Ave",
    "address_councildis": "B",
    "status": "Assigned to Contractor",
    "contractor": "IV Waste",
    "rowid": "1139458",
    "final_x": "3679031.80629",
    "final_y": "521926.067002",
    "longitude": "-90.07619635602845",
    "latitude": "29.929190262606134",
    "geocoded_column": {
      "latitude": "29.929190262606134",
      "longitude": "-90.07619635602845"
    }
  },
  {
    "service_request": "2024-1139457",
    "request_type": "Abandoned Vehicles",
    "request_reason": "Abandoned/Junk Vehicles",
    "date_created": "2024-10-08T16:52:15.000",
    "date_modified": "2024-10-08T16:52:15.000",
    "request_status": "Pending",
    "responsible_agency": "Department of Public Works",
    "final_address": "2923 Annunciation St",
    "address_councildis": "B",
    "status": "Pending",
    "rowid": "1139457",
    "final_x": "3677041.22504",
    "final_y": "519538.703031",
    "longitude": "-90.08256250858915",
    "latitude": "29.922685687003884",
    "geocoded_column": {
      "latitude": "29.922685687003884",
      "longitude": "-90.08256250858915"
    }
  },
  {
    "service_request": "2024-1139456",
    "request_type": "Abandoned Vehicles",
    "request_reason": "Abandoned/Junk Vehicles",
    "date_created": "2024-10-08T16:51:08.000",
    "date_modified": "2024-10-08T16:51:08.000",
    "request_status": "Pending",
    "responsible_agency": "Department of Public Works",
    "final_address": "2923 Annunciation St",
    "address_councildis": "B",
    "status": "Pending",
    "rowid": "1139456",
    "final_x": "3677041.22504",
    "final_y": "519538.703031",
    "longitude": "-90.08256250858915",
    "latitude": "29.922685687003884",
    "geocoded_column": {
      "latitude": "29.922685687003884",
      "longitude": "-90.08256250858915"
    }
  },
  {
    "service_request": "2024-1139455",
    "request_type": "Roads and Streets",
    "request_reason": "Pothole",
    "date_created": "2024-10-08T16:49:48.000",
    "date_modified": "2024-10-08T16:49:49.000",
    "request_status": "Pending",
    "responsible_agency": "Department of Public Works",
    "final_address": "4301 Chef Menteur Hwy",
    "address_councildis": "D",
    "status": "Pending",
    "rowid": "1139455",
    "final_x": "3690442.7951",
    "final_y": "549667.029588",
    "longitude": "-90.03918511016305",
    "latitude": "30.00511899115759",
    "geocoded_column": {
      "latitude": "30.00511899115759",
      "longitude": "-90.03918511016305"
    }
  },
  {
    "service_request": "2024-1139454",
    "request_type": "Drainage",
    "request_reason": "Street Flooding",
    "date_created": "2024-10-08T16:46:56.000",
    "date_modified": "2024-10-08T16:46:56.000",
    "request_status": "Pending",
    "responsible_agency": "Department of Public Works",
    "final_address": "4801 Perelli Dr",
    "address_councildis": "E",
    "status": "Pending",
    "rowid": "1139454",
    "final_x": "3711767.66066",
    "final_y": "556365.419482",
    "longitude": "-89.97156455989858",
    "latitude": "30.022857470347617",
    "geocoded_column": {
      "latitude": "30.022857470347617",
      "longitude": "-89.97156455989858"
    }
  },
  {
    "service_request": "2024-1139453",
    "request_type": "Abandoned Vehicles",
    "request_reason": "Abandoned/Junk Vehicles",
    "date_created": "2024-10-08T16:46:25.000",
    "date_modified": "2024-10-08T16:46:25.000",
    "request_status": "Pending",
    "responsible_agency": "Department of Public Works",
    "final_address": "2923 Annunciation St",
    "address_councildis": "B",
    "status": "Pending",
    "rowid": "1139453",
    "final_x": "3677041.22504",
    "final_y": "519538.703031",
    "longitude": "-90.08256250858915",
    "latitude": "29.922685687003884",
    "geocoded_column": {
      "latitude": "29.922685687003884",
      "longitude": "-90.08256250858915"
    }
  },
  {
    "service_request": "2024-1139452",
    "request_type": "Drainage",
    "request_reason": "Street Flooding",
    "date_created": "2024-10-08T16:46:20.000",
    "date_modified": "2024-10-08T16:46:20.000",
    "request_status": "Pending",
    "responsible_agency": "Department of Public Works",
    "final_address": "4801 Perelli Dr",
    "address_councildis": "E",
    "status": "Pending",
    "rowid": "1139452",
    "final_x": "3711767.66066",
    "final_y": "556365.419482",
    "longitude": "-89.97156455989858",
    "latitude": "30.022857470347617",
    "geocoded_column": {
      "latitude": "30.022857470347617",
      "longitude": "-89.97156455989858"
    }
  },
  {
    "service_request": "2024-1139451",
    "request_type": "Drainage",
    "request_reason": "Street Flooding",
    "date_created": "2024-10-08T16:44:35.000",
    "date_modified": "2024-10-08T16:44:35.000",
    "request_status": "Pending",
    "responsible_agency": "Department of Public Works",
    "final_address": "4801 Perelli Dr",
    "address_councildis": "E",
    "status": "Pending",
    "rowid": "1139451",
    "final_x": "3711767.66066",
    "final_y": "556365.419482",
    "longitude": "-89.97156455989858",
    "latitude": "30.022857470347617",
    "geocoded_column": {
      "latitude": "30.022857470347617",
      "longitude": "-89.97156455989858"
    }
  },
  {
    "service_request": "2024-1139450",
    "request_type": "Trash/Recycling",
    "request_reason": "Request a Large Item Pick Up",
    "date_created": "2024-10-08T16:42:36.000",
    "date_modified": "2024-10-08T16:42:37.000",
    "request_status": "Pending",
    "responsible_agency": "Department of Sanitation",
    "final_address": "2061 N Miro St",
    "address_councildis": "D",
    "status": "Assigned to Contractor",
    "contractor": "IV Waste",
    "rowid": "1139450",
    "final_x": "3683721.61013",
    "final_y": "540313.117515",
    "longitude": "-90.06074691923908",
    "latitude": "29.979606076377394",
    "geocoded_column": {
      "latitude": "29.979606076377394",
      "longitude": "-90.06074691923908"
    }
  },
  {
    "service_request": "2024-1139449",
    "request_type": "Trash/Recycling",
    "request_reason": "Order Recycling Cart",
    "date_created": "2024-10-08T16:40:43.000",
    "date_modified": "2024-10-08T16:40:44.000",
    "request_status": "Pending",
    "responsible_agency": "Department of Sanitation",
    "final_address": "4717 Urquhart St",
    "address_councildis": "E",
    "status": "Pending",
    "rowid": "1139449",
    "final_x": "3695062.33155",
    "final_y": "535386.687238",
    "longitude": "-90.02510617232527",
    "latitude": "29.965708956329863",
    "geocoded_column": {
      "latitude": "29.965708956329863",
      "longitude": "-90.02510617232527"
    }
  },
  {
    "service_request": "2024-1139448",
    "request_type": "Trash/Recycling",
    "request_reason": "Request a Large Item Pick Up",
    "date_created": "2024-10-08T16:40:36.000",
    "date_modified": "2024-10-08T16:40:37.000",
    "request_status": "Pending",
    "responsible_agency": "Department of Sanitation",
    "final_address": "5460 Douglass St",
    "address_councildis": "E",
    "status": "Assigned to Contractor",
    "contractor": "Waste Pro",
    "rowid": "1139448",
    "final_x": "3696940.37143",
    "final_y": "531696.580995",
    "longitude": "-90.01930906042928",
    "latitude": "29.955503379722593",
    "geocoded_column": {
      "latitude": "29.955503379722593",
      "longitude": "-90.01930906042928"
    }
  },
  {
    "service_request": "2024-1139447",
    "request_type": "Trash/Recycling",
    "request_reason": "Repair Recycling Cart",
    "date_created": "2024-10-08T16:35:37.000",
    "date_modified": "2024-10-08T16:35:38.000",
    "request_status": "Pending",
    "responsible_agency": "Department of Sanitation",
    "final_address": "5931 Memphis St",
    "address_councildis": "A",
    "status": "Pending",
    "rowid": "1139447",
    "final_x": "3669233.40065",
    "final_y": "546779.537233",
    "longitude": "-90.10628794984339",
    "latitude": "29.997821004272886",
    "geocoded_column": {
      "latitude": "29.997821004272886",
      "longitude": "-90.10628794984339"
    }
  },
  {
    "service_request": "2024-1139446",
    "request_type": "Trash/Recycling",
    "request_reason": "Request a Large Item Pick Up",
    "date_created": "2024-10-08T16:35:22.000",
    "date_modified": "2024-10-08T16:35:23.000",
    "request_status": "Pending",
    "responsible_agency": "Department of Sanitation",
    "final_address": "7527 Lady Gray St",
    "address_councildis": "E",
    "status": "Assigned to Contractor",
    "contractor": "Waste Pro",
    "rowid": "1139446",
    "final_x": "3710349.10885",
    "final_y": "564779.36957",
    "longitude": "-89.97573182297815",
    "latitude": "30.04603877127728",
    "geocoded_column": {
      "latitude": "30.04603877127728",
      "longitude": "-89.97573182297815"
    }
  },
  {
    "service_request": "2024-1139445",
    "request_type": "Trash/Recycling",
    "request_reason": "Missed Trash Pick-Up",
    "date_created": "2024-10-08T16:33:25.000",
    "date_modified": "2024-10-08T16:33:26.000",
    "request_status": "Pending",
    "responsible_agency": "Department of Sanitation",
    "final_address": "8033 Curran Rd",
    "address_councildis": "E",
    "status": "Assigned to Contractor",
    "contractor": "Waste Pro",
    "rowid": "1139445",
    "final_x": "3702224.69994",
    "final_y": "561721.625119",
    "longitude": "-90.00152121850005",
    "latitude": "30.03789334805487",
    "geocoded_column": {
      "latitude": "30.03789334805487",
      "longitude": "-90.00152121850005"
    }
  },
  {
    "service_request": "2024-1139444",
    "request_type": "Traffic Signals",
    "request_reason": "Traffic Signal Malfunctioning or Damaged",
    "date_created": "2024-10-08T16:32:28.000",
    "date_modified": "2024-10-08T16:32:28.000",
    "request_status": "Pending",
    "responsible_agency": "Department of Public Works",
    "final_address": "GENERAL DE GAULLE DR & WOODLAND DR",
    "address_councildis": "C",
    "status": "Pending",
    "rowid": "1139444",
    "final_x": "3705348.1",
    "final_y": "514982.18",
    "longitude": "-89.99337788359405",
    "latitude": "29.909276849557717",
    "geocoded_column": {
      "latitude": "29.909276849557717",
      "longitude": "-89.99337788359405"
    }
  },
  {
    "service_request": "2024-1139443",
    "request_type": "Trash/Recycling",
    "request_reason": "Request a Large Item Pick Up",
    "date_created": "2024-10-08T16:31:03.000",
    "date_modified": "2024-10-08T16:31:04.000",
    "request_status": "Pending",
    "responsible_agency": "Department of Sanitation",
    "final_address": "11137 Winchester Park Dr",
    "address_councildis": "E",
    "status": "Assigned to Contractor",
    "contractor": "Waste Pro",
    "rowid": "1139443",
    "final_x": "3715060.88197",
    "final_y": "561412.072478",
    "longitude": "-89.96096786048174",
    "latitude": "30.03662572539122",
    "geocoded_column": {
      "latitude": "30.03662572539122",
      "longitude": "-89.96096786048174"
    }
  },
  {
    "service_request": "2024-1139442",
    "request_type": "Trash/Recycling",
    "request_reason": "Repair Trash Cart",
    "date_created": "2024-10-08T16:26:37.000",
    "date_modified": "2024-10-08T16:26:38.000",
    "request_status": "Pending",
    "responsible_agency": "Department of Sanitation",
    "final_address": "2351 Jay St",
    "address_councildis": "D",
    "status": "Assigned to Contractor",
    "contractor": "IV Waste",
    "rowid": "1139442",
    "final_x": "3684503.77781",
    "final_y": "557407.808283",
    "longitude": "-90.05767543387329",
    "latitude": "30.026586397905866",
    "geocoded_column": {
      "latitude": "30.026586397905866",
      "longitude": "-90.05767543387329"
    }
  },
  {
    "service_request": "2024-1139441",
    "request_type": "Trash/Recycling",
    "request_reason": "Order Trash Cart",
    "date_created": "2024-10-08T16:25:44.000",
    "date_modified": "2024-10-08T16:25:45.000",
    "request_status": "Pending",
    "responsible_agency": "Department of Sanitation",
    "final_address": "2305 Abundance St",
    "address_councildis": "D",
    "status": "Assigned to Contractor",
    "contractor": "IV Waste",
    "rowid": "1139441",
    "final_x": "3685246.21052",
    "final_y": "543785.489678",
    "longitude": "-90.05580935055347",
    "latitude": "29.989107225505535",
    "geocoded_column": {
      "latitude": "29.989107225505535",
      "longitude": "-90.05580935055347"
    }
  },
  {
    "service_request": "2024-1139440",
    "request_type": "Trash/Recycling",
    "request_reason": "Order Trash Cart",
    "date_created": "2024-10-08T16:25:32.000",
    "date_modified": "2024-10-08T16:25:33.000",
    "request_status": "Pending",
    "responsible_agency": "Department of Sanitation",
    "final_address": "2303 Abundance St",
    "address_councildis": "D",
    "status": "Assigned to Contractor",
    "contractor": "IV Waste",
    "rowid": "1139440",
    "final_x": "3685233.54901",
    "final_y": "543787.63291",
    "longitude": "-90.05584926896323",
    "latitude": "29.989113506782417",
    "geocoded_column": {
      "latitude": "29.989113506782417",
      "longitude": "-90.05584926896323"
    }
  },
  {
    "service_request": "2024-1139439",
    "request_type": "Trash/Recycling",
    "request_reason": "Request a Large Item Pick Up",
    "date_created": "2024-10-08T16:23:47.000",
    "date_modified": "2024-10-08T16:23:48.000",
    "request_status": "Pending",
    "responsible_agency": "Department of Sanitation",
    "final_address": "2233 Dauphine St Apt 1A",
    "address_councildis": "C",
    "status": "Assigned to Contractor",
    "contractor": "IV Waste",
    "rowid": "1139439",
    "final_x": "3685415.70402",
    "final_y": "535298.066118",
    "longitude": "-90.05557292952338",
    "latitude": "29.965764592678934",
    "geocoded_column": {
      "latitude": "29.965764592678934",
      "longitude": "-90.05557292952338"
    }
  },
  {
    "service_request": "2024-1139438",
    "request_type": "Drainage",
    "request_reason": "Catch Basin Damaged",
    "date_created": "2024-10-08T16:22:42.000",
    "date_modified": "2024-10-08T16:22:50.000",
    "request_status": "Pending",
    "responsible_agency": "Department of Public Works",
    "final_address": "723 Ursulines Ave",
    "address_councildis": "C",
    "rowid": "1139438",
    "final_x": "3683314.43714",
    "final_y": "533756.270213",
    "longitude": "-90.06226265889158",
    "latitude": "29.961589446225986",
    "geocoded_column": {
      "latitude": "29.961589446225986",
      "longitude": "-90.06226265889158"
    }
  },
  {
    "service_request": "2024-1139437",
    "request_type": "Trash/Recycling",
    "request_reason": "Repair Trash Cart",
    "date_created": "2024-10-08T16:11:39.000",
    "date_modified": "2024-10-08T16:11:40.000",
    "request_status": "Pending",
    "responsible_agency": "Department of Sanitation",
    "final_address": "3016 Music St",
    "address_councildis": "D",
    "status": "Assigned to Contractor",
    "contractor": "IV Waste",
    "rowid": "1139437",
    "final_x": "3686169.06646",
    "final_y": "543967.213838",
    "longitude": "-90.0528879137875",
    "latitude": "29.98957857839685",
    "geocoded_column": {
      "latitude": "29.98957857839685",
      "longitude": "-90.0528879137875"
    }
  },
  {
    "service_request": "2024-1139436",
    "request_type": "Trash/Recycling",
    "request_reason": "Return Trash Cart",
    "date_created": "2024-10-08T16:10:12.000",
    "date_modified": "2024-10-08T16:10:13.000",
    "request_status": "Pending",
    "responsible_agency": "Department of Sanitation",
    "final_address": "4603 Arts St",
    "address_councildis": "D",
    "status": "Assigned to Contractor",
    "contractor": "IV Waste",
    "rowid": "1139436",
    "final_x": "3686075.61398",
    "final_y": "549639.599188",
    "longitude": "-90.05298289541811",
    "latitude": "30.00517846870325",
    "geocoded_column": {
      "latitude": "30.00517846870325",
      "longitude": "-90.05298289541811"
    }
  },
  {
    "service_request": "2024-1139435",
    "request_type": "Trash/Recycling",
    "request_reason": "Request a Large Item Pick Up",
    "date_created": "2024-10-08T16:08:29.000",
    "date_modified": "2024-10-08T16:09:31.000",
    "request_status": "Pending",
    "responsible_agency": "Department of Sanitation",
    "final_address": "4603 Arts St",
    "address_councildis": "D",
    "status": "Assigned to Contractor",
    "contractor": "IV Waste",
    "rowid": "1139435",
    "final_x": "3686075.61398",
    "final_y": "549639.599188",
    "longitude": "-90.05298289541811",
    "latitude": "30.00517846870325",
    "geocoded_column": {
      "latitude": "30.00517846870325",
      "longitude": "-90.05298289541811"
    }
  },
  {
    "service_request": "2024-1139434",
    "request_type": "Traffic Signals",
    "request_reason": "Traffic Signal Malfunctioning or Damaged",
    "date_created": "2024-10-08T16:04:36.000",
    "date_modified": "2024-10-08T16:04:37.000",
    "request_status": "Pending",
    "responsible_agency": "Department of Public Works",
    "final_address": "Poydras Street & South Claiborne Avenue",
    "address_councildis": "B",
    "status": "Pending",
    "rowid": "1139434",
    "final_x": "3676930.01627",
    "final_y": "530731.977858",
    "longitude": "-90.08252785680983",
    "latitude": "29.953466850246727",
    "geocoded_column": {
      "latitude": "29.953466850246727",
      "longitude": "-90.08252785680983"
    }
  },
  {
    "service_request": "2024-1139433",
    "request_type": "Trash/Recycling",
    "request_reason": "Request a Large Item Pick Up",
    "date_created": "2024-10-08T16:03:39.000",
    "date_modified": "2024-10-08T16:08:00.000",
    "request_status": "Pending",
    "responsible_agency": "Department of Sanitation",
    "final_address": "4109 Mithra St",
    "address_councildis": "D",
    "status": "Assigned to Contractor",
    "contractor": "IV Waste",
    "rowid": "1139433",
    "final_x": "3689086.15747",
    "final_y": "553152.709783",
    "longitude": "-90.04334702853875",
    "latitude": "30.014745391316556",
    "geocoded_column": {
      "latitude": "30.014745391316556",
      "longitude": "-90.04334702853875"
    }
  },
  {
    "service_request": "2024-1139432",
    "request_type": "Trash/Recycling",
    "request_reason": "Replace Recycling Cart",
    "date_created": "2024-10-08T15:58:48.000",
    "date_modified": "2024-10-08T15:58:48.000",
    "request_status": "Pending",
    "responsible_agency": "Department of Sanitation",
    "final_address": "5406 Hewes St",
    "address_councildis": "A",
    "status": "Pending",
    "rowid": "1139432",
    "final_x": "3668892.06977",
    "final_y": "529195.004608",
    "longitude": "-90.10796025960018",
    "latitude": "29.9494794918591",
    "geocoded_column": {
      "latitude": "29.9494794918591",
      "longitude": "-90.10796025960018"
    }
  },
  {
    "service_request": "2024-1139431",
    "request_type": "Abandoned Vehicles",
    "request_reason": "Abandoned/Junk Vehicles",
    "date_created": "2024-10-08T15:58:27.000",
    "date_modified": "2024-10-08T16:01:14.000",
    "request_status": "Pending",
    "responsible_agency": "Department of Public Works",
    "final_address": "3621 Chestnut St",
    "address_councildis": "B",
    "status": "Pending",
    "rowid": "1139431",
    "final_x": "3673712.56046",
    "final_y": "520020.426552",
    "longitude": "-90.09305333613884",
    "latitude": "29.924109761626713",
    "geocoded_column": {
      "latitude": "29.924109761626713",
      "longitude": "-90.09305333613884"
    }
  },
  {
    "service_request": "2024-1139430",
    "request_type": "Traffic Signals",
    "request_reason": "Traffic Signal Malfunctioning or Damaged",
    "date_created": "2024-10-08T15:58:05.000",
    "date_modified": "2024-10-08T15:58:06.000",
    "request_status": "Pending",
    "responsible_agency": "Department of Public Works",
    "final_address": "CANAL ST & S RAMPART ST",
    "address_councildis": "B",
    "status": "Pending",
    "rowid": "1139430",
    "final_x": "3679972.7",
    "final_y": "531544.98",
    "longitude": "-90.07289211617753",
    "latitude": "29.955610653469453",
    "geocoded_column": {
      "latitude": "29.955610653469453",
      "longitude": "-90.07289211617753"
    }
  },
  {
    "service_request": "2024-1139429",
    "request_type": "Trash/Recycling",
    "request_reason": "Request a Large Item Pick Up",
    "date_created": "2024-10-08T15:56:07.000",
    "date_modified": "2024-10-08T15:56:08.000",
    "request_status": "Pending",
    "responsible_agency": "Department of Sanitation",
    "final_address": "7031 Boston Dr",
    "address_councildis": "E",
    "status": "Assigned to Contractor",
    "contractor": "Waste Pro",
    "rowid": "1139429",
    "final_x": "3706448.95243",
    "final_y": "560706.67555",
    "longitude": "-89.98820929502956",
    "latitude": "30.03496695798978",
    "geocoded_column": {
      "latitude": "30.03496695798978",
      "longitude": "-89.98820929502956"
    }
  },
  {
    "service_request": "2024-1139428",
    "request_type": "Trash/Recycling",
    "request_reason": "Order Recycling Cart",
    "date_created": "2024-10-08T15:56:00.000",
    "date_modified": "2024-10-08T15:56:01.000",
    "request_status": "Pending",
    "responsible_agency": "Department of Sanitation",
    "final_address": "5405 York St",
    "address_councildis": "A",
    "status": "Pending",
    "rowid": "1139428",
    "final_x": "3668869.29793",
    "final_y": "528678.170432",
    "longitude": "-90.10804961096578",
    "latitude": "29.948059036017227",
    "geocoded_column": {
      "latitude": "29.948059036017227",
      "longitude": "-90.10804961096578"
    }
  },
  {
    "service_request": "2024-1139427",
    "request_type": "Trash/Recycling",
    "request_reason": "Request a Large Item Pick Up",
    "date_created": "2024-10-08T15:52:04.000",
    "date_modified": "2024-10-08T15:52:05.000",
    "request_status": "Pending",
    "responsible_agency": "Department of Sanitation",
    "final_address": "1823 Martin Luther King, Jr. Blvd",
    "address_councildis": "B",
    "status": "Assigned to Contractor",
    "contractor": "IV Waste",
    "rowid": "1139427",
    "final_x": "3678293.37557",
    "final_y": "526182.716926",
    "longitude": "-90.07838027043971",
    "latitude": "29.940916906441064",
    "geocoded_column": {
      "latitude": "29.940916906441064",
      "longitude": "-90.07838027043971"
    }
  },
  {
    "service_request": "2024-1139426",
    "request_type": "Trash/Recycling",
    "request_reason": "Illegal Dumping",
    "date_created": "2024-10-08T15:49:57.000",
    "date_modified": "2024-10-08T16:12:51.000",
    "request_status": "Pending",
    "responsible_agency": "Department of Sanitation",
    "final_address": "N GALVEZ ST & ALABO ST",
    "address_councildis": "E",
    "rowid": "1139426",
    "final_x": "3699924.5",
    "final_y": "537283.38",
    "longitude": "-90.00968253120345",
    "latitude": "29.970770643752775",
    "geocoded_column": {
      "latitude": "29.970770643752775",
      "longitude": "-90.00968253120345"
    }
  },
  {
    "service_request": "2024-1139425",
    "request_type": "Roads and Streets",
    "request_reason": "Sidewalk Damaged or Missing",
    "date_created": "2024-10-08T15:49:32.000",
    "date_modified": "2024-10-08T15:49:32.000",
    "request_status": "Pending",
    "responsible_agency": "Department of Public Works",
    "final_address": "MAGAZINE ST & STATE ST",
    "address_councildis": "A",
    "status": "Pending",
    "rowid": "1139425",
    "final_x": "3664706.0",
    "final_y": "519209.48",
    "longitude": "-90.12151106493229",
    "latitude": "29.922144903014868",
    "geocoded_column": {
      "latitude": "29.922144903014868",
      "longitude": "-90.12151106493229"
    }
  },
  {
    "service_request": "2024-1139424",
    "request_type": "Trash/Recycling",
    "request_reason": "Request a Large Item Pick Up",
    "date_created": "2024-10-08T15:48:51.000",
    "date_modified": "2024-10-08T15:48:52.000",
    "request_status": "Pending",
    "responsible_agency": "Department of Sanitation",
    "final_address": "5328 Warrington Dr",
    "address_councildis": "D",
    "status": "Assigned to Contractor",
    "contractor": "IV Waste",
    "rowid": "1139424",
    "final_x": "3680802.08283",
    "final_y": "552697.513814",
    "longitude": "-90.06953654292249",
    "latitude": "30.013747602674805",
    "geocoded_column": {
      "latitude": "30.013747602674805",
      "longitude": "-90.06953654292249"
    }
  },
  {
    "service_request": "2024-1139423",
    "request_type": "Trash/Recycling",
    "request_reason": "Replace Trash Cart",
    "date_created": "2024-10-08T15:48:08.000",
    "date_modified": "2024-10-08T15:48:09.000",
    "request_status": "Pending",
    "responsible_agency": "Department of Sanitation",
    "final_address": "1823 Martin Luther King, Jr. Blvd",
    "address_councildis": "B",
    "status": "Assigned to Contractor",
    "contractor": "IV Waste",
    "rowid": "1139423",
    "final_x": "3678293.37557",
    "final_y": "526182.716926",
    "longitude": "-90.07838027043971",
    "latitude": "29.940916906441064",
    "geocoded_column": {
      "latitude": "29.940916906441064",
      "longitude": "-90.07838027043971"
    }
  },
  {
    "service_request": "2024-1139422",
    "request_type": "Streetlights",
    "request_reason": "Streetlight Outage/Malfunction",
    "date_created": "2024-10-08T15:47:01.000",
    "date_modified": "2024-10-08T15:47:02.000",
    "request_status": "Pending",
    "responsible_agency": "Department of Public Works",
    "final_address": "7400 BLK Read Blvd",
    "address_councildis": "E",
    "status": "Pending",
    "contractor": "Legacy Professional Services",
    "rowid": "1139422",
    "final_x": "3708945.35045",
    "final_y": "563867.507879",
    "longitude": "-89.9802024033169",
    "latitude": "30.04357717327751",
    "geocoded_column": {
      "latitude": "30.04357717327751",
      "longitude": "-89.9802024033169"
    }
  },
  {
    "service_request": "2024-1139421",
    "request_type": "Trash/Recycling",
    "request_reason": "Missed Trash Pick-Up",
    "date_created": "2024-10-08T15:46:07.000",
    "date_modified": "2024-10-08T15:46:09.000",
    "request_status": "Pending",
    "responsible_agency": "Department of Sanitation",
    "final_address": "3418 S Robertson St",
    "address_councildis": "B",
    "status": "Assigned to Contractor",
    "contractor": "IV Waste",
    "rowid": "1139421",
    "final_x": "3672625.18395",
    "final_y": "524687.269372",
    "longitude": "-90.09632677011002",
    "latitude": "29.936974393386233",
    "geocoded_column": {
      "latitude": "29.936974393386233",
      "longitude": "-90.09632677011002"
    }
  },
  {
    "service_request": "2024-1139420",
    "request_type": "Trash/Recycling",
    "request_reason": "Request a Large Item Pick Up",
    "date_created": "2024-10-08T15:45:52.000",
    "date_modified": "2024-10-08T15:45:53.000",
    "request_status": "Pending",
    "responsible_agency": "Department of Sanitation",
    "final_address": "1823 Martin Luther King, Jr. Blvd",
    "address_councildis": "B",
    "status": "Assigned to Contractor",
    "contractor": "IV Waste",
    "rowid": "1139420",
    "final_x": "3678293.37557",
    "final_y": "526182.716926",
    "longitude": "-90.07838027043971",
    "latitude": "29.940916906441064",
    "geocoded_column": {
      "latitude": "29.940916906441064",
      "longitude": "-90.07838027043971"
    }
  },
  {
    "service_request": "2024-1139419",
    "request_type": "Trash/Recycling",
    "request_reason": "Request a Large Item Pick Up",
    "date_created": "2024-10-08T15:45:15.000",
    "date_modified": "2024-10-08T15:46:38.000",
    "request_status": "Pending",
    "responsible_agency": "Department of Sanitation",
    "final_address": "3418 S Robertson St",
    "address_councildis": "B",
    "status": "Assigned to Contractor",
    "contractor": "IV Waste",
    "rowid": "1139419",
    "final_x": "3672625.18395",
    "final_y": "524687.269372",
    "longitude": "-90.09632677011002",
    "latitude": "29.936974393386233",
    "geocoded_column": {
      "latitude": "29.936974393386233",
      "longitude": "-90.09632677011002"
    }
  },
  {
    "service_request": "2024-1139418",
    "request_type": "Trash/Recycling",
    "request_reason": "Request a Large Item Pick Up",
    "date_created": "2024-10-08T15:40:38.000",
    "date_modified": "2024-10-08T15:40:39.000",
    "request_status": "Pending",
    "responsible_agency": "Department of Sanitation",
    "final_address": "2124 Brainard St",
    "address_councildis": "B",
    "status": "Assigned to Contractor",
    "contractor": "IV Waste",
    "rowid": "1139418",
    "final_x": "3677365.81704",
    "final_y": "524321.968956",
    "longitude": "-90.0813729280082",
    "latitude": "29.93582836298321",
    "geocoded_column": {
      "latitude": "29.93582836298321",
      "longitude": "-90.0813729280082"
    }
  },
  {
    "service_request": "2024-1139417",
    "request_type": "Trash/Recycling",
    "request_reason": "Order Second Trash Cart",
    "date_created": "2024-10-08T15:31:12.000",
    "date_modified": "2024-10-08T15:31:13.000",
    "request_status": "Pending",
    "responsible_agency": "Department of Sanitation",
    "final_address": "6144 Orleans Ave",
    "address_councildis": "A",
    "status": "Assigned to Contractor",
    "contractor": "IV Waste",
    "rowid": "1139417",
    "final_x": "3670930.76532",
    "final_y": "548114.313746",
    "longitude": "-90.10088064347589",
    "latitude": "30.001441086745256",
    "geocoded_column": {
      "latitude": "30.001441086745256",
      "longitude": "-90.10088064347589"
    }
  },
  {
    "service_request": "2024-1139416",
    "request_type": "Trash/Recycling",
    "request_reason": "Repair Trash Cart",
    "date_created": "2024-10-08T15:30:19.000",
    "date_modified": "2024-10-08T15:30:20.000",
    "request_status": "Pending",
    "responsible_agency": "Department of Sanitation",
    "final_address": "6144 Orleans Ave",
    "address_councildis": "A",
    "status": "Assigned to Contractor",
    "contractor": "IV Waste",
    "rowid": "1139416",
    "final_x": "3670930.76532",
    "final_y": "548114.313746",
    "longitude": "-90.10088064347589",
    "latitude": "30.001441086745256",
    "geocoded_column": {
      "latitude": "30.001441086745256",
      "longitude": "-90.10088064347589"
    }
  },
  {
    "service_request": "2024-1139415",
    "request_type": "Trash/Recycling",
    "request_reason": "Request a Large Item Pick Up",
    "date_created": "2024-10-08T15:28:00.000",
    "date_modified": "2024-10-08T15:28:01.000",
    "request_status": "Pending",
    "responsible_agency": "Department of Sanitation",
    "final_address": "5621 Eads St",
    "address_councildis": "D",
    "status": "Assigned to Contractor",
    "contractor": "IV Waste",
    "rowid": "1139415",
    "final_x": "3686938.37756",
    "final_y": "553851.690071",
    "longitude": "-90.05010822466613",
    "latitude": "30.016733640155074",
    "geocoded_column": {
      "latitude": "30.016733640155074",
      "longitude": "-90.05010822466613"
    }
  },
  {
    "service_request": "2024-1139414",
    "request_type": "Trash/Recycling",
    "request_reason": "Request a Large Item Pick Up",
    "date_created": "2024-10-08T15:19:18.000",
    "date_modified": "2024-10-08T15:19:20.000",
    "request_status": "Pending",
    "responsible_agency": "Department of Sanitation",
    "final_address": "4634 Camelot Dr",
    "address_councildis": "E",
    "status": "Assigned to Contractor",
    "contractor": "Waste Pro",
    "rowid": "1139414",
    "final_x": "3708363.92324",
    "final_y": "554969.281752",
    "longitude": "-89.98237151001695",
    "latitude": "30.019129422523555",
    "geocoded_column": {
      "latitude": "30.019129422523555",
      "longitude": "-89.98237151001695"
    }
  },
  {
    "service_request": "2024-1139413",
    "request_type": "Trash/Recycling",
    "request_reason": "Request a Large Item Pick Up",
    "date_created": "2024-10-08T15:18:34.000",
    "date_modified": "2024-10-08T15:18:35.000",
    "request_status": "Pending",
    "responsible_agency": "Department of Sanitation",
    "final_address": "11308 King Richard Dr",
    "address_councildis": "E",
    "status": "Assigned to Contractor",
    "contractor": "Waste Pro",
    "rowid": "1139413",
    "final_x": "3717314.2334",
    "final_y": "556428.16009",
    "longitude": "-89.95403647609145",
    "latitude": "30.02284756597243",
    "geocoded_column": {
      "latitude": "30.02284756597243",
      "longitude": "-89.95403647609145"
    }
  },
  {
    "service_request": "2024-1139412",
    "request_type": "Property Maintenance",
    "request_reason": "Property Maintenance",
    "date_created": "2024-10-08T15:18:05.000",
    "date_modified": "2024-10-08T15:18:05.000",
    "request_status": "Pending",
    "responsible_agency": "Department of Code Enforcement",
    "final_address": "1736 St Anthony St",
    "address_councildis": "D",
    "status": "Pending",
    "rowid": "1139412",
    "final_x": "3683281.71452",
    "final_y": "538696.081289",
    "longitude": "-90.06219294250198",
    "latitude": "29.975173217587816",
    "geocoded_column": {
      "latitude": "29.975173217587816",
      "longitude": "-90.06219294250198"
    }
  },
  {
    "service_request": "2024-1139411",
    "request_type": "Trash/Recycling",
    "request_reason": "Order Trash Cart",
    "date_created": "2024-10-08T15:17:24.000",
    "date_modified": "2024-10-08T15:17:25.000",
    "request_status": "Pending",
    "responsible_agency": "Department of Sanitation",
    "final_address": "317 Hendee St",
    "address_councildis": "C",
    "status": "Assigned to Contractor",
    "contractor": "Richards Disposal",
    "rowid": "1139411",
    "final_x": "3690878.96803",
    "final_y": "530475.022978",
    "longitude": "-90.0384923108674",
    "latitude": "29.95233425744342",
    "geocoded_column": {
      "latitude": "29.95233425744342",
      "longitude": "-90.0384923108674"
    }
  },
  {
    "service_request": "2024-1139410",
    "request_type": "Trash/Recycling",
    "request_reason": "Repair Trash Cart",
    "date_created": "2024-10-08T15:14:23.000",
    "date_modified": "2024-10-08T15:14:25.000",
    "request_status": "Pending",
    "responsible_agency": "Department of Sanitation",
    "final_address": "1218 St Mary St",
    "address_councildis": "B",
    "status": "Assigned to Contractor",
    "contractor": "IV Waste",
    "rowid": "1139410",
    "final_x": "3679346.67362",
    "final_y": "523214.533499",
    "longitude": "-90.07515771841543",
    "latitude": "29.932723620166904",
    "geocoded_column": {
      "latitude": "29.932723620166904",
      "longitude": "-90.07515771841543"
    }
  },
  {
    "service_request": "2024-1139409",
    "request_type": "Trash/Recycling",
    "request_reason": "Repair Trash Cart",
    "date_created": "2024-10-08T15:12:37.000",
    "date_modified": "2024-10-08T15:12:38.000",
    "request_status": "Pending",
    "responsible_agency": "Department of Sanitation",
    "final_address": "3820 Cleveland Ave",
    "address_councildis": "A",
    "status": "Assigned to Contractor",
    "contractor": "IV Waste",
    "rowid": "1139409",
    "final_x": "3671632.43726",
    "final_y": "537353.860744",
    "longitude": "-90.09903016761422",
    "latitude": "29.97183276442236",
    "geocoded_column": {
      "latitude": "29.97183276442236",
      "longitude": "-90.09903016761422"
    }
  },
  {
    "service_request": "2024-1139407",
    "request_type": "Trash/Recycling",
    "request_reason": "Request a Large Item Pick Up",
    "date_created": "2024-10-08T15:10:40.000",
    "date_modified": "2024-10-08T15:10:41.000",
    "request_status": "Pending",
    "responsible_agency": "Department of Sanitation",
    "final_address": "727 Wagner St",
    "address_councildis": "C",
    "status": "Assigned to Contractor",
    "contractor": "Richards Disposal",
    "rowid": "1139407",
    "final_x": "3690490.19792",
    "final_y": "528738.741184",
    "longitude": "-90.03978175484028",
    "latitude": "29.94757215499732",
    "geocoded_column": {
      "latitude": "29.94757215499732",
      "longitude": "-90.03978175484028"
    }
  },
  {
    "service_request": "2024-1139406",
    "request_type": "Trash/Recycling",
    "request_reason": "Request a Large Item Pick Up",
    "date_created": "2024-10-08T15:09:18.000",
    "date_modified": "2024-10-08T15:09:19.000",
    "request_status": "Pending",
    "responsible_agency": "Department of Sanitation",
    "final_address": "11036 S Hardy St",
    "address_councildis": "E",
    "status": "Assigned to Contractor",
    "contractor": "Waste Pro",
    "rowid": "1139406",
    "final_x": "3713567.05829",
    "final_y": "561965.178591",
    "longitude": "-89.9656677412192",
    "latitude": "30.03819565525532",
    "geocoded_column": {
      "latitude": "30.03819565525532",
      "longitude": "-89.9656677412192"
    }
  },
  {
    "service_request": "2024-1139405",
    "request_type": "Drainage",
    "request_reason": "Catch Basin Clogged",
    "date_created": "2024-10-08T15:09:03.000",
    "date_modified": "2024-10-08T15:09:04.000",
    "request_status": "Pending",
    "responsible_agency": "Department of Public Works",
    "final_address": "3128 Fortin St",
    "address_councildis": "A",
    "status": "Pending",
    "rowid": "1139405",
    "final_x": "3676344.04059",
    "final_y": "540919.483723",
    "longitude": "-90.08402739617037",
    "latitude": "29.981496608267335",
    "geocoded_column": {
      "latitude": "29.981496608267335",
      "longitude": "-90.08402739617037"
    }
  },
  {
    "service_request": "2024-1139404",
    "request_type": "Trash/Recycling",
    "request_reason": "Illegal Dumping",
    "date_created": "2024-10-08T15:08:56.000",
    "date_modified": "2024-10-08T15:08:57.000",
    "request_status": "Pending",
    "responsible_agency": "Department of Sanitation",
    "final_address": "4911 Warren Dr",
    "address_councildis": "E",
    "status": "Pending",
    "rowid": "1139404",
    "final_x": "3713447.33579",
    "final_y": "557098.692698",
    "longitude": "-89.96622958185019",
    "latitude": "30.02481868695864",
    "geocoded_column": {
      "latitude": "30.02481868695864",
      "longitude": "-89.96622958185019"
    }
  },
  {
    "service_request": "2024-1139403",
    "request_type": "Trash/Recycling",
    "request_reason": "Request a Large Item Pick Up",
    "date_created": "2024-10-08T15:02:41.000",
    "date_modified": "2024-10-08T15:02:42.000",
    "request_status": "Pending",
    "responsible_agency": "Department of Sanitation",
    "final_address": "4642 Coronado Dr",
    "address_councildis": "E",
    "status": "Assigned to Contractor",
    "contractor": "Waste Pro",
    "rowid": "1139403",
    "final_x": "3714105.222",
    "final_y": "555993.785497",
    "longitude": "-89.96419250993723",
    "latitude": "30.021759030167686",
    "geocoded_column": {
      "latitude": "30.021759030167686",
      "longitude": "-89.96419250993723"
    }
  },
  {
    "service_request": "2024-1139402",
    "request_type": "Trash/Recycling",
    "request_reason": "Request a Large Item Pick Up",
    "date_created": "2024-10-08T15:01:13.000",
    "date_modified": "2024-10-08T15:01:15.000",
    "request_status": "Pending",
    "responsible_agency": "Department of Sanitation",
    "final_address": "2321 Ursulines Ave",
    "address_councildis": "D",
    "status": "Assigned to Contractor",
    "contractor": "IV Waste",
    "rowid": "1139402",
    "final_x": "3678872.01288",
    "final_y": "537259.890632",
    "longitude": "-90.076169705425",
    "latitude": "29.971357960922006",
    "geocoded_column": {
      "latitude": "29.971357960922006",
      "longitude": "-90.076169705425"
    }
  },
  {
    "service_request": "2024-1139401",
    "request_type": "Roads and Streets",
    "request_reason": "Pothole",
    "date_created": "2024-10-08T14:59:22.000",
    "date_modified": "2024-10-08T14:59:22.000",
    "request_status": "Pending",
    "responsible_agency": "Department of Public Works",
    "final_address": "7110 Birch St",
    "address_councildis": "A",
    "status": "Pending",
    "rowid": "1139401",
    "final_x": "3665021.67802",
    "final_y": "527576.673151",
    "longitude": "-90.12023497528963",
    "latitude": "29.945142844479758",
    "geocoded_column": {
      "latitude": "29.945142844479758",
      "longitude": "-90.12023497528963"
    }
  },
  {
    "service_request": "2024-1139400",
    "request_type": "Trash/Recycling",
    "request_reason": "Order Trash Cart",
    "date_created": "2024-10-08T14:59:17.000",
    "date_modified": "2024-10-08T15:08:18.000",
    "case_close_date": "2024-10-08T10:08:18.000",
    "request_status": "Closed",
    "responsible_agency": "Department of Sanitation",
    "final_address": "980 Harding Dr",
    "address_councildis": "A",
    "status": "Assigned to Contractor",
    "contractor": "IV Waste",
    "contractor_action": "Completed",
    "rowid": "1139400",
    "final_x": "3674522.66766",
    "final_y": "540248.306443",
    "longitude": "-90.08980314919162",
    "latitude": "29.97970557900028",
    "geocoded_column": {
      "latitude": "29.97970557900028",
      "longitude": "-90.08980314919162"
    }
  },
  {
    "service_request": "2024-1139399",
    "request_type": "Trash/Recycling",
    "request_reason": "Request a Large Item Pick Up",
    "date_created": "2024-10-08T14:59:12.000",
    "date_modified": "2024-10-08T14:59:13.000",
    "request_status": "Pending",
    "responsible_agency": "Department of Sanitation",
    "final_address": "3729 Ulloa St",
    "address_councildis": "B",
    "status": "Assigned to Contractor",
    "contractor": "IV Waste",
    "rowid": "1139399",
    "final_x": "3670759.48193",
    "final_y": "535714.225927",
    "longitude": "-90.10184275745331",
    "latitude": "29.967350146656187",
    "geocoded_column": {
      "latitude": "29.967350146656187",
      "longitude": "-90.10184275745331"
    }
  },
  {
    "service_request": "2024-1139398",
    "request_type": "Trash/Recycling",
    "request_reason": "Request a Large Item Pick Up",
    "date_created": "2024-10-08T14:56:05.000",
    "date_modified": "2024-10-08T14:56:06.000",
    "request_status": "Pending",
    "responsible_agency": "Department of Sanitation",
    "final_address": "4306 Sybil St",
    "address_councildis": "D",
    "status": "Assigned to Contractor",
    "contractor": "IV Waste",
    "rowid": "1139398",
    "final_x": "3679027.36117",
    "final_y": "548164.844882",
    "longitude": "-90.07530097913728",
    "latitude": "30.001338088852474",
    "geocoded_column": {
      "latitude": "30.001338088852474",
      "longitude": "-90.07530097913728"
    }
  },
  {
    "service_request": "2024-1139397",
    "request_type": "Trash/Recycling",
    "request_reason": "Request a Large Item Pick Up",
    "date_created": "2024-10-08T14:53:59.000",
    "date_modified": "2024-10-08T14:54:00.000",
    "request_status": "Pending",
    "responsible_agency": "Department of Sanitation",
    "final_address": "5420 Fontainebleau Dr",
    "address_councildis": "A",
    "status": "Assigned to Contractor",
    "contractor": "IV Waste",
    "rowid": "1139397",
    "final_x": "3668873.74631",
    "final_y": "529615.222401",
    "longitude": "-90.1080039265643",
    "latitude": "29.950635492334317",
    "geocoded_column": {
      "latitude": "29.950635492334317",
      "longitude": "-90.1080039265643"
    }
  },
  {
    "service_request": "2024-1139396",
    "request_type": "Parks & Parkways",
    "request_reason": "Request Tree Service (Right of Way/Public Property)",
    "date_created": "2024-10-08T14:52:52.000",
    "date_modified": "2024-10-08T14:52:54.000",
    "request_status": "Pending",
    "responsible_agency": "Department of Parks & Parkway",
    "final_address": "13041 New Hampshire Dr",
    "address_councildis": "E",
    "status": "Pending",
    "rowid": "1139396",
    "final_x": "3723520.23065",
    "final_y": "564851.008226",
    "longitude": "-89.9341022195143",
    "latitude": "30.04580008527531",
    "geocoded_column": {
      "latitude": "30.04580008527531",
      "longitude": "-89.9341022195143"
    }
  },
  {
    "service_request": "2024-1139395",
    "request_type": "Trash/Recycling",
    "request_reason": "Request a Large Item Pick Up",
    "date_created": "2024-10-08T14:52:23.000",
    "date_modified": "2024-10-08T14:52:24.000",
    "request_status": "Pending",
    "responsible_agency": "Department of Sanitation",
    "final_address": "7935 Michigan St",
    "address_councildis": "E",
    "status": "Assigned to Contractor",
    "contractor": "Waste Pro",
    "rowid": "1139395",
    "final_x": "3711057.82161",
    "final_y": "567662.78122",
    "longitude": "-89.97338379506311",
    "latitude": "30.05394387900348",
    "geocoded_column": {
      "latitude": "30.05394387900348",
      "longitude": "-89.97338379506311"
    }
  },
  {
    "service_request": "2024-1139394",
    "request_type": "Property Maintenance",
    "request_reason": "Property Maintenance",
    "date_created": "2024-10-08T14:51:45.000",
    "date_modified": "2024-10-08T14:51:46.000",
    "request_status": "Pending",
    "responsible_agency": "Department of Code Enforcement",
    "final_address": "1801 Lapeyrouse St",
    "address_councildis": "D",
    "status": "Pending",
    "rowid": "1139394",
    "final_x": "3681591.16098",
    "final_y": "538266.297161",
    "longitude": "-90.06754714533103",
    "latitude": "29.974042919454615",
    "geocoded_column": {
      "latitude": "29.974042919454615",
      "longitude": "-90.06754714533103"
    }
  },
  {
    "service_request": "2024-1139393",
    "request_type": "Roads and Streets",
    "request_reason": "Sidewalk Damaged or Missing",
    "date_created": "2024-10-08T14:49:58.000",
    "date_modified": "2024-10-08T14:49:58.000",
    "request_status": "Pending",
    "responsible_agency": "Department of Public Works",
    "final_address": "5034 Dreux Ave",
    "address_councildis": "D",
    "status": "Pending",
    "rowid": "1139393",
    "final_x": "3692158.09193",
    "final_y": "553312.069271",
    "longitude": "-90.03363553087421",
    "latitude": "30.01508811994543",
    "geocoded_column": {
      "latitude": "30.01508811994543",
      "longitude": "-90.03363553087421"
    }
  },
  {
    "service_request": "2024-1139392",
    "request_type": "Abandoned Vehicles",
    "request_reason": "Abandoned/Junk Vehicles",
    "date_created": "2024-10-08T14:47:12.000",
    "date_modified": "2024-10-08T14:47:12.000",
    "request_status": "Pending",
    "responsible_agency": "Department of Public Works",
    "final_address": "2004 Mandolin St",
    "address_councildis": "D",
    "status": "Pending",
    "rowid": "1139392",
    "final_x": "3682633.56866",
    "final_y": "548283.842386",
    "longitude": "-90.06390448839228",
    "latitude": "30.001555929750975",
    "geocoded_column": {
      "latitude": "30.001555929750975",
      "longitude": "-90.06390448839228"
    }
  },
  {
    "service_request": "2024-1139391",
    "request_type": "Trash/Recycling",
    "request_reason": "Order Recycling Cart",
    "date_created": "2024-10-08T14:47:08.000",
    "date_modified": "2024-10-08T14:47:09.000",
    "request_status": "Pending",
    "responsible_agency": "Department of Sanitation",
    "final_address": "700 Turquoise St",
    "address_councildis": "D",
    "status": "Pending",
    "rowid": "1139391",
    "final_x": "3669912.29492",
    "final_y": "555176.766169",
    "longitude": "-90.10385870204372",
    "latitude": "30.02089042552347",
    "geocoded_column": {
      "latitude": "30.02089042552347",
      "longitude": "-90.10385870204372"
    }
  },
  {
    "service_request": "2024-1139390",
    "request_type": "Trash/Recycling",
    "request_reason": "Request a Large Item Pick Up",
    "date_created": "2024-10-08T14:47:06.000",
    "date_modified": "2024-10-08T14:47:07.000",
    "request_status": "Pending",
    "responsible_agency": "Department of Sanitation",
    "final_address": "708 Thayer St",
    "address_councildis": "C",
    "status": "Assigned to Contractor",
    "contractor": "Richards Disposal",
    "rowid": "1139390",
    "final_x": "3689534.17615",
    "final_y": "528912.367808",
    "longitude": "-90.04279410376016",
    "latitude": "29.94807921014022",
    "geocoded_column": {
      "latitude": "29.94807921014022",
      "longitude": "-90.04279410376016"
    }
  },
  {
    "service_request": "2024-1139389",
    "request_type": "Trash/Recycling",
    "request_reason": "Repair Trash Cart",
    "date_created": "2024-10-08T14:43:40.000",
    "date_modified": "2024-10-08T14:43:41.000",
    "request_status": "Pending",
    "responsible_agency": "Department of Sanitation",
    "final_address": "3323 Banks St",
    "address_councildis": "B",
    "status": "Assigned to Contractor",
    "contractor": "IV Waste",
    "rowid": "1139389",
    "final_x": "3672711.37358",
    "final_y": "535667.985542",
    "longitude": "-90.09568021954335",
    "latitude": "29.96716517460636",
    "geocoded_column": {
      "latitude": "29.96716517460636",
      "longitude": "-90.09568021954335"
    }
  },
  {
    "service_request": "2024-1139388",
    "request_type": "Roads and Streets",
    "request_reason": "Sidewalk Damaged or Missing",
    "date_created": "2024-10-08T14:42:38.000",
    "date_modified": "2024-10-08T14:42:38.000",
    "request_status": "Pending",
    "responsible_agency": "Department of Public Works",
    "final_address": "5042 Dreux Ave",
    "address_councildis": "D",
    "status": "Pending",
    "rowid": "1139388",
    "final_x": "3692214.46691",
    "final_y": "553327.736087",
    "longitude": "-90.03345685179909",
    "latitude": "30.015129439486632",
    "geocoded_column": {
      "latitude": "30.015129439486632",
      "longitude": "-90.03345685179909"
    }
  },
  {
    "service_request": "2024-1139387",
    "request_type": "Safety & Permits",
    "request_reason": "Zoning Enforcement",
    "date_created": "2024-10-08T14:41:36.000",
    "date_modified": "2024-10-08T14:41:36.000",
    "request_status": "Pending",
    "responsible_agency": "Safety and Permits",
    "final_address": "3015 Jefferson Ave",
    "address_councildis": "B",
    "rowid": "1139387",
    "final_x": "3668533.51815",
    "final_y": "526451.972862",
    "longitude": "-90.10918490081964",
    "latitude": "29.941947583650443",
    "geocoded_column": {
      "latitude": "29.941947583650443",
      "longitude": "-90.10918490081964"
    }
  },
  {
    "service_request": "2024-1139386",
    "request_type": "Trash/Recycling",
    "request_reason": "MIssed Recycling Pick-Up",
    "date_created": "2024-10-08T14:41:17.000",
    "date_modified": "2024-10-08T14:41:19.000",
    "request_status": "Pending",
    "responsible_agency": "Department of Sanitation",
    "final_address": "3323 Banks St",
    "address_councildis": "B",
    "status": "Assigned to Contractor",
    "contractor": "IV Waste",
    "rowid": "1139386",
    "final_x": "3672711.37358",
    "final_y": "535667.985542",
    "longitude": "-90.09568021954335",
    "latitude": "29.96716517460636",
    "geocoded_column": {
      "latitude": "29.96716517460636",
      "longitude": "-90.09568021954335"
    }
  },
  {
    "service_request": "2024-1139385",
    "request_type": "Trash/Recycling",
    "request_reason": "Request a Large Item Pick Up",
    "date_created": "2024-10-08T14:39:55.000",
    "date_modified": "2024-10-08T14:39:56.000",
    "request_status": "Pending",
    "responsible_agency": "Department of Sanitation",
    "final_address": "2212 General Taylor St",
    "address_councildis": "B",
    "status": "Assigned to Contractor",
    "contractor": "IV Waste",
    "rowid": "1139385",
    "final_x": "3672075.86452",
    "final_y": "523265.320379",
    "longitude": "-90.09810939850823",
    "latitude": "29.93308078863894",
    "geocoded_column": {
      "latitude": "29.93308078863894",
      "longitude": "-90.09810939850823"
    }
  },
  {
    "service_request": "2024-1139384",
    "request_type": "Utility Poles",
    "request_reason": "Wires Sagging/Hanging Low",
    "date_created": "2024-10-08T14:39:50.000",
    "date_modified": "2024-10-08T14:40:35.000",
    "request_status": "Pending",
    "responsible_agency": "Utility Company Collective",
    "final_address": "ALVAR ST & DAUPHINE ST",
    "address_councildis": "C",
    "status": "Pending",
    "rowid": "1139384",
    "final_x": "3691204.3",
    "final_y": "534239.88",
    "longitude": "-90.03733061050555",
    "latitude": "29.96267619102937",
    "geocoded_column": {
      "latitude": "29.96267619102937",
      "longitude": "-90.03733061050555"
    }
  },
  {
    "service_request": "2024-1139383",
    "request_type": "Roads and Streets",
    "request_reason": "Sidewalk Damaged or Missing",
    "date_created": "2024-10-08T14:39:50.000",
    "date_modified": "2024-10-08T14:39:50.000",
    "request_status": "Pending",
    "responsible_agency": "Department of Public Works",
    "final_address": "5048 Dreux Ave",
    "address_councildis": "D",
    "status": "Pending",
    "rowid": "1139383",
    "final_x": "3692266.01622",
    "final_y": "553342.009751",
    "longitude": "-90.03329346930046",
    "latitude": "30.015167078681657",
    "geocoded_column": {
      "latitude": "30.015167078681657",
      "longitude": "-90.03329346930046"
    }
  },
  {
    "service_request": "2024-1139382",
    "request_type": "Drainage",
    "request_reason": "Catch Basin Clogged",
    "date_created": "2024-10-08T14:34:45.000",
    "date_modified": "2024-10-08T14:34:45.000",
    "request_status": "Pending",
    "responsible_agency": "Department of Public Works",
    "final_address": "365 Canal St",
    "address_councildis": "C",
    "status": "Pending",
    "rowid": "1139382",
    "final_x": "3682262.04872",
    "final_y": "529980.178369",
    "longitude": "-90.06571783766694",
    "latitude": "29.951238535538582",
    "geocoded_column": {
      "latitude": "29.951238535538582",
      "longitude": "-90.06571783766694"
    }
  },
  {
    "service_request": "2024-1139381",
    "request_type": "Trash/Recycling",
    "request_reason": "Request a Large Item Pick Up",
    "date_created": "2024-10-08T14:32:50.000",
    "date_modified": "2024-10-08T14:32:51.000",
    "request_status": "Pending",
    "responsible_agency": "Department of Sanitation",
    "final_address": "2535 Upperline St",
    "address_councildis": "B",
    "status": "Assigned to Contractor",
    "contractor": "IV Waste",
    "rowid": "1139381",
    "final_x": "3669207.40788",
    "final_y": "524225.195516",
    "longitude": "-90.10713251691244",
    "latitude": "29.93580485123725",
    "geocoded_column": {
      "latitude": "29.93580485123725",
      "longitude": "-90.10713251691244"
    }
  },
  {
    "service_request": "2024-1139380",
    "request_type": "Safety & Permits",
    "request_reason": "Zoning Enforcement",
    "date_created": "2024-10-08T14:32:20.000",
    "date_modified": "2024-10-08T14:32:20.000",
    "request_status": "Pending",
    "responsible_agency": "Safety and Permits",
    "final_address": "2720 Second St",
    "address_councildis": "B",
    "status": "Pending",
    "rowid": "1139380",
    "final_x": "3674381.80987",
    "final_y": "526474.95923",
    "longitude": "-90.09071979433534",
    "latitude": "29.941837694401286",
    "geocoded_column": {
      "latitude": "29.941837694401286",
      "longitude": "-90.09071979433534"
    }
  },
  {
    "service_request": "2024-1139379",
    "request_type": "Trash/Recycling",
    "request_reason": "Request a Large Item Pick Up",
    "date_created": "2024-10-08T14:30:01.000",
    "date_modified": "2024-10-08T14:30:03.000",
    "request_status": "Pending",
    "responsible_agency": "Department of Sanitation",
    "final_address": "4308 General Pershing St",
    "address_councildis": "B",
    "status": "Assigned to Contractor",
    "contractor": "IV Waste",
    "rowid": "1139379",
    "final_x": "3669563.60231",
    "final_y": "529653.424705",
    "longitude": "-90.10582441733122",
    "latitude": "29.95072023349288",
    "geocoded_column": {
      "latitude": "29.95072023349288",
      "longitude": "-90.10582441733122"
    }
  },
  {
    "service_request": "2024-1139378",
    "request_type": "Streetlights",
    "request_reason": "Streetlight Outage/Malfunction",
    "date_created": "2024-10-08T14:28:22.000",
    "date_modified": "2024-10-08T14:28:24.000",
    "request_status": "Pending",
    "responsible_agency": "Department of Public Works",
    "final_address": "316 S Genois St",
    "address_councildis": "B",
    "status": "Pending",
    "contractor": "Legacy Professional Services",
    "rowid": "1139378",
    "final_x": "3672044.93102",
    "final_y": "536403.056007",
    "longitude": "-90.0977598242677",
    "latitude": "29.96920614765183",
    "geocoded_column": {
      "latitude": "29.96920614765183",
      "longitude": "-90.0977598242677"
    }
  },
  {
    "service_request": "2024-1139377",
    "request_type": "Streetlights",
    "request_reason": "Streetlight Outage/Malfunction",
    "date_created": "2024-10-08T14:28:11.000",
    "date_modified": "2024-10-08T14:28:13.000",
    "request_status": "Pending",
    "responsible_agency": "Department of Public Works",
    "final_address": "316 S Genois St",
    "address_councildis": "B",
    "status": "Pending",
    "contractor": "Legacy Professional Services",
    "rowid": "1139377",
    "final_x": "3672044.93102",
    "final_y": "536403.056007",
    "longitude": "-90.0977598242677",
    "latitude": "29.96920614765183",
    "geocoded_column": {
      "latitude": "29.96920614765183",
      "longitude": "-90.0977598242677"
    }
  },
  {
    "service_request": "2024-1139376",
    "request_type": "Property Maintenance",
    "request_reason": "Property Maintenance",
    "date_created": "2024-10-08T14:28:05.000",
    "date_modified": "2024-10-08T14:28:05.000",
    "request_status": "Pending",
    "responsible_agency": "Department of Code Enforcement",
    "final_address": "4312 Pauger St",
    "address_councildis": "D",
    "status": "Pending",
    "rowid": "1139376",
    "final_x": "3682840.99087",
    "final_y": "548532.68661",
    "longitude": "-90.06324050834942",
    "latitude": "30.002233841900818",
    "geocoded_column": {
      "latitude": "30.002233841900818",
      "longitude": "-90.06324050834942"
    }
  },
  {
    "service_request": "2024-1139375",
    "request_type": "Roads and Streets",
    "request_reason": "Pothole",
    "date_created": "2024-10-08T14:23:08.000",
    "date_modified": "2024-10-08T14:23:36.000",
    "case_close_date": "2024-10-08T09:23:36.000",
    "request_status": "Closed",
    "responsible_agency": "Department of Public Works",
    "final_address": "2823 Thalia St",
    "address_councildis": "B",
    "status": "Resolved",
    "rowid": "1139375",
    "final_x": "3675653.33633",
    "final_y": "528183.965824",
    "longitude": "-90.08664661110178",
    "latitude": "29.946498921846754",
    "geocoded_column": {
      "latitude": "29.946498921846754",
      "longitude": "-90.08664661110178"
    }
  },
  {
    "service_request": "2024-1139374",
    "request_type": "Trash/Recycling",
    "request_reason": "MIssed Recycling Pick-Up",
    "date_created": "2024-10-08T14:18:39.000",
    "date_modified": "2024-10-08T15:31:20.000",
    "case_close_date": "2024-10-08T10:31:20.000",
    "request_status": "Closed",
    "responsible_agency": "Department of Sanitation",
    "final_address": "2113 Toledano St",
    "address_councildis": "B",
    "status": "Invalid Request",
    "contractor": "IV Waste",
    "contractor_action": "Invalid",
    "rowid": "1139374",
    "final_x": "3673838.64392",
    "final_y": "523478.890491",
    "longitude": "-90.0925371159095",
    "latitude": "29.933615667738376",
    "geocoded_column": {
      "latitude": "29.933615667738376",
      "longitude": "-90.0925371159095"
    }
  },
  {
    "service_request": "2024-1139373",
    "request_type": "Roads and Streets",
    "request_reason": "Pothole",
    "date_created": "2024-10-08T14:17:53.000",
    "date_modified": "2024-10-08T14:19:19.000",
    "case_close_date": "2024-10-08T09:19:19.000",
    "request_status": "Closed",
    "responsible_agency": "Department of Public Works",
    "final_address": "3223 Dearmas St",
    "address_councildis": "C",
    "status": "Resolved",
    "rowid": "1139373",
    "final_x": "3696199.47248",
    "final_y": "526971.736062",
    "longitude": "-90.02181930519791",
    "latitude": "29.942535047415042",
    "geocoded_column": {
      "latitude": "29.942535047415042",
      "longitude": "-90.02181930519791"
    }
  },
  {
    "service_request": "2024-1139372",
    "request_type": "Parks & Parkways",
    "request_reason": "Request Tree Service (Right of Way/Public Property)",
    "date_created": "2024-10-08T14:16:56.000",
    "date_modified": "2024-10-08T14:16:57.000",
    "request_status": "Pending",
    "responsible_agency": "Department of Parks & Parkway",
    "final_address": "2525 Nashville Ave",
    "address_councildis": "A",
    "status": "Pending",
    "rowid": "1139372",
    "final_x": "3667281.0937",
    "final_y": "525387.052925",
    "longitude": "-90.11317488597342",
    "latitude": "29.939056128095903",
    "geocoded_column": {
      "latitude": "29.939056128095903",
      "longitude": "-90.11317488597342"
    }
  },
  {
    "service_request": "2024-1139371",
    "request_type": "Trash/Recycling",
    "request_reason": "Request a Large Item Pick Up",
    "date_created": "2024-10-08T14:16:15.000",
    "date_modified": "2024-10-08T14:16:27.000",
    "request_status": "Pending",
    "responsible_agency": "Department of Sanitation",
    "final_address": "7548 Michigan St",
    "address_councildis": "E",
    "status": "Assigned to Contractor",
    "contractor": "Waste Pro",
    "rowid": "1139371",
    "final_x": "3712020.1228",
    "final_y": "566089.617571",
    "longitude": "-89.97040136976541",
    "latitude": "30.049586879517914",
    "geocoded_column": {
      "latitude": "30.049586879517914",
      "longitude": "-89.97040136976541"
    }
  },