[
  {
    "service_request": "2024-1135660",
    "request_type": "Trash/Recycling",
    "request_reason": "Start Trash Service",
    "date_created": "2024-09-25T23:44:53.000",
    "date_modified": "2024-09-25T23:44:54.000",
    "request_status": "Pending",
    "responsible_agency": "Department of Sanitation",
    "final_address": "3521 Cambronne St",
    "address_councildis": "A",
    "status": "Assigned to Contractor",
    "contractor": "IV Waste",
    "rowid": "1135660",
    "final_x": "3666851.03898",
    "final_y": "535285.117254",
    "longitude": "-90.11420014265727",
    "latitude": "29.966285163311404",
    "geocoded_column": {
      "latitude": "29.966285163311404",
      "longitude": "-90.11420014265727"
    }
  },
  {
    "service_request": "2024-1135659",
    "request_type": "Streetlights",
    "request_reason": "Streetlight Outage/Malfunction",
    "date_created": "2024-09-25T23:31:44.000",
    "date_modified": "2024-09-25T23:31:46.000",
    "request_status": "Pending",
    "responsible_agency": "Department of Public Works",
    "final_address": "1500 BLK Louisa St",
    "address_councildis": "D",
    "status": "Pending",
    "contractor": "Legacy Professional Services",
    "rowid": "1135659",
    "final_x": "3689979.53011",
    "final_y": "537538.343018",
    "longitude": "-90.0410807879002",
    "latitude": "29.971783840661335",
    "geocoded_column": {
      "latitude": "29.971783840661335",
      "longitude": "-90.0410807879002"
    }
  },
  {
    "service_request": "2024-1135658",
    "request_type": "Abandoned Vehicles",
    "request_reason": "Abandoned/Junk Vehicles",
    "date_created": "2024-09-25T23:20:14.000",
    "date_modified": "2024-09-25T23:20:14.000",
    "request_status": "Pending",
    "responsible_agency": "Department of Public Works",
    "final_address": "1836 Baronne St",
    "address_councildis": "B",
    "status": "Pending",
    "rowid": "1135658",
    "final_x": "3677699.42216",
    "final_y": "524925.198524",
    "longitude": "-90.08029890460413",
    "latitude": "29.937477019124707",
    "geocoded_column": {
      "latitude": "29.937477019124707",
      "longitude": "-90.08029890460413"
    }
  },
  {
    "service_request": "2024-1135657",
    "request_type": "Trash/Recycling",
    "request_reason": "Replace Trash Cart",
    "date_created": "2024-09-25T22:41:00.000",
    "date_modified": "2024-09-25T22:41:02.000",
    "request_status": "Pending",
    "responsible_agency": "Department of Sanitation",
    "final_address": "7851 Symmes Ave Apt 1",
    "address_councildis": "E",
    "status": "Assigned to Contractor",
    "contractor": "Waste Pro",
    "rowid": "1135657",
    "final_x": "3707494.45188",
    "final_y": "565385.915618",
    "longitude": "-89.98473134527556",
    "latitude": "30.047799219303787",
    "geocoded_column": {
      "latitude": "30.047799219303787",
      "longitude": "-89.98473134527556"
    }
  },
  {
    "service_request": "2024-1135656",
    "request_type": "Streetlights",
    "request_reason": "Streetlight Outage/Malfunction",
    "date_created": "2024-09-25T22:33:36.000",
    "date_modified": "2024-09-25T22:33:37.000",
    "request_status": "Pending",
    "responsible_agency": "Department of Public Works",
    "final_address": "1501 Fern St",
    "address_councildis": "A",
    "status": "Pending",
    "contractor": "Legacy Professional Services",
    "rowid": "1135656",
    "final_x": "3663341.34637",
    "final_y": "528652.070592",
    "longitude": "-90.12550454155887",
    "latitude": "29.948148651021377",
    "geocoded_column": {
      "latitude": "29.948148651021377",
      "longitude": "-90.12550454155887"
    }
  },
  {
    "service_request": "2024-1135655",
    "request_type": "Hurricane Francine Tree-Related Issues or Emergencies\t",
    "request_reason": "Hurricane Francine Tree-Related Issues or Emergencies",
    "date_created": "2024-09-25T22:32:21.000",
    "date_modified": "2024-09-25T22:32:21.000",
    "request_status": "Pending",
    "responsible_agency": "Department of Parks & Parkway",
    "final_address": "1723 Jena St",
    "address_councildis": "B",
    "status": "Pending",
    "rowid": "1135655",
    "final_x": "3670494.01825",
    "final_y": "521406.463353",
    "longitude": "-90.1031661923814",
    "latitude": "29.92801632175874",
    "geocoded_column": {
      "latitude": "29.92801632175874",
      "longitude": "-90.1031661923814"
    }
  },
  {
    "service_request": "2024-1135654",
    "request_type": "Trash/Recycling",
    "request_reason": "Order Recycling Cart",
    "date_created": "2024-09-25T22:29:34.000",
    "date_modified": "2024-09-25T22:29:34.000",
    "request_status": "Pending",
    "responsible_agency": "Department of Sanitation",
    "final_address": "7831 Jeannette St",
    "address_councildis": "A",
    "status": "Pending",
    "rowid": "1135654",
    "final_x": "3663335.7033",
    "final_y": "528612.579648",
    "longitude": "-90.12552367344017",
    "latitude": "29.948040227177216",
    "geocoded_column": {
      "latitude": "29.948040227177216",
      "longitude": "-90.12552367344017"
    }
  },
  {
    "service_request": "2024-1135653",
    "request_type": "Trash/Recycling",
    "request_reason": "Replace Trash Cart",
    "date_created": "2024-09-25T22:28:20.000",
    "date_modified": "2024-09-25T22:28:22.000",
    "request_status": "Pending",
    "responsible_agency": "Department of Sanitation",
    "final_address": "1723 Jena St",
    "address_councildis": "B",
    "status": "Assigned to Contractor",
    "contractor": "IV Waste",
    "rowid": "1135653",
    "final_x": "3670494.01825",
    "final_y": "521406.463353",
    "longitude": "-90.1031661923814",
    "latitude": "29.92801632175874",
    "geocoded_column": {
      "latitude": "29.92801632175874",
      "longitude": "-90.1031661923814"
    }
  },
  {
    "service_request": "2024-1135652",
    "request_type": "Trash/Recycling",
    "request_reason": "Return Recycling Cart",
    "date_created": "2024-09-25T22:24:01.000",
    "date_modified": "2024-09-25T22:24:01.000",
    "request_status": "Pending",
    "responsible_agency": "Department of Sanitation",
    "final_address": "4327 Banks St",
    "address_councildis": "A",
    "status": "Pending",
    "rowid": "1135652",
    "final_x": "3669412.31559",
    "final_y": "538190.155529",
    "longitude": "-90.10601339109711",
    "latitude": "29.97419786604557",
    "geocoded_column": {
      "latitude": "29.97419786604557",
      "longitude": "-90.10601339109711"
    }
  },
  {
    "service_request": "2024-1135651",
    "request_type": "Hurricane Francine Tree-Related Issues or Emergencies\t",
    "request_reason": "Hurricane Francine Tree-Related Issues or Emergencies",
    "date_created": "2024-09-25T22:22:50.000",
    "date_modified": "2024-09-25T22:22:50.000",
    "request_status": "Pending",
    "responsible_agency": "Department of Parks & Parkway",
    "final_address": "4327 Banks St",
    "address_councildis": "A",
    "status": "Pending",
    "rowid": "1135651",
    "final_x": "3669412.31559",
    "final_y": "538190.155529",
    "longitude": "-90.10601339109711",
    "latitude": "29.97419786604557",
    "geocoded_column": {
      "latitude": "29.97419786604557",
      "longitude": "-90.10601339109711"
    }
  },
  {
    "service_request": "2024-1135650",
    "request_type": "Property Maintenance",
    "request_reason": "Property Maintenance",
    "date_created": "2024-09-25T22:21:51.000",
    "date_modified": "2024-09-25T22:21:51.000",
    "request_status": "Pending",
    "responsible_agency": "Department of Code Enforcement",
    "final_address": "937 Fats Domino Ave",
    "address_councildis": "E",
    "status": "Pending",
    "rowid": "1135650",
    "final_x": "3697942.42627",
    "final_y": "533287.40378",
    "longitude": "-90.01608720362415",
    "latitude": "29.959845944005593",
    "geocoded_column": {
      "latitude": "29.959845944005593",
      "longitude": "-90.01608720362415"
    }
  },
  {
    "service_request": "2024-1135649",
    "request_type": "Streetlights",
    "request_reason": "Streetlight Outage/Malfunction",
    "date_created": "2024-09-25T21:37:15.000",
    "date_modified": "2024-09-25T21:37:17.000",
    "request_status": "Pending",
    "responsible_agency": "Department of Public Works",
    "final_address": "4751 Knight Dr",
    "address_councildis": "E",
    "status": "Pending",
    "contractor": "Legacy Professional Services",
    "rowid": "1135649",
    "final_x": "3708200.97246",
    "final_y": "555622.376345",
    "longitude": "-89.98286205284205",
    "latitude": "30.02093046042013",
    "geocoded_column": {
      "latitude": "30.02093046042013",
      "longitude": "-89.98286205284205"
    }
  },
  {
    "service_request": "2024-1135648",
    "request_type": "Streetlights",
    "request_reason": "Streetlight Outage/Malfunction",
    "date_created": "2024-09-25T21:26:02.000",
    "date_modified": "2024-09-25T21:26:03.000",
    "request_status": "Pending",
    "responsible_agency": "Department of Public Works",
    "final_address": "2014 Magic Walk",
    "address_councildis": "D",
    "status": "Pending",
    "contractor": "Legacy Professional Services",
    "rowid": "1135648",
    "final_x": "3678623.5643",
    "final_y": "535247.964742",
    "longitude": "-90.0770240066642",
    "latitude": "29.965833345206978",
    "geocoded_column": {
      "latitude": "29.965833345206978",
      "longitude": "-90.0770240066642"
    }
  },
  {
    "service_request": "2024-1135647",
    "request_type": "Roads and Streets",
    "request_reason": "Push-up/Pavement Expansion",
    "date_created": "2024-09-25T21:25:25.000",
    "date_modified": "2024-09-25T21:25:25.000",
    "request_status": "Pending",
    "responsible_agency": "Department of Public Works",
    "final_address": "SUMPTER ST & PAUGER ST",
    "address_councildis": "D",
    "status": "Pending",
    "rowid": "1135647",
    "final_x": "3682807.6",
    "final_y": "549474.18",
    "longitude": "-90.0633130277197",
    "latitude": "30.004823627849323",
    "geocoded_column": {
      "latitude": "30.004823627849323",
      "longitude": "-90.0633130277197"
    }
  },
  {
    "service_request": "2024-1135646",
    "request_type": "Streetlights",
    "request_reason": "Streetlight Outage/Malfunction",
    "date_created": "2024-09-25T21:14:15.000",
    "date_modified": "2024-09-25T21:14:16.000",
    "request_status": "Pending",
    "responsible_agency": "Department of Public Works",
    "final_address": "6426 Peony St",
    "address_councildis": "C",
    "status": "Pending",
    "contractor": "Legacy Professional Services",
    "rowid": "1135646",
    "final_x": "3707767.78353",
    "final_y": "516488.035701",
    "longitude": "-89.98568510164831",
    "latitude": "29.91333940587741",
    "geocoded_column": {
      "latitude": "29.91333940587741",
      "longitude": "-89.98568510164831"
    }
  },
  {
    "service_request": "2024-1135645",
    "request_type": "Streetlights",
    "request_reason": "Streetlight Outage/Malfunction",
    "date_created": "2024-09-25T21:13:13.000",
    "date_modified": "2024-09-25T21:13:14.000",
    "request_status": "Pending",
    "responsible_agency": "Department of Public Works",
    "final_address": "7081 E Tamaron Blvd",
    "address_councildis": "E",
    "status": "Pending",
    "contractor": "Legacy Professional Services",
    "rowid": "1135645",
    "final_x": "3718816.00537",
    "final_y": "568783.233765",
    "longitude": "-89.94881957127647",
    "latitude": "30.056769196486677",
    "geocoded_column": {
      "latitude": "30.056769196486677",
      "longitude": "-89.94881957127647"
    }
  },
  {
    "service_request": "2024-1135644",
    "request_type": "Streetlights",
    "request_reason": "Streetlight Outage/Malfunction",
    "date_created": "2024-09-25T21:03:18.000",
    "date_modified": "2024-09-25T21:03:19.000",
    "request_status": "Pending",
    "responsible_agency": "Department of Public Works",
    "final_address": "1221 Cambronne St",
    "address_councildis": "A",
    "status": "Pending",
    "contractor": "Legacy Professional Services",
    "rowid": "1135644",
    "final_x": "3661324.46227",
    "final_y": "529213.839488",
    "longitude": "-90.13185410146949",
    "latitude": "29.949751639370586",
    "geocoded_column": {
      "latitude": "29.949751639370586",
      "longitude": "-90.13185410146949"
    }
  },
  {
    "service_request": "2024-1135643",
    "request_type": "Trash/Recycling",
    "request_reason": "MIssed Recycling Pick-Up",
    "date_created": "2024-09-25T20:58:40.000",
    "date_modified": "2024-09-25T20:58:41.000",
    "request_status": "Pending",
    "responsible_agency": "Department of Sanitation",
    "final_address": "615 Elmira Ave",
    "address_councildis": "C",
    "status": "Assigned to Contractor",
    "contractor": "Richards Disposal",
    "rowid": "1135643",
    "final_x": "3688135.12553",
    "final_y": "529324.086593",
    "longitude": "-90.04719687018054",
    "latitude": "29.949254548934345",
    "geocoded_column": {
      "latitude": "29.949254548934345",
      "longitude": "-90.04719687018054"
    }
  },
  {
    "service_request": "2024-1135642",
    "request_type": "Mosquito, Termite & Rodent Control",
    "request_reason": "Mosquito Complaint",
    "date_created": "2024-09-25T20:33:20.000",
    "date_modified": "2024-09-25T20:33:20.000",
    "request_status": "Pending",
    "responsible_agency": "Mosquito, Termite & Rodent Control Board",
    "final_address": "7325 Malvern Dr",
    "address_councildis": "E",
    "status": "Pending",
    "rowid": "1135642",
    "final_x": "3702870.02225",
    "final_y": "560814.293854",
    "longitude": "-89.99951523209411",
    "latitude": "30.03537790256463",
    "geocoded_column": {
      "latitude": "30.03537790256463",
      "longitude": "-89.99951523209411"
    }
  },
  {
    "service_request": "2024-1135641",
    "request_type": "Streetlights",
    "request_reason": "New Streetlight Request",
    "date_created": "2024-09-25T20:33:11.000",
    "date_modified": "2024-09-25T20:33:13.000",
    "request_status": "Pending",
    "responsible_agency": "Department of Public Works",
    "final_address": "800 BLK N Rocheblave St",
    "address_councildis": "D",
    "status": "Pending",
    "contractor": "Legacy Professional Services",
    "rowid": "1135641",
    "final_x": "3677848.2404",
    "final_y": "536752.118541",
    "longitude": "-90.07942047415361",
    "latitude": "29.96999260673583",
    "geocoded_column": {
      "latitude": "29.96999260673583",
      "longitude": "-90.07942047415361"
    }
  },
  {
    "service_request": "2024-1135640",
    "request_type": "Abandoned Vehicles",
    "request_reason": "Abandoned/Junk Vehicles",
    "date_created": "2024-09-25T20:12:56.000",
    "date_modified": "2024-09-25T20:12:56.000",
    "request_status": "Pending",
    "responsible_agency": "Department of Public Works",
    "final_address": "1214 St Mary St",
    "address_councildis": "B",
    "status": "Pending",
    "rowid": "1135640",
    "final_x": "3679361.76091",
    "final_y": "523198.644859",
    "longitude": "-90.07511063984404",
    "latitude": "29.932679476100414",
    "geocoded_column": {
      "latitude": "29.932679476100414",
      "longitude": "-90.07511063984404"
    }
  },
  {
    "service_request": "2024-1135639",
    "request_type": "Trash/Recycling",
    "request_reason": "Order Second Trash Cart",
    "date_created": "2024-09-25T19:45:17.000",
    "date_modified": "2024-09-25T19:45:18.000",
    "request_status": "Pending",
    "responsible_agency": "Department of Sanitation",
    "final_address": "5312 Wildair Dr",
    "address_councildis": "D",
    "status": "Assigned to Contractor",
    "contractor": "IV Waste",
    "rowid": "1135639",
    "final_x": "3681632.32732",
    "final_y": "552447.361174",
    "longitude": "-90.06692213573317",
    "latitude": "30.01303456875389",
    "geocoded_column": {
      "latitude": "30.01303456875389",
      "longitude": "-90.06692213573317"
    }
  },
  {
    "service_request": "2024-1135638",
    "request_type": "Trash/Recycling",
    "request_reason": "Request a Large Item Pick Up",
    "date_created": "2024-09-25T19:43:54.000",
    "date_modified": "2024-09-25T19:43:56.000",
    "request_status": "Pending",
    "responsible_agency": "Department of Sanitation",
    "final_address": "5312 Wildair Dr",
    "address_councildis": "D",
    "status": "Assigned to Contractor",
    "contractor": "IV Waste",
    "rowid": "1135638",
    "final_x": "3681632.32732",
    "final_y": "552447.361174",
    "longitude": "-90.06692213573317",
    "latitude": "30.01303456875389",
    "geocoded_column": {
      "latitude": "30.01303456875389",
      "longitude": "-90.06692213573317"
    }
  },
  {
    "service_request": "2024-1135637",
    "request_type": "Property Maintenance",
    "request_reason": "Property Maintenance",
    "date_created": "2024-09-25T19:10:06.000",
    "date_modified": "2024-09-25T19:10:06.000",
    "request_status": "Pending",
    "responsible_agency": "Department of Code Enforcement",
    "final_address": "7605 Mayfair Pl",
    "address_councildis": "D",
    "status": "Pending",
    "rowid": "1135637",
    "final_x": "3694613.95075",
    "final_y": "558295.205212",
    "longitude": "-90.02569654188838",
    "latitude": "30.0287130394651",
    "geocoded_column": {
      "latitude": "30.0287130394651",
      "longitude": "-90.02569654188838"
    }
  },
  {
    "service_request": "2024-1135636",
    "request_type": "Streetlights",
    "request_reason": "Streetlight Outage/Malfunction",
    "date_created": "2024-09-25T18:47:09.000",
    "date_modified": "2024-09-25T18:47:10.000",
    "request_status": "Pending",
    "responsible_agency": "Department of Public Works",
    "final_address": "CANAL ST & N NORMAN C FRANCIS PKWY & S NORMAN C FRANCIS PKWY",
    "address_councildis": "B",
    "status": "Pending",
    "contractor": "Legacy Professional Services",
    "rowid": "1135636",
    "final_x": "3673171.0",
    "final_y": "536825.08",
    "longitude": "-90.09418919581252",
    "latitude": "29.97033313521366",
    "geocoded_column": {
      "latitude": "29.97033313521366",
      "longitude": "-90.09418919581252"
    }
  },
  {
    "service_request": "2024-1135635",
    "request_type": "Trash/Recycling",
    "request_reason": "Request a Large Item Pick Up",
    "date_created": "2024-09-25T18:45:51.000",
    "date_modified": "2024-09-25T18:45:53.000",
    "request_status": "Pending",
    "responsible_agency": "Department of Sanitation",
    "final_address": "2940 Bruxelles St",
    "address_councildis": "D",
    "status": "Assigned to Contractor",
    "contractor": "IV Waste",
    "rowid": "1135635",
    "final_x": "3680232.04827",
    "final_y": "543290.525966",
    "longitude": "-90.07166481374723",
    "latitude": "29.987899012745824",
    "geocoded_column": {
      "latitude": "29.987899012745824",
      "longitude": "-90.07166481374723"
    }
  },
  {
    "service_request": "2024-1135634",
    "request_type": "Trash/Recycling",
    "request_reason": "Order Second Trash Cart",
    "date_created": "2024-09-25T18:36:31.000",
    "date_modified": "2024-09-25T18:36:32.000",
    "request_status": "Pending",
    "responsible_agency": "Department of Sanitation",
    "final_address": "4839 Elysian Fields Ave",
    "address_councildis": "D",
    "status": "Assigned to Contractor",
    "contractor": "IV Waste",
    "rowid": "1135634",
    "final_x": "3683975.28962",
    "final_y": "550614.385492",
    "longitude": "-90.05958402393432",
    "latitude": "30.007923141917136",
    "geocoded_column": {
      "latitude": "30.007923141917136",
      "longitude": "-90.05958402393432"
    }
  },
  {
    "service_request": "2024-1135633",
    "request_type": "Roads and Streets",
    "request_reason": "Pothole",
    "date_created": "2024-09-25T18:32:41.000",
    "date_modified": "2024-09-25T18:32:41.000",
    "request_status": "Pending",
    "responsible_agency": "Department of Public Works",
    "final_address": "1749 Pratt Dr",
    "address_councildis": "D",
    "status": "Pending",
    "rowid": "1135633",
    "final_x": "3680340.44456",
    "final_y": "549421.261331",
    "longitude": "-90.07110910774892",
    "latitude": "30.004753079584354",
    "geocoded_column": {
      "latitude": "30.004753079584354",
      "longitude": "-90.07110910774892"
    }
  },
  {
    "service_request": "2024-1135632",
    "request_type": "Abandoned Vehicles",
    "request_reason": "Vehicle Blocking Your Driveway",
    "date_created": "2024-09-25T18:29:26.000",
    "date_modified": "2024-09-25T18:29:26.000",
    "request_status": "Pending",
    "responsible_agency": "Department of Public Works",
    "final_address": "433 N Bernadotte St",
    "address_councildis": "A",
    "status": "Pending",
    "rowid": "1135632",
    "final_x": "3669616.25422",
    "final_y": "541212.019084",
    "longitude": "-90.10526701762241",
    "latitude": "29.98250096070414",
    "geocoded_column": {
      "latitude": "29.98250096070414",
      "longitude": "-90.10526701762241"
    }
  },
  {
    "service_request": "2024-1135631",
    "request_type": "Abandoned Vehicles",
    "request_reason": "Vehicle Blocking Your Driveway",
    "date_created": "2024-09-25T18:27:11.000",
    "date_modified": "2024-09-25T18:27:11.000",
    "request_status": "Pending",
    "responsible_agency": "Department of Public Works",
    "final_address": "433 N Bernadotte St",
    "address_councildis": "A",
    "status": "Pending",
    "rowid": "1135631",
    "final_x": "3669616.25422",
    "final_y": "541212.019084",
    "longitude": "-90.10526701762241",
    "latitude": "29.98250096070414",
    "geocoded_column": {
      "latitude": "29.98250096070414",
      "longitude": "-90.10526701762241"
    }
  },
  {
    "service_request": "2024-1135630",
    "request_type": "Trash/Recycling",
    "request_reason": "Replace Trash Cart",
    "date_created": "2024-09-25T18:16:57.000",
    "date_modified": "2024-09-25T18:16:58.000",
    "request_status": "Pending",
    "responsible_agency": "Department of Sanitation",
    "final_address": "2529 Mexico St",
    "address_councildis": "D",
    "status": "Assigned to Contractor",
    "contractor": "IV Waste",
    "rowid": "1135630",
    "final_x": "3685828.3183",
    "final_y": "556411.87689",
    "longitude": "-90.05352518860516",
    "latitude": "30.023807343851107",
    "geocoded_column": {
      "latitude": "30.023807343851107",
      "longitude": "-90.05352518860516"
    }
  },
  {
    "service_request": "2024-1135629",
    "request_type": "Trash/Recycling",
    "request_reason": "Replace Trash Cart",
    "date_created": "2024-09-25T18:15:20.000",
    "date_modified": "2024-09-25T18:15:21.000",
    "request_status": "Pending",
    "responsible_agency": "Department of Sanitation",
    "final_address": "2529 Mexico St",
    "address_councildis": "D",
    "status": "Assigned to Contractor",
    "contractor": "IV Waste",
    "rowid": "1135629",
    "final_x": "3685828.3183",
    "final_y": "556411.87689",
    "longitude": "-90.05352518860516",
    "latitude": "30.023807343851107",
    "geocoded_column": {
      "latitude": "30.023807343851107",
      "longitude": "-90.05352518860516"
    }
  },
  {
    "service_request": "2024-1135628",
    "request_type": "Street and Traffic Signs",
    "request_reason": "Traffic or Parking Sign Damaged or Missing",
    "date_created": "2024-09-25T18:09:27.000",
    "date_modified": "2024-09-25T18:09:27.000",
    "request_status": "Pending",
    "responsible_agency": "Department of Public Works",
    "final_address": "4401 S Claiborne Ave",
    "address_councildis": "B",
    "status": "Pending",
    "rowid": "1135628",
    "final_x": "3670179.75175",
    "final_y": "525957.600509",
    "longitude": "-90.1040041251433",
    "latitude": "29.940539757842572",
    "geocoded_column": {
      "latitude": "29.940539757842572",
      "longitude": "-90.1040041251433"
    }
  },
  {
    "service_request": "2024-1135627",
    "request_type": "Streetlights",
    "request_reason": "Streetlight Outage/Malfunction",
    "date_created": "2024-09-25T18:07:24.000",
    "date_modified": "2024-09-25T18:07:25.000",
    "request_status": "Pending",
    "responsible_agency": "Department of Public Works",
    "final_address": "8502 Sycamore St",
    "address_councildis": "A",
    "status": "Pending",
    "contractor": "Legacy Professional Services",
    "rowid": "1135627",
    "final_x": "3663212.36327",
    "final_y": "531931.495619",
    "longitude": "-90.1258026760209",
    "latitude": "29.957169748277543",
    "geocoded_column": {
      "latitude": "29.957169748277543",
      "longitude": "-90.1258026760209"
    }
  },
  {
    "service_request": "2024-1135626",
    "request_type": "Abandoned Vehicles",
    "request_reason": "Abandoned/Junk Vehicles",
    "date_created": "2024-09-25T18:06:18.000",
    "date_modified": "2024-09-25T18:06:18.000",
    "request_status": "Pending",
    "responsible_agency": "Department of Public Works",
    "final_address": "Canal Street & La Salle Street",
    "address_councildis": "B",
    "status": "Pending",
    "rowid": "1135626",
    "final_x": "3679171.64443",
    "final_y": "532156.671107",
    "longitude": "-90.0754003596151",
    "latitude": "29.957316802527",
    "geocoded_column": {
      "latitude": "29.957316802527",
      "longitude": "-90.0754003596151"
    }
  },
  {
    "service_request": "2024-1135625",
    "request_type": "Trash/Recycling",
    "request_reason": "Missed Trash Pick-Up",
    "date_created": "2024-09-25T18:01:35.000",
    "date_modified": "2024-09-25T18:01:36.000",
    "request_status": "Pending",
    "responsible_agency": "Department of Sanitation",
    "final_address": "4600 Charlene Dr",
    "address_councildis": "E",
    "status": "Assigned to Contractor",
    "contractor": "Waste Pro",
    "rowid": "1135625",
    "final_x": "3707946.48107",
    "final_y": "554518.318872",
    "longitude": "-89.98370725416333",
    "latitude": "30.017902975729307",
    "geocoded_column": {
      "latitude": "30.017902975729307",
      "longitude": "-89.98370725416333"
    }
  },
  {
    "service_request": "2024-1135624",
    "request_type": "Drainage",
    "request_reason": "Street Flooding",
    "date_created": "2024-09-25T18:00:24.000",
    "date_modified": "2024-09-25T18:00:24.000",
    "request_status": "Pending",
    "responsible_agency": "Department of Public Works",
    "final_address": "3627 St Ferdinand St",
    "address_councildis": "D",
    "status": "Pending",
    "rowid": "1135624",
    "final_x": "3690038.83068",
    "final_y": "546515.218961",
    "longitude": "-90.04057365405012",
    "latitude": "29.99646519993442",
    "geocoded_column": {
      "latitude": "29.99646519993442",
      "longitude": "-90.04057365405012"
    }
  },
  {
    "service_request": "2024-1135623",
    "request_type": "Trash/Recycling",
    "request_reason": "Replace Trash Cart",
    "date_created": "2024-09-25T17:53:11.000",
    "date_modified": "2024-09-25T17:53:12.000",
    "request_status": "Pending",
    "responsible_agency": "Department of Sanitation",
    "final_address": "3800 BLK Magellan St",
    "address_councildis": "C",
    "status": "Assigned to Contractor",
    "contractor": "Richards Disposal",
    "rowid": "1135623",
    "final_x": "3698327.95993",
    "final_y": "524339.649271",
    "longitude": "-90.01519481738768",
    "latitude": "29.935230562608727",
    "geocoded_column": {
      "latitude": "29.935230562608727",
      "longitude": "-90.01519481738768"
    }
  },
  {
    "service_request": "2024-1135622",
    "request_type": "Hurricane Francine Tree-Related Issues or Emergencies\t",
    "request_reason": "Hurricane Francine Tree-Related Issues or Emergencies",
    "date_created": "2024-09-25T17:50:33.000",
    "date_modified": "2024-09-25T17:50:33.000",
    "request_status": "Pending",
    "responsible_agency": "Department of Parks & Parkway",
    "final_address": "3800 BLK Magellan St",
    "address_councildis": "C",
    "status": "Pending",
    "rowid": "1135622",
    "final_x": "3698327.95993",
    "final_y": "524339.649271",
    "longitude": "-90.01519481738768",
    "latitude": "29.935230562608727",
    "geocoded_column": {
      "latitude": "29.935230562608727",
      "longitude": "-90.01519481738768"
    }
  },
  {
    "service_request": "2024-1135621",
    "request_type": "Parks & Parkways",
    "request_reason": "Request Tree Service (Right of Way/Public Property)",
    "date_created": "2024-09-25T17:49:26.000",
    "date_modified": "2024-09-25T17:49:26.000",
    "request_status": "Pending",
    "responsible_agency": "Department of Parks & Parkway",
    "final_address": "BAUDIN ST & S CORTEZ ST",
    "address_councildis": "B",
    "status": "Pending",
    "rowid": "1135621",
    "final_x": "3671102.8",
    "final_y": "536321.98",
    "longitude": "-90.10073790505922",
    "latitude": "29.96901111632304",
    "geocoded_column": {
      "latitude": "29.96901111632304",
      "longitude": "-90.10073790505922"
    }
  },
  {
    "service_request": "2024-1135620",
    "request_type": "Parks & Parkways",
    "request_reason": "Request Tree Service (Right of Way/Public Property)",
    "date_created": "2024-09-25T17:48:23.000",
    "date_modified": "2024-09-25T17:48:23.000",
    "request_status": "Pending",
    "responsible_agency": "Department of Parks & Parkway",
    "final_address": "BAUDIN ST & S CORTEZ ST",
    "address_councildis": "B",
    "status": "Pending",
    "rowid": "1135620",
    "final_x": "3671102.8",
    "final_y": "536321.98",
    "longitude": "-90.10073790505922",
    "latitude": "29.96901111632304",
    "geocoded_column": {
      "latitude": "29.96901111632304",
      "longitude": "-90.10073790505922"
    }
  },
  {
    "service_request": "2024-1135619",
    "request_type": "Trash/Recycling",
    "request_reason": "Return Trash Cart",
    "date_created": "2024-09-25T17:40:26.000",
    "date_modified": "2024-09-25T17:40:27.000",
    "request_status": "Pending",
    "responsible_agency": "Department of Sanitation",
    "final_address": "2453 Madrid St",
    "address_councildis": "D",
    "status": "Assigned to Contractor",
    "contractor": "IV Waste",
    "rowid": "1135619",
    "final_x": "3685461.44726",
    "final_y": "555533.309657",
    "longitude": "-90.0547154044085",
    "latitude": "30.021402870972672",
    "geocoded_column": {
      "latitude": "30.021402870972672",
      "longitude": "-90.0547154044085"
    }
  },
  {
    "service_request": "2024-1135618",
    "request_type": "Property Maintenance",
    "request_reason": "Property Maintenance",
    "date_created": "2024-09-25T17:39:52.000",
    "date_modified": "2024-09-25T17:39:52.000",
    "request_status": "Pending",
    "responsible_agency": "Department of Code Enforcement",
    "final_address": "3418 Touro St",
    "address_councildis": "D",
    "status": "Pending",
    "rowid": "1135618",
    "final_x": "3683457.00425",
    "final_y": "545253.948559",
    "longitude": "-90.06140942762765",
    "latitude": "29.99319969562575",
    "geocoded_column": {
      "latitude": "29.99319969562575",
      "longitude": "-90.06140942762765"
    }
  },
  {
    "service_request": "2024-1135617",
    "request_type": "Trash/Recycling",
    "request_reason": "Repair Trash Cart",
    "date_created": "2024-09-25T17:39:06.000",
    "date_modified": "2024-09-25T17:39:08.000",
    "request_status": "Pending",
    "responsible_agency": "Department of Sanitation",
    "final_address": "2453 Madrid St",
    "address_councildis": "D",
    "status": "Assigned to Contractor",
    "contractor": "IV Waste",
    "rowid": "1135617",
    "final_x": "3685461.44726",
    "final_y": "555533.309657",
    "longitude": "-90.0547154044085",
    "latitude": "30.021402870972672",
    "geocoded_column": {
      "latitude": "30.021402870972672",
      "longitude": "-90.0547154044085"
    }
  },
  {
    "service_request": "2024-1135616",
    "request_type": "Trash/Recycling",
    "request_reason": "Replace Trash Cart",
    "date_created": "2024-09-25T17:38:43.000",
    "date_modified": "2024-09-25T17:38:44.000",
    "request_status": "Pending",
    "responsible_agency": "Department of Sanitation",
    "final_address": "4231 S Johnson St",
    "address_councildis": "B",
    "status": "Assigned to Contractor",
    "contractor": "IV Waste",
    "rowid": "1135616",
    "final_x": "3670699.22491",
    "final_y": "527315.824895",
    "longitude": "-90.1023179885944",
    "latitude": "29.94425909840737",
    "geocoded_column": {
      "latitude": "29.94425909840737",
      "longitude": "-90.1023179885944"
    }
  },
  {
    "service_request": "2024-1135615",
    "request_type": "Trash/Recycling",
    "request_reason": "Missed Trash Pick-Up",
    "date_created": "2024-09-25T17:37:02.000",
    "date_modified": "2024-09-25T17:37:04.000",
    "request_status": "Pending",
    "responsible_agency": "Department of Sanitation",
    "final_address": "5584 Stillwater Dr",
    "address_councildis": "E",
    "status": "Assigned to Contractor",
    "contractor": "Waste Pro",
    "rowid": "1135615",
    "final_x": "3716300.34725",
    "final_y": "560987.680158",
    "longitude": "-89.95706704584606",
    "latitude": "30.035417941263898",
    "geocoded_column": {
      "latitude": "30.035417941263898",
      "longitude": "-89.95706704584606"
    }
  },
  {
    "service_request": "2024-1135614",
    "request_type": "Trash/Recycling",
    "request_reason": "Request a Large Item Pick Up",
    "date_created": "2024-09-25T17:36:19.000",
    "date_modified": "2024-09-25T17:36:20.000",
    "request_status": "Pending",
    "responsible_agency": "Department of Sanitation",
    "final_address": "6073 Wilton Dr",
    "address_councildis": "D",
    "status": "Assigned to Contractor",
    "contractor": "IV Waste",
    "rowid": "1135614",
    "final_x": "3681741.77455",
    "final_y": "555232.030745",
    "longitude": "-90.0664790693951",
    "latitude": "30.020688068853044",
    "geocoded_column": {
      "latitude": "30.020688068853044",
      "longitude": "-90.0664790693951"
    }
  },
  {
    "service_request": "2024-1135613",
    "request_type": "Utility Poles",
    "request_reason": "Utility Pole Leaning",
    "date_created": "2024-09-25T17:19:42.000",
    "date_modified": "2024-09-25T17:19:48.000",
    "request_status": "Pending",
    "responsible_agency": "Utility Company Collective",
    "final_address": "2323 Lapeyrouse St",
    "address_councildis": "D",
    "status": "Pending",
    "rowid": "1135613",
    "final_x": "3680086.93058",
    "final_y": "539430.039114",
    "longitude": "-90.0722573950431",
    "latitude": "29.977288412450672",
    "geocoded_column": {
      "latitude": "29.977288412450672",
      "longitude": "-90.0722573950431"
    }
  },
  {
    "service_request": "2024-1135612",
    "request_type": "Traffic Signals",
    "request_reason": "Traffic Signal Malfunctioning or Damaged",
    "date_created": "2024-09-25T17:15:07.000",
    "date_modified": "2024-09-25T17:15:07.000",
    "request_status": "Pending",
    "responsible_agency": "Department of Public Works",
    "final_address": "401 N Carrollton Ave",
    "address_councildis": "A",
    "status": "Pending",
    "rowid": "1135612",
    "final_x": "3671482.24667",
    "final_y": "539704.336458",
    "longitude": "-90.0994245569996",
    "latitude": "29.978300224786608",
    "geocoded_column": {
      "latitude": "29.978300224786608",
      "longitude": "-90.0994245569996"
    }
  },
  {
    "service_request": "2024-1135611",
    "request_type": "Hurricane Francine Tree-Related Issues or Emergencies\t",
    "request_reason": "Hurricane Francine Tree-Related Issues or Emergencies",
    "date_created": "2024-09-25T17:11:42.000",
    "date_modified": "2024-09-25T17:11:42.000",
    "request_status": "Pending",
    "responsible_agency": "Department of Parks & Parkway",
    "final_address": "154 Alvin Callender St",
    "address_councildis": "A",
    "status": "Pending",
    "rowid": "1135611",
    "final_x": "3661158.32461",
    "final_y": "523493.003195",
    "longitude": "-90.13256796882885",
    "latitude": "29.934025944194484",
    "geocoded_column": {
      "latitude": "29.934025944194484",
      "longitude": "-90.13256796882885"
    }
  },
  {
    "service_request": "2024-1135610",
    "request_type": "Hurricane Francine Tree-Related Issues or Emergencies\t",
    "request_reason": "Hurricane Francine Tree-Related Issues or Emergencies",
    "date_created": "2024-09-25T17:10:06.000",
    "date_modified": "2024-09-25T17:10:06.000",
    "request_status": "Pending",
    "responsible_agency": "Department of Parks & Parkway",
    "final_address": "1630 Robert St",
    "address_councildis": "B",
    "status": "Pending",
    "rowid": "1135610",
    "final_x": "3668676.85742",
    "final_y": "521197.788409",
    "longitude": "-90.10890960957921",
    "latitude": "29.927496050212454",
    "geocoded_column": {
      "latitude": "29.927496050212454",
      "longitude": "-90.10890960957921"
    }
  },
  {
    "service_request": "2024-1135609",
    "request_type": "Parks & Parkways",
    "request_reason": "Request Tree Service (Right of Way/Public Property)",
    "date_created": "2024-09-25T17:09:42.000",
    "date_modified": "2024-09-25T17:09:42.000",
    "request_status": "Pending",
    "responsible_agency": "Department of Parks & Parkway",
    "final_address": "2100 Lowerline St",
    "address_councildis": "A",
    "status": "Pending",
    "rowid": "1135609",
    "final_x": "3665419.53812",
    "final_y": "529560.987777",
    "longitude": "-90.11891240066956",
    "latitude": "29.950587480795125",
    "geocoded_column": {
      "latitude": "29.950587480795125",
      "longitude": "-90.11891240066956"
    }
  },
  {
    "service_request": "2024-1135608",
    "request_type": "Streetlights",
    "request_reason": "Streetlight Outage/Malfunction",
    "date_created": "2024-09-25T17:09:32.000",
    "date_modified": "2024-09-25T17:09:33.000",
    "request_status": "Pending",
    "responsible_agency": "Department of Public Works",
    "final_address": "3110 Toulouse St",
    "address_councildis": "A",
    "status": "Pending",
    "contractor": "Legacy Professional Services",
    "rowid": "1135608",
    "final_x": "3675068.78926",
    "final_y": "537562.959944",
    "longitude": "-90.0881704391766",
    "latitude": "29.97230548591462",
    "geocoded_column": {
      "latitude": "29.97230548591462",
      "longitude": "-90.0881704391766"
    }
  },
  {
    "service_request": "2024-1135607",
    "request_type": "Trash/Recycling",
    "request_reason": "Return Recycling Cart",
    "date_created": "2024-09-25T17:03:38.000",
    "date_modified": "2024-09-25T17:03:38.000",
    "request_status": "Pending",
    "responsible_agency": "Department of Sanitation",
    "final_address": "2939 Joliet St",
    "address_councildis": "A",
    "status": "Pending",
    "rowid": "1135607",
    "final_x": "3665243.73472",
    "final_y": "534046.004229",
    "longitude": "-90.11931745982943",
    "latitude": "29.962924934990983",
    "geocoded_column": {
      "latitude": "29.962924934990983",
      "longitude": "-90.11931745982943"
    }
  },
  {
    "service_request": "2024-1135605",
    "request_type": "Trash/Recycling",
    "request_reason": "Request a Large Item Pick Up",
    "date_created": "2024-09-25T17:01:42.000",
    "date_modified": "2024-09-25T17:01:43.000",
    "request_status": "Pending",
    "responsible_agency": "Department of Sanitation",
    "final_address": "2112 Felicity St",
    "address_councildis": "B",
    "status": "Assigned to Contractor",
    "contractor": "IV Waste",
    "rowid": "1135605",
    "final_x": "3676837.31713",
    "final_y": "526171.55347",
    "longitude": "-90.08297769498618",
    "latitude": "29.940929979589512",
    "geocoded_column": {
      "latitude": "29.940929979589512",
      "longitude": "-90.08297769498618"
    }
  },
  {
    "service_request": "2024-1135604",
    "request_type": "Trash/Recycling",
    "request_reason": "Missed Trash Pick-Up",
    "date_created": "2024-09-25T17:00:52.000",
    "date_modified": "2024-09-25T17:00:53.000",
    "request_status": "Pending",
    "responsible_agency": "Department of Sanitation",
    "final_address": "6943 Salem Dr",
    "address_councildis": "E",
    "status": "Assigned to Contractor",
    "contractor": "Waste Pro",
    "rowid": "1135604",
    "final_x": "3706855.57585",
    "final_y": "560515.658334",
    "longitude": "-89.98693140554248",
    "latitude": "30.034428604508022",
    "geocoded_column": {
      "latitude": "30.034428604508022",
      "longitude": "-89.98693140554248"
    }
  },
  {
    "service_request": "2024-1135603",
    "request_type": "Trash/Recycling",
    "request_reason": "Request a Large Item Pick Up",
    "date_created": "2024-09-25T16:59:58.000",
    "date_modified": "2024-09-25T16:59:59.000",
    "request_status": "Pending",
    "responsible_agency": "Department of Sanitation",
    "final_address": "6943 Salem Dr",
    "address_councildis": "E",
    "status": "Assigned to Contractor",
    "contractor": "Waste Pro",
    "rowid": "1135603",
    "final_x": "3706855.57585",
    "final_y": "560515.658334",
    "longitude": "-89.98693140554248",
    "latitude": "30.034428604508022",
    "geocoded_column": {
      "latitude": "30.034428604508022",
      "longitude": "-89.98693140554248"
    }
  },
  {
    "service_request": "2024-1135602",
    "request_type": "Parks & Parkways",
    "request_reason": "Request Tree Service (Right of Way/Public Property)",
    "date_created": "2024-09-25T16:59:00.000",
    "date_modified": "2024-09-25T16:59:00.000",
    "request_status": "Pending",
    "responsible_agency": "Department of Parks & Parkway",
    "final_address": "5913 Laurel St",
    "address_councildis": "A",
    "status": "Pending",
    "rowid": "1135602",
    "final_x": "3664898.12871",
    "final_y": "518130.663158",
    "longitude": "-90.12094062346756",
    "latitude": "29.919172905455273",
    "geocoded_column": {
      "latitude": "29.919172905455273",
      "longitude": "-90.12094062346756"
    }
  },
  {
    "service_request": "2024-1135601",
    "request_type": "Property Maintenance",
    "request_reason": "Property Maintenance",
    "date_created": "2024-09-25T16:55:09.000",
    "date_modified": "2024-09-25T16:55:09.000",
    "request_status": "Pending",
    "responsible_agency": "Department of Code Enforcement",
    "final_address": "3101 Tulane Ave",
    "address_councildis": "B",
    "status": "Pending",
    "rowid": "1135601",
    "final_x": "3672852.48462",
    "final_y": "534577.695045",
    "longitude": "-90.09527179139019",
    "latitude": "29.964163050199858",
    "geocoded_column": {
      "latitude": "29.964163050199858",
      "longitude": "-90.09527179139019"
    }
  },
  {
    "service_request": "2024-1135600",
    "request_type": "Trash/Recycling",
    "request_reason": "Request a Large Item Pick Up",
    "date_created": "2024-09-25T16:54:03.000",
    "date_modified": "2024-09-25T16:54:04.000",
    "request_status": "Pending",
    "responsible_agency": "Department of Sanitation",
    "final_address": "2026 Egania St",
    "address_councildis": "E",
    "status": "Assigned to Contractor",
    "contractor": "Waste Pro",
    "rowid": "1135600",
    "final_x": "3697773.40803",
    "final_y": "537669.896584",
    "longitude": "-90.01646187714186",
    "latitude": "29.971901576179786",
    "geocoded_column": {
      "latitude": "29.971901576179786",
      "longitude": "-90.01646187714186"
    }
  },
  {
    "service_request": "2024-1135599",
    "request_type": "Trash/Recycling",
    "request_reason": "Return Recycling Cart",
    "date_created": "2024-09-25T16:52:58.000",
    "date_modified": "2024-09-25T16:52:58.000",
    "request_status": "Pending",
    "responsible_agency": "Department of Sanitation",
    "final_address": "1619 Bordeaux St",
    "address_councildis": "B",
    "status": "Pending",
    "rowid": "1135599",
    "final_x": "3669405.16577",
    "final_y": "520886.673593",
    "longitude": "-90.10662102669747",
    "latitude": "29.926619163947947",
    "geocoded_column": {
      "latitude": "29.926619163947947",
      "longitude": "-90.10662102669747"
    }
  },
  {
    "service_request": "2024-1135598",
    "request_type": "Trash/Recycling",
    "request_reason": "Illegal Dumping",
    "date_created": "2024-09-25T16:50:50.000",
    "date_modified": "2024-09-25T16:50:50.000",
    "request_status": "Pending",
    "responsible_agency": "Department of Sanitation",
    "final_address": "1900 BLK Onzaga St",
    "address_councildis": "D",
    "status": "Pending",
    "rowid": "1135598",
    "final_x": "3681409.94554",
    "final_y": "538828.588141",
    "longitude": "-90.06809985562494",
    "latitude": "29.97559452792731",
    "geocoded_column": {
      "latitude": "29.97559452792731",
      "longitude": "-90.06809985562494"
    }
  },
  {
    "service_request": "2024-1135597",
    "request_type": "General Services",
    "request_reason": "General Service Request",
    "date_created": "2024-09-25T16:50:33.000",
    "date_modified": "2024-09-25T16:52:41.000",
    "case_close_date": "2024-09-25T11:52:41.000",
    "request_status": "Closed",
    "responsible_agency": "Orleans Parish Communication District",
    "final_address": "POYDRAS ST & TCHOUPITOULAS ST",
    "address_councildis": "B",
    "status": "Referred to Risk Management",
    "rowid": "1135597",
    "final_x": "3681871.8",
    "final_y": "529047.58",
    "longitude": "-90.0669825928533",
    "latitude": "29.94868606972945",
    "geocoded_column": {
      "latitude": "29.94868606972945",
      "longitude": "-90.0669825928533"
    }
  },
  {
    "service_request": "2024-1135596",
    "request_type": "Trash/Recycling",
    "request_reason": "Missed Trash Pick-Up",
    "date_created": "2024-09-25T16:47:31.000",
    "date_modified": "2024-09-25T16:47:33.000",
    "request_status": "Pending",
    "responsible_agency": "Department of Sanitation",
    "final_address": "4791 Knight Dr",
    "address_councildis": "E",
    "status": "Assigned to Contractor",
    "contractor": "Waste Pro",
    "rowid": "1135596",
    "final_x": "3708170.47793",
    "final_y": "555917.716505",
    "longitude": "-89.98294740817497",
    "latitude": "30.02174351909754",
    "geocoded_column": {
      "latitude": "30.02174351909754",
      "longitude": "-89.98294740817497"
    }
  },
  {
    "service_request": "2024-1135595",
    "request_type": "Trash/Recycling",
    "request_reason": "Replace Trash Cart",
    "date_created": "2024-09-25T16:47:03.000",
    "date_modified": "2024-09-25T16:47:04.000",
    "request_status": "Pending",
    "responsible_agency": "Department of Sanitation",
    "final_address": "3728 Roneagle Way",
    "address_councildis": "D",
    "status": "Assigned to Contractor",
    "contractor": "IV Waste",
    "rowid": "1135595",
    "final_x": "3676974.90427",
    "final_y": "545888.334224",
    "longitude": "-90.08186342858289",
    "latitude": "29.99514028827003",
    "geocoded_column": {
      "latitude": "29.99514028827003",
      "longitude": "-90.08186342858289"
    }
  },
  {
    "service_request": "2024-1135594",
    "request_type": "Property Maintenance",
    "request_reason": "Property Maintenance",
    "date_created": "2024-09-25T16:44:47.000",
    "date_modified": "2024-09-25T16:44:47.000",
    "request_status": "Pending",
    "responsible_agency": "Department of Code Enforcement",
    "final_address": "1815 S White St",
    "address_councildis": "B",
    "status": "Pending",
    "rowid": "1135594",
    "final_x": "3670777.07188",
    "final_y": "529606.818625",
    "longitude": "-90.10199447246403",
    "latitude": "29.950556281767483",
    "geocoded_column": {
      "latitude": "29.950556281767483",
      "longitude": "-90.10199447246403"
    }
  },
  {
    "service_request": "2024-1135593",
    "request_type": "Roads and Streets",
    "request_reason": "Sidewalk Damaged or Missing",
    "date_created": "2024-09-25T16:43:42.000",
    "date_modified": "2024-09-25T16:43:42.000",
    "request_status": "Pending",
    "responsible_agency": "Department of Public Works",
    "final_address": "DAUPHINE ST & LIZARDI ST",
    "address_councildis": "E",
    "status": "Pending",
    "rowid": "1135593",
    "final_x": "3696210.1",
    "final_y": "532996.68",
    "longitude": "-90.02156798566728",
    "latitude": "29.959101200993512",
    "geocoded_column": {
      "latitude": "29.959101200993512",
      "longitude": "-90.02156798566728"
    }
  },
  {
    "service_request": "2024-1135592",
    "request_type": "Trash/Recycling",
    "request_reason": "Repair Trash Cart",
    "date_created": "2024-09-25T16:41:28.000",
    "date_modified": "2024-09-25T16:41:29.000",
    "request_status": "Pending",
    "responsible_agency": "Department of Sanitation",
    "final_address": "2749 Jonquil St",
    "address_councildis": "D",
    "status": "Assigned to Contractor",
    "contractor": "IV Waste",
    "rowid": "1135592",
    "final_x": "3688259.73679",
    "final_y": "547364.812369",
    "longitude": "-90.04616353519967",
    "latitude": "29.998856345619068",
    "geocoded_column": {
      "latitude": "29.998856345619068",
      "longitude": "-90.04616353519967"
    }
  },
  {
    "service_request": "2024-1135591",
    "request_type": "Streetlights",
    "request_reason": "Streetlight Outage/Malfunction",
    "date_created": "2024-09-25T16:40:00.000",
    "date_modified": "2024-09-25T16:40:01.000",
    "request_status": "Pending",
    "responsible_agency": "Department of Public Works",
    "final_address": "2222 General Collins Ave",
    "address_councildis": "C",
    "status": "Pending",
    "contractor": "Legacy Professional Services",
    "rowid": "1135591",
    "final_x": "3698498.9864",
    "final_y": "522798.808059",
    "longitude": "-90.01471086958401",
    "latitude": "29.93098837033078",
    "geocoded_column": {
      "latitude": "29.93098837033078",
      "longitude": "-90.01471086958401"
    }
  },
  {
    "service_request": "2024-1135590",
    "request_type": "Streetlights",
    "request_reason": "Streetlight Outage/Malfunction",
    "date_created": "2024-09-25T16:38:10.000",
    "date_modified": "2024-09-25T16:41:44.000",
    "request_status": "Pending",
    "responsible_agency": "Department of Public Works",
    "final_address": "6124 Vicksburg St",
    "address_councildis": "A",
    "status": "Pending",
    "contractor": "Legacy Professional Services",
    "rowid": "1135590",
    "final_x": "3668873.9817",
    "final_y": "548101.733138",
    "longitude": "-90.10737866225843",
    "latitude": "30.001467163228423",
    "geocoded_column": {
      "latitude": "30.001467163228423",
      "longitude": "-90.10737866225843"
    }
  },
  {
    "service_request": "2024-1135589",
    "request_type": "Street and Traffic Signs",
    "request_reason": "Stop Sign Missing or Damaged",
    "date_created": "2024-09-25T16:36:02.000",
    "date_modified": "2024-09-25T16:36:02.000",
    "request_status": "Pending",
    "responsible_agency": "Department of Public Works",
    "final_address": "BASIN ST & BIENVILLE ST",
    "address_councildis": "C",
    "status": "Pending",
    "rowid": "1135589",
    "final_x": "3680243.4",
    "final_y": "532383.38",
    "longitude": "-90.07200820048608",
    "latitude": "29.957907779103575",
    "geocoded_column": {
      "latitude": "29.957907779103575",
      "longitude": "-90.07200820048608"
    }
  },
  {
    "service_request": "2024-1135588",
    "request_type": "General Services",
    "request_reason": "General Service Request",
    "date_created": "2024-09-25T16:33:26.000",
    "date_modified": "2024-09-25T16:33:26.000",
    "request_status": "Pending",
    "responsible_agency": "Orleans Parish Communication District",
    "final_address": "6124 Vicksburg St",
    "address_councildis": "A",
    "status": "Pending",
    "rowid": "1135588",
    "final_x": "3668873.9817",
    "final_y": "548101.733138",
    "longitude": "-90.10737866225843",
    "latitude": "30.001467163228423",
    "geocoded_column": {
      "latitude": "30.001467163228423",
      "longitude": "-90.10737866225843"
    }
  },
  {
    "service_request": "2024-1135587",
    "request_type": "Abandoned Vehicles",
    "request_reason": "Abandoned/Junk Vehicles",
    "date_created": "2024-09-25T16:33:19.000",
    "date_modified": "2024-09-25T16:33:20.000",
    "request_status": "Pending",
    "responsible_agency": "Department of Public Works",
    "final_address": "5844 Fontainebleau Dr",
    "address_councildis": "A",
    "status": "Pending",
    "rowid": "1135587",
    "final_x": "3668220.10753",
    "final_y": "529821.130753",
    "longitude": "-90.1100608478212",
    "latitude": "29.951220876608726",
    "geocoded_column": {
      "latitude": "29.951220876608726",
      "longitude": "-90.1100608478212"
    }
  },
  {
    "service_request": "2024-1135586",
    "request_type": "Abandoned Vehicles",
    "request_reason": "Abandoned/Junk Vehicles",
    "date_created": "2024-09-25T16:30:55.000",
    "date_modified": "2024-09-25T16:30:55.000",
    "request_status": "Pending",
    "responsible_agency": "Department of Public Works",
    "final_address": "400 Millaudon St",
    "address_councildis": "A",
    "status": "Pending",
    "rowid": "1135586",
    "final_x": "3661897.87584",
    "final_y": "524676.659196",
    "longitude": "-90.13019398647383",
    "latitude": "29.937259293857206",
    "geocoded_column": {
      "latitude": "29.937259293857206",
      "longitude": "-90.13019398647383"
    }
  },
  {
    "service_request": "2024-1135585",
    "request_type": "Trash/Recycling",
    "request_reason": "Order Trash Cart",
    "date_created": "2024-09-25T16:30:49.000",
    "date_modified": "2024-09-25T16:30:50.000",
    "request_status": "Pending",
    "responsible_agency": "Department of Sanitation",
    "final_address": "1831 Laurel St",
    "address_councildis": "B",
    "status": "Assigned to Contractor",
    "contractor": "IV Waste",
    "rowid": "1135585",
    "final_x": "3680341.8861",
    "final_y": "522403.97529",
    "longitude": "-90.07204408061497",
    "latitude": "29.93046476653402",
    "geocoded_column": {
      "latitude": "29.93046476653402",
      "longitude": "-90.07204408061497"
    }
  },
  {
    "service_request": "2024-1135584",
    "request_type": "Trash/Recycling",
    "request_reason": "Request a Large Item Pick Up",
    "date_created": "2024-09-25T16:27:46.000",
    "date_modified": "2024-09-25T16:27:47.000",
    "request_status": "Pending",
    "responsible_agency": "Department of Sanitation",
    "final_address": "2018 Shalett St",
    "address_councildis": "C",
    "status": "Assigned to Contractor",
    "contractor": "Richards Disposal",
    "rowid": "1135584",
    "final_x": "3694255.69603",
    "final_y": "523034.714683",
    "longitude": "-90.02809781765497",
    "latitude": "29.931770621170113",
    "geocoded_column": {
      "latitude": "29.931770621170113",
      "longitude": "-90.02809781765497"
    }
  },
  {
    "service_request": "2024-1135583",
    "request_type": "Drainage",
    "request_reason": "Ditch and Culvert Maintenance",
    "date_created": "2024-09-25T16:27:15.000",
    "date_modified": "2024-09-25T16:27:15.000",
    "request_status": "Pending",
    "responsible_agency": "Department of Public Works",
    "final_address": "2109 St Anthony St",
    "address_councildis": "D",
    "status": "Pending",
    "rowid": "1135583",
    "final_x": "3683294.21576",
    "final_y": "539986.309323",
    "longitude": "-90.06210825260756",
    "latitude": "29.97872051305409",
    "geocoded_column": {
      "latitude": "29.97872051305409",
      "longitude": "-90.06210825260756"
    }
  },
  {
    "service_request": "2024-1135582",
    "request_type": "Trash/Recycling",
    "request_reason": "Order Recycling Cart",
    "date_created": "2024-09-25T16:26:38.000",
    "date_modified": "2024-09-25T16:26:38.000",
    "request_status": "Pending",
    "responsible_agency": "Department of Sanitation",
    "final_address": "1231 St Anthony St",
    "address_councildis": "C",
    "status": "Pending",
    "rowid": "1135582",
    "final_x": "3683528.38057",
    "final_y": "536454.382791",
    "longitude": "-90.06149249130279",
    "latitude": "29.969001798721386",
    "geocoded_column": {
      "latitude": "29.969001798721386",
      "longitude": "-90.06149249130279"
    }
  },
  {
    "service_request": "2024-1135581",
    "request_type": "Abandoned Vehicles",
    "request_reason": "Abandoned/Junk Vehicles",
    "date_created": "2024-09-25T16:26:18.000",
    "date_modified": "2024-09-25T16:27:27.000",
    "request_status": "Pending",
    "responsible_agency": "Department of Public Works",
    "final_address": "1555 N Miro St",
    "address_councildis": "D",
    "status": "Pending",
    "rowid": "1135581",
    "final_x": "3680279.39157",
    "final_y": "538918.048266",
    "longitude": "-90.0716673449112",
    "latitude": "29.975874789310662",
    "geocoded_column": {
      "latitude": "29.975874789310662",
      "longitude": "-90.0716673449112"
    }
  },
  {
    "service_request": "2024-1135580",
    "request_type": "Roads and Streets",
    "request_reason": "Sidewalk Damaged or Missing",
    "date_created": "2024-09-25T16:23:24.000",
    "date_modified": "2024-09-25T16:23:24.000",
    "request_status": "Pending",
    "responsible_agency": "Department of Public Works",
    "final_address": "7600 Adventure Ave",
    "address_councildis": "E",
    "status": "Pending",
    "rowid": "1135580",
    "final_x": "3725541.6304",
    "final_y": "570549.477351",
    "longitude": "-89.9274927158791",
    "latitude": "30.061400457185247",
    "geocoded_column": {
      "latitude": "30.061400457185247",
      "longitude": "-89.9274927158791"
    }
  },
  {
    "service_request": "2024-1135579",
    "request_type": "Trash/Recycling",
    "request_reason": "Repair Trash Cart",
    "date_created": "2024-09-25T16:21:09.000",
    "date_modified": "2024-09-25T16:21:10.000",
    "request_status": "Pending",
    "responsible_agency": "Department of Sanitation",
    "final_address": "1315 Bordeaux St",
    "address_councildis": "B",
    "status": "Assigned to Contractor",
    "contractor": "IV Waste",
    "rowid": "1135579",
    "final_x": "3669486.27098",
    "final_y": "520034.382648",
    "longitude": "-90.10639380772756",
    "latitude": "29.92427324713986",
    "geocoded_column": {
      "latitude": "29.92427324713986",
      "longitude": "-90.10639380772756"
    }
  },
  {
    "service_request": "2024-1135578",
    "request_type": "Trash/Recycling",
    "request_reason": "Illegal Dumping",
    "date_created": "2024-09-25T16:20:16.000",
    "date_modified": "2024-09-25T16:20:16.000",
    "request_status": "Pending",
    "responsible_agency": "Department of Sanitation",
    "final_address": "13000 BLK Michoud Blvd",
    "address_councildis": "E",
    "status": "Pending",
    "rowid": "1135578",
    "final_x": "3725373.52363",
    "final_y": "571103.462239",
    "longitude": "-89.92800261555675",
    "latitude": "30.062929351011412",
    "geocoded_column": {
      "latitude": "30.062929351011412",
      "longitude": "-89.92800261555675"
    }
  },
  {
    "service_request": "2024-1135577",
    "request_type": "Trash/Recycling",
    "request_reason": "Replace Trash Cart",
    "date_created": "2024-09-25T16:16:00.000",
    "date_modified": "2024-09-25T16:16:02.000",
    "request_status": "Pending",
    "responsible_agency": "Department of Sanitation",
    "final_address": "4009 Hamilton St",
    "address_councildis": "A",
    "status": "Assigned to Contractor",
    "contractor": "IV Waste",
    "rowid": "1135577",
    "final_x": "3666140.11821",
    "final_y": "538143.417673",
    "longitude": "-90.11634935677667",
    "latitude": "29.974165319031936",
    "geocoded_column": {
      "latitude": "29.974165319031936",
      "longitude": "-90.11634935677667"
    }
  },
  {
    "service_request": "2024-1135576",
    "request_type": "Trash/Recycling",
    "request_reason": "Storm Debris Collection",
    "date_created": "2024-09-25T16:15:50.000",
    "date_modified": "2024-09-25T16:15:51.000",
    "request_status": "Pending",
    "responsible_agency": "Department of Sanitation",
    "final_address": "1910 France St",
    "address_councildis": "D",
    "status": "Pending",
    "rowid": "1135576",
    "final_x": "3693121.58269",
    "final_y": "538280.737481",
    "longitude": "-90.03113109486094",
    "latitude": "29.973727352381232",
    "geocoded_column": {
      "latitude": "29.973727352381232",
      "longitude": "-90.03113109486094"
    }
  },
  {
    "service_request": "2024-1135575",
    "request_type": "Drainage",
    "request_reason": "Alley Way Drainage Issue",
    "date_created": "2024-09-25T16:14:49.000",
    "date_modified": "2024-09-25T16:14:50.000",
    "request_status": "Pending",
    "responsible_agency": "Department of Public Works",
    "final_address": "6962 General Haig St",
    "address_councildis": "A",
    "status": "Pending",
    "rowid": "1135575",
    "final_x": "3671014.97806",
    "final_y": "553553.830167",
    "longitude": "-90.10042971053403",
    "latitude": "30.016395350823945",
    "geocoded_column": {
      "latitude": "30.016395350823945",
      "longitude": "-90.10042971053403"
    }
  },
  {
    "service_request": "2024-1135574",
    "request_type": "Trash/Recycling",
    "request_reason": "Order Second Trash Cart",
    "date_created": "2024-09-25T16:14:19.000",
    "date_modified": "2024-09-25T16:14:20.000",
    "request_status": "Pending",
    "responsible_agency": "Department of Sanitation",
    "final_address": "8719 Pear St",
    "address_councildis": "A",
    "status": "Assigned to Contractor",
    "contractor": "IV Waste",
    "rowid": "1135574",
    "final_x": "3667445.97569",
    "final_y": "537834.533641",
    "longitude": "-90.1122355390686",
    "latitude": "29.973277790674164",
    "geocoded_column": {
      "latitude": "29.973277790674164",
      "longitude": "-90.1122355390686"
    }
  },
  {
    "service_request": "2024-1135573",
    "request_type": "Trash/Recycling",
    "request_reason": "Order Second Trash Cart",
    "date_created": "2024-09-25T16:13:27.000",
    "date_modified": "2024-09-25T16:13:28.000",
    "request_status": "Pending",
    "responsible_agency": "Department of Sanitation",
    "final_address": "4137 Hollygrove St",
    "address_councildis": "A",
    "status": "Assigned to Contractor",
    "contractor": "IV Waste",
    "rowid": "1135573",
    "final_x": "3666781.01511",
    "final_y": "538317.152137",
    "longitude": "-90.11431941165452",
    "latitude": "29.974624298517597",
    "geocoded_column": {
      "latitude": "29.974624298517597",
      "longitude": "-90.11431941165452"
    }
  },
  {
    "service_request": "2024-1135572",
    "request_type": "Trash/Recycling",
    "request_reason": "Request a Large Item Pick Up",
    "date_created": "2024-09-25T16:12:47.000",
    "date_modified": "2024-09-25T16:12:48.000",
    "request_status": "Pending",
    "responsible_agency": "Department of Sanitation",
    "final_address": "4719 Loyola Ave",
    "address_councildis": "B",
    "status": "Assigned to Contractor",
    "contractor": "IV Waste",
    "rowid": "1135572",
    "final_x": "3669350.73761",
    "final_y": "522903.411643",
    "longitude": "-90.10672469156675",
    "latitude": "29.932166151636313",
    "geocoded_column": {
      "latitude": "29.932166151636313",
      "longitude": "-90.10672469156675"
    }
  },
  {
    "service_request": "2024-1135571",
    "request_type": "Trash/Recycling",
    "request_reason": "Request a Large Item Pick Up",
    "date_created": "2024-09-25T16:11:08.000",
    "date_modified": "2024-09-25T16:11:10.000",
    "request_status": "Pending",
    "responsible_agency": "Department of Sanitation",
    "final_address": "7713 Reindeer St",
    "address_councildis": "E",
    "status": "Assigned to Contractor",
    "contractor": "Waste Pro",
    "rowid": "1135571",
    "final_x": "3716876.13509",
    "final_y": "571021.841895",
    "longitude": "-89.95486600812913",
    "latitude": "30.0629887469447",
    "geocoded_column": {
      "latitude": "30.0629887469447",
      "longitude": "-89.95486600812913"
    }
  },
  {
    "service_request": "2024-1135570",
    "request_type": "Street and Traffic Signs",
    "request_reason": "Traffic or Parking Sign Damaged or Missing",
    "date_created": "2024-09-25T16:07:06.000",
    "date_modified": "2024-09-25T16:07:08.000",
    "request_status": "Pending",
    "responsible_agency": "Department of Public Works",
    "final_address": "Bienville Avenue & North Carrollton Avenue",
    "address_councildis": "A",
    "status": "Pending",
    "rowid": "1135570",
    "final_x": "3671687.53454",
    "final_y": "538896.987786",
    "longitude": "-90.09880365486433",
    "latitude": "29.97607420986052",
    "geocoded_column": {
      "latitude": "29.97607420986052",
      "longitude": "-90.09880365486433"
    }
  },
  {
    "service_request": "2024-1135569",
    "request_type": "Roads and Streets",
    "request_reason": "Pothole",
    "date_created": "2024-09-25T16:05:29.000",
    "date_modified": "2024-09-25T16:05:29.000",
    "request_status": "Pending",
    "responsible_agency": "Department of Public Works",
    "final_address": "9900 BLK Hammond St",
    "address_councildis": "E",
    "status": "Pending",
    "rowid": "1135569",
    "final_x": "3712082.46622",
    "final_y": "556325.977687",
    "longitude": "-89.97057133838518",
    "latitude": "30.02273873001683",
    "geocoded_column": {
      "latitude": "30.02273873001683",
      "longitude": "-89.97057133838518"
    }
  },
  {
    "service_request": "2024-1135568",
    "request_type": "Trash/Recycling",
    "request_reason": "Request a Large Item Pick Up",
    "date_created": "2024-09-25T15:59:40.000",
    "date_modified": "2024-09-25T15:59:41.000",
    "request_status": "Pending",
    "responsible_agency": "Department of Sanitation",
    "final_address": "7928 Oak St",
    "address_councildis": "A",
    "status": "Assigned to Contractor",
    "contractor": "IV Waste",
    "rowid": "1135568",
    "final_x": "3662398.77319",
    "final_y": "527924.127487",
    "longitude": "-90.1285048113558",
    "latitude": "29.946174326760765",
    "geocoded_column": {
      "latitude": "29.946174326760765",
      "longitude": "-90.1285048113558"
    }
  },
  {
    "service_request": "2024-1135567",
    "request_type": "Trash/Recycling",
    "request_reason": "Request a Large Item Pick Up",
    "date_created": "2024-09-25T15:59:21.000",
    "date_modified": "2024-09-25T15:59:23.000",
    "request_status": "Pending",
    "responsible_agency": "Department of Sanitation",
    "final_address": "7701 Sandy Cove Dr",
    "address_councildis": "E",
    "status": "Assigned to Contractor",
    "contractor": "Waste Pro",
    "rowid": "1135567",
    "final_x": "3715422.05951",
    "final_y": "569682.840742",
    "longitude": "-89.95951310105352",
    "latitude": "30.059355066162887",
    "geocoded_column": {
      "latitude": "30.059355066162887",
      "longitude": "-89.95951310105352"
    }
  },
  {
    "service_request": "2024-1135566",
    "request_type": "Trash/Recycling",
    "request_reason": "Repair Trash Cart",
    "date_created": "2024-09-25T15:51:05.000",
    "date_modified": "2024-09-25T15:51:06.000",
    "request_status": "Pending",
    "responsible_agency": "Department of Sanitation",
    "final_address": "4315 Hamilton St",
    "address_councildis": "A",
    "status": "Assigned to Contractor",
    "contractor": "IV Waste",
    "rowid": "1135566",
    "final_x": "3666904.68449",
    "final_y": "538911.038346",
    "longitude": "-90.11390887107729",
    "latitude": "29.976253668481565",
    "geocoded_column": {
      "latitude": "29.976253668481565",
      "longitude": "-90.11390887107729"
    }
  },
  {
    "service_request": "2024-1135565",
    "request_type": "Streetlights",
    "request_reason": "Streetlight Outage/Malfunction",
    "date_created": "2024-09-25T15:48:11.000",
    "date_modified": "2024-09-25T15:48:12.000",
    "request_status": "Pending",
    "responsible_agency": "Department of Public Works",
    "final_address": "37 Neron Pl",
    "address_councildis": "A",
    "status": "Pending",
    "contractor": "Legacy Professional Services",
    "rowid": "1135565",
    "final_x": "3665331.51623",
    "final_y": "530595.526338",
    "longitude": "-90.11915571599255",
    "latitude": "29.953434691010184",
    "geocoded_column": {
      "latitude": "29.953434691010184",
      "longitude": "-90.11915571599255"
    }
  },
  {
    "service_request": "2024-1135564",
    "request_type": "Trash/Recycling",
    "request_reason": "Request a Large Item Pick Up",
    "date_created": "2024-09-25T15:47:41.000",
    "date_modified": "2024-09-25T15:47:43.000",
    "request_status": "Pending",
    "responsible_agency": "Department of Sanitation",
    "final_address": "11241 N Parkwood Ct",
    "address_councildis": "E",
    "status": "Assigned to Contractor",
    "contractor": "Waste Pro",
    "rowid": "1135564",
    "final_x": "3716628.29893",
    "final_y": "559380.002077",
    "longitude": "-89.95609174005175",
    "latitude": "30.030986638158623",
    "geocoded_column": {
      "latitude": "30.030986638158623",
      "longitude": "-89.95609174005175"
    }
  },
  {
    "service_request": "2024-1135562",
    "request_type": "Trash/Recycling",
    "request_reason": "Request a Large Item Pick Up",
    "date_created": "2024-09-25T15:45:19.000",
    "date_modified": "2024-09-25T15:45:20.000",
    "request_status": "Pending",
    "responsible_agency": "Department of Sanitation",
    "final_address": "4965 Wright Rd",
    "address_councildis": "E",
    "status": "Assigned to Contractor",
    "contractor": "Waste Pro",
    "rowid": "1135562",
    "final_x": "3716630.49957",
    "final_y": "558056.753563",
    "longitude": "-89.9561350438242",
    "latitude": "30.027348161752464",
    "geocoded_column": {
      "latitude": "30.027348161752464",
      "longitude": "-89.9561350438242"
    }
  },
  {
    "service_request": "2024-1135563",
    "request_type": "Roads and Streets",
    "request_reason": "Pothole",
    "date_created": "2024-09-25T15:45:19.000",
    "date_modified": "2024-09-25T15:45:19.000",
    "request_status": "Pending",
    "responsible_agency": "Department of Public Works",
    "final_address": "1926 Painters St",
    "address_councildis": "D",
    "status": "Pending",
    "rowid": "1135563",
    "final_x": "3687272.13986",
    "final_y": "539661.646858",
    "longitude": "-90.04955599623202",
    "latitude": "29.977705858204594",
    "geocoded_column": {
      "latitude": "29.977705858204594",
      "longitude": "-90.04955599623202"
    }
  },
  {
    "service_request": "2024-1135561",
    "request_type": "Drainage",
    "request_reason": "Catch Basin Damaged",
    "date_created": "2024-09-25T15:44:46.000",
    "date_modified": "2024-09-25T15:44:46.000",
    "request_status": "Pending",
    "responsible_agency": "Department of Public Works",
    "final_address": "EUTERPE ST & COLISEUM ST",
    "address_councildis": "B",
    "status": "Pending",
    "rowid": "1135561",
    "final_x": "3679727.2",
    "final_y": "524487.18",
    "longitude": "-90.07391226856683",
    "latitude": "29.936211483922666",
    "geocoded_column": {
      "latitude": "29.936211483922666",
      "longitude": "-90.07391226856683"
    }
  },
  {
    "service_request": "2024-1135560",
    "request_type": "Trash/Recycling",
    "request_reason": "Return Trash Cart",
    "date_created": "2024-09-25T15:43:31.000",
    "date_modified": "2024-09-25T15:43:32.000",
    "request_status": "Pending",
    "responsible_agency": "Department of Sanitation",
    "final_address": "1316 N Rendon St",
    "address_councildis": "A",
    "status": "Assigned to Contractor",
    "contractor": "IV Waste",
    "rowid": "1135560",
    "final_x": "3676142.59995",
    "final_y": "540071.868107",
    "longitude": "-90.08469281300336",
    "latitude": "29.979171994774692",
    "geocoded_column": {
      "latitude": "29.979171994774692",
      "longitude": "-90.08469281300336"
    }
  },
  {
    "service_request": "2024-1135559",
    "request_type": "Trash/Recycling",
    "request_reason": "Request a Large Item Pick Up",
    "date_created": "2024-09-25T15:43:25.000",
    "date_modified": "2024-09-25T15:43:26.000",
    "request_status": "Pending",
    "responsible_agency": "Department of Sanitation",
    "final_address": "503 Flood St",
    "address_councildis": "E",
    "status": "Assigned to Contractor",
    "contractor": "Waste Pro",
    "rowid": "1135559",
    "final_x": "3697175.14928",
    "final_y": "531722.985539",
    "longitude": "-90.01856676391063",
    "latitude": "29.955568577699985",
    "geocoded_column": {
      "latitude": "29.955568577699985",
      "longitude": "-90.01856676391063"
    }
  },
  {
    "service_request": "2024-1135558",
    "request_type": "Roads and Streets",
    "request_reason": "Street Subsidence (Sinking)",
    "date_created": "2024-09-25T15:40:10.000",
    "date_modified": "2024-09-25T15:40:10.000",
    "request_status": "Pending",
    "responsible_agency": "Department of Public Works",
    "final_address": "5728 Wickfield Dr",
    "address_councildis": "D",
    "status": "Pending",
    "rowid": "1135558",
    "final_x": "3681002.69371",
    "final_y": "554018.98428",
    "longitude": "-90.06885664191739",
    "latitude": "30.017375081053846",
    "geocoded_column": {
      "latitude": "30.017375081053846",
      "longitude": "-90.06885664191739"
    }
  },
  {
    "service_request": "2024-1135557",
    "request_type": "Drainage",
    "request_reason": "Drainage Manhole Cover Missing or Damaged",
    "date_created": "2024-09-25T15:30:13.000",
    "date_modified": "2024-09-25T15:30:14.000",
    "request_status": "Pending",
    "responsible_agency": "Department of Public Works",
    "final_address": "1020 Kerlerec St",
    "address_councildis": "C",
    "status": "Pending",
    "rowid": "1135557",
    "final_x": "3683241.754",
    "final_y": "535441.651526",
    "longitude": "-90.06243314958633",
    "latitude": "29.966225882168917",
    "geocoded_column": {
      "latitude": "29.966225882168917",
      "longitude": "-90.06243314958633"
    }
  },
  {
    "service_request": "2024-1135556",
    "request_type": "Trash/Recycling",
    "request_reason": "Missed Trash Pick-Up",
    "date_created": "2024-09-25T15:30:13.000",
    "date_modified": "2024-09-25T15:30:14.000",
    "request_status": "Pending",
    "responsible_agency": "Department of Sanitation",
    "final_address": "8546 Grant St",
    "address_councildis": "E",
    "status": "Assigned to Contractor",
    "contractor": "Waste Pro",
    "rowid": "1135556",
    "final_x": "3707041.2922",
    "final_y": "554283.172568",
    "longitude": "-89.98657601069921",
    "latitude": "30.01728569909759",
    "geocoded_column": {
      "latitude": "30.01728569909759",
      "longitude": "-89.98657601069921"
    }
  },
  {
    "service_request": "2024-1135555",
    "request_type": "Trash/Recycling",
    "request_reason": "Replace Trash Cart",
    "date_created": "2024-09-25T15:29:40.000",
    "date_modified": "2024-09-25T15:29:42.000",
    "request_status": "Pending",
    "responsible_agency": "Department of Sanitation",
    "final_address": "5362 Pratt Dr",
    "address_councildis": "D",
    "status": "Assigned to Contractor",
    "contractor": "IV Waste",
    "rowid": "1135555",
    "final_x": "3680303.91003",
    "final_y": "552136.740246",
    "longitude": "-90.07113002827248",
    "latitude": "30.01222077674022",
    "geocoded_column": {
      "latitude": "30.01222077674022",
      "longitude": "-90.07113002827248"
    }
  },
  {
    "service_request": "2024-1135554",
    "request_type": "Abandoned Vehicles",
    "request_reason": "Abandoned/Junk Vehicles",
    "date_created": "2024-09-25T15:29:39.000",
    "date_modified": "2024-09-25T15:29:39.000",
    "request_status": "Pending",
    "responsible_agency": "Department of Public Works",
    "final_address": "1410 Oretha Castle Haley Blvd",
    "address_councildis": "B",
    "status": "Pending",
    "rowid": "1135554",
    "final_x": "3678199.34114",
    "final_y": "526413.820094",
    "longitude": "-90.0786691647327",
    "latitude": "29.94155519518596",
    "geocoded_column": {
      "latitude": "29.94155519518596",
      "longitude": "-90.0786691647327"
    }
  },
  {
    "service_request": "2024-1135553",
    "request_type": "Trash/Recycling",
    "request_reason": "Request a Large Item Pick Up",
    "date_created": "2024-09-25T15:29:19.000",
    "date_modified": "2024-09-25T15:29:20.000",
    "request_status": "Pending",
    "responsible_agency": "Department of Sanitation",
    "final_address": "1612 Bodenger Blvd",
    "address_councildis": "C",
    "status": "Assigned to Contractor",
    "contractor": "Richards Disposal",
    "rowid": "1135553",
    "final_x": "3688544.93161",
    "final_y": "525724.669309",
    "longitude": "-90.0460306150141",
    "latitude": "29.939344723719593",
    "geocoded_column": {
      "latitude": "29.939344723719593",
      "longitude": "-90.0460306150141"
    }
  },
  {
    "service_request": "2024-1135552",
    "request_type": "Property Maintenance",
    "request_reason": "Property Maintenance",
    "date_created": "2024-09-25T15:24:45.000",
    "date_modified": "2024-09-25T15:24:46.000",
    "request_status": "Pending",
    "responsible_agency": "Department of Code Enforcement",
    "final_address": "5177 Montegut Dr",
    "address_councildis": "D",
    "status": "Pending",
    "rowid": "1135552",
    "final_x": "3689726.81116",
    "final_y": "552648.994774",
    "longitude": "-90.04134082453848",
    "latitude": "30.01334051413877",
    "geocoded_column": {
      "latitude": "30.01334051413877",
      "longitude": "-90.04134082453848"
    }
  },
  {
    "service_request": "2024-1135551",
    "request_type": "General Services",
    "request_reason": "General Service Request",
    "date_created": "2024-09-25T15:23:51.000",
    "date_modified": "2024-09-25T15:27:41.000",
    "case_close_date": "2024-09-25T10:27:41.000",
    "request_status": "Closed",
    "responsible_agency": "Orleans Parish Communication District",
    "final_address": "2000 BLK General Meyer Ave",
    "address_councildis": "C",
    "status": "Referred to Risk Management",
    "rowid": "1135551",
    "final_x": "3691644.74266",
    "final_y": "527773.013467",
    "longitude": "-90.0361709401957",
    "latitude": "29.944880847142322",
    "geocoded_column": {
      "latitude": "29.944880847142322",
      "longitude": "-90.0361709401957"
    }
  },
  {
    "service_request": "2024-1135550",
    "request_type": "Trash/Recycling",
    "request_reason": "Request a Large Item Pick Up",
    "date_created": "2024-09-25T15:22:53.000",
    "date_modified": "2024-09-25T15:22:54.000",
    "request_status": "Pending",
    "responsible_agency": "Department of Sanitation",
    "final_address": "4951 N Rampart St",
    "address_councildis": "E",
    "status": "Assigned to Contractor",
    "contractor": "Waste Pro",
    "rowid": "1135550",
    "final_x": "3695649.52483",
    "final_y": "533932.655941",
    "longitude": "-90.02330434430954",
    "latitude": "29.961692438424596",
    "geocoded_column": {
      "latitude": "29.961692438424596",
      "longitude": "-90.02330434430954"
    }
  },
  {
    "service_request": "2024-1135549",
    "request_type": "Trash/Recycling",
    "request_reason": "Change Size of Trash Cart",
    "date_created": "2024-09-25T15:22:51.000",
    "date_modified": "2024-09-25T15:22:52.000",
    "request_status": "Pending",
    "responsible_agency": "Department of Sanitation",
    "final_address": "1316 N Rendon St",
    "address_councildis": "A",
    "status": "Assigned to Contractor",
    "contractor": "IV Waste",
    "rowid": "1135549",
    "final_x": "3676142.59995",
    "final_y": "540071.868107",
    "longitude": "-90.08469281300336",
    "latitude": "29.979171994774692",
    "geocoded_column": {
      "latitude": "29.979171994774692",
      "longitude": "-90.08469281300336"
    }
  },
  {
    "service_request": "2024-1135548",
    "request_type": "Trash/Recycling",
    "request_reason": "Request a Large Item Pick Up",
    "date_created": "2024-09-25T15:21:50.000",
    "date_modified": "2024-09-25T15:21:51.000",
    "request_status": "Pending",
    "responsible_agency": "Department of Sanitation",
    "final_address": "1120 Erato St",
    "address_councildis": "B",
    "status": "Assigned to Contractor",
    "contractor": "IV Waste",
    "rowid": "1135548",
    "final_x": "3680456.9773",
    "final_y": "525620.581693",
    "longitude": "-90.0715689388835",
    "latitude": "29.939305887095944",
    "geocoded_column": {
      "latitude": "29.939305887095944",
      "longitude": "-90.0715689388835"
    }
  },
  {
    "service_request": "2024-1135547",
    "request_type": "Trash/Recycling",
    "request_reason": "Change Size of Trash Cart",
    "date_created": "2024-09-25T15:21:37.000",
    "date_modified": "2024-09-25T15:21:38.000",
    "request_status": "Pending",
    "responsible_agency": "Department of Sanitation",
    "final_address": "1316 N Rendon St",
    "address_councildis": "A",
    "status": "Assigned to Contractor",
    "contractor": "IV Waste",
    "rowid": "1135547",
    "final_x": "3676142.59995",
    "final_y": "540071.868107",
    "longitude": "-90.08469281300336",
    "latitude": "29.979171994774692",
    "geocoded_column": {
      "latitude": "29.979171994774692",
      "longitude": "-90.08469281300336"
    }
  },
  {
    "service_request": "2024-1135546",
    "request_type": "Property Maintenance",
    "request_reason": "Property Maintenance",
    "date_created": "2024-09-25T15:21:10.000",
    "date_modified": "2024-09-25T15:22:21.000",
    "request_status": "Pending",
    "responsible_agency": "Department of Code Enforcement",
    "final_address": "2023 N Robertson St",
    "address_councildis": "C",
    "status": "Pending",
    "rowid": "1135546",
    "final_x": "3684313.46729",
    "final_y": "537762.008008",
    "longitude": "-90.05896721078686",
    "latitude": "29.972573329461067",
    "geocoded_column": {
      "latitude": "29.972573329461067",
      "longitude": "-90.05896721078686"
    }
  },
  {
    "service_request": "2024-1135545",
    "request_type": "Parks & Parkways",
    "request_reason": "Request Tree Service (Right of Way/Public Property)",
    "date_created": "2024-09-25T15:20:49.000",
    "date_modified": "2024-09-25T15:21:32.000",
    "request_status": "Pending",
    "responsible_agency": "Department of Parks & Parkway",
    "final_address": "6330 Stratford Pl",
    "address_councildis": "C",
    "status": "Pending",
    "rowid": "1135545",
    "final_x": "3707448.98411",
    "final_y": "516229.432628",
    "longitude": "-89.98670091406831",
    "latitude": "29.9126386428475",
    "geocoded_column": {
      "latitude": "29.9126386428475",
      "longitude": "-89.98670091406831"
    }
  },
  {
    "service_request": "2024-1135544",
    "request_type": "Roads and Streets",
    "request_reason": "Pothole",
    "date_created": "2024-09-25T15:20:33.000",
    "date_modified": "2024-09-25T15:20:33.000",
    "request_status": "Pending",
    "responsible_agency": "Department of Public Works",
    "final_address": "311 Alix St",
    "address_councildis": "C",
    "status": "Pending",
    "rowid": "1135544",
    "final_x": "3686524.75145",
    "final_y": "529991.770625",
    "longitude": "-90.05225795242718",
    "latitude": "29.95114005535147",
    "geocoded_column": {
      "latitude": "29.95114005535147",
      "longitude": "-90.05225795242718"
    }
  },
  {
    "service_request": "2024-1135543",
    "request_type": "Trash/Recycling",
    "request_reason": "Request a Large Item Pick Up",
    "date_created": "2024-09-25T15:19:52.000",
    "date_modified": "2024-09-25T15:19:53.000",
    "request_status": "Pending",
    "responsible_agency": "Department of Sanitation",
    "final_address": "8540 Grant St",
    "address_councildis": "E",
    "status": "Assigned to Contractor",
    "contractor": "Waste Pro",
    "rowid": "1135543",
    "final_x": "3706987.47665",
    "final_y": "554277.771864",
    "longitude": "-89.98674624516225",
    "latitude": "30.017272588329213",
    "geocoded_column": {
      "latitude": "30.017272588329213",
      "longitude": "-89.98674624516225"
    }
  },
  {
    "service_request": "2024-1135542",
    "request_type": "Trash/Recycling",
    "request_reason": "Request a Large Item Pick Up",
    "date_created": "2024-09-25T15:17:46.000",
    "date_modified": "2024-09-25T15:19:58.000",
    "request_status": "Pending",
    "responsible_agency": "Department of Sanitation",
    "final_address": "121 Pinehurst Ct",
    "address_councildis": "E",
    "status": "Assigned to Contractor",
    "contractor": "Waste Pro",
    "rowid": "1135542",
    "final_x": "3720064.30335",
    "final_y": "564406.050913",
    "longitude": "-89.94504157341258",
    "latitude": "30.044692220857403",
    "geocoded_column": {
      "latitude": "30.044692220857403",
      "longitude": "-89.94504157341258"
    }
  },
  {
    "service_request": "2024-1135541",
    "request_type": "Trash/Recycling",
    "request_reason": "Missed Trash Pick-Up",
    "date_created": "2024-09-25T15:14:34.000",
    "date_modified": "2024-09-25T15:14:35.000",
    "request_status": "Pending",
    "responsible_agency": "Department of Sanitation",
    "final_address": "4900 Meadowbank Dr",
    "address_councildis": "E",
    "status": "Assigned to Contractor",
    "contractor": "Waste Pro",
    "rowid": "1135541",
    "final_x": "3718879.57765",
    "final_y": "557908.622171",
    "longitude": "-89.94903389276952",
    "latitude": "30.026866340557806",
    "geocoded_column": {
      "latitude": "30.026866340557806",
      "longitude": "-89.94903389276952"
    }
  },
  {
    "service_request": "2024-1135540",
    "request_type": "Trash/Recycling",
    "request_reason": "MIssed Recycling Pick-Up",
    "date_created": "2024-09-25T15:11:05.000",
    "date_modified": "2024-09-25T15:11:06.000",
    "request_status": "Pending",
    "responsible_agency": "Department of Sanitation",
    "final_address": "11260 S Idlewood Ct",
    "address_councildis": "E",
    "status": "Assigned to Contractor",
    "contractor": "Waste Pro",
    "rowid": "1135540",
    "final_x": "3716804.68511",
    "final_y": "559648.944733",
    "longitude": "-89.95552414188684",
    "latitude": "30.031720291919306",
    "geocoded_column": {
      "latitude": "30.031720291919306",
      "longitude": "-89.95552414188684"
    }
  },
  {
    "service_request": "2024-1135539",
    "request_type": "Trash/Recycling",
    "request_reason": "Request a Large Item Pick Up",
    "date_created": "2024-09-25T15:05:54.000",
    "date_modified": "2024-09-25T15:05:55.000",
    "request_status": "Pending",
    "responsible_agency": "Department of Sanitation",
    "final_address": "11300 N Parkwood Ct",
    "address_councildis": "E",
    "status": "Assigned to Contractor",
    "contractor": "Waste Pro",
    "rowid": "1135539",
    "final_x": "3716795.17727",
    "final_y": "559307.044957",
    "longitude": "-89.95556717782245",
    "latitude": "30.030780519128502",
    "geocoded_column": {
      "latitude": "30.030780519128502",
      "longitude": "-89.95556717782245"
    }
  },
  {
    "service_request": "2024-1135538",
    "request_type": "Trash/Recycling",
    "request_reason": "Replace Trash Cart",
    "date_created": "2024-09-25T15:05:01.000",
    "date_modified": "2024-09-25T15:06:36.000",
    "request_status": "Pending",
    "responsible_agency": "Department of Sanitation",
    "final_address": "6105 Franklin Ave",
    "address_councildis": "D",
    "status": "Assigned to Contractor",
    "contractor": "IV Waste",
    "rowid": "1135538",
    "final_x": "3686470.86383",
    "final_y": "555630.101209",
    "longitude": "-90.05152250977754",
    "latitude": "30.021638001780502",
    "geocoded_column": {
      "latitude": "30.021638001780502",
      "longitude": "-90.05152250977754"
    }
  },
  {
    "service_request": "2024-1135537",
    "request_type": "Trash/Recycling",
    "request_reason": "Request a Large Item Pick Up",
    "date_created": "2024-09-25T15:04:12.000",
    "date_modified": "2024-09-25T15:04:13.000",
    "request_status": "Pending",
    "responsible_agency": "Department of Sanitation",
    "final_address": "6900 Lake Willow Dr",
    "address_councildis": "E",
    "status": "Assigned to Contractor",
    "contractor": "Waste Pro",
    "rowid": "1135537",
    "final_x": "3703280.10097",
    "final_y": "558633.160988",
    "longitude": "-89.99829963168936",
    "latitude": "30.029367505557683",
    "geocoded_column": {
      "latitude": "30.029367505557683",
      "longitude": "-89.99829963168936"
    }
  },
  {
    "service_request": "2024-1135536",
    "request_type": "Trash/Recycling",
    "request_reason": "Request a Large Item Pick Up",
    "date_created": "2024-09-25T15:03:08.000",
    "date_modified": "2024-09-25T15:03:09.000",
    "request_status": "Pending",
    "responsible_agency": "Department of Sanitation",
    "final_address": "7341 Dundee St",
    "address_councildis": "E",
    "status": "Assigned to Contractor",
    "contractor": "Waste Pro",
    "rowid": "1135536",
    "final_x": "3698156.28618",
    "final_y": "558983.782428",
    "longitude": "-90.01447793134191",
    "latitude": "30.030494732256326",
    "geocoded_column": {
      "latitude": "30.030494732256326",
      "longitude": "-90.01447793134191"
    }
  },
  {
    "service_request": "2024-1135535",
    "request_type": "Abandoned Vehicles",
    "request_reason": "Abandoned/Junk Vehicles",
    "date_created": "2024-09-25T15:00:21.000",
    "date_modified": "2024-09-25T15:00:22.000",
    "request_status": "Pending",
    "responsible_agency": "Department of Public Works",
    "final_address": "4002 Eagle Street",
    "address_councildis": "A",
    "status": "Pending",
    "rowid": "1135535",
    "final_x": "3664377.94452",
    "final_y": "534708.605382",
    "longitude": "-90.12202940950927",
    "latitude": "29.96477206498515",
    "geocoded_column": {
      "latitude": "29.96477206498515",
      "longitude": "-90.12202940950927"
    }
  },
  {
    "service_request": "2024-1135534",
    "request_type": "Property Maintenance",
    "request_reason": "Property Maintenance",
    "date_created": "2024-09-25T14:59:10.000",
    "date_modified": "2024-09-25T15:00:54.000",
    "request_status": "Pending",
    "responsible_agency": "Department of Code Enforcement",
    "final_address": "4227 Iberville St",
    "address_councildis": "A",
    "status": "Pending",
    "rowid": "1135534",
    "final_x": "3670690.68916",
    "final_y": "539253.059338",
    "longitude": "-90.1019399054036",
    "latitude": "29.977082779845503",
    "geocoded_column": {
      "latitude": "29.977082779845503",
      "longitude": "-90.1019399054036"
    }
  },
  {
    "service_request": "2024-1135533",
    "request_type": "Trash/Recycling",
    "request_reason": "Return Trash Cart",
    "date_created": "2024-09-25T14:55:10.000",
    "date_modified": "2024-09-25T14:55:11.000",
    "request_status": "Pending",
    "responsible_agency": "Department of Sanitation",
    "final_address": "514 Walnut St",
    "address_councildis": "A",
    "status": "Assigned to Contractor",
    "contractor": "IV Waste",
    "rowid": "1135533",
    "final_x": "3662950.28947",
    "final_y": "523780.358715",
    "longitude": "-90.12690122748427",
    "latitude": "29.934764324342282",
    "geocoded_column": {
      "latitude": "29.934764324342282",
      "longitude": "-90.12690122748427"
    }
  },
  {
    "service_request": "2024-1135532",
    "request_type": "Trash/Recycling",
    "request_reason": "Stop Trash Service",
    "date_created": "2024-09-25T14:53:35.000",
    "date_modified": "2024-09-25T14:53:36.000",
    "request_status": "Pending",
    "responsible_agency": "Department of Sanitation",
    "final_address": "3616 Inwood Ave",
    "address_councildis": "C",
    "status": "Assigned to Contractor",
    "contractor": "Richards Disposal",
    "rowid": "1135532",
    "final_x": "3703887.11089",
    "final_y": "515190.997235",
    "longitude": "-89.9979813093958",
    "latitude": "29.909897922742214",
    "geocoded_column": {
      "latitude": "29.909897922742214",
      "longitude": "-89.9979813093958"
    }
  },
  {
    "service_request": "2024-1135531",
    "request_type": "Trash/Recycling",
    "request_reason": "Repair Recycling Cart",
    "date_created": "2024-09-25T14:53:26.000",
    "date_modified": "2024-09-25T14:53:27.000",
    "request_status": "Pending",
    "responsible_agency": "Department of Sanitation",
    "final_address": "1 Bonita Bay Dr",
    "address_councildis": "C",
    "status": "Pending",
    "rowid": "1135531",
    "final_x": "3719776.40895",
    "final_y": "512458.945585",
    "longitude": "-89.94793644207712",
    "latitude": "29.90186702543953",
    "geocoded_column": {
      "latitude": "29.90186702543953",
      "longitude": "-89.94793644207712"
    }
  },
  {
    "service_request": "2024-1135530",
    "request_type": "Trash/Recycling",
    "request_reason": "Repair Trash Cart",
    "date_created": "2024-09-25T14:52:51.000",
    "date_modified": "2024-09-25T14:52:52.000",
    "request_status": "Pending",
    "responsible_agency": "Department of Sanitation",
    "final_address": "Bonita Bay Court & Bonita Bay Drive",
    "address_councildis": "C",
    "status": "Assigned to Contractor",
    "contractor": "Richards Disposal",
    "rowid": "1135530",
    "final_x": "3719698.08402",
    "final_y": "512694.880945",
    "longitude": "-89.94817462688187",
    "latitude": "29.90251836802934",
    "geocoded_column": {
      "latitude": "29.90251836802934",
      "longitude": "-89.94817462688187"
    }
  },
  {
    "service_request": "2024-1135529",
    "request_type": "Parks & Parkways",
    "request_reason": "Request Tree Service (Right of Way/Public Property)",
    "date_created": "2024-09-25T14:52:07.000",
    "date_modified": "2024-09-25T14:52:08.000",
    "request_status": "Pending",
    "responsible_agency": "Department of Parks & Parkway",
    "final_address": "6322 Barrett St",
    "address_councildis": "A",
    "status": "Pending",
    "rowid": "1135529",
    "final_x": "3666383.85588",
    "final_y": "526984.407998",
    "longitude": "-90.11595400504527",
    "latitude": "29.943474582043585",
    "geocoded_column": {
      "latitude": "29.943474582043585",
      "longitude": "-90.11595400504527"
    }
  },
  {
    "service_request": "2024-1135528",
    "request_type": "Parks & Parkways",
    "request_reason": "Request Tree Service (Right of Way/Public Property)",
    "date_created": "2024-09-25T14:51:49.000",
    "date_modified": "2024-09-25T14:51:50.000",
    "request_status": "Pending",
    "responsible_agency": "Department of Parks & Parkway",
    "final_address": "6014 St Claude Ave",
    "address_councildis": "E",
    "status": "Pending",
    "rowid": "1135528",
    "final_x": "3699291.71901",
    "final_y": "533343.082372",
    "longitude": "-90.01182443609409",
    "latitude": "29.959956320525333",
    "geocoded_column": {
      "latitude": "29.959956320525333",
      "longitude": "-90.01182443609409"
    }
  },
  {
    "service_request": "2024-1135527",
    "request_type": "Trash/Recycling",
    "request_reason": "Illegal Dumping",
    "date_created": "2024-09-25T14:50:58.000",
    "date_modified": "2024-09-25T14:51:00.000",
    "request_status": "Pending",
    "responsible_agency": "Department of Sanitation",
    "final_address": "1300 BLK Jourdan Ave",
    "address_councildis": "E",
    "status": "Pending",
    "rowid": "1135527",
    "final_x": "3695302.28784",
    "final_y": "535410.353508",
    "longitude": "-90.02434754920162",
    "latitude": "29.96576649497163",
    "geocoded_column": {
      "latitude": "29.96576649497163",
      "longitude": "-90.02434754920162"
    }
  },
  {
    "service_request": "2024-1135526",
    "request_type": "Trash/Recycling",
    "request_reason": "Repair Recycling Cart",
    "date_created": "2024-09-25T14:50:09.000",
    "date_modified": "2024-09-25T14:50:10.000",
    "request_status": "Pending",
    "responsible_agency": "Department of Sanitation",
    "final_address": "6029 Wingate Dr",
    "address_councildis": "D",
    "status": "Pending",
    "rowid": "1135526",
    "final_x": "3681256.76744",
    "final_y": "554993.805848",
    "longitude": "-90.06801985939302",
    "latitude": "30.020047772896564",
    "geocoded_column": {
      "latitude": "30.020047772896564",
      "longitude": "-90.06801985939302"
    }
  },
  {
    "service_request": "2024-1135525",
    "request_type": "Trash/Recycling",
    "request_reason": "Replace Trash Cart",
    "date_created": "2024-09-25T14:47:45.000",
    "date_modified": "2024-09-25T14:47:46.000",
    "request_status": "Pending",
    "responsible_agency": "Department of Sanitation",
    "final_address": "511 Westchester St",
    "address_councildis": "C",
    "status": "Assigned to Contractor",
    "contractor": "Richards Disposal",
    "rowid": "1135525",
    "final_x": "3706121.81975",
    "final_y": "519617.72108",
    "longitude": "-89.99076448220573",
    "latitude": "29.921998083497687",
    "geocoded_column": {
      "latitude": "29.921998083497687",
      "longitude": "-89.99076448220573"
    }
  },
  {
    "service_request": "2024-1135524",
    "request_type": "Trash/Recycling",
    "request_reason": "Storm Debris Collection",
    "date_created": "2024-09-25T14:43:26.000",
    "date_modified": "2024-09-25T14:43:26.000",
    "request_status": "Pending",
    "responsible_agency": "Department of Sanitation",
    "final_address": "2850 Dryades St",
    "address_councildis": "B",
    "status": "Pending",
    "rowid": "1135524",
    "final_x": "3674989.45915",
    "final_y": "523176.319163",
    "longitude": "-90.08891442154902",
    "latitude": "29.93274937890182",
    "geocoded_column": {
      "latitude": "29.93274937890182",
      "longitude": "-90.08891442154902"
    }
  },
  {
    "service_request": "2024-1135523",
    "request_type": "Trash/Recycling",
    "request_reason": "Storm Debris Collection",
    "date_created": "2024-09-25T14:41:50.000",
    "date_modified": "2024-09-25T14:41:50.000",
    "request_status": "Pending",
    "responsible_agency": "Department of Sanitation",
    "final_address": "2850 Dryades St",
    "address_councildis": "B",
    "status": "Pending",
    "rowid": "1135523",
    "final_x": "3674989.45915",
    "final_y": "523176.319163",
    "longitude": "-90.08891442154902",
    "latitude": "29.93274937890182",
    "geocoded_column": {
      "latitude": "29.93274937890182",
      "longitude": "-90.08891442154902"
    }
  },
  {
    "service_request": "2024-1135522",
    "request_type": "Trash/Recycling",
    "request_reason": "Order Second Trash Cart",
    "date_created": "2024-09-25T14:41:31.000",
    "date_modified": "2024-09-25T14:41:32.000",
    "request_status": "Pending",
    "responsible_agency": "Department of Sanitation",
    "final_address": "218 S Lopez St",
    "address_councildis": "B",
    "status": "Assigned to Contractor",
    "contractor": "IV Waste",
    "rowid": "1135522",
    "final_x": "3673563.63195",
    "final_y": "535696.411015",
    "longitude": "-90.09298780350663",
    "latitude": "29.96721799563661",
    "geocoded_column": {
      "latitude": "29.96721799563661",
      "longitude": "-90.09298780350663"
    }
  },