[
  {
    "service_request": "2021-828943",
    "request_type": "Traffic Signals/Signs/Striping/Streetlights",
    "request_reason": "Street Light Outage/Malfunction",
    "date_created": "2021-10-03T23:41:02.000",
    "date_modified": "2021-10-03T23:41:03.000",
    "request_status": "Pending",
    "responsible_agency": "Department of Public Works",
    "final_address": "4618 Herschel St",
    "address_councildis": "C",
    "status": "Pending",
    "contractor": "Royal Engineering",
    "rowid": "828943",
    "final_x": "3702059.22167",
    "final_y": "520876.690809",
    "longitude": "-90.00354218819567",
    "latitude": "29.925590077799242",
    "geocoded_column": {
      "latitude": "29.925590077799242",
      "longitude": "-90.00354218819567"
    }
  },
  {
    "service_request": "2021-828942",
    "request_type": "Traffic Signals/Signs/Striping/Streetlights",
    "request_reason": "Street Light Outage/Malfunction",
    "date_created": "2021-10-03T23:39:20.000",
    "date_modified": "2021-10-03T23:39:21.000",
    "request_status": "Pending",
    "responsible_agency": "Department of Public Works",
    "final_address": "2911 Hollygrove St",
    "address_councildis": "A",
    "status": "Pending",
    "contractor": "Royal Engineering",
    "rowid": "828942",
    "final_x": "3663826.51066",
    "final_y": "535091.641862",
    "longitude": "-90.12375804001225",
    "latitude": "29.965841306820515",
    "geocoded_column": {
      "latitude": "29.965841306820515",
      "longitude": "-90.12375804001225"
    }
  },
  {
    "service_request": "2021-828941",
    "request_type": "Abandoned Vehicles",
    "request_reason": "Abandoned/Junk Vehicles",
    "date_created": "2021-10-03T23:17:30.000",
    "date_modified": "2021-10-03T23:17:30.000",
    "request_status": "Pending",
    "responsible_agency": "Department of Public Works",
    "final_address": "1815 Magazine St",
    "address_councildis": "B",
    "status": "Pending",
    "rowid": "828941",
    "final_x": "3679877.68674",
    "final_y": "522968.541563",
    "longitude": "-90.07348989146955",
    "latitude": "29.9320311800464",
    "geocoded_column": {
      "latitude": "29.9320311800464",
      "longitude": "-90.07348989146955"
    }
  },
  {
    "service_request": "2021-828940",
    "request_type": "Taxi Issues",
    "request_reason": "Taxi Complaint",
    "date_created": "2021-10-03T22:23:39.000",
    "date_modified": "2021-10-03T22:23:39.000",
    "request_status": "Pending",
    "responsible_agency": "Ground Transportation Bureau",
    "final_address": "6320 Hayne Blvd",
    "address_councildis": "E",
    "status": "Pending",
    "rowid": "828940",
    "final_x": "3696154.03498",
    "final_y": "560460.184158",
    "longitude": "-90.0207515979252",
    "latitude": "30.034617485936124",
    "geocoded_column": {
      "latitude": "30.034617485936124",
      "longitude": "-90.0207515979252"
    }
  },
  {
    "service_request": "2021-828939",
    "request_type": "Roads/Drainage",
    "request_reason": "Street Subsidence (Sinking)",
    "date_created": "2021-10-03T22:10:38.000",
    "date_modified": "2021-10-03T22:10:38.000",
    "request_status": "Pending",
    "responsible_agency": "Department of Public Works",
    "final_address": "1824 Burdette St",
    "address_councildis": "A",
    "status": "Pending",
    "rowid": "828939",
    "final_x": "3664325.21824",
    "final_y": "529362.848385",
    "longitude": "-90.12237432588809",
    "latitude": "29.950074507225466",
    "geocoded_column": {
      "latitude": "29.950074507225466",
      "longitude": "-90.12237432588809"
    }
  },
  {
    "service_request": "2021-828937",
    "request_type": "Trash/Recycling",
    "request_reason": "Missed Trash Pick-Up",
    "date_created": "2021-10-03T21:23:44.000",
    "date_modified": "2021-10-03T21:23:44.000",
    "request_status": "Pending",
    "responsible_agency": "Department of Sanitation",
    "final_address": "851 Filmore Ave",
    "address_councildis": "A",
    "status": "Assigned to Contractor",
    "contractor": "Metro Disposal",
    "rowid": "828937",
    "final_x": "3669989.95553",
    "final_y": "552003.530646",
    "longitude": "-90.10372091182246",
    "latitude": "30.01216286138647",
    "geocoded_column": {
      "latitude": "30.01216286138647",
      "longitude": "-90.10372091182246"
    }
  },
  {
    "service_request": "2021-828936",
    "request_type": "Trash/Recycling",
    "request_reason": "Missed Trash Pick-Up",
    "date_created": "2021-10-03T21:22:43.000",
    "date_modified": "2021-10-03T21:22:44.000",
    "request_status": "Pending",
    "responsible_agency": "Department of Sanitation",
    "final_address": "813 Piety St, New Orleans, Louisiana, 70117",
    "address_councildis": "C",
    "status": "Assigned to Contractor",
    "contractor": "Metro Disposal",
    "rowid": "828936",
    "final_x": "3689609.07753",
    "final_y": "534765.19815",
    "longitude": "-90.04234940487609",
    "latitude": "29.96417014758656",
    "geocoded_column": {
      "latitude": "29.96417014758656",
      "longitude": "-90.04234940487609"
    }
  },
  {
    "service_request": "2021-828934",
    "request_type": "Traffic Signals/Signs/Striping/Streetlights",
    "request_reason": "Street Light Outage/Malfunction",
    "date_created": "2021-10-03T20:43:58.000",
    "date_modified": "2021-10-03T20:43:58.000",
    "request_status": "Pending",
    "responsible_agency": "Department of Public Works",
    "final_address": "1014 Desire St",
    "address_councildis": "C",
    "status": "Pending",
    "contractor": "Royal Engineering",
    "rowid": "828934",
    "final_x": "3690078.27043",
    "final_y": "535408.076614",
    "longitude": "-90.04084483903002",
    "latitude": "29.96592329460682",
    "geocoded_column": {
      "latitude": "29.96592329460682",
      "longitude": "-90.04084483903002"
    }
  },
  {
    "service_request": "2021-828932",
    "request_type": "Abandoned Vehicles",
    "request_reason": "Abandoned/Junk Vehicles",
    "date_created": "2021-10-03T20:33:03.000",
    "date_modified": "2021-10-03T20:33:03.000",
    "request_status": "Pending",
    "responsible_agency": "Department of Public Works",
    "final_address": "3827 Baudin St",
    "address_councildis": "B",
    "status": "Pending",
    "rowid": "828932",
    "final_x": "3670930.88219",
    "final_y": "536495.761031",
    "longitude": "-90.10127493339346",
    "latitude": "29.969494039761134",
    "geocoded_column": {
      "latitude": "29.969494039761134",
      "longitude": "-90.10127493339346"
    }
  },
  {
    "service_request": "2021-828931",
    "request_type": "Traffic Signals/Signs/Striping/Streetlights",
    "request_reason": "Traffic Signal Malfunctioning/Damaged",
    "date_created": "2021-10-03T20:24:37.000",
    "date_modified": "2021-10-03T20:24:37.000",
    "request_status": "Pending",
    "responsible_agency": "Department of Public Works",
    "final_address": "901 Poydras St",
    "address_councildis": "B",
    "status": "Pending",
    "rowid": "828931",
    "final_x": "3679896.88411",
    "final_y": "529657.320385",
    "longitude": "-90.07319706680316",
    "latitude": "29.950422518247198",
    "geocoded_column": {
      "latitude": "29.950422518247198",
      "longitude": "-90.07319706680316"
    }
  },
  {
    "service_request": "2021-828930",
    "request_type": "COVID-19",
    "request_reason": "COVID-19 Business Non-Compliance",
    "date_created": "2021-10-03T20:15:40.000",
    "date_modified": "2021-10-03T20:15:41.000",
    "request_status": "Pending",
    "responsible_agency": "Safety and Permits",
    "final_address": "5619 Magazine St",
    "address_councildis": "A",
    "status": "Pending",
    "rowid": "828930",
    "final_x": "3665953.74925",
    "final_y": "518968.003703",
    "longitude": "-90.11758051033121",
    "latitude": "29.921444575284983",
    "geocoded_column": {
      "latitude": "29.921444575284983",
      "longitude": "-90.11758051033121"
    }
  },
  {
    "service_request": "2021-828929",
    "request_type": "Trash/Recycling",
    "request_reason": "Missed Trash Pick-Up",
    "date_created": "2021-10-03T20:12:25.000",
    "date_modified": "2021-10-03T20:12:25.000",
    "request_status": "Pending",
    "responsible_agency": "Department of Sanitation",
    "final_address": "923 Amelia St",
    "address_councildis": "B",
    "status": "Assigned to Contractor",
    "contractor": "Richards Disposal",
    "rowid": "828929",
    "final_x": "3673823.59899",
    "final_y": "518608.116791",
    "longitude": "-90.0927510939268",
    "latitude": "29.920223057003504",
    "geocoded_column": {
      "latitude": "29.920223057003504",
      "longitude": "-90.0927510939268"
    }
  },
  {
    "service_request": "2021-828928",
    "request_type": "Trash/Recycling",
    "request_reason": "MIssed Recycling Pick-Up",
    "date_created": "2021-10-03T20:04:45.000",
    "date_modified": "2021-10-03T20:04:45.000",
    "request_status": "Pending",
    "responsible_agency": "Department of Sanitation",
    "final_address": "424 Millaudon St",
    "address_councildis": "A",
    "status": "Assigned to Contractor",
    "contractor": "Richards Disposal",
    "rowid": "828928",
    "final_x": "3661986.79482",
    "final_y": "524850.415612",
    "longitude": "-90.1299075009294",
    "latitude": "29.937734501480048",
    "geocoded_column": {
      "latitude": "29.937734501480048",
      "longitude": "-90.1299075009294"
    }
  },
  {
    "service_request": "2021-828927",
    "request_type": "Trash/Recycling",
    "request_reason": "Missed Trash Pick-Up",
    "date_created": "2021-10-03T20:02:52.000",
    "date_modified": "2021-10-03T20:02:53.000",
    "request_status": "Pending",
    "responsible_agency": "Department of Sanitation",
    "final_address": "424 Millaudon St",
    "address_councildis": "A",
    "status": "Assigned to Contractor",
    "contractor": "Richards Disposal",
    "rowid": "828927",
    "final_x": "3661986.79482",
    "final_y": "524850.415612",
    "longitude": "-90.1299075009294",
    "latitude": "29.937734501480048",
    "geocoded_column": {
      "latitude": "29.937734501480048",
      "longitude": "-90.1299075009294"
    }
  },
  {
    "service_request": "2021-828926",
    "request_type": "Trash/Recycling",
    "request_reason": "Missed Trash Pick-Up",
    "date_created": "2021-10-03T20:01:45.000",
    "date_modified": "2021-10-03T20:01:45.000",
    "request_status": "Pending",
    "responsible_agency": "Department of Sanitation",
    "final_address": "424 Millaudon St",
    "address_councildis": "A",
    "status": "Assigned to Contractor",
    "contractor": "Richards Disposal",
    "rowid": "828926",
    "final_x": "3661986.79482",
    "final_y": "524850.415612",
    "longitude": "-90.1299075009294",
    "latitude": "29.937734501480048",
    "geocoded_column": {
      "latitude": "29.937734501480048",
      "longitude": "-90.1299075009294"
    }
  },
  {
    "service_request": "2021-828925",
    "request_type": "Roads/Drainage",
    "request_reason": "Pothole",
    "date_created": "2021-10-03T20:01:41.000",
    "date_modified": "2021-10-03T20:01:41.000",
    "request_status": "Pending",
    "responsible_agency": "Department of Public Works",
    "final_address": "3701 Rue Denise",
    "address_councildis": "C",
    "status": "Pending",
    "rowid": "828925",
    "final_x": "3704202.23537",
    "final_y": "516923.488437",
    "longitude": "-89.99692294706256",
    "latitude": "29.914651577869794",
    "geocoded_column": {
      "latitude": "29.914651577869794",
      "longitude": "-89.99692294706256"
    }
  },
  {
    "service_request": "2021-828924",
    "request_type": "Traffic Signals/Signs/Striping/Streetlights",
    "request_reason": "Street Light Outage/Malfunction",
    "date_created": "2021-10-03T19:58:27.000",
    "date_modified": "2021-10-03T19:58:27.000",
    "request_status": "Pending",
    "responsible_agency": "Department of Public Works",
    "final_address": "3661 Rue Denise",
    "address_councildis": "C",
    "status": "Pending",
    "contractor": "Royal Engineering",
    "rowid": "828924",
    "final_x": "3704199.34046",
    "final_y": "516981.386485",
    "longitude": "-89.996929952954",
    "latitude": "29.914810870442587",
    "geocoded_column": {
      "latitude": "29.914810870442587",
      "longitude": "-89.996929952954"
    }
  },
  {
    "service_request": "2021-828923",
    "request_type": "Property Maintenance",
    "request_reason": "Property Maintenance",
    "date_created": "2021-10-03T19:29:57.000",
    "date_modified": "2021-10-03T19:29:57.000",
    "request_status": "Pending",
    "responsible_agency": "Department of Code Enforcement",
    "final_address": "731 Valence St",
    "address_councildis": "B",
    "status": "Pending",
    "rowid": "828923",
    "final_x": "3670041.70286",
    "final_y": "518204.240374",
    "longitude": "-90.10470244302185",
    "latitude": "29.919224571159106",
    "geocoded_column": {
      "latitude": "29.919224571159106",
      "longitude": "-90.10470244302185"
    }
  },
  {
    "service_request": "2021-828922",
    "request_type": "Roads/Drainage",
    "request_reason": "Debris in Roadway",
    "date_created": "2021-10-03T19:29:28.000",
    "date_modified": "2021-10-03T19:29:28.000",
    "request_status": "Pending",
    "responsible_agency": "Department of Public Works",
    "final_address": "735 Valence St",
    "address_councildis": "B",
    "status": "Pending",
    "rowid": "828922",
    "final_x": "3670039.15988",
    "final_y": "518234.294774",
    "longitude": "-90.10470945273762",
    "latitude": "29.919307286228552",
    "geocoded_column": {
      "latitude": "29.919307286228552",
      "longitude": "-90.10470945273762"
    }
  },
  {
    "service_request": "2021-828920",
    "request_type": "Roads/Drainage",
    "request_reason": "Catch Basin - Broken/Damage",
    "date_created": "2021-10-03T19:19:48.000",
    "date_modified": "2021-10-03T19:19:48.000",
    "request_status": "Pending",
    "responsible_agency": "Department of Public Works",
    "final_address": "2742 St Charles Ave",
    "address_councildis": "B",
    "status": "Pending",
    "rowid": "828920",
    "final_x": "3676022.74901",
    "final_y": "522469.35577",
    "longitude": "-90.08567670604667",
    "latitude": "29.93077456294261",
    "geocoded_column": {
      "latitude": "29.93077456294261",
      "longitude": "-90.08567670604667"
    }
  },
  {
    "service_request": "2021-828917",
    "request_type": "Trash/Recycling",
    "request_reason": "Missed Trash Pick-Up",
    "date_created": "2021-10-03T18:53:37.000",
    "date_modified": "2021-10-03T18:53:38.000",
    "request_status": "Pending",
    "responsible_agency": "Department of Sanitation",
    "final_address": "2612 Clara St",
    "address_councildis": "B",
    "status": "Assigned to Contractor",
    "contractor": "Richards Disposal",
    "rowid": "828917",
    "final_x": "3674020.50888",
    "final_y": "526292.603518",
    "longitude": "-90.09186673625116",
    "latitude": "29.94134704461222",
    "geocoded_column": {
      "latitude": "29.94134704461222",
      "longitude": "-90.09186673625116"
    }
  },
  {
    "service_request": "2021-828916",
    "request_type": "Trash/Recycling",
    "request_reason": "Order Trash Cart",
    "date_created": "2021-10-03T18:38:41.000",
    "date_modified": "2021-10-03T18:38:42.000",
    "request_status": "Pending",
    "responsible_agency": "Department of Sanitation",
    "final_address": "New Orleans,LA",
    "status": "Assigned to Contractor",
    "rowid": "828916",
    "longitude": "0.0",
    "latitude": "0.0",
    "geocoded_column": {
      "latitude": "0.0",
      "longitude": "0.0"
    }
  },
  {
    "service_request": "2021-828915",
    "request_type": "Trash/Recycling",
    "request_reason": "Stop Trash Service",
    "date_created": "2021-10-03T18:36:19.000",
    "date_modified": "2021-10-03T18:36:20.000",
    "request_status": "Pending",
    "responsible_agency": "Department of Sanitation",
    "final_address": "624 Wagner St",
    "address_councildis": "C",
    "status": "Assigned to Contractor",
    "contractor": "Richards Disposal",
    "rowid": "828915",
    "final_x": "3690610.86505",
    "final_y": "529148.283712",
    "longitude": "-90.03938616085576",
    "latitude": "29.94869450986183",
    "geocoded_column": {
      "latitude": "29.94869450986183",
      "longitude": "-90.03938616085576"
    }
  },
  {
    "service_request": "2021-828914",
    "request_type": "Property Maintenance",
    "request_reason": "Property Maintenance",
    "date_created": "2021-10-03T18:34:20.000",
    "date_modified": "2021-10-03T18:34:20.000",
    "request_status": "Pending",
    "responsible_agency": "Department of Code Enforcement",
    "final_address": "1128 Gallier St",
    "address_councildis": "C",
    "status": "Pending",
    "rowid": "828914",
    "final_x": "3690508.34665",
    "final_y": "535951.123015",
    "longitude": "-90.0394673113502",
    "latitude": "29.967403135480325",
    "geocoded_column": {
      "latitude": "29.967403135480325",
      "longitude": "-90.0394673113502"
    }
  },
  {
    "service_request": "2021-828913",
    "request_type": "Roads/Drainage",
    "request_reason": "Debris in Roadway",
    "date_created": "2021-10-03T18:32:46.000",
    "date_modified": "2021-10-03T18:32:46.000",
    "request_status": "Pending",
    "responsible_agency": "Department of Public Works",
    "final_address": "1128 Gallier St",
    "address_councildis": "C",
    "status": "Pending",
    "rowid": "828913",
    "final_x": "3690508.34665",
    "final_y": "535951.123015",
    "longitude": "-90.0394673113502",
    "latitude": "29.967403135480325",
    "geocoded_column": {
      "latitude": "29.967403135480325",
      "longitude": "-90.0394673113502"
    }
  },
  {
    "service_request": "2021-828910",
    "request_type": "Trash/Recycling",
    "request_reason": "Missed Trash Pick-Up",
    "date_created": "2021-10-03T18:09:50.000",
    "date_modified": "2021-10-03T18:09:51.000",
    "request_status": "Pending",
    "responsible_agency": "Department of Sanitation",
    "final_address": "307 Audubon Blvd",
    "address_councildis": "A",
    "status": "Assigned to Contractor",
    "contractor": "Richards Disposal",
    "rowid": "828910",
    "final_x": "3667194.45665",
    "final_y": "529827.094913",
    "longitude": "-90.11329915632001",
    "latitude": "29.951267344036953",
    "geocoded_column": {
      "latitude": "29.951267344036953",
      "longitude": "-90.11329915632001"
    }
  },
  {
    "service_request": "2021-828909",
    "request_type": "Trash/Recycling",
    "request_reason": "Replace Trash Cart",
    "date_created": "2021-10-03T18:06:39.000",
    "date_modified": "2021-10-03T18:06:40.000",
    "request_status": "Pending",
    "responsible_agency": "Department of Sanitation",
    "final_address": "1415 Calhoun St, New Orleans, Louisiana, 70118",
    "address_councildis": "A",
    "status": "Assigned to Contractor",
    "contractor": "Richards Disposal",
    "rowid": "828909",
    "final_x": "3664346.88852",
    "final_y": "521721.567226",
    "longitude": "-90.1225608460207",
    "latitude": "29.929062792307736",
    "geocoded_column": {
      "latitude": "29.929062792307736",
      "longitude": "-90.1225608460207"
    }
  },
  {
    "service_request": "2021-828907",
    "request_type": "COVID-19",
    "request_reason": "COVID-19 Business Non-Compliance",
    "date_created": "2021-10-03T17:57:18.000",
    "date_modified": "2021-10-03T17:57:19.000",
    "request_status": "Pending",
    "responsible_agency": "Safety and Permits",
    "final_address": "400 Bourbon St",
    "address_councildis": "C",
    "status": "Pending",
    "rowid": "828907",
    "final_x": "3681659.9908",
    "final_y": "531830.966787",
    "longitude": "-90.0675542815721",
    "latitude": "29.956345877254606",
    "geocoded_column": {
      "latitude": "29.956345877254606",
      "longitude": "-90.0675542815721"
    }
  },
  {
    "service_request": "2021-828906",
    "request_type": "Trash/Recycling",
    "request_reason": "Missed Trash Pick-Up",
    "date_created": "2021-10-03T17:56:29.000",
    "date_modified": "2021-10-03T17:56:30.000",
    "request_status": "Pending",
    "responsible_agency": "Department of Sanitation",
    "final_address": "3317 N Galvez St",
    "address_councildis": "D",
    "status": "Assigned to Contractor",
    "contractor": "Metro Disposal",
    "rowid": "828906",
    "final_x": "3690937.00112",
    "final_y": "539627.828554",
    "longitude": "-90.03798235716091",
    "latitude": "29.977499459160715",
    "geocoded_column": {
      "latitude": "29.977499459160715",
      "longitude": "-90.03798235716091"
    }
  },
  {
    "service_request": "2021-828905",
    "request_type": "Trash/Recycling",
    "request_reason": "Illegal Dumping",
    "date_created": "2021-10-03T17:42:23.000",
    "date_modified": "2021-10-03T17:42:23.000",
    "request_status": "Pending",
    "responsible_agency": "Department of Sanitation",
    "final_address": "3912 St Claude Ave",
    "address_councildis": "C",
    "status": "Pending",
    "rowid": "828905",
    "final_x": "3691570.94256",
    "final_y": "535279.026246",
    "longitude": "-90.03613565701062",
    "latitude": "29.96552207085297",
    "geocoded_column": {
      "latitude": "29.96552207085297",
      "longitude": "-90.03613565701062"
    }
  },
  {
    "service_request": "2021-828902",
    "request_type": "Trash/Recycling",
    "request_reason": "Request a Large Item Pick Up",
    "date_created": "2021-10-03T17:34:56.000",
    "date_modified": "2021-10-03T17:34:57.000",
    "request_status": "Pending",
    "responsible_agency": "Department of Sanitation",
    "final_address": "2234 Hyman Pl",
    "address_councildis": "C",
    "status": "Assigned to Contractor",
    "contractor": "Richards Disposal",
    "rowid": "828902",
    "final_x": "3701145.01585",
    "final_y": "522538.618234",
    "longitude": "-90.00636728187335",
    "latitude": "29.930188945257836",
    "geocoded_column": {
      "latitude": "29.930188945257836",
      "longitude": "-90.00636728187335"
    }
  },
  {
    "service_request": "2021-828901",
    "request_type": "Roads/Drainage",
    "request_reason": "Street Subsidence (Sinking)",
    "date_created": "2021-10-03T17:29:36.000",
    "date_modified": "2021-10-03T17:29:36.000",
    "request_status": "Pending",
    "responsible_agency": "Department of Public Works",
    "final_address": "2411 Somerset Dr",
    "address_councildis": "C",
    "status": "Pending",
    "rowid": "828901",
    "final_x": "3702843.55985",
    "final_y": "522151.266682",
    "longitude": "-90.00101950877693",
    "latitude": "29.929069666987612",
    "geocoded_column": {
      "latitude": "29.929069666987612",
      "longitude": "-90.00101950877693"
    }
  },
  {
    "service_request": "2021-828899",
    "request_type": "Trash/Recycling",
    "request_reason": "Missed Trash Pick-Up",
    "date_created": "2021-10-03T17:23:28.000",
    "date_modified": "2021-10-03T17:23:29.000",
    "request_status": "Pending",
    "responsible_agency": "Department of Sanitation",
    "final_address": "4011 Laurel St",
    "address_councildis": "B",
    "status": "Assigned to Contractor",
    "contractor": "Richards Disposal",
    "rowid": "828899",
    "final_x": "3672474.6139",
    "final_y": "518223.737334",
    "longitude": "-90.09702229766205",
    "latitude": "29.919206226667217",
    "geocoded_column": {
      "latitude": "29.919206226667217",
      "longitude": "-90.09702229766205"
    }
  },
  {
    "service_request": "2021-828897",
    "request_type": "Roads/Drainage",
    "request_reason": "Alley Way",
    "date_created": "2021-10-03T17:12:28.000",
    "date_modified": "2021-10-03T17:12:28.000",
    "request_status": "Pending",
    "responsible_agency": "Department of Public Works",
    "final_address": "6416 Louis Xiv St",
    "address_councildis": "A",
    "status": "Pending",
    "rowid": "828897",
    "final_x": "3668300.08129",
    "final_y": "550247.805076",
    "longitude": "-90.10911924045958",
    "latitude": "30.007384985351923",
    "geocoded_column": {
      "latitude": "30.007384985351923",
      "longitude": "-90.10911924045958"
    }
  },
  {
    "service_request": "2021-828896",
    "request_type": "Trash/Recycling",
    "request_reason": "Missed Trash Pick-Up",
    "date_created": "2021-10-03T17:09:53.000",
    "date_modified": "2021-10-03T17:09:53.000",
    "request_status": "Pending",
    "responsible_agency": "Department of Sanitation",
    "final_address": "4514 St Claude Ave",
    "address_councildis": "C",
    "status": "Assigned to Contractor",
    "contractor": "Metro Disposal",
    "rowid": "828896",
    "final_x": "3693441.35056",
    "final_y": "534850.664646",
    "longitude": "-90.03024439841478",
    "latitude": "29.964285871775576",
    "geocoded_column": {
      "latitude": "29.964285871775576",
      "longitude": "-90.03024439841478"
    }
  },
  {
    "service_request": "2021-828895",
    "request_type": "Roads/Drainage",
    "request_reason": "Catch Basin - Clogged",
    "date_created": "2021-10-03T17:04:28.000",
    "date_modified": "2021-10-03T17:04:28.000",
    "request_status": "Pending",
    "responsible_agency": "Department of Public Works",
    "final_address": "4675 Galahad Dr",
    "address_councildis": "E",
    "status": "Pending",
    "rowid": "828895",
    "final_x": "3707332.33534",
    "final_y": "554990.2118",
    "longitude": "-89.98563016493412",
    "latitude": "30.019220374237154",
    "geocoded_column": {
      "latitude": "30.019220374237154",
      "longitude": "-89.98563016493412"
    }
  },
  {
    "service_request": "2021-828894",
    "request_type": "Roads/Drainage",
    "request_reason": "Street Subsidence (Sinking)",
    "date_created": "2021-10-03T17:04:16.000",
    "date_modified": "2021-10-03T17:04:16.000",
    "request_status": "Pending",
    "responsible_agency": "Department of Public Works",
    "final_address": "5741 Norland Ave",
    "address_councildis": "C",
    "status": "Pending",
    "rowid": "828894",
    "final_x": "3704825.1475",
    "final_y": "520471.338488",
    "longitude": "-89.9948260239106",
    "latitude": "29.92438694690811",
    "geocoded_column": {
      "latitude": "29.92438694690811",
      "longitude": "-89.9948260239106"
    }
  },
  {
    "service_request": "2021-828893",
    "request_type": "Trash/Recycling",
    "request_reason": "Illegal Dumping",
    "date_created": "2021-10-03T16:57:22.000",
    "date_modified": "2021-10-03T16:57:22.000",
    "request_status": "Pending",
    "responsible_agency": "Department of Sanitation",
    "final_address": "3119 Conti St",
    "address_councildis": "B",
    "status": "Pending",
    "rowid": "828893",
    "final_x": "3674670.64219",
    "final_y": "537140.216648",
    "longitude": "-90.0894423511912",
    "latitude": "29.971154976105236",
    "geocoded_column": {
      "latitude": "29.971154976105236",
      "longitude": "-90.0894423511912"
    }
  },
  {
    "service_request": "2021-828892",
    "request_type": "Safety & Permits",
    "request_reason": "Construction permit",
    "date_created": "2021-10-03T16:57:17.000",
    "date_modified": "2021-10-03T16:57:17.000",
    "request_status": "Pending",
    "responsible_agency": "Department of Code Enforcement",
    "final_address": "1137 N Robertson St",
    "address_councildis": "D",
    "status": "Pending",
    "rowid": "828892",
    "final_x": "3681124.38575",
    "final_y": "535807.075591",
    "longitude": "-90.06910701881243",
    "latitude": "29.967295077769865",
    "geocoded_column": {
      "latitude": "29.967295077769865",
      "longitude": "-90.06910701881243"
    }
  },
  {
    "service_request": "2021-828891",
    "request_type": "Safety & Permits",
    "request_reason": "Construction permit",
    "date_created": "2021-10-03T16:55:06.000",
    "date_modified": "2021-10-03T16:55:06.000",
    "request_status": "Pending",
    "responsible_agency": "Department of Code Enforcement",
    "status": "Pending",
    "rowid": "828891",
    "longitude": "0.0",
    "latitude": "0.0",
    "geocoded_column": {
      "latitude": "0.0",
      "longitude": "0.0"
    }
  },
  {
    "service_request": "2021-828890",
    "request_type": "COVID-19",
    "request_reason": "COVID-19 Business Non-Compliance",
    "date_created": "2021-10-03T16:49:49.000",
    "date_modified": "2021-10-03T16:49:50.000",
    "request_status": "Pending",
    "responsible_agency": "Safety and Permits",
    "final_address": "3340 Orleans Ave",
    "address_councildis": "A",
    "status": "Pending",
    "rowid": "828890",
    "final_x": "3674457.15336",
    "final_y": "538627.199113",
    "longitude": "-90.0900656249091",
    "latitude": "29.97525004288034",
    "geocoded_column": {
      "latitude": "29.97525004288034",
      "longitude": "-90.0900656249091"
    }
  },
  {
    "service_request": "2021-828889",
    "request_type": "Property Maintenance",
    "request_reason": "Property Maintenance",
    "date_created": "2021-10-03T16:43:46.000",
    "date_modified": "2021-10-03T16:43:46.000",
    "request_status": "Pending",
    "responsible_agency": "Department of Code Enforcement",
    "final_address": "2233 Dauphine St",
    "address_councildis": "C",
    "status": "Pending",
    "rowid": "828889",
    "final_x": "3685420.12642",
    "final_y": "535291.286278",
    "longitude": "-90.05555920252324",
    "latitude": "29.965745814865755",
    "geocoded_column": {
      "latitude": "29.965745814865755",
      "longitude": "-90.05555920252324"
    }
  },
  {
    "service_request": "2021-828888",
    "request_type": "Trash/Recycling",
    "request_reason": "Order Recycling Cart",
    "date_created": "2021-10-03T16:43:36.000",
    "date_modified": "2021-10-03T16:43:36.000",
    "request_status": "Pending",
    "responsible_agency": "Department of Sanitation",
    "final_address": "735 Flood St",
    "address_councildis": "E",
    "status": "Pending",
    "rowid": "828888",
    "final_x": "3697408.46563",
    "final_y": "532619.713348",
    "longitude": "-90.0177975296853",
    "latitude": "29.958026899232653",
    "geocoded_column": {
      "latitude": "29.958026899232653",
      "longitude": "-90.0177975296853"
    }
  },
  {
    "service_request": "2021-828887",
    "request_type": "Trash/Recycling",
    "request_reason": "Illegal Dumping",
    "date_created": "2021-10-03T16:38:59.000",
    "date_modified": "2021-10-03T16:38:59.000",
    "request_status": "Pending",
    "responsible_agency": "Department of Sanitation",
    "final_address": "INDUSTRY ST & CLOUET ST",
    "address_councildis": "D",
    "status": "Pending",
    "rowid": "828887",
    "final_x": "3690703.9",
    "final_y": "542786.18",
    "longitude": "-90.03860585366208",
    "latitude": "29.98619104097541",
    "geocoded_column": {
      "latitude": "29.98619104097541",
      "longitude": "-90.03860585366208"
    }
  },
  {
    "service_request": "2021-828886",
    "request_type": "Roads/Drainage",
    "request_reason": "Alley Way",
    "date_created": "2021-10-03T16:37:47.000",
    "date_modified": "2021-10-03T16:37:47.000",
    "request_status": "Pending",
    "responsible_agency": "Department of Public Works",
    "final_address": "6462 Marshal Foch St",
    "address_councildis": "A",
    "status": "Pending",
    "rowid": "828886",
    "final_x": "3670030.13505",
    "final_y": "550436.408212",
    "longitude": "-90.10364710218998",
    "latitude": "30.007852640307533",
    "geocoded_column": {
      "latitude": "30.007852640307533",
      "longitude": "-90.10364710218998"
    }
  },
  {
    "service_request": "2021-828885",
    "request_type": "COVID-19",
    "request_reason": "COVID-19 Business Non-Compliance",
    "date_created": "2021-10-03T16:37:16.000",
    "date_modified": "2021-10-03T16:37:17.000",
    "request_status": "Pending",
    "responsible_agency": "Safety and Permits",
    "final_address": "3332 Bienville Ave",
    "address_councildis": "B",
    "status": "Pending",
    "rowid": "828885",
    "final_x": "3673809.34177",
    "final_y": "537186.40436",
    "longitude": "-90.09216087896863",
    "latitude": "29.971307657927564",
    "geocoded_column": {
      "latitude": "29.971307657927564",
      "longitude": "-90.09216087896863"
    }
  },
  {
    "service_request": "2021-828884",
    "request_type": "Trash/Recycling",
    "request_reason": "MIssed Recycling Pick-Up",
    "date_created": "2021-10-03T16:31:33.000",
    "date_modified": "2021-10-03T16:31:34.000",
    "request_status": "Pending",
    "responsible_agency": "Department of Sanitation",
    "final_address": "6462 Marshal Foch St",
    "address_councildis": "A",
    "status": "Assigned to Contractor",
    "contractor": "Metro Disposal",
    "rowid": "828884",
    "final_x": "3670030.13505",
    "final_y": "550436.408212",
    "longitude": "-90.10364710218998",
    "latitude": "30.007852640307533",
    "geocoded_column": {
      "latitude": "30.007852640307533",
      "longitude": "-90.10364710218998"
    }
  },
  {
    "service_request": "2021-828883",
    "request_type": "Roads/Drainage",
    "request_reason": "Debris in Roadway",
    "date_created": "2021-10-03T16:27:05.000",
    "date_modified": "2021-10-03T16:27:05.000",
    "request_status": "Pending",
    "responsible_agency": "Department of Public Works",
    "final_address": "320 S Gayoso St",
    "address_councildis": "B",
    "status": "Pending",
    "rowid": "828883",
    "final_x": "3673776.27054",
    "final_y": "535061.546118",
    "longitude": "-90.09233800150112",
    "latitude": "29.96546600026725",
    "geocoded_column": {
      "latitude": "29.96546600026725",
      "longitude": "-90.09233800150112"
    }
  },
  {
    "service_request": "2021-828882",
    "request_type": "Trash/Recycling",
    "request_reason": "Request a Large Item Pick Up",
    "date_created": "2021-10-03T16:23:01.000",
    "date_modified": "2021-10-03T16:23:01.000",
    "request_status": "Pending",
    "responsible_agency": "Department of Sanitation",
    "final_address": "2408 Pine St",
    "address_councildis": "A",
    "status": "Assigned to Contractor",
    "contractor": "Richards Disposal",
    "rowid": "828882",
    "final_x": "3666358.19073",
    "final_y": "530441.541698",
    "longitude": "-90.11591906807385",
    "latitude": "29.952981329720956",
    "geocoded_column": {
      "latitude": "29.952981329720956",
      "longitude": "-90.11591906807385"
    }
  },
  {
    "service_request": "2021-828881",
    "request_type": "Property Maintenance",
    "request_reason": "Property Maintenance",
    "date_created": "2021-10-03T16:22:01.000",
    "date_modified": "2021-10-03T16:22:01.000",
    "request_status": "Pending",
    "responsible_agency": "Department of Code Enforcement",
    "final_address": "1135 N Robertson St",
    "address_councildis": "D",
    "status": "Pending",
    "rowid": "828881",
    "final_x": "3681109.38299",
    "final_y": "535793.455047",
    "longitude": "-90.06915487226212",
    "latitude": "29.967258081087355",
    "geocoded_column": {
      "latitude": "29.967258081087355",
      "longitude": "-90.06915487226212"
    }
  },
  {
    "service_request": "2021-828880",
    "request_type": "Mosquito, Termite & Rodent Control",
    "request_reason": "Mosquito Complaint",
    "date_created": "2021-10-03T16:19:36.000",
    "date_modified": "2021-10-03T16:19:36.000",
    "request_status": "Pending",
    "responsible_agency": "Mosquito, Termite & Rodent Control Board",
    "final_address": "3022 Oliver White Ave",
    "address_councildis": "D",
    "status": "Pending",
    "rowid": "828880",
    "final_x": "3692064.96304",
    "final_y": "543430.388302",
    "longitude": "-90.0342837326716",
    "latitude": "29.98792002408101",
    "geocoded_column": {
      "latitude": "29.98792002408101",
      "longitude": "-90.0342837326716"
    }
  },
  {
    "service_request": "2021-828879",
    "request_type": "Trash/Recycling",
    "request_reason": "Order Recycling Cart",
    "date_created": "2021-10-03T16:19:28.000",
    "date_modified": "2021-10-03T16:19:28.000",
    "request_status": "Pending",
    "responsible_agency": "Department of Sanitation",
    "final_address": "2103 S Carrollton Ave",
    "address_councildis": "A",
    "status": "Pending",
    "rowid": "828879",
    "final_x": "3664248.29293",
    "final_y": "530637.051074",
    "longitude": "-90.12257470419496",
    "latitude": "29.953580387515988",
    "geocoded_column": {
      "latitude": "29.953580387515988",
      "longitude": "-90.12257470419496"
    }
  },
  {
    "service_request": "2021-828878",
    "request_type": "Trash/Recycling",
    "request_reason": "Illegal Dumping",
    "date_created": "2021-10-03T16:19:19.000",
    "date_modified": "2021-10-03T16:19:19.000",
    "request_status": "Pending",
    "responsible_agency": "Department of Sanitation",
    "final_address": "1135 N Robertson St",
    "address_councildis": "D",
    "status": "Pending",
    "rowid": "828878",
    "final_x": "3681109.38299",
    "final_y": "535793.455047",
    "longitude": "-90.06915487226212",
    "latitude": "29.967258081087355",
    "geocoded_column": {
      "latitude": "29.967258081087355",
      "longitude": "-90.06915487226212"
    }
  },
  {
    "service_request": "2021-828877",
    "request_type": "Property Maintenance",
    "request_reason": "Property Maintenance",
    "date_created": "2021-10-03T16:18:15.000",
    "date_modified": "2021-10-03T16:18:15.000",
    "request_status": "Pending",
    "responsible_agency": "Department of Code Enforcement",
    "final_address": "719 Tricou St",
    "address_councildis": "E",
    "status": "Pending",
    "rowid": "828877",
    "final_x": "3699651.26122",
    "final_y": "531758.450691",
    "longitude": "-90.01074684534473",
    "latitude": "29.955587740004443",
    "geocoded_column": {
      "latitude": "29.955587740004443",
      "longitude": "-90.01074684534473"
    }
  },
  {
    "service_request": "2021-828876",
    "request_type": "Trash/Recycling",
    "request_reason": "Missed Trash Pick-Up",
    "date_created": "2021-10-03T16:14:23.000",
    "date_modified": "2021-10-03T16:14:24.000",
    "request_status": "Pending",
    "responsible_agency": "Department of Sanitation",
    "final_address": "6462 Marshal Foch St",
    "address_councildis": "A",
    "status": "Assigned to Contractor",
    "contractor": "Metro Disposal",
    "rowid": "828876",
    "final_x": "3670030.13505",
    "final_y": "550436.408212",
    "longitude": "-90.10364710218998",
    "latitude": "30.007852640307533",
    "geocoded_column": {
      "latitude": "30.007852640307533",
      "longitude": "-90.10364710218998"
    }
  },
  {
    "service_request": "2021-828875",
    "request_type": "Roads/Drainage",
    "request_reason": "Street Flooding / Drainage",
    "date_created": "2021-10-03T16:09:33.000",
    "date_modified": "2021-10-03T16:09:33.000",
    "request_status": "Pending",
    "responsible_agency": "Department of Public Works",
    "final_address": "1306 Webster St",
    "address_councildis": "A",
    "status": "Pending",
    "rowid": "828875",
    "final_x": "3664703.53639",
    "final_y": "521101.681337",
    "longitude": "-90.12145567022326",
    "latitude": "29.927347934288562",
    "geocoded_column": {
      "latitude": "29.927347934288562",
      "longitude": "-90.12145567022326"
    }
  },
  {
    "service_request": "2021-828874",
    "request_type": "Traffic Signals/Signs/Striping/Streetlights",
    "request_reason": "Traffic Sign Missing/Damaged",
    "date_created": "2021-10-03T16:00:53.000",
    "date_modified": "2021-10-03T16:00:53.000",
    "request_status": "Pending",
    "responsible_agency": "Department of Public Works",
    "final_address": "2061 S Chippewa St",
    "address_councildis": "B",
    "status": "Pending",
    "rowid": "828874",
    "final_x": "3680339.88232",
    "final_y": "520967.906617",
    "longitude": "-90.07210030618066",
    "latitude": "29.926516109463368",
    "geocoded_column": {
      "latitude": "29.926516109463368",
      "longitude": "-90.07210030618066"
    }
  },
  {
    "service_request": "2021-828873",
    "request_type": "COVID-19",
    "request_reason": "COVID-19 Business Non-Compliance",
    "date_created": "2021-10-03T15:55:25.000",
    "date_modified": "2021-10-03T15:56:54.000",
    "request_status": "Pending",
    "responsible_agency": "Safety and Permits",
    "final_address": "1100 S Claiborne Ave",
    "address_councildis": "B",
    "status": "Pending",
    "rowid": "828873",
    "final_x": "3675695.8084",
    "final_y": "528824.223488",
    "longitude": "-90.08649051442099",
    "latitude": "29.948258147692556",
    "geocoded_column": {
      "latitude": "29.948258147692556",
      "longitude": "-90.08649051442099"
    }
  },
  {
    "service_request": "2021-828870",
    "request_type": "Abandoned Vehicles",
    "request_reason": "Abandoned/Junk Vehicles",
    "date_created": "2021-10-03T15:48:14.000",
    "date_modified": "2021-10-03T15:48:14.000",
    "request_status": "Pending",
    "responsible_agency": "Department of Public Works",
    "final_address": "2832 St Bernard Ave",
    "address_councildis": "D",
    "status": "Pending",
    "rowid": "828870",
    "final_x": "3679657.98651",
    "final_y": "542582.915021",
    "longitude": "-90.07350265717224",
    "latitude": "29.985970698123165",
    "geocoded_column": {
      "latitude": "29.985970698123165",
      "longitude": "-90.07350265717224"
    }
  },
  {
    "service_request": "2021-828869",
    "request_type": "Trash/Recycling",
    "request_reason": "Request a Large Item Pick Up",
    "date_created": "2021-10-03T15:46:21.000",
    "date_modified": "2021-10-03T15:46:22.000",
    "request_status": "Pending",
    "responsible_agency": "Department of Sanitation",
    "final_address": "4409 Carondelet St",
    "address_councildis": "B",
    "status": "Assigned to Contractor",
    "contractor": "Richards Disposal",
    "rowid": "828869",
    "final_x": "3670657.41031",
    "final_y": "521275.993657",
    "longitude": "-90.10265482337645",
    "latitude": "29.92765274742559",
    "geocoded_column": {
      "latitude": "29.92765274742559",
      "longitude": "-90.10265482337645"
    }
  },
  {
    "service_request": "2021-828868",
    "request_type": "Trash/Recycling",
    "request_reason": "Order Trash Cart",
    "date_created": "2021-10-03T15:24:44.000",
    "date_modified": "2021-10-03T15:24:45.000",
    "request_status": "Pending",
    "responsible_agency": "Department of Sanitation",
    "final_address": "1388 Camp St",
    "address_councildis": "B",
    "status": "Assigned to Contractor",
    "contractor": "Richards Disposal",
    "rowid": "828868",
    "final_x": "3680028.4708",
    "final_y": "524661.761788",
    "longitude": "-90.07295508536109",
    "latitude": "29.936682417573795",
    "geocoded_column": {
      "latitude": "29.936682417573795",
      "longitude": "-90.07295508536109"
    }
  },
  {
    "service_request": "2021-828866",
    "request_type": "COVID-19",
    "request_reason": "COVID-19 Business Non-Compliance",
    "date_created": "2021-10-03T15:15:20.000",
    "date_modified": "2021-10-03T15:15:21.000",
    "request_status": "Pending",
    "responsible_agency": "Safety and Permits",
    "final_address": "3811 Magazine St",
    "address_councildis": "B",
    "status": "Pending",
    "rowid": "828866",
    "final_x": "3673265.15886",
    "final_y": "519070.493687",
    "longitude": "-90.09449804730887",
    "latitude": "29.92151105885295",
    "geocoded_column": {
      "latitude": "29.92151105885295",
      "longitude": "-90.09449804730887"
    }
  },
  {
    "service_request": "2021-828865",
    "request_type": "Trash/Recycling",
    "request_reason": "Replace Trash Cart",
    "date_created": "2021-10-03T15:15:04.000",
    "date_modified": "2021-10-03T15:15:05.000",
    "request_status": "Pending",
    "responsible_agency": "Department of Sanitation",
    "final_address": "1457 Constance St",
    "address_councildis": "B",
    "status": "Assigned to Contractor",
    "contractor": "Richards Disposal",
    "rowid": "828865",
    "final_x": "3680576.53826",
    "final_y": "523964.156348",
    "longitude": "-90.07124907056824",
    "latitude": "29.934747645626786",
    "geocoded_column": {
      "latitude": "29.934747645626786",
      "longitude": "-90.07124907056824"
    }
  },
  {
    "service_request": "2021-828864",
    "request_type": "Roads/Drainage",
    "request_reason": "Pothole",
    "date_created": "2021-10-03T15:08:43.000",
    "date_modified": "2021-10-03T15:08:43.000",
    "request_status": "Pending",
    "responsible_agency": "Department of Public Works",
    "final_address": "1900 Alvar St",
    "address_councildis": "D",
    "status": "Pending",
    "rowid": "828864",
    "final_x": "3692199.55261",
    "final_y": "538443.840009",
    "longitude": "-90.03403721319523",
    "latitude": "29.97420460639893",
    "geocoded_column": {
      "latitude": "29.97420460639893",
      "longitude": "-90.03403721319523"
    }
  },
  {
    "service_request": "2021-828863",
    "request_type": "Abandoned Vehicles",
    "request_reason": "Abandoned/Junk Vehicles",
    "date_created": "2021-10-03T15:03:56.000",
    "date_modified": "2021-10-03T15:03:56.000",
    "request_status": "Pending",
    "responsible_agency": "Department of Public Works",
    "final_address": "4243 General Pershing St",
    "address_councildis": "B",
    "status": "Pending",
    "rowid": "828863",
    "final_x": "3669703.91322",
    "final_y": "529644.863169",
    "longitude": "-90.10538167564658",
    "latitude": "29.950692558263636",
    "geocoded_column": {
      "latitude": "29.950692558263636",
      "longitude": "-90.10538167564658"
    }
  },
  {
    "service_request": "2021-828862",
    "request_type": "Roads/Drainage",
    "request_reason": "Catch Basin - Broken/Damage",
    "date_created": "2021-10-03T14:59:49.000",
    "date_modified": "2021-10-03T14:59:49.000",
    "request_status": "Pending",
    "responsible_agency": "Department of Public Works",
    "final_address": "149 16Th St",
    "address_councildis": "A",
    "status": "Pending",
    "rowid": "828862",
    "final_x": "3665714.27168",
    "final_y": "548445.59125",
    "longitude": "-90.11734899920148",
    "latitude": "30.0025052314046",
    "geocoded_column": {
      "latitude": "30.0025052314046",
      "longitude": "-90.11734899920148"
    }
  },
  {
    "service_request": "2021-828861",
    "request_type": "Property Maintenance",
    "request_reason": "Property Maintenance",
    "date_created": "2021-10-03T14:48:28.000",
    "date_modified": "2021-10-03T14:48:28.000",
    "request_status": "Pending",
    "responsible_agency": "Department of Code Enforcement",
    "final_address": "317 N Johnson St",
    "address_councildis": "B",
    "status": "Pending",
    "rowid": "828861",
    "final_x": "3677769.56757",
    "final_y": "534486.568453",
    "longitude": "-90.0797472069718",
    "latitude": "29.963765482199058",
    "geocoded_column": {
      "latitude": "29.963765482199058",
      "longitude": "-90.0797472069718"
    }
  },
  {
    "service_request": "2021-828860",
    "request_type": "Trash/Recycling",
    "request_reason": "MIssed Recycling Pick-Up",
    "date_created": "2021-10-03T14:42:47.000",
    "date_modified": "2021-10-03T14:42:47.000",
    "request_status": "Pending",
    "responsible_agency": "Department of Sanitation",
    "final_address": "1015 Louisiana Ave",
    "address_councildis": "B",
    "status": "Assigned to Contractor",
    "contractor": "Richards Disposal",
    "rowid": "828860",
    "final_x": "3675199.70267",
    "final_y": "519448.536567",
    "longitude": "-90.08837856136961",
    "latitude": "29.922492902670886",
    "geocoded_column": {
      "latitude": "29.922492902670886",
      "longitude": "-90.08837856136961"
    }
  },
  {
    "service_request": "2021-828859",
    "request_type": "Roads/Drainage",
    "request_reason": "Street Flooding / Drainage",
    "date_created": "2021-10-03T14:40:20.000",
    "date_modified": "2021-10-03T14:40:20.000",
    "request_status": "Pending",
    "responsible_agency": "Department of Public Works",
    "final_address": "7525 Ligustrum Dr",
    "address_councildis": "E",
    "status": "Pending",
    "rowid": "828859",
    "final_x": "3701682.72593",
    "final_y": "560916.528286",
    "longitude": "-90.00326351321371",
    "latitude": "30.035696955801864",
    "geocoded_column": {
      "latitude": "30.035696955801864",
      "longitude": "-90.00326351321371"
    }
  },
  {
    "service_request": "2021-828858",
    "request_type": "Trash/Recycling",
    "request_reason": "Replace Trash Cart",
    "date_created": "2021-10-03T14:31:47.000",
    "date_modified": "2021-10-03T14:31:48.000",
    "request_status": "Pending",
    "responsible_agency": "Department of Sanitation",
    "final_address": "2124 Burgundy St",
    "address_councildis": "C",
    "status": "Assigned to Contractor",
    "contractor": "Metro Disposal",
    "rowid": "828858",
    "final_x": "3684875.93609",
    "final_y": "535540.749062",
    "longitude": "-90.05726895990139",
    "latitude": "29.96644842625025",
    "geocoded_column": {
      "latitude": "29.96644842625025",
      "longitude": "-90.05726895990139"
    }
  },
  {
    "service_request": "2021-828857",
    "request_type": "Roads/Drainage",
    "request_reason": "Catch Basin - Clogged",
    "date_created": "2021-10-03T14:31:42.000",
    "date_modified": "2021-10-03T14:31:42.000",
    "request_status": "Pending",
    "responsible_agency": "Department of Public Works",
    "final_address": "7008 Catina St",
    "address_councildis": "A",
    "status": "Pending",
    "rowid": "828857",
    "final_x": "3667051.60385",
    "final_y": "554203.157976",
    "longitude": "-90.11293045533918",
    "latitude": "30.018297436844477",
    "geocoded_column": {
      "latitude": "30.018297436844477",
      "longitude": "-90.11293045533918"
    }
  },
  {
    "service_request": "2021-828853",
    "request_type": "Roads/Drainage",
    "request_reason": "Catch Basin - Clogged",
    "date_created": "2021-10-03T14:21:03.000",
    "date_modified": "2021-10-03T14:21:03.000",
    "request_status": "Pending",
    "responsible_agency": "Department of Public Works",
    "final_address": "1725 Lakeshore Dr",
    "address_councildis": "D",
    "status": "Pending",
    "rowid": "828853",
    "final_x": "3678259.60802",
    "final_y": "558555.79894",
    "longitude": "-90.07736657321315",
    "latitude": "30.029932616688804",
    "geocoded_column": {
      "latitude": "30.029932616688804",
      "longitude": "-90.07736657321315"
    }
  },
  {
    "service_request": "2021-828852",
    "request_type": "Roads/Drainage",
    "request_reason": "Alley Way",
    "date_created": "2021-10-03T14:13:04.000",
    "date_modified": "2021-10-03T14:13:04.000",
    "request_status": "Pending",
    "responsible_agency": "Department of Public Works",
    "final_address": "6522 Marshal Foch St",
    "address_councildis": "A",
    "status": "Pending",
    "rowid": "828852",
    "final_x": "3670063.49377",
    "final_y": "550793.702805",
    "longitude": "-90.10352959662768",
    "latitude": "30.008834090597144",
    "geocoded_column": {
      "latitude": "30.008834090597144",
      "longitude": "-90.10352959662768"
    }
  },
  {
    "service_request": "2021-828851",
    "request_type": "Roads/Drainage",
    "request_reason": "Catch Basin - Clogged",
    "date_created": "2021-10-03T14:11:05.000",
    "date_modified": "2021-10-03T14:11:05.000",
    "request_status": "Pending",
    "responsible_agency": "Department of Public Works",
    "final_address": "4975 St Roch Ave",
    "address_councildis": "D",
    "status": "Pending",
    "rowid": "828851",
    "final_x": "3685315.14409",
    "final_y": "551416.236181",
    "longitude": "-90.05532277515235",
    "latitude": "30.01008691767716",
    "geocoded_column": {
      "latitude": "30.01008691767716",
      "longitude": "-90.05532277515235"
    }
  },
  {
    "service_request": "2021-828849",
    "request_type": "Roads/Drainage",
    "request_reason": "Street Flooding / Drainage",
    "date_created": "2021-10-03T13:51:23.000",
    "date_modified": "2021-10-03T13:51:23.000",
    "request_status": "Pending",
    "responsible_agency": "Department of Public Works",
    "status": "Pending",
    "rowid": "828849",
    "longitude": "0.0",
    "latitude": "0.0",
    "geocoded_column": {
      "latitude": "0.0",
      "longitude": "0.0"
    }
  },
  {
    "service_request": "2021-828848",
    "request_type": "Roads/Drainage",
    "request_reason": "Catch Basin - Clogged",
    "date_created": "2021-10-03T13:46:16.000",
    "date_modified": "2021-10-03T13:46:16.000",
    "request_status": "Pending",
    "responsible_agency": "Department of Public Works",
    "final_address": "7101 Memphis St",
    "address_councildis": "A",
    "status": "Pending",
    "rowid": "828848",
    "final_x": "3669911.24833",
    "final_y": "554281.328344",
    "longitude": "-90.10389236652077",
    "latitude": "30.018428321010834",
    "geocoded_column": {
      "latitude": "30.018428321010834",
      "longitude": "-90.10389236652077"
    }
  },
  {
    "service_request": "2021-828846",
    "request_type": "COVID-19",
    "request_reason": "COVID-19 Business Non-Compliance",
    "date_created": "2021-10-03T13:36:10.000",
    "date_modified": "2021-10-03T13:36:11.000",
    "request_status": "Pending",
    "responsible_agency": "Safety and Permits",
    "final_address": "1500 Sugar Bowl Dr",
    "address_councildis": "B",
    "status": "Pending",
    "rowid": "828846",
    "final_x": "3677419.94741",
    "final_y": "529887.900033",
    "longitude": "-90.08100999051224",
    "latitude": "29.951131203927932",
    "geocoded_column": {
      "latitude": "29.951131203927932",
      "longitude": "-90.08100999051224"
    }
  },
  {
    "service_request": "2021-828845",
    "request_type": "Roads/Drainage",
    "request_reason": "Street Flooding / Drainage",
    "date_created": "2021-10-03T13:29:49.000",
    "date_modified": "2021-10-03T13:29:49.000",
    "request_status": "Pending",
    "responsible_agency": "Department of Public Works",
    "final_address": "6854 Argonne Blvd",
    "address_councildis": "A",
    "status": "Pending",
    "rowid": "828845",
    "final_x": "3670623.2354",
    "final_y": "552926.655383",
    "longitude": "-90.10168875121856",
    "latitude": "30.01468242671583",
    "geocoded_column": {
      "latitude": "30.01468242671583",
      "longitude": "-90.10168875121856"
    }
  },
  {
    "service_request": "2021-828844",
    "request_type": "Trash/Recycling",
    "request_reason": "MIssed Recycling Pick-Up",
    "date_created": "2021-10-03T13:24:12.000",
    "date_modified": "2021-10-03T13:24:13.000",
    "request_status": "Pending",
    "responsible_agency": "Department of Sanitation",
    "final_address": "5409 S Prieur St",
    "address_councildis": "A",
    "status": "Assigned to Contractor",
    "contractor": "Richards Disposal",
    "rowid": "828844",
    "final_x": "3668403.83502",
    "final_y": "526728.180094",
    "longitude": "-90.10958502580495",
    "latitude": "29.942710873148464",
    "geocoded_column": {
      "latitude": "29.942710873148464",
      "longitude": "-90.10958502580495"
    }
  },
  {
    "service_request": "2021-828842",
    "request_type": "COVID-19",
    "request_reason": "COVID-19 Business Non-Compliance",
    "date_created": "2021-10-03T13:13:26.000",
    "date_modified": "2021-10-03T13:13:27.000",
    "request_status": "Pending",
    "responsible_agency": "Safety and Permits",
    "final_address": "1111 S Broad St",
    "address_councildis": "B",
    "status": "Pending",
    "rowid": "828842",
    "final_x": "3672421.86177",
    "final_y": "531191.868674",
    "longitude": "-90.09674705348147",
    "latitude": "29.954865942196243",
    "geocoded_column": {
      "latitude": "29.954865942196243",
      "longitude": "-90.09674705348147"
    }
  },
  {
    "service_request": "2021-828841",
    "request_type": "Trash/Recycling",
    "request_reason": "Illegal Dumping",
    "date_created": "2021-10-03T13:10:24.000",
    "date_modified": "2021-10-03T13:10:24.000",
    "request_status": "Pending",
    "responsible_agency": "Department of Sanitation",
    "final_address": "1426 St Andrew St",
    "address_councildis": "B",
    "status": "Pending",
    "rowid": "828841",
    "final_x": "3678653.70498",
    "final_y": "523528.098299",
    "longitude": "-90.07733451435969",
    "latitude": "29.933606724612687",
    "geocoded_column": {
      "latitude": "29.933606724612687",
      "longitude": "-90.07733451435969"
    }
  },
  {
    "service_request": "2021-828840",
    "request_type": "Property Maintenance",
    "request_reason": "Property Maintenance",
    "date_created": "2021-10-03T13:10:02.000",
    "date_modified": "2021-10-03T13:10:02.000",
    "request_status": "Pending",
    "responsible_agency": "Department of Code Enforcement",
    "final_address": "1426 St Andrew St",
    "address_councildis": "B",
    "status": "Pending",
    "rowid": "828840",
    "final_x": "3678653.70498",
    "final_y": "523528.098299",
    "longitude": "-90.07733451435969",
    "latitude": "29.933606724612687",
    "geocoded_column": {
      "latitude": "29.933606724612687",
      "longitude": "-90.07733451435969"
    }
  },
  {
    "service_request": "2021-828839",
    "request_type": "Mosquito, Termite & Rodent Control",
    "request_reason": "Mosquito Complaint",
    "date_created": "2021-10-03T13:05:59.000",
    "date_modified": "2021-10-03T13:05:59.000",
    "request_status": "Pending",
    "responsible_agency": "Mosquito, Termite & Rodent Control Board",
    "final_address": "3020 Oliver White Ave",
    "address_councildis": "D",
    "status": "Pending",
    "rowid": "828839",
    "final_x": "3692061.07197",
    "final_y": "543408.59579",
    "longitude": "-90.03429680359696",
    "latitude": "29.987860223833575",
    "geocoded_column": {
      "latitude": "29.987860223833575",
      "longitude": "-90.03429680359696"
    }
  },
  {
    "service_request": "2021-828838",
    "request_type": "Trash/Recycling",
    "request_reason": "Missed Trash Pick-Up",
    "date_created": "2021-10-03T12:59:36.000",
    "date_modified": "2021-10-03T12:59:37.000",
    "request_status": "Pending",
    "responsible_agency": "Department of Sanitation",
    "final_address": "4318 Wellington Ave",
    "address_councildis": "D",
    "status": "Assigned to Contractor",
    "contractor": "Metro Disposal",
    "rowid": "828838",
    "final_x": "3677171.52744",
    "final_y": "548203.99957",
    "longitude": "-90.08116237880215",
    "latitude": "30.001501645025076",
    "geocoded_column": {
      "latitude": "30.001501645025076",
      "longitude": "-90.08116237880215"
    }
  },
  {
    "service_request": "2021-828837",
    "request_type": "COVID-19",
    "request_reason": "COVID-19 Business Non-Compliance",
    "date_created": "2021-10-03T12:57:50.000",
    "date_modified": "2021-10-03T12:57:51.000",
    "request_status": "Pending",
    "responsible_agency": "Safety and Permits",
    "final_address": "500 Canal St",
    "address_councildis": "B",
    "status": "Pending",
    "rowid": "828837",
    "final_x": "3681620.18831",
    "final_y": "530215.835265",
    "longitude": "-90.06773629521233",
    "latitude": "29.95190602147896",
    "geocoded_column": {
      "latitude": "29.95190602147896",
      "longitude": "-90.06773629521233"
    }
  },
  {
    "service_request": "2021-828836",
    "request_type": "Trash/Recycling",
    "request_reason": "Request a Large Item Pick Up",
    "date_created": "2021-10-03T12:48:27.000",
    "date_modified": "2021-10-03T12:48:28.000",
    "request_status": "Pending",
    "responsible_agency": "Department of Sanitation",
    "final_address": "5511 Edenboro Rd",
    "address_councildis": "E",
    "status": "Assigned to Contractor",
    "contractor": "Metro Disposal",
    "rowid": "828836",
    "final_x": "3708196.782",
    "final_y": "558138.642203",
    "longitude": "-89.98278158254222",
    "latitude": "30.027849344477286",
    "geocoded_column": {
      "latitude": "30.027849344477286",
      "longitude": "-89.98278158254222"
    }
  },
  {
    "service_request": "2021-828835",
    "request_type": "Property Maintenance",
    "request_reason": "Property Maintenance",
    "date_created": "2021-10-03T12:38:13.000",
    "date_modified": "2021-10-03T12:38:13.000",
    "request_status": "Pending",
    "responsible_agency": "Department of Code Enforcement",
    "final_address": "2125 Pine St",
    "address_councildis": "A",
    "status": "Pending",
    "rowid": "828835",
    "final_x": "3665875.8336",
    "final_y": "529482.867393",
    "longitude": "-90.11747426637224",
    "latitude": "29.950359369641077",
    "geocoded_column": {
      "latitude": "29.950359369641077",
      "longitude": "-90.11747426637224"
    }
  },
  {
    "service_request": "2021-828833",
    "request_type": "Traffic Signals/Signs/Striping/Streetlights",
    "request_reason": "Request for Stop Sign",
    "date_created": "2021-10-03T12:21:02.000",
    "date_modified": "2021-10-03T12:21:02.000",
    "request_status": "Pending",
    "responsible_agency": "Department of Public Works",
    "final_address": "Caffin Ave & Dauphine St, New Orleans, Louisiana, 70117",
    "address_councildis": "E",
    "status": "Pending",
    "rowid": "828833",
    "final_x": "3697716.8",
    "final_y": "532625.38",
    "longitude": "-90.01682369607217",
    "latitude": "29.95803274319665",
    "geocoded_column": {
      "latitude": "29.95803274319665",
      "longitude": "-90.01682369607217"
    }
  },
  {
    "service_request": "2021-828832",
    "request_type": "Trash/Recycling",
    "request_reason": "Request a Large Item Pick Up",
    "date_created": "2021-10-03T12:10:48.000",
    "date_modified": "2021-10-03T12:10:49.000",
    "request_status": "Pending",
    "responsible_agency": "Department of Sanitation",
    "final_address": "3718 Banks St",
    "address_councildis": "B",
    "status": "Assigned to Contractor",
    "contractor": "Richards Disposal",
    "rowid": "828832",
    "final_x": "3671429.07547",
    "final_y": "536485.880263",
    "longitude": "-90.09970193000524",
    "latitude": "29.969452132204186",
    "geocoded_column": {
      "latitude": "29.969452132204186",
      "longitude": "-90.09970193000524"
    }
  },
  {
    "service_request": "2021-828831",
    "request_type": "Property Maintenance",
    "request_reason": "Property Maintenance",
    "date_created": "2021-10-03T12:07:02.000",
    "date_modified": "2021-10-03T12:07:02.000",
    "request_status": "Pending",
    "responsible_agency": "Department of Code Enforcement",
    "final_address": "1810 Prytania St",
    "address_councildis": "B",
    "status": "Pending",
    "rowid": "828831",
    "final_x": "3678885.49794",
    "final_y": "524006.456508",
    "longitude": "-90.07658619288947",
    "latitude": "29.93491506401415",
    "geocoded_column": {
      "latitude": "29.93491506401415",
      "longitude": "-90.07658619288947"
    }
  },
  {
    "service_request": "2021-828830",
    "request_type": "Trash/Recycling",
    "request_reason": "Request a Large Item Pick Up",
    "date_created": "2021-10-03T11:54:52.000",
    "date_modified": "2021-10-03T11:54:53.000",
    "request_status": "Pending",
    "responsible_agency": "Department of Sanitation",
    "final_address": "1751 Pressburg Dr",
    "address_councildis": "D",
    "status": "Assigned to Contractor",
    "contractor": "Metro Disposal",
    "rowid": "828830",
    "final_x": "3680044.72623",
    "final_y": "554254.924184",
    "longitude": "-90.07187522733743",
    "latitude": "30.018052863117923",
    "geocoded_column": {
      "latitude": "30.018052863117923",
      "longitude": "-90.07187522733743"
    }
  },
  {
    "service_request": "2021-828828",
    "request_type": "Trash/Recycling",
    "request_reason": "Missed Trash Pick-Up",
    "date_created": "2021-10-03T11:50:34.000",
    "date_modified": "2021-10-03T11:50:35.000",
    "request_status": "Pending",
    "responsible_agency": "Department of Sanitation",
    "final_address": "3529 S Liberty St",
    "address_councildis": "B",
    "status": "Assigned to Contractor",
    "contractor": "Richards Disposal",
    "rowid": "828828",
    "final_x": "3672593.63886",
    "final_y": "523652.479547",
    "longitude": "-90.09646162413283",
    "latitude": "29.934129993247012",
    "geocoded_column": {
      "latitude": "29.934129993247012",
      "longitude": "-90.09646162413283"
    }
  },
  {
    "service_request": "2021-828825",
    "request_type": "Trash/Recycling",
    "request_reason": "Illegal Dumping",
    "date_created": "2021-10-03T11:46:15.000",
    "date_modified": "2021-10-03T11:46:44.000",
    "request_status": "Pending",
    "responsible_agency": "Department of Sanitation",
    "final_address": "1434 St Andrew St",
    "address_councildis": "B",
    "status": "Pending",
    "rowid": "828825",
    "final_x": "3678618.71541",
    "final_y": "523589.703419",
    "longitude": "-90.07744284298361",
    "latitude": "29.93377717299945",
    "geocoded_column": {
      "latitude": "29.93377717299945",
      "longitude": "-90.07744284298361"
    }
  },
  {
    "service_request": "2021-828824",
    "request_type": "Trash/Recycling",
    "request_reason": "Replace Trash Cart",
    "date_created": "2021-10-03T11:35:08.000",
    "date_modified": "2021-10-03T11:35:08.000",
    "request_status": "Pending",
    "responsible_agency": "Department of Sanitation",
    "final_address": "2109 Calhoun St",
    "address_councildis": "A",
    "status": "Assigned to Contractor",
    "contractor": "Richards Disposal",
    "rowid": "828824",
    "final_x": "3665704.4633",
    "final_y": "524808.935676",
    "longitude": "-90.11817187313292",
    "latitude": "29.937512560249548",
    "geocoded_column": {
      "latitude": "29.937512560249548",
      "longitude": "-90.11817187313292"
    }
  },
  {
    "service_request": "2021-828823",
    "request_type": "Abandoned Vehicles",
    "request_reason": "Abandoned/Junk Vehicles",
    "date_created": "2021-10-03T11:35:04.000",
    "date_modified": "2021-10-03T11:35:04.000",
    "request_status": "Pending",
    "responsible_agency": "Department of Public Works",
    "final_address": "4910 Haik Dr",
    "address_councildis": "D",
    "status": "Pending",
    "rowid": "828823",
    "final_x": "3681925.72424",
    "final_y": "550740.479893",
    "longitude": "-90.06605480385542",
    "latitude": "30.00833234339459",
    "geocoded_column": {
      "latitude": "30.00833234339459",
      "longitude": "-90.06605480385542"
    }
  },
  {
    "service_request": "2021-828821",
    "request_type": "Abandoned Vehicles",
    "request_reason": "Abandoned/Junk Vehicles",
    "date_created": "2021-10-03T11:22:25.000",
    "date_modified": "2021-10-03T11:22:25.000",
    "request_status": "Pending",
    "responsible_agency": "Department of Public Works",
    "final_address": "1020 Port St",
    "address_councildis": "C",
    "status": "Pending",
    "rowid": "828821",
    "final_x": "3687308.46332",
    "final_y": "536149.175559",
    "longitude": "-90.04956556395362",
    "latitude": "29.96804667515002",
    "geocoded_column": {
      "latitude": "29.96804667515002",
      "longitude": "-90.04956556395362"
    }
  },
  {
    "service_request": "2021-828820",
    "request_type": "Trash/Recycling",
    "request_reason": "MIssed Recycling Pick-Up",
    "date_created": "2021-10-03T10:44:47.000",
    "date_modified": "2021-10-03T10:44:48.000",
    "request_status": "Pending",
    "responsible_agency": "Department of Sanitation",
    "final_address": "1111 Shirley Dr",
    "address_councildis": "C",
    "status": "Assigned to Contractor",
    "contractor": "Richards Disposal",
    "rowid": "828820",
    "final_x": "3693048.87305",
    "final_y": "527209.981119",
    "longitude": "-90.03175788517305",
    "latitude": "29.94328891987638",
    "geocoded_column": {
      "latitude": "29.94328891987638",
      "longitude": "-90.03175788517305"
    }
  },
  {
    "service_request": "2021-828819",
    "request_type": "Trash/Recycling",
    "request_reason": "Missed Trash Pick-Up",
    "date_created": "2021-10-03T10:42:06.000",
    "date_modified": "2021-10-03T10:42:06.000",
    "request_status": "Pending",
    "responsible_agency": "Department of Sanitation",
    "final_address": "6824 Louis Xiv St",
    "address_councildis": "A",
    "status": "Assigned to Contractor",
    "contractor": "Metro Disposal",
    "rowid": "828819",
    "final_x": "3668493.68922",
    "final_y": "552928.129751",
    "longitude": "-90.10841705341161",
    "latitude": "30.014749248448318",
    "geocoded_column": {
      "latitude": "30.014749248448318",
      "longitude": "-90.10841705341161"
    }
  },
  {
    "service_request": "2021-828818",
    "request_type": "Trash/Recycling",
    "request_reason": "MIssed Recycling Pick-Up",
    "date_created": "2021-10-03T10:39:32.000",
    "date_modified": "2021-10-03T10:39:32.000",
    "request_status": "Pending",
    "responsible_agency": "Department of Sanitation",
    "final_address": "1518 First St",
    "address_councildis": "B",
    "status": "Assigned to Contractor",
    "contractor": "Richards Disposal",
    "rowid": "828818",
    "final_x": "3677116.83842",
    "final_y": "522905.006971",
    "longitude": "-90.08220780251573",
    "latitude": "29.93193965915099",
    "geocoded_column": {
      "latitude": "29.93193965915099",
      "longitude": "-90.08220780251573"
    }
  },
  {
    "service_request": "2021-828817",
    "request_type": "Trash/Recycling",
    "request_reason": "Missed Trash Pick-Up",
    "date_created": "2021-10-03T10:37:59.000",
    "date_modified": "2021-10-03T10:37:59.000",
    "request_status": "Pending",
    "responsible_agency": "Department of Sanitation",
    "final_address": "1518 First St",
    "address_councildis": "B",
    "status": "Assigned to Contractor",
    "contractor": "Richards Disposal",
    "rowid": "828817",
    "final_x": "3677116.83842",
    "final_y": "522905.006971",
    "longitude": "-90.08220780251573",
    "latitude": "29.93193965915099",
    "geocoded_column": {
      "latitude": "29.93193965915099",
      "longitude": "-90.08220780251573"
    }
  },
  {
    "service_request": "2021-828816",
    "request_type": "Trash/Recycling",
    "request_reason": "Missed Trash Pick-Up",
    "date_created": "2021-10-03T10:37:01.000",
    "date_modified": "2021-10-03T10:37:02.000",
    "request_status": "Pending",
    "responsible_agency": "Department of Sanitation",
    "final_address": "7832 Lafourche St",
    "address_councildis": "E",
    "status": "Assigned to Contractor",
    "contractor": "Metro Disposal",
    "rowid": "828816",
    "final_x": "3709685.13803",
    "final_y": "566299.272355",
    "longitude": "-89.97777345907953",
    "latitude": "30.050239505840572",
    "geocoded_column": {
      "latitude": "30.050239505840572",
      "longitude": "-89.97777345907953"
    }
  },
  {
    "service_request": "2021-828815",
    "request_type": "Trash/Recycling",
    "request_reason": "Illegal Dumping",
    "date_created": "2021-10-03T10:34:17.000",
    "date_modified": "2021-10-03T10:34:17.000",
    "request_status": "Pending",
    "responsible_agency": "Department of Sanitation",
    "final_address": "FIESTA ST & HOLIDAY DR",
    "address_councildis": "C",
    "status": "Pending",
    "rowid": "828815",
    "final_x": "3698828.8",
    "final_y": "522341.58",
    "longitude": "-90.01368632248281",
    "latitude": "29.929720710311376",
    "geocoded_column": {
      "latitude": "29.929720710311376",
      "longitude": "-90.01368632248281"
    }
  },
  {
    "service_request": "2021-828814",
    "request_type": "Roads/Drainage",
    "request_reason": "Pothole",
    "date_created": "2021-10-03T10:28:01.000",
    "date_modified": "2021-10-03T10:28:01.000",
    "request_status": "Pending",
    "responsible_agency": "Department of Public Works",
    "final_address": "1518 First St",
    "address_councildis": "B",
    "status": "Pending",
    "rowid": "828814",
    "final_x": "3677116.83842",
    "final_y": "522905.006971",
    "longitude": "-90.08220780251573",
    "latitude": "29.93193965915099",
    "geocoded_column": {
      "latitude": "29.93193965915099",
      "longitude": "-90.08220780251573"
    }
  },
  {
    "service_request": "2021-828813",
    "request_type": "Trash/Recycling",
    "request_reason": "Missed Trash Pick-Up",
    "date_created": "2021-10-03T10:24:29.000",
    "date_modified": "2021-10-03T10:24:30.000",
    "request_status": "Pending",
    "responsible_agency": "Department of Sanitation",
    "final_address": "7832 Lafourche St",
    "address_councildis": "E",
    "status": "Assigned to Contractor",
    "contractor": "Metro Disposal",
    "rowid": "828813",
    "final_x": "3709685.13803",
    "final_y": "566299.272355",
    "longitude": "-89.97777345907953",
    "latitude": "30.050239505840572",
    "geocoded_column": {
      "latitude": "30.050239505840572",
      "longitude": "-89.97777345907953"
    }
  },
  {
    "service_request": "2021-828812",
    "request_type": "Trash/Recycling",
    "request_reason": "Missed Trash Pick-Up",
    "date_created": "2021-10-03T10:24:00.000",
    "date_modified": "2021-10-03T10:24:01.000",
    "request_status": "Pending",
    "responsible_agency": "Department of Sanitation",
    "final_address": "4713 W Adams Ct",
    "address_councildis": "E",
    "status": "Assigned to Contractor",
    "contractor": "Metro Disposal",
    "rowid": "828812",
    "final_x": "3718625.94501",
    "final_y": "556830.923354",
    "longitude": "-89.94987645240471",
    "latitude": "30.02391152323858",
    "geocoded_column": {
      "latitude": "30.02391152323858",
      "longitude": "-89.94987645240471"
    }
  },
  {
    "service_request": "2021-828810",
    "request_type": "Abandoned Vehicles",
    "request_reason": "Abandoned/Junk Vehicles",
    "date_created": "2021-10-03T10:06:39.000",
    "date_modified": "2021-10-03T10:06:39.000",
    "request_status": "Pending",
    "responsible_agency": "Department of Public Works",
    "final_address": "2120 St Roch Ave",
    "address_councildis": "D",
    "status": "Pending",
    "rowid": "828810",
    "final_x": "3686092.88374",
    "final_y": "540294.904011",
    "longitude": "-90.05325814002516",
    "latitude": "29.97948336858102",
    "geocoded_column": {
      "latitude": "29.97948336858102",
      "longitude": "-90.05325814002516"
    }
  },
  {
    "service_request": "2021-828809",
    "request_type": "Trash/Recycling",
    "request_reason": "Missed Trash Pick-Up",
    "date_created": "2021-10-03T09:47:44.000",
    "date_modified": "2021-10-03T09:47:44.000",
    "request_status": "Pending",
    "responsible_agency": "Department of Sanitation",
    "final_address": "702 Governor Nicholls St",
    "address_councildis": "C",
    "status": "Assigned to Contractor",
    "contractor": "Empire Services",
    "rowid": "828809",
    "final_x": "3683553.42825",
    "final_y": "533952.850757",
    "longitude": "-90.06150107568942",
    "latitude": "29.962122683438583",
    "geocoded_column": {
      "latitude": "29.962122683438583",
      "longitude": "-90.06150107568942"
    }
  },
  {
    "service_request": "2021-828807",
    "request_type": "Trash/Recycling",
    "request_reason": "Illegal Dumping",
    "date_created": "2021-10-03T09:30:15.000",
    "date_modified": "2021-10-03T09:30:15.000",
    "request_status": "Pending",
    "responsible_agency": "Department of Sanitation",
    "final_address": "CHARBONNET ST & FLORIDA AVE",
    "address_councildis": "E",
    "status": "Pending",
    "rowid": "828807",
    "final_x": "3700244.0",
    "final_y": "539615.38",
    "longitude": "-90.00858837130646",
    "latitude": "29.977172646452466",
    "geocoded_column": {
      "latitude": "29.977172646452466",
      "longitude": "-90.00858837130646"
    }
  },
  {
    "service_request": "2021-828806",
    "request_type": "Trash/Recycling",
    "request_reason": "Illegal Dumping",
    "date_created": "2021-10-03T09:14:14.000",
    "date_modified": "2021-10-03T09:14:14.000",
    "request_status": "Pending",
    "responsible_agency": "Department of Sanitation",
    "final_address": "1500 BLK Adams St",
    "address_councildis": "A",
    "status": "Pending",
    "rowid": "828806",
    "final_x": "3663879.76669",
    "final_y": "528288.69321",
    "longitude": "-90.12381663240991",
    "latitude": "29.947133863429766",
    "geocoded_column": {
      "latitude": "29.947133863429766",
      "longitude": "-90.12381663240991"
    }
  },
  {
    "service_request": "2021-828804",
    "request_type": "Abandoned Vehicles",
    "request_reason": "Abandoned/Junk Vehicles",
    "date_created": "2021-10-03T08:51:28.000",
    "date_modified": "2021-10-03T08:51:28.000",
    "request_status": "Pending",
    "responsible_agency": "Department of Public Works",
    "final_address": "4910 Haik Dr",
    "address_councildis": "D",
    "status": "Pending",
    "rowid": "828804",
    "final_x": "3681925.72424",
    "final_y": "550740.479893",
    "longitude": "-90.06605480385542",
    "latitude": "30.00833234339459",
    "geocoded_column": {
      "latitude": "30.00833234339459",
      "longitude": "-90.06605480385542"
    }
  },
  {
    "service_request": "2021-828802",
    "request_type": "Property Maintenance",
    "request_reason": "Property Maintenance",
    "date_created": "2021-10-03T08:47:34.000",
    "date_modified": "2021-10-03T08:47:34.000",
    "request_status": "Pending",
    "responsible_agency": "Department of Code Enforcement",
    "final_address": "3117 Industrial Ct",
    "address_councildis": "D",
    "status": "Pending",
    "rowid": "828802",
    "final_x": "3689792.86499",
    "final_y": "538417.148233",
    "longitude": "-90.04163901662666",
    "latitude": "29.974206032002165",
    "geocoded_column": {
      "latitude": "29.974206032002165",
      "longitude": "-90.04163901662666"
    }
  },
  {
    "service_request": "2021-828801",
    "request_type": "Property Maintenance",
    "request_reason": "Property Maintenance",
    "date_created": "2021-10-03T08:43:56.000",
    "date_modified": "2021-10-03T08:43:56.000",
    "request_status": "Pending",
    "responsible_agency": "Department of Code Enforcement",
    "final_address": "2527 Feliciana St",
    "address_councildis": "D",
    "status": "Pending",
    "rowid": "828801",
    "final_x": "3690143.02614",
    "final_y": "541558.73934",
    "longitude": "-90.0404211765885",
    "latitude": "29.98283343245722",
    "geocoded_column": {
      "latitude": "29.98283343245722",
      "longitude": "-90.0404211765885"
    }
  },
  {
    "service_request": "2021-828800",
    "request_type": "Roads/Drainage",
    "request_reason": "Street Flooding / Drainage",
    "date_created": "2021-10-03T08:35:39.000",
    "date_modified": "2021-10-03T08:35:39.000",
    "request_status": "Pending",
    "responsible_agency": "Department of Public Works",
    "final_address": "3117 N Dorgenois St",
    "address_councildis": "D",
    "status": "Pending",
    "rowid": "828800",
    "final_x": "3690487.70736",
    "final_y": "541278.056652",
    "longitude": "-90.03934251456093",
    "latitude": "29.982050956867518",
    "geocoded_column": {
      "latitude": "29.982050956867518",
      "longitude": "-90.03934251456093"
    }
  },
  {
    "service_request": "2021-828799",
    "request_type": "Trash/Recycling",
    "request_reason": "Missed Trash Pick-Up",
    "date_created": "2021-10-03T08:18:44.000",
    "date_modified": "2021-10-03T08:18:44.000",
    "request_status": "Pending",
    "responsible_agency": "Department of Sanitation",
    "final_address": "9037 Green St",
    "address_councildis": "A",
    "status": "Assigned to Contractor",
    "contractor": "Richards Disposal",
    "rowid": "828799",
    "final_x": "3660614.4905",
    "final_y": "532039.712067",
    "longitude": "-90.13400242875093",
    "latitude": "29.957542331551803",
    "geocoded_column": {
      "latitude": "29.957542331551803",
      "longitude": "-90.13400242875093"
    }
  },
  {
    "service_request": "2021-828797",
    "request_type": "Traffic Signals/Signs/Striping/Streetlights",
    "request_reason": "Street Light Outage/Malfunction",
    "date_created": "2021-10-03T08:10:34.000",
    "date_modified": "2021-10-03T08:10:35.000",
    "request_status": "Pending",
    "responsible_agency": "Department of Public Works",
    "final_address": "59 Gull St",
    "address_councildis": "D",
    "status": "Pending",
    "contractor": "Royal Engineering",
    "rowid": "828797",
    "final_x": "3674934.79841",
    "final_y": "555859.736409",
    "longitude": "-90.08796557062428",
    "latitude": "30.022619210365757",
    "geocoded_column": {
      "latitude": "30.022619210365757",
      "longitude": "-90.08796557062428"
    }
  },
  {
    "service_request": "2021-828796",
    "request_type": "Traffic Signals/Signs/Striping/Streetlights",
    "request_reason": "Traffic Signal Malfunctioning/Damaged",
    "date_created": "2021-10-03T08:09:22.000",
    "date_modified": "2021-10-03T08:09:22.000",
    "request_status": "Pending",
    "responsible_agency": "Department of Public Works",
    "final_address": "S CLAIBORNE AVE & S CARROLLTON AVE",
    "address_councildis": "A",
    "status": "Pending",
    "rowid": "828796",
    "final_x": "3664835.3",
    "final_y": "531467.18",
    "longitude": "-90.12069343480607",
    "latitude": "29.955845903907996",
    "geocoded_column": {
      "latitude": "29.955845903907996",
      "longitude": "-90.12069343480607"
    }
  },
  {
    "service_request": "2021-828795",
    "request_type": "Trash/Recycling",
    "request_reason": "Missed Trash Pick-Up",
    "date_created": "2021-10-03T08:07:44.000",
    "date_modified": "2021-10-03T08:07:45.000",
    "request_status": "Pending",
    "responsible_agency": "Department of Sanitation",
    "final_address": "2416 Pine St",
    "address_councildis": "A",
    "status": "Assigned to Contractor",
    "contractor": "Richards Disposal",
    "rowid": "828795",
    "final_x": "3666408.1586",
    "final_y": "530516.925378",
    "longitude": "-90.11575876160433",
    "latitude": "29.953187150416028",
    "geocoded_column": {
      "latitude": "29.953187150416028",
      "longitude": "-90.11575876160433"
    }
  },
  {
    "service_request": "2021-828793",
    "request_type": "Trash/Recycling",
    "request_reason": "Missed Trash Pick-Up",
    "date_created": "2021-10-03T07:44:14.000",
    "date_modified": "2021-10-03T07:44:15.000",
    "request_status": "Pending",
    "responsible_agency": "Department of Sanitation",
    "final_address": "5826 Clara St",
    "address_councildis": "A",
    "status": "Assigned to Contractor",
    "contractor": "Richards Disposal",
    "rowid": "828793",
    "final_x": "3666914.57978",
    "final_y": "525225.735933",
    "longitude": "-90.11433743670578",
    "latitude": "29.938623284611396",
    "geocoded_column": {
      "latitude": "29.938623284611396",
      "longitude": "-90.11433743670578"
    }
  },
  {
    "service_request": "2021-828792",
    "request_type": "Trash/Recycling",
    "request_reason": "Illegal Dumping",
    "date_created": "2021-10-03T07:41:26.000",
    "date_modified": "2021-10-03T07:41:26.000",
    "request_status": "Pending",
    "responsible_agency": "Department of Sanitation",
    "final_address": "1201 Farragut St",
    "address_councildis": "C",
    "status": "Pending",
    "rowid": "828792",
    "final_x": "3692326.33347",
    "final_y": "526881.288766",
    "longitude": "-90.03405088407331",
    "latitude": "29.94240767668299",
    "geocoded_column": {
      "latitude": "29.94240767668299",
      "longitude": "-90.03405088407331"
    }
  },
  {
    "service_request": "2021-828790",
    "request_type": "COVID-19",
    "request_reason": "COVID-19 Business Non-Compliance",
    "date_created": "2021-10-03T04:10:43.000",
    "date_modified": "2021-10-03T04:10:43.000",
    "request_status": "Pending",
    "responsible_agency": "Safety and Permits",
    "final_address": "102 Henderson St Lot J",
    "address_councildis": "B",
    "status": "Pending",
    "rowid": "828790",
    "final_x": "3683421.14761",
    "final_y": "524049.659324",
    "longitude": "-90.06226570283738",
    "latitude": "29.934896291436786",
    "geocoded_column": {
      "latitude": "29.934896291436786",
      "longitude": "-90.06226570283738"
    }
  },
  {
    "service_request": "2021-828789",
    "request_type": "Abandoned Vehicles",
    "request_reason": "Abandoned/Junk Vehicles",
    "date_created": "2021-10-03T00:25:58.000",
    "date_modified": "2021-10-03T00:25:58.000",
    "request_status": "Pending",
    "responsible_agency": "Department of Public Works",
    "final_address": "1531 Dublin St",
    "address_councildis": "A",
    "status": "Pending",
    "rowid": "828789",
    "final_x": "3662610.30983",
    "final_y": "529546.243649",
    "longitude": "-90.12778302917465",
    "latitude": "29.950628507891388",
    "geocoded_column": {
      "latitude": "29.950628507891388",
      "longitude": "-90.12778302917465"
    }
  },
  {
    "service_request": "2021-828788",
    "request_type": "Trash/Recycling",
    "request_reason": "Missed Trash Pick-Up",
    "date_created": "2021-10-03T00:19:59.000",
    "date_modified": "2021-10-03T00:20:00.000",
    "request_status": "Pending",
    "responsible_agency": "Department of Sanitation",
    "final_address": "3131 Dickens Dr, New Orleans, Louisiana, 70131",
    "address_councildis": "C",
    "status": "Assigned to Contractor",
    "contractor": "Richards Disposal",
    "rowid": "828788",
    "final_x": "3708272.32113",
    "final_y": "518685.824119",
    "longitude": "-89.98401095336939",
    "latitude": "29.919366233392076",
    "geocoded_column": {
      "latitude": "29.919366233392076",
      "longitude": "-89.98401095336939"
    }
  },
  {
    "service_request": "2021-828785",
    "request_type": "Roads/Drainage",
    "request_reason": "Accessibility Ramps, Curbs and Sidewalk Repair",
    "date_created": "2021-10-02T22:38:19.000",
    "date_modified": "2021-10-02T22:38:19.000",
    "request_status": "Pending",
    "responsible_agency": "Department of Public Works",
    "final_address": "1837 Dublin St",
    "address_councildis": "A",
    "status": "Pending",
    "rowid": "828785",
    "final_x": "3663324.06208",
    "final_y": "530338.03469",
    "longitude": "-90.1255030026309",
    "latitude": "29.952785009860396",
    "geocoded_column": {
      "latitude": "29.952785009860396",
      "longitude": "-90.1255030026309"
    }
  },
  {
    "service_request": "2021-828784",
    "request_type": "Trash/Recycling",
    "request_reason": "Missed Trash Pick-Up",
    "date_created": "2021-10-02T22:32:11.000",
    "date_modified": "2021-10-02T22:32:12.000",
    "request_status": "Pending",
    "responsible_agency": "Department of Sanitation",
    "final_address": "8015 Plum St",
    "address_councildis": "A",
    "status": "Assigned to Contractor",
    "contractor": "Richards Disposal",
    "rowid": "828784",
    "final_x": "3662458.64474",
    "final_y": "528448.2464",
    "longitude": "-90.1282983721216",
    "latitude": "29.947613754758624",
    "geocoded_column": {
      "latitude": "29.947613754758624",
      "longitude": "-90.1282983721216"
    }
  },
  {
    "service_request": "2021-828783",
    "request_type": "COVID-19",
    "request_reason": "COVID-19 Business Non-Compliance",
    "date_created": "2021-10-02T22:27:15.000",
    "date_modified": "2021-10-02T22:27:16.000",
    "request_status": "Pending",
    "responsible_agency": "Safety and Permits",
    "final_address": "7839 St Charles Ave",
    "address_councildis": "A",
    "status": "Pending",
    "rowid": "828783",
    "final_x": "3661215.3856",
    "final_y": "526327.831486",
    "longitude": "-90.13229402275283",
    "latitude": "29.941819182034862",
    "geocoded_column": {
      "latitude": "29.941819182034862",
      "longitude": "-90.13229402275283"
    }
  },
  {
    "service_request": "2021-828782",
    "request_type": "Safety & Permits",
    "request_reason": "Licenses & Permits",
    "date_created": "2021-10-02T22:25:25.000",
    "date_modified": "2021-10-02T22:25:25.000",
    "request_status": "Pending",
    "responsible_agency": "Safety and Permits",
    "final_address": "510 Race St",
    "address_councildis": "B",
    "status": "Pending",
    "rowid": "828782",
    "final_x": "3682125.13999",
    "final_y": "523331.493179",
    "longitude": "-90.06638224884271",
    "latitude": "29.932961039539865",
    "geocoded_column": {
      "latitude": "29.932961039539865",
      "longitude": "-90.06638224884271"
    }
  },
  {
    "service_request": "2021-828781",
    "request_type": "Trash/Recycling",
    "request_reason": "Replace Trash Cart",
    "date_created": "2021-10-02T21:50:52.000",
    "date_modified": "2021-10-02T21:50:53.000",
    "request_status": "Pending",
    "responsible_agency": "Department of Sanitation",
    "final_address": "1704 Spain St",
    "address_councildis": "D",
    "status": "Assigned to Contractor",
    "contractor": "Metro Disposal",
    "rowid": "828781",
    "final_x": "3685917.19996",
    "final_y": "538715.802953",
    "longitude": "-90.05386870883589",
    "latitude": "29.97514679094592",
    "geocoded_column": {
      "latitude": "29.97514679094592",
      "longitude": "-90.05386870883589"
    }
  },
  {
    "service_request": "2021-828779",
    "request_type": "Health Related Questions",
    "request_reason": "Noise Ordinance Complaint",
    "date_created": "2021-10-02T20:43:06.000",
    "date_modified": "2021-10-02T20:43:06.000",
    "request_status": "Pending",
    "responsible_agency": "Health Department",
    "final_address": "239 Decatur St",
    "address_councildis": "C",
    "status": "Pending",
    "rowid": "828779",
    "final_x": "3682195.63317",
    "final_y": "530830.069826",
    "longitude": "-90.06589786183099",
    "latitude": "29.95357746948798",
    "geocoded_column": {
      "latitude": "29.95357746948798",
      "longitude": "-90.06589786183099"
    }
  },
  {
    "service_request": "2021-828778",
    "request_type": "Trash/Recycling",
    "request_reason": "Replace Trash Cart",
    "date_created": "2021-10-02T20:31:49.000",
    "date_modified": "2021-10-02T20:31:49.000",
    "request_status": "Pending",
    "responsible_agency": "Department of Sanitation",
    "final_address": "1819 St Ferdinand St",
    "address_councildis": "D",
    "status": "Assigned to Contractor",
    "contractor": "Metro Disposal",
    "rowid": "828778",
    "final_x": "3688470.11395",
    "final_y": "539081.416842",
    "longitude": "-90.04579298596846",
    "latitude": "29.97607347083747",
    "geocoded_column": {
      "latitude": "29.97607347083747",
      "longitude": "-90.04579298596846"
    }
  },
  {
    "service_request": "2021-828777",
    "request_type": "Trash/Recycling",
    "request_reason": "Missed Trash Pick-Up",
    "date_created": "2021-10-02T20:15:27.000",
    "date_modified": "2021-10-02T20:15:28.000",
    "request_status": "Pending",
    "responsible_agency": "Department of Sanitation",
    "final_address": "81 Neron Pl",
    "address_councildis": "A",
    "status": "Assigned to Contractor",
    "contractor": "Richards Disposal",
    "rowid": "828777",
    "final_x": "3666098.25524",
    "final_y": "529983.516417",
    "longitude": "-90.1167551885446",
    "latitude": "29.95172950042253",
    "geocoded_column": {
      "latitude": "29.95172950042253",
      "longitude": "-90.1167551885446"
    }
  },
  {
    "service_request": "2021-828776",
    "request_type": "COVID-19",
    "request_reason": "COVID-19 Business Non-Compliance",
    "date_created": "2021-10-02T19:54:13.000",
    "date_modified": "2021-10-02T19:54:14.000",
    "request_status": "Pending",
    "responsible_agency": "Safety and Permits",
    "final_address": "610 S Peters St",
    "address_councildis": "B",
    "status": "Pending",
    "rowid": "828776",
    "final_x": "3682271.44098",
    "final_y": "528416.819264",
    "longitude": "-90.06574278974165",
    "latitude": "29.946939539599946",
    "geocoded_column": {
      "latitude": "29.946939539599946",
      "longitude": "-90.06574278974165"
    }
  },
  {
    "service_request": "2021-828775",
    "request_type": "COVID-19",
    "request_reason": "COVID-19 Business Non-Compliance",
    "date_created": "2021-10-02T19:51:58.000",
    "date_modified": "2021-10-02T19:51:59.000",
    "request_status": "Pending",
    "responsible_agency": "Safety and Permits",
    "final_address": "1412 S Rampart St",
    "address_councildis": "B",
    "status": "Pending",
    "rowid": "828775",
    "final_x": "3677890.0845",
    "final_y": "526584.657598",
    "longitude": "-90.07963964846932",
    "latitude": "29.942034249304456",
    "geocoded_column": {
      "latitude": "29.942034249304456",
      "longitude": "-90.07963964846932"
    }
  },
  {
    "service_request": "2021-828774",
    "request_type": "Roads/Drainage",
    "request_reason": "Street Subsidence (Sinking)",
    "date_created": "2021-10-02T19:47:55.000",
    "date_modified": "2021-10-02T19:47:55.000",
    "request_status": "Pending",
    "responsible_agency": "Department of Public Works",
    "final_address": "1023 Richard St",
    "address_councildis": "B",
    "status": "Pending",
    "rowid": "828774",
    "final_x": "3680213.45237",
    "final_y": "523110.398075",
    "longitude": "-90.07242498608905",
    "latitude": "29.932411083454486",
    "geocoded_column": {
      "latitude": "29.932411083454486",
      "longitude": "-90.07242498608905"
    }
  },
  {
    "service_request": "2021-828772",
    "request_type": "Trash/Recycling",
    "request_reason": "Missed Trash Pick-Up",
    "date_created": "2021-10-02T19:36:25.000",
    "date_modified": "2021-10-02T19:36:26.000",
    "request_status": "Pending",
    "responsible_agency": "Department of Sanitation",
    "final_address": "1820 Jefferson Ave",
    "address_councildis": "A",
    "status": "Assigned to Contractor",
    "contractor": "Richards Disposal",
    "rowid": "828772",
    "final_x": "3667451.59322",
    "final_y": "522430.65465",
    "longitude": "-90.11273602330778",
    "latitude": "29.930921985112423",
    "geocoded_column": {
      "latitude": "29.930921985112423",
      "longitude": "-90.11273602330778"
    }
  },
  {
    "service_request": "2021-828771",
    "request_type": "Trash/Recycling",
    "request_reason": "Order Trash Cart",
    "date_created": "2021-10-02T19:31:10.000",
    "date_modified": "2021-10-02T19:31:11.000",
    "request_status": "Pending",
    "responsible_agency": "Department of Sanitation",
    "final_address": "210 Oakmont Dr",
    "address_councildis": "E",
    "status": "Assigned to Contractor",
    "contractor": "Metro Disposal",
    "rowid": "828771",
    "final_x": "3720417.36985",
    "final_y": "562821.16688",
    "longitude": "-89.94398646801724",
    "latitude": "30.040322672457364",
    "geocoded_column": {
      "latitude": "30.040322672457364",
      "longitude": "-89.94398646801724"
    }
  },
  {
    "service_request": "2021-828769",
    "request_type": "Property Maintenance",
    "request_reason": "Property Maintenance",
    "date_created": "2021-10-02T19:16:49.000",
    "date_modified": "2021-10-02T19:16:49.000",
    "request_status": "Pending",
    "responsible_agency": "Department of Code Enforcement",
    "final_address": "7812 Mill St",
    "address_councildis": "E",
    "status": "Pending",
    "rowid": "828769",
    "final_x": "3696341.76189",
    "final_y": "559650.311645",
    "longitude": "-90.02018768671599",
    "latitude": "30.032384733422987",
    "geocoded_column": {
      "latitude": "30.032384733422987",
      "longitude": "-90.02018768671599"
    }
  },
  {
    "service_request": "2021-828768",
    "request_type": "Trash/Recycling",
    "request_reason": "Missed Trash Pick-Up",
    "date_created": "2021-10-02T19:15:42.000",
    "date_modified": "2021-10-02T19:15:43.000",
    "request_status": "Pending",
    "responsible_agency": "Department of Sanitation",
    "final_address": "6135 Memphis St",
    "address_councildis": "A",
    "status": "Assigned to Contractor",
    "contractor": "Metro Disposal",
    "rowid": "828768",
    "final_x": "3669338.60058",
    "final_y": "548136.922514",
    "longitude": "-90.10590969185229",
    "latitude": "30.00155024499763",
    "geocoded_column": {
      "latitude": "30.00155024499763",
      "longitude": "-90.10590969185229"
    }
  },
  {
    "service_request": "2021-828764",
    "request_type": "Abandoned Vehicles",
    "request_reason": "Vehicle Blocking Your Driveway",
    "date_created": "2021-10-02T18:38:53.000",
    "date_modified": "2021-10-02T18:38:53.000",
    "request_status": "Pending",
    "responsible_agency": "Department of Public Works",
    "final_address": "3027 St Claude Ave",
    "address_councildis": "C",
    "status": "Pending",
    "rowid": "828764",
    "final_x": "3688688.05308",
    "final_y": "536189.252231",
    "longitude": "-90.0452073581939",
    "latitude": "29.968114299692743",
    "geocoded_column": {
      "latitude": "29.968114299692743",
      "longitude": "-90.0452073581939"
    }
  },
  {
    "service_request": "2021-828763",
    "request_type": "Trash/Recycling",
    "request_reason": "Missed Trash Pick-Up",
    "date_created": "2021-10-02T18:38:35.000",
    "date_modified": "2021-10-02T18:38:36.000",
    "request_status": "Pending",
    "responsible_agency": "Department of Sanitation",
    "final_address": "2729 Edna St",
    "address_councildis": "D",
    "status": "Assigned to Contractor",
    "contractor": "Metro Disposal",
    "rowid": "828763",
    "final_x": "3689619.9638",
    "final_y": "545327.968975",
    "longitude": "-90.04193909236174",
    "latitude": "29.993213679326495",
    "geocoded_column": {
      "latitude": "29.993213679326495",
      "longitude": "-90.04193909236174"
    }
  },
  {
    "service_request": "2021-828762",
    "request_type": "Mosquito, Termite & Rodent Control",
    "request_reason": "Mosquito Complaint",
    "date_created": "2021-10-02T18:37:23.000",
    "date_modified": "2021-10-02T18:37:23.000",
    "request_status": "Pending",
    "responsible_agency": "Mosquito, Termite & Rodent Control Board",
    "final_address": "612 Moss St",
    "address_councildis": "A",
    "status": "Pending",
    "rowid": "828762",
    "final_x": "3674346.33147",
    "final_y": "538326.226953",
    "longitude": "-90.09042594106351",
    "latitude": "29.974425777838345",
    "geocoded_column": {
      "latitude": "29.974425777838345",
      "longitude": "-90.09042594106351"
    }
  },
  {
    "service_request": "2021-828759",
    "request_type": "Trash/Recycling",
    "request_reason": "Order Recycling Cart",
    "date_created": "2021-10-02T18:27:40.000",
    "date_modified": "2021-10-02T18:27:40.000",
    "request_status": "Pending",
    "responsible_agency": "Department of Sanitation",
    "final_address": "417 26Th St",
    "address_councildis": "A",
    "status": "Pending",
    "rowid": "828759",
    "final_x": "3664703.47277",
    "final_y": "550008.358868",
    "longitude": "-90.12048999933609",
    "latitude": "30.006831759008616",
    "geocoded_column": {
      "latitude": "30.006831759008616",
      "longitude": "-90.12048999933609"
    }
  },