[
  {
    "service_request": "2023-1057289",
    "request_type": "Trash/Recycling",
    "request_reason": "Start Trash Service",
    "date_created": "2023-12-25T02:03:53.000",
    "date_modified": "2023-12-25T02:03:54.000",
    "request_status": "Pending",
    "responsible_agency": "Department of Sanitation",
    "final_address": "208 Chartres St",
    "address_councildis": "C",
    "status": "Assigned to Contractor",
    "contractor": "Empire Services",
    "rowid": "1057289",
    "final_x": "3681800.4758",
    "final_y": "530837.645698",
    "longitude": "-90.0671453372047",
    "latitude": "29.95361031318125",
    "geocoded_column": {
      "latitude": "29.95361031318125",
      "longitude": "-90.0671453372047"
    }
  },
  {
    "service_request": "2023-1057288",
    "request_type": "Roads/Drainage",
    "request_reason": "Pothole",
    "date_created": "2023-12-25T00:22:59.000",
    "date_modified": "2023-12-25T00:22:59.000",
    "request_status": "Pending",
    "responsible_agency": "Department of Public Works",
    "final_address": "1200 BLK Amelia St",
    "address_councildis": "B",
    "status": "Pending",
    "rowid": "1057288",
    "final_x": "3673521.46558",
    "final_y": "519660.816109",
    "longitude": "-90.09366883741032",
    "latitude": "29.923126634409968",
    "geocoded_column": {
      "latitude": "29.923126634409968",
      "longitude": "-90.09366883741032"
    }
  },
  {
    "service_request": "2023-1057287",
    "request_type": "Roads/Drainage",
    "request_reason": "Street Flooding / Drainage",
    "date_created": "2023-12-24T23:32:54.000",
    "date_modified": "2023-12-24T23:32:54.000",
    "request_status": "Pending",
    "responsible_agency": "Department of Public Works",
    "final_address": "1101 Arabella St",
    "address_councildis": "A",
    "status": "Pending",
    "rowid": "1057287",
    "final_x": "3666090.44468",
    "final_y": "519955.61036",
    "longitude": "-90.1171159317486",
    "latitude": "29.924156194399767",
    "geocoded_column": {
      "latitude": "29.924156194399767",
      "longitude": "-90.1171159317486"
    }
  },
  {
    "service_request": "2023-1057286",
    "request_type": "Trash/Recycling",
    "request_reason": "Request a Large Item Pick Up",
    "date_created": "2023-12-24T22:38:46.000",
    "date_modified": "2023-12-24T22:38:47.000",
    "request_status": "Pending",
    "responsible_agency": "Department of Sanitation",
    "final_address": "2019 Easter Ln",
    "address_councildis": "C",
    "status": "Assigned to Contractor",
    "contractor": "Richards Disposal",
    "rowid": "1057286",
    "final_x": "3699453.84183",
    "final_y": "524027.80902",
    "longitude": "-90.01165178742752",
    "latitude": "29.93433744893314",
    "geocoded_column": {
      "latitude": "29.93433744893314",
      "longitude": "-90.01165178742752"
    }
  },
  {
    "service_request": "2023-1057285",
    "request_type": "Property Maintenance",
    "request_reason": "Property Maintenance",
    "date_created": "2023-12-24T20:51:42.000",
    "date_modified": "2023-12-24T20:51:42.000",
    "request_status": "Pending",
    "responsible_agency": "Department of Code Enforcement",
    "final_address": "1019 Henry Clay Ave",
    "address_councildis": "A",
    "status": "Pending",
    "rowid": "1057285",
    "final_x": "3664148.3689",
    "final_y": "520305.257592",
    "longitude": "-90.12323475380958",
    "latitude": "29.925174152513648",
    "geocoded_column": {
      "latitude": "29.925174152513648",
      "longitude": "-90.12323475380958"
    }
  },
  {
    "service_request": "2023-1057284",
    "request_type": "Trash/Recycling",
    "request_reason": "Request a Large Item Pick Up",
    "date_created": "2023-12-24T19:16:51.000",
    "date_modified": "2023-12-24T19:16:52.000",
    "request_status": "Pending",
    "responsible_agency": "Department of Sanitation",
    "final_address": "47 Marywood Ct",
    "address_councildis": "E",
    "status": "Assigned to Contractor",
    "contractor": "Waste Pro",
    "rowid": "1057284",
    "final_x": "3712179.97656",
    "final_y": "567072.598628",
    "longitude": "-89.96985916897015",
    "latitude": "30.052284449063876",
    "geocoded_column": {
      "latitude": "30.052284449063876",
      "longitude": "-89.96985916897015"
    }
  },
  {
    "service_request": "2023-1057283",
    "request_type": "Trash/Recycling",
    "request_reason": "Order Trash Cart",
    "date_created": "2023-12-24T19:07:05.000",
    "date_modified": "2023-12-24T19:07:06.000",
    "request_status": "Pending",
    "responsible_agency": "Department of Sanitation",
    "final_address": "5034 Westlake Dr",
    "address_councildis": "E",
    "status": "Assigned to Contractor",
    "contractor": "Waste Pro",
    "rowid": "1057283",
    "final_x": "3699547.07159",
    "final_y": "555840.301145",
    "longitude": "-90.01019776085151",
    "latitude": "30.02180727597572",
    "geocoded_column": {
      "latitude": "30.02180727597572",
      "longitude": "-90.01019776085151"
    }
  },
  {
    "service_request": "2023-1057282",
    "request_type": "Trash/Recycling",
    "request_reason": "Order Trash Cart",
    "date_created": "2023-12-24T19:05:44.000",
    "date_modified": "2023-12-24T19:05:45.000",
    "request_status": "Pending",
    "responsible_agency": "Department of Sanitation",
    "final_address": "5034 Westlake Dr",
    "address_councildis": "E",
    "status": "Assigned to Contractor",
    "contractor": "Waste Pro",
    "rowid": "1057282",
    "final_x": "3699547.07159",
    "final_y": "555840.301145",
    "longitude": "-90.01019776085151",
    "latitude": "30.02180727597572",
    "geocoded_column": {
      "latitude": "30.02180727597572",
      "longitude": "-90.01019776085151"
    }
  },
  {
    "service_request": "2023-1057280",
    "request_type": "Roads/Drainage",
    "request_reason": "WaterMain Break",
    "date_created": "2023-12-24T18:54:01.000",
    "date_modified": "2023-12-24T18:54:01.000",
    "request_status": "Pending",
    "responsible_agency": "Department of Public Works",
    "final_address": "6229 Pasteur Blvd",
    "address_councildis": "D",
    "status": "Pending",
    "rowid": "1057280",
    "final_x": "3682791.77244",
    "final_y": "556086.493658",
    "longitude": "-90.06313146175685",
    "latitude": "30.02300556587181",
    "geocoded_column": {
      "latitude": "30.02300556587181",
      "longitude": "-90.06313146175685"
    }
  },
  {
    "service_request": "2023-1057279",
    "request_type": "Property Maintenance",
    "request_reason": "Property Maintenance",
    "date_created": "2023-12-24T18:45:57.000",
    "date_modified": "2023-12-24T18:45:57.000",
    "request_status": "Pending",
    "responsible_agency": "Department of Code Enforcement",
    "final_address": "4726 Prytania St",
    "address_councildis": "B",
    "status": "Pending",
    "rowid": "1057279",
    "final_x": "3669560.20058",
    "final_y": "520135.70444",
    "longitude": "-90.10615701160128",
    "latitude": "29.92454967296473",
    "geocoded_column": {
      "latitude": "29.92454967296473",
      "longitude": "-90.10615701160128"
    }
  },
  {
    "service_request": "2023-1057278",
    "request_type": "Trash/Recycling",
    "request_reason": "Order Trash Cart",
    "date_created": "2023-12-24T17:59:40.000",
    "date_modified": "2023-12-24T17:59:41.000",
    "request_status": "Pending",
    "responsible_agency": "Department of Sanitation",
    "final_address": "11120 N Idlewood Ct",
    "address_councildis": "E",
    "status": "Assigned to Contractor",
    "contractor": "Waste Pro",
    "rowid": "1057278",
    "final_x": "3715983.95352",
    "final_y": "560052.233757",
    "longitude": "-89.95810237205527",
    "latitude": "30.032856284982174",
    "geocoded_column": {
      "latitude": "30.032856284982174",
      "longitude": "-89.95810237205527"
    }
  },
  {
    "service_request": "2023-1057277",
    "request_type": "Property Maintenance",
    "request_reason": "Property Maintenance",
    "date_created": "2023-12-24T17:44:22.000",
    "date_modified": "2023-12-24T17:44:22.000",
    "request_status": "Pending",
    "responsible_agency": "Department of Code Enforcement",
    "final_address": "1594 Jefferson Ave",
    "address_councildis": "A",
    "status": "Pending",
    "rowid": "1057277",
    "final_x": "3667280.95706",
    "final_y": "521402.620665",
    "longitude": "-90.11330925488824",
    "latitude": "29.928100215236533",
    "geocoded_column": {
      "latitude": "29.928100215236533",
      "longitude": "-90.11330925488824"
    }
  },
  {
    "service_request": "2023-1057276",
    "request_type": "Roads/Drainage",
    "request_reason": "Pothole",
    "date_created": "2023-12-24T15:58:46.000",
    "date_modified": "2023-12-24T15:58:46.000",
    "request_status": "Pending",
    "responsible_agency": "Department of Public Works",
    "final_address": "1312 Milan St",
    "address_councildis": "B",
    "status": "Pending",
    "rowid": "1057276",
    "final_x": "3671625.82823",
    "final_y": "520286.919608",
    "longitude": "-90.09963137110304",
    "latitude": "29.92490447494246",
    "geocoded_column": {
      "latitude": "29.92490447494246",
      "longitude": "-90.09963137110304"
    }
  },
  {
    "service_request": "2023-1057275",
    "request_type": "Roads/Drainage",
    "request_reason": "Pothole",
    "date_created": "2023-12-24T15:48:08.000",
    "date_modified": "2023-12-24T15:48:08.000",
    "request_status": "Pending",
    "responsible_agency": "Department of Public Works",
    "final_address": "1301 Constantinople St",
    "address_councildis": "B",
    "status": "Pending",
    "rowid": "1057275",
    "final_x": "3672430.66305",
    "final_y": "520250.7726",
    "longitude": "-90.09709199725775",
    "latitude": "29.924781230435865",
    "geocoded_column": {
      "latitude": "29.924781230435865",
      "longitude": "-90.09709199725775"
    }
  },
  {
    "service_request": "2023-1057274",
    "request_type": "Roads/Drainage",
    "request_reason": "Pothole",
    "date_created": "2023-12-24T15:11:50.000",
    "date_modified": "2023-12-24T15:11:50.000",
    "request_status": "Pending",
    "responsible_agency": "Department of Public Works",
    "final_address": "4216 Chestnut St",
    "address_councildis": "B",
    "status": "Pending",
    "rowid": "1057274",
    "final_x": "3671574.31393",
    "final_y": "519539.203703",
    "longitude": "-90.09981939416457",
    "latitude": "29.922850019854593",
    "geocoded_column": {
      "latitude": "29.922850019854593",
      "longitude": "-90.09981939416457"
    }
  },
  {
    "service_request": "2023-1057273",
    "request_type": "Trash/Recycling",
    "request_reason": "Order Recycling Cart",
    "date_created": "2023-12-24T14:57:05.000",
    "date_modified": "2023-12-24T14:57:05.000",
    "request_status": "Pending",
    "responsible_agency": "Department of Sanitation",
    "final_address": "829 Barracks St",
    "address_councildis": "C",
    "status": "Pending",
    "rowid": "1057273",
    "final_x": "3683416.96629",
    "final_y": "534584.643909",
    "longitude": "-90.06190986379548",
    "latitude": "29.963864061643836",
    "geocoded_column": {
      "latitude": "29.963864061643836",
      "longitude": "-90.06190986379548"
    }
  },
  {
    "service_request": "2023-1057272",
    "request_type": "Roads/Drainage",
    "request_reason": "Pothole",
    "date_created": "2023-12-24T14:51:05.000",
    "date_modified": "2023-12-24T14:51:05.000",
    "request_status": "Pending",
    "responsible_agency": "Department of Public Works",
    "final_address": "5927 Chestnut St",
    "address_councildis": "A",
    "status": "Pending",
    "rowid": "1057272",
    "final_x": "3665179.07604",
    "final_y": "519869.398712",
    "longitude": "-90.11999569598656",
    "latitude": "29.92394570684376",
    "geocoded_column": {
      "latitude": "29.92394570684376",
      "longitude": "-90.11999569598656"
    }
  },
  {
    "service_request": "2023-1057271",
    "request_type": "Roads/Drainage",
    "request_reason": "Pothole",
    "date_created": "2023-12-24T14:47:27.000",
    "date_modified": "2023-12-24T14:47:27.000",
    "request_status": "Pending",
    "responsible_agency": "Department of Public Works",
    "final_address": "6112 Magazine St",
    "address_councildis": "A",
    "status": "Pending",
    "rowid": "1057271",
    "final_x": "3663995.42183",
    "final_y": "519433.872375",
    "longitude": "-90.12374659824103",
    "latitude": "29.92278255651143",
    "geocoded_column": {
      "latitude": "29.92278255651143",
      "longitude": "-90.12374659824103"
    }
  },
  {
    "service_request": "2023-1057270",
    "request_type": "Roads/Drainage",
    "request_reason": "Pothole",
    "date_created": "2023-12-24T14:43:16.000",
    "date_modified": "2023-12-24T14:43:16.000",
    "request_status": "Pending",
    "responsible_agency": "Department of Public Works",
    "final_address": "6046 Coliseum St",
    "address_councildis": "A",
    "status": "Pending",
    "rowid": "1057270",
    "final_x": "3664623.84122",
    "final_y": "520284.018744",
    "longitude": "-90.12173454189447",
    "latitude": "29.92510193664992",
    "geocoded_column": {
      "latitude": "29.92510193664992",
      "longitude": "-90.12173454189447"
    }
  },
  {
    "service_request": "2023-1057269",
    "request_type": "Roads/Drainage",
    "request_reason": "Pothole",
    "date_created": "2023-12-24T13:58:50.000",
    "date_modified": "2023-12-24T13:58:50.000",
    "request_status": "Pending",
    "responsible_agency": "Department of Public Works",
    "final_address": "4801 Dryades St",
    "address_councildis": "B",
    "status": "Pending",
    "rowid": "1057269",
    "final_x": "3669227.17422",
    "final_y": "521828.014842",
    "longitude": "-90.10715109987298",
    "latitude": "29.92921279076926",
    "geocoded_column": {
      "latitude": "29.92921279076926",
      "longitude": "-90.10715109987298"
    }
  },
  {
    "service_request": "2023-1057268",
    "request_type": "Trash/Recycling",
    "request_reason": "Request a Large Item Pick Up",
    "date_created": "2023-12-24T12:53:10.000",
    "date_modified": "2023-12-24T12:53:11.000",
    "request_status": "Pending",
    "responsible_agency": "Department of Sanitation",
    "final_address": "426 Bermuda St",
    "address_councildis": "C",
    "status": "Assigned to Contractor",
    "contractor": "Richards Disposal",
    "rowid": "1057268",
    "final_x": "3686658.94857",
    "final_y": "530316.712514",
    "longitude": "-90.05182275085419",
    "latitude": "29.952029408288926",
    "geocoded_column": {
      "latitude": "29.952029408288926",
      "longitude": "-90.05182275085419"
    }
  },
  {
    "service_request": "2023-1057267",
    "request_type": "Trash/Recycling",
    "request_reason": "Request a Large Item Pick Up",
    "date_created": "2023-12-24T11:54:00.000",
    "date_modified": "2023-12-24T11:54:01.000",
    "request_status": "Pending",
    "responsible_agency": "Department of Sanitation",
    "final_address": "1526 Ursulines Ave",
    "address_councildis": "C",
    "status": "Assigned to Contractor",
    "contractor": "Richards Disposal",
    "rowid": "1057267",
    "final_x": "3681020.07919",
    "final_y": "535465.905158",
    "longitude": "-90.06944830429948",
    "latitude": "29.96636014011149",
    "geocoded_column": {
      "latitude": "29.96636014011149",
      "longitude": "-90.06944830429948"
    }
  },
  {
    "service_request": "2023-1057266",
    "request_type": "Mosquito, Termite & Rodent Control",
    "request_reason": "Mosquito Complaint",
    "date_created": "2023-12-24T11:28:22.000",
    "date_modified": "2023-12-24T11:28:22.000",
    "request_status": "Pending",
    "responsible_agency": "Mosquito, Termite & Rodent Control Board",
    "final_address": "7641 Anne Marie Ct",
    "address_councildis": "E",
    "status": "Pending",
    "rowid": "1057266",
    "final_x": "3717926.84575",
    "final_y": "571303.853736",
    "longitude": "-89.95153395534773",
    "latitude": "30.063729364279983",
    "geocoded_column": {
      "latitude": "30.063729364279983",
      "longitude": "-89.95153395534773"
    }
  },
  {
    "service_request": "2023-1057265",
    "request_type": "Traffic Signals/Signs/Striping/Streetlights",
    "request_reason": "Street Light Outage/Malfunction",
    "date_created": "2023-12-24T11:16:28.000",
    "date_modified": "2023-12-24T11:16:29.000",
    "request_status": "Pending",
    "responsible_agency": "Department of Public Works",
    "final_address": "GARFIELD ST & NASHVILLE AVE",
    "address_councildis": "A",
    "status": "Assigned to Contractor",
    "contractor": "Legacy Professional Services",
    "rowid": "1057265",
    "final_x": "3666039.4",
    "final_y": "521329.28",
    "longitude": "-90.11723104160323",
    "latitude": "29.92793484221563",
    "geocoded_column": {
      "latitude": "29.92793484221563",
      "longitude": "-90.11723104160323"
    }
  },
  {
    "service_request": "2023-1057264",
    "request_type": "Trash/Recycling",
    "request_reason": "Replace Trash Cart",
    "date_created": "2023-12-24T05:50:59.000",
    "date_modified": "2023-12-24T05:51:00.000",
    "request_status": "Pending",
    "responsible_agency": "Department of Sanitation",
    "final_address": "546 Joseph St",
    "address_councildis": "A",
    "status": "Assigned to Contractor",
    "contractor": "Richards Disposal",
    "rowid": "1057264",
    "final_x": "3665935.91828",
    "final_y": "518255.073782",
    "longitude": "-90.11766067073333",
    "latitude": "29.919484761639342",
    "geocoded_column": {
      "latitude": "29.919484761639342",
      "longitude": "-90.11766067073333"
    }
  },
  {
    "service_request": "2023-1057263",
    "request_type": "Property Maintenance",
    "request_reason": "Property Maintenance",
    "date_created": "2023-12-24T00:19:51.000",
    "date_modified": "2023-12-24T00:19:51.000",
    "request_status": "Pending",
    "responsible_agency": "Department of Code Enforcement",
    "final_address": "6003 Chestnut St",
    "address_councildis": "A",
    "status": "Pending",
    "rowid": "1057263",
    "final_x": "3664843.83136",
    "final_y": "519920.84268",
    "longitude": "-90.12105222985214",
    "latitude": "29.924096918512866",
    "geocoded_column": {
      "latitude": "29.924096918512866",
      "longitude": "-90.12105222985214"
    }
  },
  {
    "service_request": "2023-1057262",
    "request_type": "Roads/Drainage",
    "request_reason": "Pothole",
    "date_created": "2023-12-23T22:24:57.000",
    "date_modified": "2023-12-23T22:24:57.000",
    "request_status": "Pending",
    "responsible_agency": "Department of Public Works",
    "final_address": "1422 Valence St",
    "address_councildis": "B",
    "status": "Pending",
    "rowid": "1057262",
    "final_x": "3669695.77511",
    "final_y": "520405.369144",
    "longitude": "-90.10571992765203",
    "latitude": "29.925287171964843",
    "geocoded_column": {
      "latitude": "29.925287171964843",
      "longitude": "-90.10571992765203"
    }
  },
  {
    "service_request": "2023-1057261",
    "request_type": "Roads/Drainage",
    "request_reason": "Pothole",
    "date_created": "2023-12-23T22:20:21.000",
    "date_modified": "2023-12-23T22:20:21.000",
    "request_status": "Pending",
    "responsible_agency": "Department of Public Works",
    "final_address": "5025 Danneel St",
    "address_councildis": "B",
    "status": "Pending",
    "rowid": "1057261",
    "final_x": "3668587.33818",
    "final_y": "522225.136698",
    "longitude": "-90.10915755268167",
    "latitude": "29.930323560727352",
    "geocoded_column": {
      "latitude": "29.930323560727352",
      "longitude": "-90.10915755268167"
    }
  },
  {
    "service_request": "2023-1057260",
    "request_type": "Property Maintenance",
    "request_reason": "Property Maintenance",
    "date_created": "2023-12-23T20:28:11.000",
    "date_modified": "2023-12-23T20:28:11.000",
    "request_status": "Pending",
    "responsible_agency": "Department of Code Enforcement",
    "final_address": "1234 Joseph St",
    "address_councildis": "A",
    "status": "Pending",
    "rowid": "1057260",
    "final_x": "3666416.43617",
    "final_y": "520424.046136",
    "longitude": "-90.1160711786793",
    "latitude": "29.925434726782147",
    "geocoded_column": {
      "latitude": "29.925434726782147",
      "longitude": "-90.1160711786793"
    }
  },
  {
    "service_request": "2023-1057259",
    "request_type": "Traffic Signals/Signs/Striping/Streetlights",
    "request_reason": "Disabled Parking Sign ",
    "date_created": "2023-12-23T20:18:29.000",
    "date_modified": "2023-12-23T20:18:29.000",
    "request_status": "Pending",
    "responsible_agency": "Department of Public Works",
    "final_address": "2016 Seventh St",
    "address_councildis": "B",
    "status": "Pending",
    "rowid": "1057259",
    "final_x": "3674350.60334",
    "final_y": "523387.842683",
    "longitude": "-90.09092400098878",
    "latitude": "29.933350062137272",
    "geocoded_column": {
      "latitude": "29.933350062137272",
      "longitude": "-90.09092400098878"
    }
  },
  {
    "service_request": "2023-1057258",
    "request_type": "Trash/Recycling",
    "request_reason": "Repair Trash Cart",
    "date_created": "2023-12-23T20:16:40.000",
    "date_modified": "2023-12-23T20:16:42.000",
    "request_status": "Pending",
    "responsible_agency": "Department of Sanitation",
    "final_address": "2016 Seventh St",
    "address_councildis": "B",
    "status": "Assigned to Contractor",
    "contractor": "Richards Disposal",
    "rowid": "1057258",
    "final_x": "3674350.60334",
    "final_y": "523387.842683",
    "longitude": "-90.09092400098878",
    "latitude": "29.933350062137272",
    "geocoded_column": {
      "latitude": "29.933350062137272",
      "longitude": "-90.09092400098878"
    }
  },
  {
    "service_request": "2023-1057257",
    "request_type": "Trash/Recycling",
    "request_reason": "Request a Large Item Pick Up",
    "date_created": "2023-12-23T16:57:01.000",
    "date_modified": "2023-12-23T16:57:02.000",
    "request_status": "Pending",
    "responsible_agency": "Department of Sanitation",
    "final_address": "4129 Thalia St",
    "address_councildis": "B",
    "status": "Assigned to Contractor",
    "contractor": "Richards Disposal",
    "rowid": "1057257",
    "final_x": "3671323.30215",
    "final_y": "530901.363138",
    "longitude": "-90.10022576716453",
    "latitude": "29.954099701157496",
    "geocoded_column": {
      "latitude": "29.954099701157496",
      "longitude": "-90.10022576716453"
    }
  },
  {
    "service_request": "2023-1057256",
    "request_type": "Trash/Recycling",
    "request_reason": "Repair Recycling Cart",
    "date_created": "2023-12-23T16:24:21.000",
    "date_modified": "2023-12-23T16:24:21.000",
    "request_status": "Pending",
    "responsible_agency": "Department of Sanitation",
    "final_address": "4407 Fontainebleau Dr",
    "address_councildis": "B",
    "status": "Pending",
    "rowid": "1057256",
    "final_x": "3669237.49556",
    "final_y": "529635.506945",
    "longitude": "-90.10685470437741",
    "latitude": "29.950680567438372",
    "geocoded_column": {
      "latitude": "29.950680567438372",
      "longitude": "-90.10685470437741"
    }
  },
  {
    "service_request": "2023-1057255",
    "request_type": "Trash/Recycling",
    "request_reason": "Illegal Dumping",
    "date_created": "2023-12-23T15:08:38.000",
    "date_modified": "2023-12-23T15:08:38.000",
    "request_status": "Pending",
    "responsible_agency": "Department of Sanitation",
    "final_address": "1418 N Villere St",
    "address_councildis": "C",
    "status": "Pending",
    "rowid": "1057255",
    "final_x": "3681956.9702",
    "final_y": "536284.161223",
    "longitude": "-90.06646105040768",
    "latitude": "29.968581614232924",
    "geocoded_column": {
      "latitude": "29.968581614232924",
      "longitude": "-90.06646105040768"
    }
  },
  {
    "service_request": "2023-1057254",
    "request_type": "Trash/Recycling",
    "request_reason": "Start Trash Service",
    "date_created": "2023-12-23T15:00:37.000",
    "date_modified": "2023-12-23T15:00:38.000",
    "request_status": "Pending",
    "responsible_agency": "Department of Sanitation",
    "final_address": "5328 Baccich St",
    "address_councildis": "D",
    "status": "Assigned to Contractor",
    "contractor": "IV Waste",
    "rowid": "1057254",
    "final_x": "3687655.26223",
    "final_y": "552771.546198",
    "longitude": "-90.04788146314272",
    "latitude": "30.013741548115927",
    "geocoded_column": {
      "latitude": "30.013741548115927",
      "longitude": "-90.04788146314272"
    }
  },
  {
    "service_request": "2023-1057253",
    "request_type": "Trash/Recycling",
    "request_reason": "Request a Large Item Pick Up",
    "date_created": "2023-12-23T14:54:23.000",
    "date_modified": "2023-12-23T14:54:24.000",
    "request_status": "Pending",
    "responsible_agency": "Department of Sanitation",
    "final_address": "3310 Delachaise St",
    "address_councildis": "B",
    "status": "Assigned to Contractor",
    "contractor": "Richards Disposal",
    "rowid": "1057253",
    "final_x": "3671498.29774",
    "final_y": "527157.605887",
    "longitude": "-90.09980046031772",
    "latitude": "29.94380041848533",
    "geocoded_column": {
      "latitude": "29.94380041848533",
      "longitude": "-90.09980046031772"
    }
  },
  {
    "service_request": "2023-1057252",
    "request_type": "Roads/Drainage",
    "request_reason": "Man hole cover issue",
    "date_created": "2023-12-23T14:18:47.000",
    "date_modified": "2023-12-23T14:18:47.000",
    "request_status": "Pending",
    "responsible_agency": "Department of Public Works",
    "final_address": "LAFAYETTE ST & S RAMPART ST",
    "address_councildis": "B",
    "status": "Pending",
    "rowid": "1057252",
    "final_x": "3679231.8",
    "final_y": "529245.58",
    "longitude": "-90.07531132957918",
    "latitude": "29.94931046512414",
    "geocoded_column": {
      "latitude": "29.94931046512414",
      "longitude": "-90.07531132957918"
    }
  },
  {
    "service_request": "2023-1057251",
    "request_type": "Traffic Signals/Signs/Striping/Streetlights",
    "request_reason": "Traffic Sign Missing/Damaged",
    "date_created": "2023-12-23T13:47:17.000",
    "date_modified": "2023-12-23T13:47:17.000",
    "request_status": "Pending",
    "responsible_agency": "Department of Public Works",
    "final_address": "THALIA ST & S DORGENOIS ST",
    "address_councildis": "B",
    "status": "Pending",
    "rowid": "1057251",
    "final_x": "3672536.8",
    "final_y": "530097.18",
    "longitude": "-90.09642143495127",
    "latitude": "29.95185249930991",
    "geocoded_column": {
      "latitude": "29.95185249930991",
      "longitude": "-90.09642143495127"
    }
  },
  {
    "service_request": "2023-1057250",
    "request_type": "Roads/Drainage",
    "request_reason": "Road Shoulder Repair",
    "date_created": "2023-12-23T13:39:07.000",
    "date_modified": "2023-12-23T13:39:07.000",
    "request_status": "Pending",
    "responsible_agency": "Department of Public Works",
    "final_address": "1725 Dufossat St",
    "address_councildis": "B",
    "status": "Pending",
    "rowid": "1057250",
    "final_x": "3668192.68743",
    "final_y": "522036.060218",
    "longitude": "-90.11040977787289",
    "latitude": "29.92981524824353",
    "geocoded_column": {
      "latitude": "29.92981524824353",
      "longitude": "-90.11040977787289"
    }
  },
  {
    "service_request": "2023-1057249",
    "request_type": "Abandoned Vehicles",
    "request_reason": "Abandoned/Junk Vehicles",
    "date_created": "2023-12-23T13:32:14.000",
    "date_modified": "2023-12-23T13:32:14.000",
    "request_status": "Pending",
    "responsible_agency": "Department of Public Works",
    "final_address": "3905 Thalia St",
    "address_councildis": "B",
    "status": "Pending",
    "rowid": "1057249",
    "final_x": "3672499.39393",
    "final_y": "530160.595649",
    "longitude": "-90.09653738446468",
    "latitude": "29.95202798163741",
    "geocoded_column": {
      "latitude": "29.95202798163741",
      "longitude": "-90.09653738446468"
    }
  },
  {
    "service_request": "2023-1057248",
    "request_type": "Roads/Drainage",
    "request_reason": "Road Shoulder Repair",
    "date_created": "2023-12-23T13:29:21.000",
    "date_modified": "2023-12-23T13:29:21.000",
    "request_status": "Pending",
    "responsible_agency": "Department of Public Works",
    "final_address": "1680 Soniat St",
    "address_councildis": "B",
    "status": "Pending",
    "rowid": "1057248",
    "final_x": "3668349.00737",
    "final_y": "521667.044793",
    "longitude": "-90.1099287389294",
    "latitude": "29.9287959849899",
    "geocoded_column": {
      "latitude": "29.9287959849899",
      "longitude": "-90.1099287389294"
    }
  },
  {
    "service_request": "2023-1057247",
    "request_type": "Trash/Recycling",
    "request_reason": "Replace Trash Cart",
    "date_created": "2023-12-23T13:01:55.000",
    "date_modified": "2023-12-23T13:01:56.000",
    "request_status": "Pending",
    "responsible_agency": "Department of Sanitation",
    "final_address": "3119 Conti St",
    "address_councildis": "B",
    "status": "Assigned to Contractor",
    "contractor": "Richards Disposal",
    "rowid": "1057247",
    "final_x": "3674670.64219",
    "final_y": "537140.216648",
    "longitude": "-90.0894423511912",
    "latitude": "29.971154976105236",
    "geocoded_column": {
      "latitude": "29.971154976105236",
      "longitude": "-90.0894423511912"
    }
  },
  {
    "service_request": "2023-1057246",
    "request_type": "Traffic Signals/Signs/Striping/Streetlights",
    "request_reason": "Striping/Road Surface Markings",
    "date_created": "2023-12-23T12:35:39.000",
    "date_modified": "2023-12-23T12:35:39.000",
    "request_status": "Pending",
    "responsible_agency": "Department of Public Works",
    "final_address": "Interstate 10 & South Claiborne Avenue",
    "address_councildis": "B",
    "status": "Pending",
    "rowid": "1057246",
    "final_x": "3677266.60392",
    "final_y": "531421.213251",
    "longitude": "-90.0814412778146",
    "latitude": "29.95535190945546",
    "geocoded_column": {
      "latitude": "29.95535190945546",
      "longitude": "-90.0814412778146"
    }
  },
  {
    "service_request": "2023-1057245",
    "request_type": "Trash/Recycling",
    "request_reason": "Request a Large Item Pick Up",
    "date_created": "2023-12-23T12:32:53.000",
    "date_modified": "2023-12-23T12:32:53.000",
    "request_status": "Pending",
    "responsible_agency": "Department of Sanitation",
    "final_address": "7712 Cohn St",
    "address_councildis": "A",
    "status": "Assigned to Contractor",
    "contractor": "Richards Disposal",
    "rowid": "1057245",
    "final_x": "3664584.97492",
    "final_y": "529251.793793",
    "longitude": "-90.12155785711731",
    "latitude": "29.94976159206653",
    "geocoded_column": {
      "latitude": "29.94976159206653",
      "longitude": "-90.12155785711731"
    }
  },
  {
    "service_request": "2023-1057244",
    "request_type": "Trash/Recycling",
    "request_reason": "Request a Large Item Pick Up",
    "date_created": "2023-12-23T12:31:05.000",
    "date_modified": "2023-12-23T12:31:06.000",
    "request_status": "Pending",
    "responsible_agency": "Department of Sanitation",
    "final_address": "2929 St Claude Ave",
    "address_councildis": "C",
    "status": "Assigned to Contractor",
    "contractor": "IV Waste",
    "rowid": "1057244",
    "final_x": "3688388.94428",
    "final_y": "536256.800583",
    "longitude": "-90.04614955652005",
    "latitude": "29.968309276378637",
    "geocoded_column": {
      "latitude": "29.968309276378637",
      "longitude": "-90.04614955652005"
    }
  },
  {
    "service_request": "2023-1057243",
    "request_type": "Trash/Recycling",
    "request_reason": "Request a Large Item Pick Up",
    "date_created": "2023-12-23T12:08:26.000",
    "date_modified": "2023-12-23T12:08:27.000",
    "request_status": "Pending",
    "responsible_agency": "Department of Sanitation",
    "final_address": "6433 Vicksburg St",
    "address_councildis": "A",
    "status": "Assigned to Contractor",
    "contractor": "IV Waste",
    "rowid": "1057243",
    "final_x": "3669235.77806",
    "final_y": "550257.024532",
    "longitude": "-90.10616278918012",
    "latitude": "30.007382814327283",
    "geocoded_column": {
      "latitude": "30.007382814327283",
      "longitude": "-90.10616278918012"
    }
  },
  {
    "service_request": "2023-1057242",
    "request_type": "Traffic Signals/Signs/Striping/Streetlights",
    "request_reason": "Traffic Sign Missing/Damaged",
    "date_created": "2023-12-23T12:03:13.000",
    "date_modified": "2023-12-23T12:03:13.000",
    "request_status": "Pending",
    "responsible_agency": "Department of Public Works",
    "final_address": "CADIZ ST & MAGAZINE ST",
    "address_councildis": "B",
    "status": "Pending",
    "rowid": "1057242",
    "final_x": "3670312.3",
    "final_y": "518714.68",
    "longitude": "-90.10383101446807",
    "latitude": "29.92062013751939",
    "geocoded_column": {
      "latitude": "29.92062013751939",
      "longitude": "-90.10383101446807"
    }
  },
  {
    "service_request": "2023-1057241",
    "request_type": "Parks & Parkways",
    "request_reason": "Request Tree Service (Right of Way/Public Property)",
    "date_created": "2023-12-23T11:58:22.000",
    "date_modified": "2023-12-23T11:58:22.000",
    "request_status": "Pending",
    "responsible_agency": "Department of Parks & Parkway",
    "final_address": "8019 Bass St",
    "address_councildis": "E",
    "status": "Pending",
    "rowid": "1057241",
    "final_x": "3719338.77042",
    "final_y": "574507.397227",
    "longitude": "-89.9469482978209",
    "latitude": "30.07249086831117",
    "geocoded_column": {
      "latitude": "30.07249086831117",
      "longitude": "-89.9469482978209"
    }
  },
  {
    "service_request": "2023-1057240",
    "request_type": "Trash/Recycling",
    "request_reason": "Replace Recycling Cart",
    "date_created": "2023-12-23T11:48:05.000",
    "date_modified": "2023-12-23T11:48:05.000",
    "request_status": "Pending",
    "responsible_agency": "Department of Sanitation",
    "final_address": "6322 Colbert St",
    "address_councildis": "A",
    "status": "Pending",
    "rowid": "1057240",
    "final_x": "3667527.81767",
    "final_y": "549641.862548",
    "longitude": "-90.111579459721",
    "latitude": "30.005741518729636",
    "geocoded_column": {
      "latitude": "30.005741518729636",
      "longitude": "-90.111579459721"
    }
  },
  {
    "service_request": "2023-1057239",
    "request_type": "Trash/Recycling",
    "request_reason": "Order Recycling Cart",
    "date_created": "2023-12-23T11:06:12.000",
    "date_modified": "2023-12-23T11:06:12.000",
    "request_status": "Pending",
    "responsible_agency": "Department of Sanitation",
    "final_address": "4625 Wilson Ave",
    "address_councildis": "E",
    "status": "Pending",
    "rowid": "1057239",
    "final_x": "3703123.77226",
    "final_y": "554335.048088",
    "longitude": "-89.99895179080428",
    "latitude": "30.01755436006393",
    "geocoded_column": {
      "latitude": "30.01755436006393",
      "longitude": "-89.99895179080428"
    }
  },
  {
    "service_request": "2023-1057238",
    "request_type": "Trash/Recycling",
    "request_reason": "Order Recycling Cart",
    "date_created": "2023-12-23T11:05:42.000",
    "date_modified": "2023-12-23T11:05:42.000",
    "request_status": "Pending",
    "responsible_agency": "Department of Sanitation",
    "final_address": "4623 Wilson Ave",
    "address_councildis": "E",
    "status": "Pending",
    "rowid": "1057238",
    "final_x": "3703125.49815",
    "final_y": "554316.688728",
    "longitude": "-89.99894701324791",
    "latitude": "30.01750382359283",
    "geocoded_column": {
      "latitude": "30.01750382359283",
      "longitude": "-89.99894701324791"
    }
  },
  {
    "service_request": "2023-1057236",
    "request_type": "Roads/Drainage",
    "request_reason": "Man hole cover issue",
    "date_created": "2023-12-23T10:31:46.000",
    "date_modified": "2023-12-23T10:31:46.000",
    "request_status": "Pending",
    "responsible_agency": "Department of Public Works",
    "final_address": "5931 St Charles Ave",
    "address_councildis": "A",
    "status": "Pending",
    "rowid": "1057236",
    "final_x": "3665886.53236",
    "final_y": "522492.169274",
    "longitude": "-90.11767466464067",
    "latitude": "29.93113687975978",
    "geocoded_column": {
      "latitude": "29.93113687975978",
      "longitude": "-90.11767466464067"
    }
  },
  {
    "service_request": "2023-1057235",
    "request_type": "Trash/Recycling",
    "request_reason": "Request a Large Item Pick Up",
    "date_created": "2023-12-23T10:31:01.000",
    "date_modified": "2023-12-23T10:31:02.000",
    "request_status": "Pending",
    "responsible_agency": "Department of Sanitation",
    "final_address": "100 BLK Belleville St",
    "address_councildis": "C",
    "status": "Assigned to Contractor",
    "contractor": "Richards Disposal",
    "rowid": "1057235",
    "final_x": "3687912.61397",
    "final_y": "531102.463829",
    "longitude": "-90.04783644078563",
    "latitude": "29.954151341835594",
    "geocoded_column": {
      "latitude": "29.954151341835594",
      "longitude": "-90.04783644078563"
    }
  },
  {
    "service_request": "2023-1057234",
    "request_type": "Roads/Drainage",
    "request_reason": "Damaged Sidewalk",
    "date_created": "2023-12-23T10:23:32.000",
    "date_modified": "2023-12-23T10:23:32.000",
    "request_status": "Pending",
    "responsible_agency": "Department of Public Works",
    "final_address": "3560 Rue Colette",
    "address_councildis": "C",
    "status": "Pending",
    "rowid": "1057234",
    "final_x": "3704587.35927",
    "final_y": "517324.702325",
    "longitude": "-89.9956925881836",
    "latitude": "29.915742421506817",
    "geocoded_column": {
      "latitude": "29.915742421506817",
      "longitude": "-89.9956925881836"
    }
  },
  {
    "service_request": "2023-1057233",
    "request_type": "Abandoned Vehicles",
    "request_reason": "Abandoned/Junk Vehicles",
    "date_created": "2023-12-23T10:20:53.000",
    "date_modified": "2023-12-23T10:20:53.000",
    "request_status": "Pending",
    "responsible_agency": "Department of Public Works",
    "final_address": "2332 Iberville St",
    "address_councildis": "B",
    "status": "Pending",
    "rowid": "1057233",
    "final_x": "3676731.4491",
    "final_y": "534558.061829",
    "longitude": "-90.083023021852",
    "latitude": "29.963993252806713",
    "geocoded_column": {
      "latitude": "29.963993252806713",
      "longitude": "-90.083023021852"
    }
  },
  {
    "service_request": "2023-1057232",
    "request_type": "Roads/Drainage",
    "request_reason": "Pothole",
    "date_created": "2023-12-23T10:05:02.000",
    "date_modified": "2023-12-23T10:05:02.000",
    "request_status": "Pending",
    "responsible_agency": "Department of Public Works",
    "final_address": "5220 Atlanta St",
    "address_councildis": "B",
    "status": "Pending",
    "rowid": "1057232",
    "final_x": "3667917.40577",
    "final_y": "520685.623161",
    "longitude": "-90.1113242624008",
    "latitude": "29.926110051036336",
    "geocoded_column": {
      "latitude": "29.926110051036336",
      "longitude": "-90.1113242624008"
    }
  },
  {
    "service_request": "2023-1057231",
    "request_type": "Roads/Drainage",
    "request_reason": "Road Shoulder Repair",
    "date_created": "2023-12-23T10:02:48.000",
    "date_modified": "2023-12-23T10:02:48.000",
    "request_status": "Pending",
    "responsible_agency": "Department of Public Works",
    "final_address": "1417 Dufossat St",
    "address_councildis": "B",
    "status": "Pending",
    "rowid": "1057231",
    "final_x": "3668172.86554",
    "final_y": "520317.064312",
    "longitude": "-90.11053026302999",
    "latitude": "29.92508913732497",
    "geocoded_column": {
      "latitude": "29.92508913732497",
      "longitude": "-90.11053026302999"
    }
  },
  {
    "service_request": "2023-1057230",
    "request_type": "Trash/Recycling",
    "request_reason": "Order Recycling Cart",
    "date_created": "2023-12-23T09:40:32.000",
    "date_modified": "2023-12-23T09:40:32.000",
    "request_status": "Pending",
    "responsible_agency": "Department of Sanitation",
    "final_address": "6028 General Haig St",
    "address_councildis": "A",
    "status": "Pending",
    "rowid": "1057230",
    "final_x": "3670494.66254",
    "final_y": "547328.423889",
    "longitude": "-90.1022850101282",
    "latitude": "29.999293053636578",
    "geocoded_column": {
      "latitude": "29.999293053636578",
      "longitude": "-90.1022850101282"
    }
  },
  {
    "service_request": "2023-1057229",
    "request_type": "Trash/Recycling",
    "request_reason": "Replace Recycling Cart",
    "date_created": "2023-12-23T09:40:07.000",
    "date_modified": "2023-12-23T09:40:07.000",
    "request_status": "Pending",
    "responsible_agency": "Department of Sanitation",
    "final_address": "3043 Burgundy St",
    "address_councildis": "C",
    "status": "Pending",
    "rowid": "1057229",
    "final_x": "3688581.62838",
    "final_y": "535298.331526",
    "longitude": "-90.04557507093283",
    "latitude": "29.96566786837608",
    "geocoded_column": {
      "latitude": "29.96566786837608",
      "longitude": "-90.04557507093283"
    }
  },
  {
    "service_request": "2023-1057228",
    "request_type": "Trash/Recycling",
    "request_reason": "Order Trash Cart",
    "date_created": "2023-12-23T09:36:19.000",
    "date_modified": "2023-12-23T09:36:20.000",
    "request_status": "Pending",
    "responsible_agency": "Department of Sanitation",
    "final_address": "6028 General Haig St",
    "address_councildis": "A",
    "status": "Assigned to Contractor",
    "contractor": "IV Waste",
    "rowid": "1057228",
    "final_x": "3670494.66254",
    "final_y": "547328.423889",
    "longitude": "-90.1022850101282",
    "latitude": "29.999293053636578",
    "geocoded_column": {
      "latitude": "29.999293053636578",
      "longitude": "-90.1022850101282"
    }
  },
  {
    "service_request": "2023-1057227",
    "request_type": "Roads/Drainage",
    "request_reason": "WaterMain Break",
    "date_created": "2023-12-23T09:31:27.000",
    "date_modified": "2023-12-23T09:31:27.000",
    "request_status": "Pending",
    "responsible_agency": "Department of Public Works",
    "final_address": "12000 BLK Interstate 10 Service Rd S",
    "address_councildis": "E",
    "status": "Pending",
    "rowid": "1057227",
    "final_x": "3716147.81012",
    "final_y": "565615.040802",
    "longitude": "-89.95737348384388",
    "latitude": "30.048146342980175",
    "geocoded_column": {
      "latitude": "30.048146342980175",
      "longitude": "-89.95737348384388"
    }
  },
  {
    "service_request": "2023-1057226",
    "request_type": "Trash/Recycling",
    "request_reason": "Replace Trash Cart",
    "date_created": "2023-12-23T09:04:16.000",
    "date_modified": "2023-12-23T09:04:18.000",
    "request_status": "Pending",
    "responsible_agency": "Department of Sanitation",
    "final_address": "1524 Leonidas St",
    "address_councildis": "A",
    "status": "Assigned to Contractor",
    "contractor": "Richards Disposal",
    "rowid": "1057226",
    "final_x": "3661451.01754",
    "final_y": "530519.380674",
    "longitude": "-90.13141126685953",
    "latitude": "29.953337808838118",
    "geocoded_column": {
      "latitude": "29.953337808838118",
      "longitude": "-90.13141126685953"
    }
  },
  {
    "service_request": "2023-1057225",
    "request_type": "Trash/Recycling",
    "request_reason": "MIssed Recycling Pick-Up",
    "date_created": "2023-12-23T08:36:14.000",
    "date_modified": "2023-12-23T08:36:15.000",
    "request_status": "Pending",
    "responsible_agency": "Department of Sanitation",
    "final_address": "7930 Sycamore St",
    "address_councildis": "A",
    "status": "Assigned to Contractor",
    "contractor": "Richards Disposal",
    "rowid": "1057225",
    "final_x": "3664709.90784",
    "final_y": "530572.133186",
    "longitude": "-90.12111928080861",
    "latitude": "29.953388464323652",
    "geocoded_column": {
      "latitude": "29.953388464323652",
      "longitude": "-90.12111928080861"
    }
  },
  {
    "service_request": "2023-1057224",
    "request_type": "Trash/Recycling",
    "request_reason": "MIssed Recycling Pick-Up",
    "date_created": "2023-12-23T08:16:39.000",
    "date_modified": "2023-12-23T08:16:41.000",
    "request_status": "Pending",
    "responsible_agency": "Department of Sanitation",
    "final_address": "7730 Sycamore St",
    "address_councildis": "A",
    "status": "Assigned to Contractor",
    "contractor": "Richards Disposal",
    "rowid": "1057224",
    "final_x": "3665212.8112",
    "final_y": "530083.172161",
    "longitude": "-90.1195476748489",
    "latitude": "29.952029341494097",
    "geocoded_column": {
      "latitude": "29.952029341494097",
      "longitude": "-90.1195476748489"
    }
  },
  {
    "service_request": "2023-1057223",
    "request_type": "Trash/Recycling",
    "request_reason": "Request a Large Item Pick Up",
    "date_created": "2023-12-23T07:09:35.000",
    "date_modified": "2023-12-23T07:09:37.000",
    "request_status": "Pending",
    "responsible_agency": "Department of Sanitation",
    "final_address": "7022 Roy St",
    "address_councildis": "A",
    "status": "Assigned to Contractor",
    "contractor": "IV Waste",
    "rowid": "1057223",
    "final_x": "3665109.60852",
    "final_y": "554471.449752",
    "longitude": "-90.11905748111216",
    "latitude": "30.019091874555652",
    "geocoded_column": {
      "latitude": "30.019091874555652",
      "longitude": "-90.11905748111216"
    }
  },
  {
    "service_request": "2023-1057222",
    "request_type": "Trash/Recycling",
    "request_reason": "Request a Large Item Pick Up",
    "date_created": "2023-12-23T02:28:37.000",
    "date_modified": "2023-12-23T02:28:39.000",
    "request_status": "Pending",
    "responsible_agency": "Department of Sanitation",
    "final_address": "400 S Pierce St",
    "address_councildis": "B",
    "status": "Assigned to Contractor",
    "contractor": "Richards Disposal",
    "rowid": "1057222",
    "final_x": "3670731.21652",
    "final_y": "537020.082568",
    "longitude": "-90.10188770012628",
    "latitude": "29.970941649572456",
    "geocoded_column": {
      "latitude": "29.970941649572456",
      "longitude": "-90.10188770012628"
    }
  },
  {
    "service_request": "2023-1057221",
    "request_type": "Roads/Drainage",
    "request_reason": "Pothole",
    "date_created": "2023-12-23T01:31:46.000",
    "date_modified": "2023-12-23T01:31:46.000",
    "request_status": "Pending",
    "responsible_agency": "Department of Public Works",
    "final_address": "1312 Milan St",
    "address_councildis": "B",
    "status": "Pending",
    "rowid": "1057221",
    "final_x": "3671625.82823",
    "final_y": "520286.919608",
    "longitude": "-90.09963137110304",
    "latitude": "29.92490447494246",
    "geocoded_column": {
      "latitude": "29.92490447494246",
      "longitude": "-90.09963137110304"
    }
  },
  {
    "service_request": "2023-1057220",
    "request_type": "Roads/Drainage",
    "request_reason": "Pothole",
    "date_created": "2023-12-22T23:41:47.000",
    "date_modified": "2023-12-23T11:24:32.000",
    "case_close_date": "2023-12-23T05:24:32.000",
    "request_status": "Closed",
    "responsible_agency": "Department of Public Works",
    "final_address": "4216 Chestnut St",
    "address_councildis": "B",
    "status": "Duplicate Request",
    "rowid": "1057220",
    "final_x": "3671574.31393",
    "final_y": "519539.203703",
    "longitude": "-90.09981939416457",
    "latitude": "29.922850019854593",
    "geocoded_column": {
      "latitude": "29.922850019854593",
      "longitude": "-90.09981939416457"
    }
  },
  {
    "service_request": "2023-1057218",
    "request_type": "Roads/Drainage",
    "request_reason": "Pothole",
    "date_created": "2023-12-22T23:26:49.000",
    "date_modified": "2023-12-23T11:51:18.000",
    "case_close_date": "2023-12-23T05:51:18.000",
    "request_status": "Closed",
    "responsible_agency": "Department of Public Works",
    "final_address": "1301 Constantinople St",
    "address_councildis": "B",
    "status": "Duplicate Request",
    "rowid": "1057218",
    "final_x": "3672430.66305",
    "final_y": "520250.7726",
    "longitude": "-90.09709199725775",
    "latitude": "29.924781230435865",
    "geocoded_column": {
      "latitude": "29.924781230435865",
      "longitude": "-90.09709199725775"
    }
  },
  {
    "service_request": "2023-1057217",
    "request_type": "Property Maintenance",
    "request_reason": "Property Maintenance",
    "date_created": "2023-12-22T23:24:43.000",
    "date_modified": "2023-12-22T23:24:43.000",
    "request_status": "Pending",
    "responsible_agency": "Department of Code Enforcement",
    "final_address": "1030 Joseph St",
    "address_councildis": "A",
    "status": "Pending",
    "rowid": "1057217",
    "final_x": "3666184.93831",
    "final_y": "519799.45068",
    "longitude": "-90.11682288085022",
    "latitude": "29.92372404625258",
    "geocoded_column": {
      "latitude": "29.92372404625258",
      "longitude": "-90.11682288085022"
    }
  },
  {
    "service_request": "2023-1057216",
    "request_type": "Roads/Drainage",
    "request_reason": "Pothole",
    "date_created": "2023-12-22T22:52:47.000",
    "date_modified": "2023-12-22T22:52:47.000",
    "request_status": "Pending",
    "responsible_agency": "Department of Public Works",
    "final_address": "6031 Pitt St",
    "address_councildis": "A",
    "status": "Pending",
    "rowid": "1057216",
    "final_x": "3665074.90548",
    "final_y": "521345.766329",
    "longitude": "-90.12027518893876",
    "latitude": "29.928008285877205",
    "geocoded_column": {
      "latitude": "29.928008285877205",
      "longitude": "-90.12027518893876"
    }
  },
  {
    "service_request": "2023-1057215",
    "request_type": "Roads/Drainage",
    "request_reason": "Pothole",
    "date_created": "2023-12-22T22:11:45.000",
    "date_modified": "2023-12-22T22:11:45.000",
    "request_status": "Pending",
    "responsible_agency": "Department of Public Works",
    "final_address": "6034 Pitt St",
    "address_councildis": "A",
    "status": "Pending",
    "rowid": "1057215",
    "final_x": "3664975.2768",
    "final_y": "521175.853177",
    "longitude": "-90.12059537206552",
    "latitude": "29.927543978068122",
    "geocoded_column": {
      "latitude": "29.927543978068122",
      "longitude": "-90.12059537206552"
    }
  },
  {
    "service_request": "2023-1057214",
    "request_type": "Roads/Drainage",
    "request_reason": "Pothole",
    "date_created": "2023-12-22T22:09:51.000",
    "date_modified": "2023-12-22T22:09:51.000",
    "request_status": "Pending",
    "responsible_agency": "Department of Public Works",
    "final_address": "1334 Webster St",
    "address_councildis": "A",
    "status": "Pending",
    "rowid": "1057214",
    "final_x": "3664767.56442",
    "final_y": "521309.891897",
    "longitude": "-90.12124659621084",
    "latitude": "29.927918585551943",
    "geocoded_column": {
      "latitude": "29.927918585551943",
      "longitude": "-90.12124659621084"
    }
  },
  {
    "service_request": "2023-1057213",
    "request_type": "Abandoned Vehicles",
    "request_reason": "Abandoned/Junk Vehicles",
    "date_created": "2023-12-22T20:47:21.000",
    "date_modified": "2023-12-22T20:47:21.000",
    "request_status": "Pending",
    "responsible_agency": "Department of Public Works",
    "final_address": "1085 John Churchill Chase St Apt 101",
    "address_councildis": "B",
    "status": "Pending",
    "rowid": "1057213",
    "final_x": "3680925.16546",
    "final_y": "526303.434686",
    "longitude": "-90.07006704198089",
    "latitude": "29.941169321198362",
    "geocoded_column": {
      "latitude": "29.941169321198362",
      "longitude": "-90.07006704198089"
    }
  },
  {
    "service_request": "2023-1057212",
    "request_type": "Roads/Drainage",
    "request_reason": "Pothole",
    "date_created": "2023-12-22T20:25:42.000",
    "date_modified": "2023-12-22T20:25:42.000",
    "request_status": "Pending",
    "responsible_agency": "Department of Public Works",
    "final_address": "6029 Benjamin St",
    "address_councildis": "A",
    "status": "Pending",
    "rowid": "1057212",
    "final_x": "3665348.29159",
    "final_y": "522278.860474",
    "longitude": "-90.119380961599",
    "latitude": "29.930566038791415",
    "geocoded_column": {
      "latitude": "29.930566038791415",
      "longitude": "-90.119380961599"
    }
  },
  {
    "service_request": "2023-1057211",
    "request_type": "Trash/Recycling",
    "request_reason": "Order Trash Cart",
    "date_created": "2023-12-22T19:59:52.000",
    "date_modified": "2023-12-22T19:59:53.000",
    "request_status": "Pending",
    "responsible_agency": "Department of Sanitation",
    "final_address": "1224 Decatur St Apt B",
    "address_councildis": "C",
    "status": "Assigned to Contractor",
    "contractor": "Empire Services",
    "rowid": "1057211",
    "final_x": "3684430.32373",
    "final_y": "533590.808005",
    "longitude": "-90.058744693411",
    "latitude": "29.961100398392393",
    "geocoded_column": {
      "latitude": "29.961100398392393",
      "longitude": "-90.058744693411"
    }
  },
  {
    "service_request": "2023-1057210",
    "request_type": "Health Related Request",
    "request_reason": "Noise Ordinance Complaint",
    "date_created": "2023-12-22T19:53:10.000",
    "date_modified": "2023-12-22T19:53:10.000",
    "request_status": "Pending",
    "responsible_agency": "Health Department",
    "final_address": "1233 Royal St",
    "address_councildis": "C",
    "status": "Pending",
    "rowid": "1057210",
    "final_x": "3683804.84252",
    "final_y": "534137.281477",
    "longitude": "-90.06070067985176",
    "latitude": "29.962622128976943",
    "geocoded_column": {
      "latitude": "29.962622128976943",
      "longitude": "-90.06070067985176"
    }
  },
  {
    "service_request": "2023-1057209",
    "request_type": "Abandoned Vehicles",
    "request_reason": "Abandoned/Junk Vehicles",
    "date_created": "2023-12-22T19:23:48.000",
    "date_modified": "2023-12-22T19:23:48.000",
    "request_status": "Pending",
    "responsible_agency": "Department of Public Works",
    "final_address": "1942 Moss St",
    "address_councildis": "D",
    "status": "Pending",
    "rowid": "1057209",
    "final_x": "3675510.10977",
    "final_y": "544059.895758",
    "longitude": "-90.08655341203234",
    "latitude": "29.990156628769107",
    "geocoded_column": {
      "latitude": "29.990156628769107",
      "longitude": "-90.08655341203234"
    }
  },
  {
    "service_request": "2023-1057208",
    "request_type": "Traffic Signals/Signs/Striping/Streetlights",
    "request_reason": "Traffic Sign Missing/Damaged",
    "date_created": "2023-12-22T19:17:25.000",
    "date_modified": "2023-12-22T19:17:25.000",
    "request_status": "Pending",
    "responsible_agency": "Department of Public Works",
    "final_address": "3200 BLK Saint Bernard Ave",
    "address_councildis": "D",
    "status": "Pending",
    "rowid": "1057208",
    "final_x": "3678891.85642",
    "final_y": "544281.104467",
    "longitude": "-90.07586369463276",
    "latitude": "29.990663264162375",
    "geocoded_column": {
      "latitude": "29.990663264162375",
      "longitude": "-90.07586369463276"
    }
  },
  {
    "service_request": "2023-1057207",
    "request_type": "Abandoned Vehicles",
    "request_reason": "Abandoned/Junk Vehicles",
    "date_created": "2023-12-22T18:57:08.000",
    "date_modified": "2023-12-22T18:57:08.000",
    "request_status": "Pending",
    "responsible_agency": "Department of Public Works",
    "final_address": "6500 BLK Canal Blvd",
    "address_councildis": "A",
    "status": "Pending",
    "rowid": "1057207",
    "final_x": "3668882.34429",
    "final_y": "551026.085728",
    "longitude": "-90.1072533914873",
    "latitude": "30.009507866546578",
    "geocoded_column": {
      "latitude": "30.009507866546578",
      "longitude": "-90.1072533914873"
    }
  },
  {
    "service_request": "2023-1057206",
    "request_type": "Traffic Signals/Signs/Striping/Streetlights",
    "request_reason": "Street Light Outage/Malfunction",
    "date_created": "2023-12-22T18:24:42.000",
    "date_modified": "2023-12-22T18:24:43.000",
    "request_status": "Pending",
    "responsible_agency": "Department of Public Works",
    "final_address": "6900 BLK Louisville St",
    "address_councildis": "A",
    "status": "Assigned to Contractor",
    "contractor": "Legacy Professional Services",
    "rowid": "1057206",
    "final_x": "3668327.89658",
    "final_y": "553727.572451",
    "longitude": "-90.1089138888726",
    "latitude": "30.016952306019423",
    "geocoded_column": {
      "latitude": "30.016952306019423",
      "longitude": "-90.1089138888726"
    }
  },
  {
    "service_request": "2023-1057205",
    "request_type": "Traffic Signals/Signs/Striping/Streetlights",
    "request_reason": "Street Light Outage/Malfunction",
    "date_created": "2023-12-22T18:24:25.000",
    "date_modified": "2023-12-22T18:24:25.000",
    "request_status": "Pending",
    "responsible_agency": "Department of Public Works",
    "final_address": "211 Bellaire Dr",
    "address_councildis": "A",
    "status": "Assigned to Contractor",
    "contractor": "Legacy Professional Services",
    "rowid": "1057205",
    "final_x": "3663931.68755",
    "final_y": "540897.159435",
    "longitude": "-90.12323227489732",
    "latitude": "29.981801500175674",
    "geocoded_column": {
      "latitude": "29.981801500175674",
      "longitude": "-90.12323227489732"
    }
  },
  {
    "service_request": "2023-1057204",
    "request_type": "Roads/Drainage",
    "request_reason": "Catch Basin - Clogged",
    "date_created": "2023-12-22T18:21:50.000",
    "date_modified": "2023-12-22T18:21:50.000",
    "request_status": "Pending",
    "responsible_agency": "Department of Public Works",
    "final_address": "8815 Hickory St",
    "address_councildis": "A",
    "status": "Pending",
    "rowid": "1057204",
    "final_x": "3661466.9993",
    "final_y": "531731.032195",
    "longitude": "-90.13132066866036",
    "latitude": "29.956668998740543",
    "geocoded_column": {
      "latitude": "29.956668998740543",
      "longitude": "-90.13132066866036"
    }
  },
  {
    "service_request": "2023-1057203",
    "request_type": "Trash/Recycling",
    "request_reason": "Request a Large Item Pick Up",
    "date_created": "2023-12-22T17:39:02.000",
    "date_modified": "2023-12-22T17:39:03.000",
    "request_status": "Pending",
    "responsible_agency": "Department of Sanitation",
    "final_address": "5822 Franklin Ave",
    "address_councildis": "D",
    "status": "Assigned to Contractor",
    "contractor": "IV Waste",
    "rowid": "1057203",
    "final_x": "3686372.12476",
    "final_y": "554632.945944",
    "longitude": "-90.05186973499667",
    "latitude": "30.01889923029072",
    "geocoded_column": {
      "latitude": "30.01889923029072",
      "longitude": "-90.05186973499667"
    }
  },
  {
    "service_request": "2023-1057202",
    "request_type": "Trash/Recycling",
    "request_reason": "Request a Large Item Pick Up",
    "date_created": "2023-12-22T17:17:37.000",
    "date_modified": "2023-12-22T17:17:38.000",
    "request_status": "Pending",
    "responsible_agency": "Department of Sanitation",
    "final_address": "2561 N Roman St",
    "address_councildis": "D",
    "status": "Assigned to Contractor",
    "contractor": "IV Waste",
    "rowid": "1057202",
    "final_x": "3687509.82166",
    "final_y": "539133.25441",
    "longitude": "-90.04882402558619",
    "latitude": "29.976245640970166",
    "geocoded_column": {
      "latitude": "29.976245640970166",
      "longitude": "-90.04882402558619"
    }
  },
  {
    "service_request": "2023-1057201",
    "request_type": "Trash/Recycling",
    "request_reason": "Missed Trash Pick-Up",
    "date_created": "2023-12-22T16:52:16.000",
    "date_modified": "2023-12-22T16:52:17.000",
    "request_status": "Pending",
    "responsible_agency": "Department of Sanitation",
    "final_address": "5406 Provincial Pl",
    "address_councildis": "E",
    "status": "Assigned to Contractor",
    "contractor": "Waste Pro",
    "rowid": "1057201",
    "final_x": "3726202.78438",
    "final_y": "564015.491489",
    "longitude": "-89.92565657724954",
    "latitude": "30.043412418027142",
    "geocoded_column": {
      "latitude": "30.043412418027142",
      "longitude": "-89.92565657724954"
    }
  },
  {
    "service_request": "2023-1057200",
    "request_type": "Trash/Recycling",
    "request_reason": "Order Trash Cart",
    "date_created": "2023-12-22T16:40:35.000",
    "date_modified": "2023-12-22T16:40:36.000",
    "request_status": "Pending",
    "responsible_agency": "Department of Sanitation",
    "final_address": "4625 Wilson Ave",
    "address_councildis": "E",
    "status": "Assigned to Contractor",
    "contractor": "Waste Pro",
    "rowid": "1057200",
    "final_x": "3703123.77226",
    "final_y": "554335.048088",
    "longitude": "-89.99895179080428",
    "latitude": "30.01755436006393",
    "geocoded_column": {
      "latitude": "30.01755436006393",
      "longitude": "-89.99895179080428"
    }
  },
  {
    "service_request": "2023-1057199",
    "request_type": "Trash/Recycling",
    "request_reason": "Order Trash Cart",
    "date_created": "2023-12-22T16:39:02.000",
    "date_modified": "2023-12-22T16:39:03.000",
    "request_status": "Pending",
    "responsible_agency": "Department of Sanitation",
    "final_address": "4623 Wilson Ave",
    "address_councildis": "E",
    "status": "Assigned to Contractor",
    "contractor": "Waste Pro",
    "rowid": "1057199",
    "final_x": "3703125.49815",
    "final_y": "554316.688728",
    "longitude": "-89.99894701324791",
    "latitude": "30.01750382359283",
    "geocoded_column": {
      "latitude": "30.01750382359283",
      "longitude": "-89.99894701324791"
    }
  },
  {
    "service_request": "2023-1057198",
    "request_type": "Trash/Recycling",
    "request_reason": "Replace Trash Cart",
    "date_created": "2023-12-22T16:14:45.000",
    "date_modified": "2023-12-22T16:14:46.000",
    "request_status": "Pending",
    "responsible_agency": "Department of Sanitation",
    "final_address": "1606 Ursulines Ave",
    "address_councildis": "D",
    "status": "Assigned to Contractor",
    "contractor": "Richards Disposal",
    "rowid": "1057198",
    "final_x": "3680888.80431",
    "final_y": "535563.913798",
    "longitude": "-90.06985945517643",
    "latitude": "29.966633611090188",
    "geocoded_column": {
      "latitude": "29.966633611090188",
      "longitude": "-90.06985945517643"
    }
  },
  {
    "service_request": "2023-1057197",
    "request_type": "Trash/Recycling",
    "request_reason": "Order Trash Cart",
    "date_created": "2023-12-22T16:13:47.000",
    "date_modified": "2023-12-22T16:13:47.000",
    "request_status": "Pending",
    "responsible_agency": "Department of Sanitation",
    "final_address": "3977 Peach Tree Ct",
    "address_councildis": "C",
    "status": "Assigned to Contractor",
    "contractor": "Richards Disposal",
    "rowid": "1057197",
    "final_x": "3703986.5226",
    "final_y": "512963.582065",
    "longitude": "-89.99774949168167",
    "latitude": "29.90377010406109",
    "geocoded_column": {
      "latitude": "29.90377010406109",
      "longitude": "-89.99774949168167"
    }
  },
  {
    "service_request": "2023-1057196",
    "request_type": "Property Maintenance",
    "request_reason": "Property Maintenance",
    "date_created": "2023-12-22T15:32:34.000",
    "date_modified": "2023-12-22T15:32:34.000",
    "request_status": "Pending",
    "responsible_agency": "Department of Code Enforcement",
    "final_address": "1329 Mandolin St",
    "address_councildis": "D",
    "status": "Pending",
    "rowid": "1057196",
    "final_x": "3677456.01672",
    "final_y": "548108.25301",
    "longitude": "-90.08026695708274",
    "latitude": "30.00122982448429",
    "geocoded_column": {
      "latitude": "30.00122982448429",
      "longitude": "-90.08026695708274"
    }
  },
  {
    "service_request": "2023-1057194",
    "request_type": "Trash/Recycling",
    "request_reason": "Order Recycling Cart",
    "date_created": "2023-12-22T15:06:46.000",
    "date_modified": "2023-12-22T15:06:46.000",
    "request_status": "Pending",
    "responsible_agency": "Department of Sanitation",
    "final_address": "WILLOWBROOK DR & TUDO DR",
    "address_councildis": "E",
    "status": "Pending",
    "rowid": "1057194",
    "final_x": "3728108.4",
    "final_y": "563066.08",
    "longitude": "-89.91967113686212",
    "latitude": "30.04073742410085",
    "geocoded_column": {
      "latitude": "30.04073742410085",
      "longitude": "-89.91967113686212"
    }
  },
  {
    "service_request": "2023-1057193",
    "request_type": "Property Maintenance",
    "request_reason": "Property Maintenance",
    "date_created": "2023-12-22T15:01:37.000",
    "date_modified": "2023-12-22T15:01:37.000",
    "request_status": "Pending",
    "responsible_agency": "Department of Code Enforcement",
    "final_address": "1520 Oretha Castle Haley Blvd",
    "address_councildis": "B",
    "status": "Pending",
    "rowid": "1057193",
    "final_x": "3677983.0596",
    "final_y": "526072.68435",
    "longitude": "-90.07936379551431",
    "latitude": "29.940623694769084",
    "geocoded_column": {
      "latitude": "29.940623694769084",
      "longitude": "-90.07936379551431"
    }
  },
  {
    "service_request": "2023-1057192",
    "request_type": "Trash/Recycling",
    "request_reason": "Replace Recycling Cart",
    "date_created": "2023-12-22T14:55:05.000",
    "date_modified": "2023-12-22T14:55:05.000",
    "request_status": "Pending",
    "responsible_agency": "Department of Sanitation",
    "final_address": "4623 Dart St",
    "address_councildis": "B",
    "status": "Pending",
    "rowid": "1057192",
    "final_x": "3669207.88385",
    "final_y": "531658.224579",
    "longitude": "-90.106879842914",
    "latitude": "29.956243248612864",
    "geocoded_column": {
      "latitude": "29.956243248612864",
      "longitude": "-90.106879842914"
    }
  },
  {
    "service_request": "2023-1057191",
    "request_type": "Trash/Recycling",
    "request_reason": "Replace Trash Cart",
    "date_created": "2023-12-22T14:50:09.000",
    "date_modified": "2023-12-22T14:50:10.000",
    "request_status": "Pending",
    "responsible_agency": "Department of Sanitation",
    "final_address": "7230 Pinebrook Dr",
    "address_councildis": "E",
    "status": "Assigned to Contractor",
    "contractor": "Waste Pro",
    "rowid": "1057191",
    "final_x": "3718913.21439",
    "final_y": "570529.586087",
    "longitude": "-89.94844559718173",
    "latitude": "30.061567708615993",
    "geocoded_column": {
      "latitude": "30.061567708615993",
      "longitude": "-89.94844559718173"
    }
  },
  {
    "service_request": "2023-1057190",
    "request_type": "Trash/Recycling",
    "request_reason": "Replace Trash Cart",
    "date_created": "2023-12-22T14:46:56.000",
    "date_modified": "2023-12-22T14:46:57.000",
    "request_status": "Pending",
    "responsible_agency": "Department of Sanitation",
    "final_address": "410 River Oaks Dr",
    "address_councildis": "C",
    "status": "Assigned to Contractor",
    "contractor": "Richards Disposal",
    "rowid": "1057190",
    "final_x": "3701605.42621",
    "final_y": "522080.980986",
    "longitude": "-90.0049305990391",
    "latitude": "29.928915932538384",
    "geocoded_column": {
      "latitude": "29.928915932538384",
      "longitude": "-90.0049305990391"
    }
  },
  {
    "service_request": "2023-1057189",
    "request_type": "Trash/Recycling",
    "request_reason": "MIssed Recycling Pick-Up",
    "date_created": "2023-12-22T14:45:32.000",
    "date_modified": "2023-12-22T14:45:33.000",
    "request_status": "Pending",
    "responsible_agency": "Department of Sanitation",
    "final_address": "1922 Constance St",
    "address_councildis": "B",
    "status": "Assigned to Contractor",
    "contractor": "Richards Disposal",
    "rowid": "1057189",
    "final_x": "3679900.75631",
    "final_y": "522374.973178",
    "longitude": "-90.07343766674441",
    "latitude": "29.93039836461747",
    "geocoded_column": {
      "latitude": "29.93039836461747",
      "longitude": "-90.07343766674441"
    }
  },
  {
    "service_request": "2023-1057188",
    "request_type": "Trash/Recycling",
    "request_reason": "Request a Large Item Pick Up",
    "date_created": "2023-12-22T14:37:31.000",
    "date_modified": "2023-12-22T14:37:32.000",
    "request_status": "Pending",
    "responsible_agency": "Department of Sanitation",
    "final_address": "920 Filmore Ave",
    "address_councildis": "A",
    "status": "Assigned to Contractor",
    "contractor": "IV Waste",
    "rowid": "1057188",
    "final_x": "3670451.20948",
    "final_y": "551835.941846",
    "longitude": "-90.1022692952905",
    "latitude": "30.011688433195122",
    "geocoded_column": {
      "latitude": "30.011688433195122",
      "longitude": "-90.1022692952905"
    }
  },
  {
    "service_request": "2023-1057187",
    "request_type": "Trash/Recycling",
    "request_reason": "Request a Large Item Pick Up",
    "date_created": "2023-12-22T14:24:08.000",
    "date_modified": "2023-12-22T14:24:10.000",
    "request_status": "Pending",
    "responsible_agency": "Department of Sanitation",
    "final_address": "3911 Dumaine St",
    "address_councildis": "A",
    "status": "Assigned to Contractor",
    "contractor": "Richards Disposal",
    "rowid": "1057187",
    "final_x": "3673494.36737",
    "final_y": "540361.256523",
    "longitude": "-90.09304708322206",
    "latitude": "29.9800467983101",
    "geocoded_column": {
      "latitude": "29.9800467983101",
      "longitude": "-90.09304708322206"
    }
  },
  {
    "service_request": "2023-1057186",
    "request_type": "Abandoned Vehicles",
    "request_reason": "Abandoned/Junk Vehicles",
    "date_created": "2023-12-22T14:17:40.000",
    "date_modified": "2023-12-22T14:17:40.000",
    "request_status": "Pending",
    "responsible_agency": "Department of Public Works",
    "final_address": "2222 Onzaga St",
    "address_councildis": "D",
    "status": "Pending",
    "rowid": "1057186",
    "final_x": "3680532.77685",
    "final_y": "539446.03073",
    "longitude": "-90.07084870965595",
    "latitude": "29.977318884193235",
    "geocoded_column": {
      "latitude": "29.977318884193235",
      "longitude": "-90.07084870965595"
    }
  },
  {
    "service_request": "2023-1057185",
    "request_type": "Roads/Drainage",
    "request_reason": "Damaged Sidewalk",
    "date_created": "2023-12-22T14:13:57.000",
    "date_modified": "2023-12-23T11:05:56.000",
    "case_close_date": "2023-12-23T05:05:56.000",
    "request_status": "Closed",
    "responsible_agency": "Department of Public Works",
    "final_address": "510 S Norman C Francis Prkwy",
    "address_councildis": "B",
    "status": "Captured by Project",
    "rowid": "1057185",
    "final_x": "3672287.98817",
    "final_y": "535268.299142",
    "longitude": "-90.09703089596817",
    "latitude": "29.966078738890364",
    "geocoded_column": {
      "latitude": "29.966078738890364",
      "longitude": "-90.09703089596817"
    }
  },
  {
    "service_request": "2023-1057184",
    "request_type": "Trash/Recycling",
    "request_reason": "Replace Trash Cart",
    "date_created": "2023-12-22T13:52:39.000",
    "date_modified": "2023-12-22T13:52:40.000",
    "request_status": "Pending",
    "responsible_agency": "Department of Sanitation",
    "final_address": "LAUREL ST & 7TH ST",
    "address_councildis": "B",
    "status": "Assigned to Contractor",
    "contractor": "Richards Disposal",
    "rowid": "1057184",
    "final_x": "3676777.1",
    "final_y": "519766.08",
    "longitude": "-90.08338841737097",
    "latitude": "29.923318825202557",
    "geocoded_column": {
      "latitude": "29.923318825202557",
      "longitude": "-90.08338841737097"
    }
  },
  {
    "service_request": "2023-1057183",
    "request_type": "Trash/Recycling",
    "request_reason": "Replace Trash Cart",
    "date_created": "2023-12-22T13:48:21.000",
    "date_modified": "2023-12-22T13:48:23.000",
    "request_status": "Pending",
    "responsible_agency": "Department of Sanitation",
    "final_address": "LAUREL ST & 7TH ST",
    "address_councildis": "B",
    "status": "Assigned to Contractor",
    "contractor": "Richards Disposal",
    "rowid": "1057183",
    "final_x": "3676777.1",
    "final_y": "519766.08",
    "longitude": "-90.08338841737097",
    "latitude": "29.923318825202557",
    "geocoded_column": {
      "latitude": "29.923318825202557",
      "longitude": "-90.08338841737097"
    }
  },
  {
    "service_request": "2023-1057182",
    "request_type": "Abandoned Vehicles",
    "request_reason": "Abandoned/Junk Vehicles",
    "date_created": "2023-12-22T13:41:28.000",
    "date_modified": "2023-12-22T13:41:28.000",
    "request_status": "Pending",
    "responsible_agency": "Department of Public Works",
    "final_address": "ZIMPLE ST & HILLARY ST",
    "address_councildis": "A",
    "status": "Pending",
    "rowid": "1057182",
    "final_x": "3663061.4",
    "final_y": "526897.68",
    "longitude": "-90.12644679504388",
    "latitude": "29.943332749910944",
    "geocoded_column": {
      "latitude": "29.943332749910944",
      "longitude": "-90.12644679504388"
    }
  },
  {
    "service_request": "2023-1057181",
    "request_type": "Traffic Signals/Signs/Striping/Streetlights",
    "request_reason": "Street Light Outage/Malfunction",
    "date_created": "2023-12-22T13:20:21.000",
    "date_modified": "2023-12-22T13:20:22.000",
    "request_status": "Pending",
    "responsible_agency": "Department of Public Works",
    "final_address": "5800 Rhodes Ave",
    "address_councildis": "C",
    "status": "Assigned to Contractor",
    "contractor": "Legacy Professional Services",
    "rowid": "1057181",
    "final_x": "3704744.28478",
    "final_y": "519711.96012",
    "longitude": "-89.99510927320685",
    "latitude": "29.922301517119667",
    "geocoded_column": {
      "latitude": "29.922301517119667",
      "longitude": "-89.99510927320685"
    }
  },
  {
    "service_request": "2023-1057180",
    "request_type": "Trash/Recycling",
    "request_reason": "Request a Large Item Pick Up",
    "date_created": "2023-12-22T12:51:46.000",
    "date_modified": "2023-12-22T12:51:47.000",
    "request_status": "Pending",
    "responsible_agency": "Department of Sanitation",
    "final_address": "1831 Esplanade Ave",
    "address_councildis": "D",
    "status": "Assigned to Contractor",
    "contractor": "IV Waste",
    "rowid": "1057180",
    "final_x": "3680560.10159",
    "final_y": "537216.935304",
    "longitude": "-90.07083997865506",
    "latitude": "29.971188814373452",
    "geocoded_column": {
      "latitude": "29.971188814373452",
      "longitude": "-90.07083997865506"
    }
  },
  {
    "service_request": "2023-1057179",
    "request_type": "Trash/Recycling",
    "request_reason": "Missed Trash Pick-Up",
    "date_created": "2023-12-22T12:51:37.000",
    "date_modified": "2023-12-22T13:42:41.000",
    "case_close_date": "2023-12-22T07:42:41.000",
    "request_status": "Closed",
    "responsible_agency": "Department of Sanitation",
    "final_address": "5220 Arts St",
    "address_councildis": "D",
    "status": "Invalid Request",
    "contractor": "IV Waste",
    "contractor_action": "Invalid Request",
    "rowid": "1057179",
    "final_x": "3685724.19798",
    "final_y": "552331.90991",
    "longitude": "-90.05399812600402",
    "latitude": "30.012592134668054",
    "geocoded_column": {
      "latitude": "30.012592134668054",
      "longitude": "-90.05399812600402"
    }
  },
  {
    "service_request": "2023-1057178",
    "request_type": "Trash/Recycling",
    "request_reason": "Request a Large Item Pick Up",
    "date_created": "2023-12-22T12:24:51.000",
    "date_modified": "2023-12-22T12:24:52.000",
    "request_status": "Pending",
    "responsible_agency": "Department of Sanitation",
    "final_address": "8722 Pear St",
    "address_councildis": "A",
    "status": "Assigned to Contractor",
    "contractor": "Richards Disposal",
    "rowid": "1057178",
    "final_x": "3667387.93428",
    "final_y": "537773.86772",
    "longitude": "-90.11242088773186",
    "latitude": "29.973112680310237",
    "geocoded_column": {
      "latitude": "29.973112680310237",
      "longitude": "-90.11242088773186"
    }
  },
  {
    "service_request": "2023-1057177",
    "request_type": "Roads/Drainage",
    "request_reason": "Street Flooding / Drainage",
    "date_created": "2023-12-22T12:21:44.000",
    "date_modified": "2023-12-22T12:21:44.000",
    "request_status": "Pending",
    "responsible_agency": "Department of Public Works",
    "final_address": "1600 Louisa St",
    "address_councildis": "D",
    "status": "Pending",
    "rowid": "1057177",
    "final_x": "3690000.59446",
    "final_y": "537779.181512",
    "longitude": "-90.04100568520886",
    "latitude": "29.97244540834081",
    "geocoded_column": {
      "latitude": "29.97244540834081",
      "longitude": "-90.04100568520886"
    }
  },
  {
    "service_request": "2023-1057176",
    "request_type": "Roads/Drainage",
    "request_reason": "Street Flooding / Drainage",
    "date_created": "2023-12-22T12:20:24.000",
    "date_modified": "2023-12-22T12:20:24.000",
    "request_status": "Pending",
    "responsible_agency": "Department of Public Works",
    "final_address": "1600 Louisa St",
    "address_councildis": "D",
    "status": "Pending",
    "rowid": "1057176",
    "final_x": "3690000.59446",
    "final_y": "537779.181512",
    "longitude": "-90.04100568520886",
    "latitude": "29.97244540834081",
    "geocoded_column": {
      "latitude": "29.97244540834081",
      "longitude": "-90.04100568520886"
    }
  },
  {
    "service_request": "2023-1057175",
    "request_type": "Roads/Drainage",
    "request_reason": "Road Shoulder Repair",
    "date_created": "2023-12-22T12:18:58.000",
    "date_modified": "2023-12-23T11:10:38.000",
    "case_close_date": "2023-12-23T05:10:38.000",
    "request_status": "Closed",
    "responsible_agency": "Department of Public Works",
    "final_address": "5220 Atlanta St",
    "address_councildis": "B",
    "status": "Duplicate Request",
    "rowid": "1057175",
    "final_x": "3667917.40577",
    "final_y": "520685.623161",
    "longitude": "-90.1113242624008",
    "latitude": "29.926110051036336",
    "geocoded_column": {
      "latitude": "29.926110051036336",
      "longitude": "-90.1113242624008"
    }
  },
  {
    "service_request": "2023-1057174",
    "request_type": "Roads/Drainage",
    "request_reason": "Road Shoulder Repair",
    "date_created": "2023-12-22T12:16:19.000",
    "date_modified": "2023-12-23T11:35:56.000",
    "case_close_date": "2023-12-23T05:35:56.000",
    "request_status": "Closed",
    "responsible_agency": "Department of Public Works",
    "final_address": "1423 Dufossat St",
    "address_councildis": "B",
    "status": "Duplicate Request",
    "rowid": "1057174",
    "final_x": "3668174.01178",
    "final_y": "520369.628984",
    "longitude": "-90.11052487395027",
    "latitude": "29.925233639881142",
    "geocoded_column": {
      "latitude": "29.925233639881142",
      "longitude": "-90.11052487395027"
    }
  },
  {
    "service_request": "2023-1057173",
    "request_type": "Abandoned Vehicles",
    "request_reason": "Vehicle Blocking Your Driveway",
    "date_created": "2023-12-22T12:05:14.000",
    "date_modified": "2023-12-22T12:05:14.000",
    "request_status": "Pending",
    "responsible_agency": "Department of Public Works",
    "final_address": "1323 Broadway St",
    "address_councildis": "A",
    "status": "Pending",
    "rowid": "1057173",
    "final_x": "3664523.85632",
    "final_y": "526929.187454",
    "longitude": "-90.12182837546058",
    "latitude": "29.943376949156622",
    "geocoded_column": {
      "latitude": "29.943376949156622",
      "longitude": "-90.12182837546058"
    }
  },
  {
    "service_request": "2023-1057172",
    "request_type": "Abandoned Vehicles",
    "request_reason": "Vehicle Blocking Your Driveway",
    "date_created": "2023-12-22T12:00:49.000",
    "date_modified": "2023-12-22T12:00:49.000",
    "request_status": "Pending",
    "responsible_agency": "Department of Public Works",
    "final_address": "1323 Broadway St",
    "address_councildis": "A",
    "status": "Pending",
    "rowid": "1057172",
    "final_x": "3664523.85632",
    "final_y": "526929.187454",
    "longitude": "-90.12182837546058",
    "latitude": "29.943376949156622",
    "geocoded_column": {
      "latitude": "29.943376949156622",
      "longitude": "-90.12182837546058"
    }
  },
  {
    "service_request": "2023-1057171",
    "request_type": "Roads/Drainage",
    "request_reason": "Service Cut",
    "date_created": "2023-12-22T11:55:41.000",
    "date_modified": "2023-12-22T11:55:41.000",
    "request_status": "Pending",
    "responsible_agency": "Department of Public Works",
    "final_address": "4800 Hayne Blvd",
    "address_councildis": "D",
    "status": "Pending",
    "rowid": "1057171",
    "final_x": "3689936.6632",
    "final_y": "558199.119323",
    "longitude": "-90.04047995263457",
    "latitude": "30.02859477792518",
    "geocoded_column": {
      "latitude": "30.02859477792518",
      "longitude": "-90.04047995263457"
    }
  },
  {
    "service_request": "2023-1057170",
    "request_type": "Trash/Recycling",
    "request_reason": "Request a Large Item Pick Up",
    "date_created": "2023-12-22T11:45:48.000",
    "date_modified": "2023-12-22T11:45:49.000",
    "request_status": "Pending",
    "responsible_agency": "Department of Sanitation",
    "final_address": "4444 Baccich St",
    "address_councildis": "D",
    "status": "Assigned to Contractor",
    "contractor": "IV Waste",
    "rowid": "1057170",
    "final_x": "3687778.83222",
    "final_y": "549273.779987",
    "longitude": "-90.04761504863339",
    "latitude": "30.004120159154166",
    "geocoded_column": {
      "latitude": "30.004120159154166",
      "longitude": "-90.04761504863339"
    }
  },
  {
    "service_request": "2023-1057169",
    "request_type": "Trash/Recycling",
    "request_reason": "Replace Trash Cart",
    "date_created": "2023-12-22T11:35:22.000",
    "date_modified": "2023-12-22T11:35:23.000",
    "request_status": "Pending",
    "responsible_agency": "Department of Sanitation",
    "final_address": "3307 Chestnut St",
    "address_councildis": "B",
    "status": "Assigned to Contractor",
    "contractor": "Richards Disposal",
    "rowid": "1057169",
    "final_x": "3675013.69915",
    "final_y": "520472.275576",
    "longitude": "-90.08893060507783",
    "latitude": "29.9253134108703",
    "geocoded_column": {
      "latitude": "29.9253134108703",
      "longitude": "-90.08893060507783"
    }
  },
  {
    "service_request": "2023-1057168",
    "request_type": "Trash/Recycling",
    "request_reason": "Request a Large Item Pick Up",
    "date_created": "2023-12-22T11:34:13.000",
    "date_modified": "2023-12-22T11:34:15.000",
    "request_status": "Pending",
    "responsible_agency": "Department of Sanitation",
    "final_address": "2514 Independence St",
    "address_councildis": "D",
    "status": "Assigned to Contractor",
    "contractor": "IV Waste",
    "rowid": "1057168",
    "final_x": "3692247.70864",
    "final_y": "540933.024139",
    "longitude": "-90.03379596691303",
    "latitude": "29.981047472853202",
    "geocoded_column": {
      "latitude": "29.981047472853202",
      "longitude": "-90.03379596691303"
    }
  },
  {
    "service_request": "2023-1057167",
    "request_type": "Trash/Recycling",
    "request_reason": "Replace Trash Cart",
    "date_created": "2023-12-22T11:20:04.000",
    "date_modified": "2023-12-22T11:20:05.000",
    "request_status": "Pending",
    "responsible_agency": "Department of Sanitation",
    "final_address": "5622 Dauphine St",
    "address_councildis": "E",
    "status": "Assigned to Contractor",
    "contractor": "Waste Pro",
    "rowid": "1057167",
    "final_x": "3697936.47319",
    "final_y": "532532.199428",
    "longitude": "-90.01613341603702",
    "latitude": "29.95776958785013",
    "geocoded_column": {
      "latitude": "29.95776958785013",
      "longitude": "-90.01613341603702"
    }
  },
  {
    "service_request": "2023-1057166",
    "request_type": "Trash/Recycling",
    "request_reason": "Illegal Dumping",
    "date_created": "2023-12-22T11:04:14.000",
    "date_modified": "2023-12-22T11:04:14.000",
    "request_status": "Pending",
    "responsible_agency": "Department of Sanitation",
    "final_address": "North Robertson Street & Saint Maurice Avenue",
    "address_councildis": "E",
    "status": "Pending",
    "rowid": "1057166",
    "final_x": "3700404.74743",
    "final_y": "534577.30151",
    "longitude": "-90.00826468920671",
    "latitude": "29.96331463841229",
    "geocoded_column": {
      "latitude": "29.96331463841229",
      "longitude": "-90.00826468920671"
    }
  },
  {
    "service_request": "2023-1057165",
    "request_type": "Property Maintenance",
    "request_reason": "Property Maintenance",
    "date_created": "2023-12-22T10:58:06.000",
    "date_modified": "2023-12-22T10:58:06.000",
    "request_status": "Pending",
    "responsible_agency": "Department of Code Enforcement",
    "final_address": "5217 Elysian Fields Ave",
    "address_councildis": "D",
    "status": "Pending",
    "rowid": "1057165",
    "final_x": "3683864.05263",
    "final_y": "552205.81039",
    "longitude": "-90.05987957706651",
    "latitude": "30.012302381870406",
    "geocoded_column": {
      "latitude": "30.012302381870406",
      "longitude": "-90.05987957706651"
    }
  },
  {
    "service_request": "2023-1057164",
    "request_type": "Trash/Recycling",
    "request_reason": "Replace Trash Cart",
    "date_created": "2023-12-22T10:56:37.000",
    "date_modified": "2023-12-22T12:52:47.000",
    "case_close_date": "2023-12-22T06:52:47.000",
    "request_status": "Closed",
    "responsible_agency": "Department of Sanitation",
    "final_address": "1840 St Thomas St",
    "address_councildis": "B",
    "status": "Duplicate Request",
    "contractor": "Richards Disposal",
    "rowid": "1057164",
    "final_x": "3681095.40002",
    "final_y": "521477.562425",
    "longitude": "-90.06969760493234",
    "latitude": "29.927894607677175",
    "geocoded_column": {
      "latitude": "29.927894607677175",
      "longitude": "-90.06969760493234"
    }
  },
  {
    "service_request": "2023-1057163",
    "request_type": "Trash/Recycling",
    "request_reason": "Replace Trash Cart",
    "date_created": "2023-12-22T10:56:37.000",
    "date_modified": "2023-12-22T10:56:38.000",
    "request_status": "Pending",
    "responsible_agency": "Department of Sanitation",
    "final_address": "1840 St Thomas St",
    "address_councildis": "B",
    "status": "Assigned to Contractor",
    "contractor": "Richards Disposal",
    "rowid": "1057163",
    "final_x": "3681095.40002",
    "final_y": "521477.562425",
    "longitude": "-90.06969760493234",
    "latitude": "29.927894607677175",
    "geocoded_column": {
      "latitude": "29.927894607677175",
      "longitude": "-90.06969760493234"
    }
  },
  {
    "service_request": "2023-1057162",
    "request_type": "Abandoned Vehicles",
    "request_reason": "Abandoned/Junk Vehicles",
    "date_created": "2023-12-22T10:40:17.000",
    "date_modified": "2023-12-22T10:40:17.000",
    "request_status": "Pending",
    "responsible_agency": "Department of Public Works",
    "final_address": "4608 S Robertson St",
    "address_councildis": "B",
    "status": "Pending",
    "rowid": "1057162",
    "final_x": "3669663.27886",
    "final_y": "524276.994428",
    "longitude": "-90.1056915683361",
    "latitude": "29.93593385963048",
    "geocoded_column": {
      "latitude": "29.93593385963048",
      "longitude": "-90.1056915683361"
    }
  },
  {
    "service_request": "2023-1057161",
    "request_type": "Trash/Recycling",
    "request_reason": "Replace Trash Cart",
    "date_created": "2023-12-22T10:30:11.000",
    "date_modified": "2023-12-22T10:30:12.000",
    "request_status": "Pending",
    "responsible_agency": "Department of Sanitation",
    "final_address": "1921 Rivertree Ct",
    "address_councildis": "C",
    "status": "Assigned to Contractor",
    "contractor": "Richards Disposal",
    "rowid": "1057161",
    "final_x": "3701365.34673",
    "final_y": "523745.003259",
    "longitude": "-90.00562760938513",
    "latitude": "29.933499067264066",
    "geocoded_column": {
      "latitude": "29.933499067264066",
      "longitude": "-90.00562760938513"
    }
  },
  {
    "service_request": "2023-1057160",
    "request_type": "Trash/Recycling",
    "request_reason": "Replace Trash Cart",
    "date_created": "2023-12-22T10:28:02.000",
    "date_modified": "2023-12-22T12:53:20.000",
    "case_close_date": "2023-12-22T06:53:20.000",
    "request_status": "Closed",
    "responsible_agency": "Department of Sanitation",
    "final_address": "1921 Rivertree Ct",
    "address_councildis": "C",
    "status": "Duplicate Request",
    "contractor": "Richards Disposal",
    "rowid": "1057160",
    "final_x": "3701365.34673",
    "final_y": "523745.003259",
    "longitude": "-90.00562760938513",
    "latitude": "29.933499067264066",
    "geocoded_column": {
      "latitude": "29.933499067264066",
      "longitude": "-90.00562760938513"
    }
  },
  {
    "service_request": "2023-1057159",
    "request_type": "Trash/Recycling",
    "request_reason": "Missed Trash Pick-Up",
    "date_created": "2023-12-22T10:26:36.000",
    "date_modified": "2023-12-22T17:32:37.000",
    "case_close_date": "2023-12-22T11:32:39.000",
    "request_status": "Closed",
    "responsible_agency": "Department of Sanitation",
    "final_address": "6041 Kuebel Dr",
    "address_councildis": "E",
    "status": "Invalid Request",
    "contractor": "Waste Pro",
    "contractor_action": "Invalid Pick-Up",
    "rowid": "1057159",
    "final_x": "3695131.82544",
    "final_y": "559818.051933",
    "longitude": "-90.02400510037873",
    "latitude": "30.032884025830437",
    "geocoded_column": {
      "latitude": "30.032884025830437",
      "longitude": "-90.02400510037873"
    }
  },
  {
    "service_request": "2023-1057158",
    "request_type": "Roads/Drainage",
    "request_reason": "Road Shoulder Repair",
    "date_created": "2023-12-22T10:23:21.000",
    "date_modified": "2023-12-23T11:43:46.000",
    "case_close_date": "2023-12-23T05:43:46.000",
    "request_status": "Closed",
    "responsible_agency": "Department of Public Works",
    "final_address": "1725 Dufossat St",
    "address_councildis": "B",
    "status": "Duplicate Request",
    "rowid": "1057158",
    "final_x": "3668192.68743",
    "final_y": "522036.060218",
    "longitude": "-90.11040977787289",
    "latitude": "29.92981524824353",
    "geocoded_column": {
      "latitude": "29.92981524824353",
      "longitude": "-90.11040977787289"
    }
  },
  {
    "service_request": "2023-1057157",
    "request_type": "Roads/Drainage",
    "request_reason": "Road Shoulder Repair",
    "date_created": "2023-12-22T10:16:56.000",
    "date_modified": "2023-12-23T11:54:44.000",
    "case_close_date": "2023-12-23T05:54:44.000",
    "request_status": "Closed",
    "responsible_agency": "Department of Public Works",
    "final_address": "1712 Upperline St",
    "address_councildis": "B",
    "status": "Duplicate Request",
    "rowid": "1057157",
    "final_x": "3669019.34023",
    "final_y": "521211.469945",
    "longitude": "-90.10782801031831",
    "latitude": "29.927523602627975",
    "geocoded_column": {
      "latitude": "29.927523602627975",
      "longitude": "-90.10782801031831"
    }
  },
  {
    "service_request": "2023-1057156",
    "request_type": "Trash/Recycling",
    "request_reason": "Request a Large Item Pick Up",
    "date_created": "2023-12-22T10:12:56.000",
    "date_modified": "2023-12-22T10:12:57.000",
    "request_status": "Pending",
    "responsible_agency": "Department of Sanitation",
    "final_address": "4136 St Peter St",
    "address_councildis": "A",
    "status": "Assigned to Contractor",
    "contractor": "Richards Disposal",
    "rowid": "1057156",
    "final_x": "3672260.3451",
    "final_y": "540116.785227",
    "longitude": "-90.09695297970951",
    "latitude": "29.979411256039466",
    "geocoded_column": {
      "latitude": "29.979411256039466",
      "longitude": "-90.09695297970951"
    }
  },
  {
    "service_request": "2023-1057155",
    "request_type": "Trash/Recycling",
    "request_reason": "Replace Trash Cart",
    "date_created": "2023-12-22T09:58:14.000",
    "date_modified": "2023-12-22T09:58:16.000",
    "request_status": "Pending",
    "responsible_agency": "Department of Sanitation",
    "final_address": "5127 Macarthur Blvd",
    "address_councildis": "C",
    "status": "Assigned to Contractor",
    "contractor": "Richards Disposal",
    "rowid": "1057155",
    "final_x": "3702904.3434",
    "final_y": "519926.26828",
    "longitude": "-90.00090930445425",
    "latitude": "29.92294974892427",
    "geocoded_column": {
      "latitude": "29.92294974892427",
      "longitude": "-90.00090930445425"
    }
  },
  {
    "service_request": "2023-1057154",
    "request_type": "Roads/Drainage",
    "request_reason": "Street Subsidence (Sinking)",
    "date_created": "2023-12-22T09:49:36.000",
    "date_modified": "2023-12-22T09:49:36.000",
    "request_status": "Pending",
    "responsible_agency": "Department of Public Works",
    "final_address": "2330 Octavia St",
    "address_councildis": "A",
    "status": "Pending",
    "rowid": "1057154",
    "final_x": "3667596.75994",
    "final_y": "524315.45734",
    "longitude": "-90.11221434061501",
    "latitude": "29.936100337610885",
    "geocoded_column": {
      "latitude": "29.936100337610885",
      "longitude": "-90.11221434061501"
    }
  },
  {
    "service_request": "2023-1057153",
    "request_type": "Parks & Parkways",
    "request_reason": "Request Tree Service (Right of Way/Public Property)",
    "date_created": "2023-12-22T09:37:44.000",
    "date_modified": "2023-12-22T09:37:44.000",
    "request_status": "Pending",
    "responsible_agency": "Department of Parks & Parkway",
    "final_address": "1416 Elysian Fields Ave",
    "address_councildis": "C",
    "status": "Pending",
    "rowid": "1057153",
    "final_x": "3684798.07919",
    "final_y": "537541.879304",
    "longitude": "-90.05744446270354",
    "latitude": "29.97195322351921",
    "geocoded_column": {
      "latitude": "29.97195322351921",
      "longitude": "-90.05744446270354"
    }
  },
  {
    "service_request": "2023-1057152",
    "request_type": "Abandoned Vehicles",
    "request_reason": "Vehicle Blocking Your Driveway",
    "date_created": "2023-12-22T09:36:48.000",
    "date_modified": "2023-12-22T09:36:48.000",
    "request_status": "Pending",
    "responsible_agency": "Department of Public Works",
    "final_address": "301 S Norman C Francis Prkwy",
    "address_councildis": "B",
    "status": "Pending",
    "rowid": "1057152",
    "final_x": "3672584.49774",
    "final_y": "536160.659015",
    "longitude": "-90.09606409526579",
    "latitude": "29.96852362845213",
    "geocoded_column": {
      "latitude": "29.96852362845213",
      "longitude": "-90.09606409526579"
    }
  },
  {
    "service_request": "2023-1057151",
    "request_type": "Property Maintenance",
    "request_reason": "Property Maintenance",
    "date_created": "2023-12-22T09:20:21.000",
    "date_modified": "2023-12-22T09:20:21.000",
    "request_status": "Pending",
    "responsible_agency": "Department of Code Enforcement",
    "final_address": "3400 BLK N Johnson St",
    "address_councildis": "D",
    "status": "Pending",
    "rowid": "1057151",
    "final_x": "3691161.4828",
    "final_y": "539054.17332",
    "longitude": "-90.03729386400417",
    "latitude": "29.975915131488023",
    "geocoded_column": {
      "latitude": "29.975915131488023",
      "longitude": "-90.03729386400417"
    }
  },
  {
    "service_request": "2023-1057150",
    "request_type": "Trash/Recycling",
    "request_reason": "Replace Recycling Cart",
    "date_created": "2023-12-22T09:13:10.000",
    "date_modified": "2023-12-22T09:13:10.000",
    "request_status": "Pending",
    "responsible_agency": "Department of Sanitation",
    "final_address": "2018 Delachaise St",
    "address_councildis": "B",
    "status": "Pending",
    "rowid": "1057150",
    "final_x": "3673166.99924",
    "final_y": "522847.205627",
    "longitude": "-90.09467902420118",
    "latitude": "29.93189872021982",
    "geocoded_column": {
      "latitude": "29.93189872021982",
      "longitude": "-90.09467902420118"
    }
  },
  {
    "service_request": "2023-1057149",
    "request_type": "Trash/Recycling",
    "request_reason": "Start Trash Service",
    "date_created": "2023-12-22T08:57:37.000",
    "date_modified": "2023-12-22T11:45:56.000",
    "case_close_date": "2023-12-22T05:45:56.000",
    "request_status": "Closed",
    "responsible_agency": "Department of Sanitation",
    "final_address": "425 Celeste St",
    "address_councildis": "B",
    "status": "Resolved",
    "contractor": "Richards Disposal",
    "rowid": "1057149",
    "final_x": "3682253.27951",
    "final_y": "521476.733881",
    "longitude": "-90.06604248169063",
    "latitude": "29.927857167766927",
    "geocoded_column": {
      "latitude": "29.927857167766927",
      "longitude": "-90.06604248169063"
    }
  },
  {
    "service_request": "2023-1057148",
    "request_type": "Trash/Recycling",
    "request_reason": "Request a Large Item Pick Up",
    "date_created": "2023-12-22T08:56:45.000",
    "date_modified": "2023-12-22T08:56:47.000",
    "request_status": "Pending",
    "responsible_agency": "Department of Sanitation",
    "final_address": "4500 BLK S Liberty St",
    "address_councildis": "B",
    "status": "Assigned to Contractor",
    "contractor": "Richards Disposal",
    "rowid": "1057148",
    "final_x": "3670028.78195",
    "final_y": "523288.966989",
    "longitude": "-90.10457111378435",
    "latitude": "29.93320632943118",
    "geocoded_column": {
      "latitude": "29.93320632943118",
      "longitude": "-90.10457111378435"
    }
  },
  {
    "service_request": "2023-1057147",
    "request_type": "Abandoned Vehicles",
    "request_reason": "Vehicle Blocking Your Driveway",
    "date_created": "2023-12-22T08:27:01.000",
    "date_modified": "2023-12-22T08:27:01.000",
    "request_status": "Pending",
    "responsible_agency": "Department of Public Works",
    "final_address": "6071 Annunciation St",
    "address_councildis": "A",
    "status": "Pending",
    "rowid": "1057147",
    "final_x": "3663697.18919",
    "final_y": "518090.197878",
    "longitude": "-90.12473274296295",
    "latitude": "29.919096523868866",
    "geocoded_column": {
      "latitude": "29.919096523868866",
      "longitude": "-90.12473274296295"
    }
  },