[
  {
    "service_request": "2022-861041",
    "request_type": "Property Maintenance",
    "request_reason": "Property Maintenance",
    "date_created": "2022-02-15T00:51:06.000",
    "date_modified": "2022-02-15T00:51:06.000",
    "request_status": "Pending",
    "responsible_agency": "Department of Code Enforcement",
    "final_address": "4232 Fontainebleau Dr",
    "address_councildis": "A",
    "status": "Pending",
    "rowid": "861041",
    "final_x": "3669494.63866",
    "final_y": "529262.996225",
    "longitude": "-90.10605537382496",
    "latitude": "29.94964871415222",
    "geocoded_column": {
      "latitude": "29.94964871415222",
      "longitude": "-90.10605537382496"
    }
  },
  {
    "service_request": "2022-861040",
    "request_type": "Roads/Drainage",
    "request_reason": "Street Subsidence (Sinking)",
    "date_created": "2022-02-14T22:45:47.000",
    "date_modified": "2022-02-14T22:45:47.000",
    "request_status": "Pending",
    "responsible_agency": "Department of Public Works",
    "final_address": "1122 Fourth St",
    "address_councildis": "B",
    "status": "Pending",
    "rowid": "861040",
    "final_x": "3677159.64552",
    "final_y": "521144.619257",
    "longitude": "-90.08213334848759",
    "latitude": "29.92709788119436",
    "geocoded_column": {
      "latitude": "29.92709788119436",
      "longitude": "-90.08213334848759"
    }
  },
  {
    "service_request": "2022-861039",
    "request_type": "Trash/Recycling",
    "request_reason": "MIssed Recycling Pick-Up",
    "date_created": "2022-02-14T22:39:18.000",
    "date_modified": "2022-02-14T22:39:19.000",
    "request_status": "Pending",
    "responsible_agency": "Department of Sanitation",
    "final_address": "1812 St Philip St",
    "address_councildis": "D",
    "status": "Assigned to Contractor",
    "contractor": "Richards Disposal",
    "rowid": "861039",
    "final_x": "3680026.48175",
    "final_y": "535761.917447",
    "longitude": "-90.07257578250035",
    "latitude": "29.967204170290568",
    "geocoded_column": {
      "latitude": "29.967204170290568",
      "longitude": "-90.07257578250035"
    }
  },
  {
    "service_request": "2022-861038",
    "request_type": "Trash/Recycling",
    "request_reason": "Missed Trash Pick-Up",
    "date_created": "2022-02-14T22:38:20.000",
    "date_modified": "2022-02-14T22:38:20.000",
    "request_status": "Pending",
    "responsible_agency": "Department of Sanitation",
    "final_address": "1812 St Philip St",
    "address_councildis": "D",
    "status": "Assigned to Contractor",
    "contractor": "Richards Disposal",
    "rowid": "861038",
    "final_x": "3680026.48175",
    "final_y": "535761.917447",
    "longitude": "-90.07257578250035",
    "latitude": "29.967204170290568",
    "geocoded_column": {
      "latitude": "29.967204170290568",
      "longitude": "-90.07257578250035"
    }
  },
  {
    "service_request": "2022-861037",
    "request_type": "Roads/Drainage",
    "request_reason": "Catch Basin - Broken/Damage",
    "date_created": "2022-02-14T22:34:50.000",
    "date_modified": "2022-02-14T22:34:50.000",
    "request_status": "Pending",
    "responsible_agency": "Department of Public Works",
    "final_address": "5215 Perrier St",
    "address_councildis": "B",
    "status": "Pending",
    "rowid": "861037",
    "final_x": "3667947.20621",
    "final_y": "519964.054648",
    "longitude": "-90.11125448410176",
    "latitude": "29.924125092216503",
    "geocoded_column": {
      "latitude": "29.924125092216503",
      "longitude": "-90.11125448410176"
    }
  },
  {
    "service_request": "2022-861035",
    "request_type": "Traffic Signals/Signs/Striping/Streetlights",
    "request_reason": "Traffic Signal Malfunctioning/Damaged",
    "date_created": "2022-02-14T21:36:19.000",
    "date_modified": "2022-02-14T21:36:19.000",
    "request_status": "Pending",
    "responsible_agency": "Department of Public Works",
    "final_address": "1249 N Claiborne Ave",
    "address_councildis": "D",
    "status": "Pending",
    "rowid": "861035",
    "final_x": "3681130.01032",
    "final_y": "536579.285319",
    "longitude": "-90.06906234936373",
    "latitude": "29.96941821842263",
    "geocoded_column": {
      "latitude": "29.96941821842263",
      "longitude": "-90.06906234936373"
    }
  },
  {
    "service_request": "2022-861034",
    "request_type": "Roads/Drainage",
    "request_reason": "Pothole",
    "date_created": "2022-02-14T21:21:24.000",
    "date_modified": "2022-02-14T21:21:24.000",
    "request_status": "Pending",
    "responsible_agency": "Department of Public Works",
    "final_address": "2800 BLK Dante St",
    "address_councildis": "A",
    "status": "Pending",
    "rowid": "861034",
    "final_x": "3665409.79644",
    "final_y": "533237.29519",
    "longitude": "-90.11882012413197",
    "latitude": "29.96069641179029",
    "geocoded_column": {
      "latitude": "29.96069641179029",
      "longitude": "-90.11882012413197"
    }
  },
  {
    "service_request": "2022-861033",
    "request_type": "COVID-19",
    "request_reason": "COVID-19 Business Non-Compliance",
    "date_created": "2022-02-14T21:08:05.000",
    "date_modified": "2022-02-14T21:08:07.000",
    "request_status": "Pending",
    "responsible_agency": "Safety and Permits",
    "final_address": "1753 St Charles Ave",
    "address_councildis": "B",
    "status": "Pending",
    "rowid": "861033",
    "final_x": "3678562.80501",
    "final_y": "524622.99974",
    "longitude": "-90.07758359985243",
    "latitude": "29.93662008278362",
    "geocoded_column": {
      "latitude": "29.93662008278362",
      "longitude": "-90.07758359985243"
    }
  },
  {
    "service_request": "2022-861032",
    "request_type": "COVID-19",
    "request_reason": "COVID-19 Business Non-Compliance",
    "date_created": "2022-02-14T20:57:03.000",
    "date_modified": "2022-02-14T20:57:05.000",
    "request_status": "Pending",
    "responsible_agency": "Safety and Permits",
    "final_address": "1753 St Charles Ave",
    "address_councildis": "B",
    "status": "Pending",
    "rowid": "861032",
    "final_x": "3678562.80501",
    "final_y": "524622.99974",
    "longitude": "-90.07758359985243",
    "latitude": "29.93662008278362",
    "geocoded_column": {
      "latitude": "29.93662008278362",
      "longitude": "-90.07758359985243"
    }
  },
  {
    "service_request": "2022-861031",
    "request_type": "Trash/Recycling",
    "request_reason": "Repair Trash Cart",
    "date_created": "2022-02-14T20:06:22.000",
    "date_modified": "2022-02-14T20:06:23.000",
    "request_status": "Pending",
    "responsible_agency": "Department of Sanitation",
    "final_address": "2422 Lark St",
    "address_councildis": "D",
    "status": "Assigned to Contractor",
    "contractor": "Metro Disposal",
    "rowid": "861031",
    "final_x": "3684835.087",
    "final_y": "557846.080027",
    "longitude": "-90.05661310403092",
    "latitude": "30.027781336340333",
    "geocoded_column": {
      "latitude": "30.027781336340333",
      "longitude": "-90.05661310403092"
    }
  },
  {
    "service_request": "2022-861029",
    "request_type": "Trash/Recycling",
    "request_reason": "Start Trash Service",
    "date_created": "2022-02-14T19:52:58.000",
    "date_modified": "2022-02-14T19:52:58.000",
    "request_status": "Pending",
    "responsible_agency": "Department of Sanitation",
    "final_address": "7272 Canal Blvd",
    "address_councildis": "D",
    "status": "Assigned to Contractor",
    "contractor": "Metro Disposal",
    "rowid": "861029",
    "final_x": "3669049.91886",
    "final_y": "555300.200537",
    "longitude": "-90.1065793933683",
    "latitude": "30.0212552408949",
    "geocoded_column": {
      "latitude": "30.0212552408949",
      "longitude": "-90.1065793933683"
    }
  },
  {
    "service_request": "2022-861028",
    "request_type": "Trash/Recycling",
    "request_reason": "Order Recycling Cart",
    "date_created": "2022-02-14T19:37:47.000",
    "date_modified": "2022-02-14T19:37:47.000",
    "request_status": "Pending",
    "responsible_agency": "Department of Sanitation",
    "final_address": "New Orleans,LA",
    "status": "Pending",
    "rowid": "861028",
    "longitude": "0.0",
    "latitude": "0.0",
    "geocoded_column": {
      "latitude": "0.0",
      "longitude": "0.0"
    }
  },
  {
    "service_request": "2022-861027",
    "request_type": "Roads/Drainage",
    "request_reason": "Street Subsidence (Sinking)",
    "date_created": "2022-02-14T19:11:19.000",
    "date_modified": "2022-02-14T19:11:19.000",
    "request_status": "Pending",
    "responsible_agency": "Department of Public Works",
    "final_address": "1310 Cadiz St",
    "address_councildis": "B",
    "status": "Pending",
    "rowid": "861027",
    "final_x": "3670127.59143",
    "final_y": "520093.636152",
    "longitude": "-90.10436737044104",
    "latitude": "29.924417277507818",
    "geocoded_column": {
      "latitude": "29.924417277507818",
      "longitude": "-90.10436737044104"
    }
  },
  {
    "service_request": "2022-861026",
    "request_type": "Traffic Signals/Signs/Striping/Streetlights",
    "request_reason": "Request for Traffic Calming due to Speeding",
    "date_created": "2022-02-14T18:56:06.000",
    "date_modified": "2022-02-14T18:56:06.000",
    "request_status": "Pending",
    "responsible_agency": "Department of Public Works",
    "final_address": "5753 St Anthony Ave",
    "address_councildis": "D",
    "status": "Pending",
    "rowid": "861026",
    "final_x": "3682173.98626",
    "final_y": "554422.236824",
    "longitude": "-90.06514172878241",
    "latitude": "30.018448285455417",
    "geocoded_column": {
      "latitude": "30.018448285455417",
      "longitude": "-90.06514172878241"
    }
  },
  {
    "service_request": "2022-861025",
    "request_type": "Traffic Signals/Signs/Striping/Streetlights",
    "request_reason": "Street Light Outage/Malfunction",
    "date_created": "2022-02-14T18:44:42.000",
    "date_modified": "2022-02-14T18:44:43.000",
    "request_status": "Pending",
    "responsible_agency": "Department of Public Works",
    "final_address": "325 N Salcedo St",
    "address_councildis": "B",
    "status": "Pending",
    "contractor": "Royal Engineering",
    "rowid": "861025",
    "final_x": "3674691.52667",
    "final_y": "536949.685256",
    "longitude": "-90.08938292753945",
    "latitude": "29.97063045604203",
    "geocoded_column": {
      "latitude": "29.97063045604203",
      "longitude": "-90.08938292753945"
    }
  },
  {
    "service_request": "2022-861024",
    "request_type": "Trash/Recycling",
    "request_reason": "Replace Trash Cart",
    "date_created": "2022-02-14T18:40:46.000",
    "date_modified": "2022-02-14T18:40:47.000",
    "request_status": "Pending",
    "responsible_agency": "Department of Sanitation",
    "final_address": "3235 St Peter St",
    "address_councildis": "A",
    "status": "Assigned to Contractor",
    "contractor": "Richards Disposal",
    "rowid": "861024",
    "final_x": "3674685.97262",
    "final_y": "538388.057097",
    "longitude": "-90.08935115168582",
    "latitude": "29.974585655195277",
    "geocoded_column": {
      "latitude": "29.974585655195277",
      "longitude": "-90.08935115168582"
    }
  },
  {
    "service_request": "2022-861023",
    "request_type": "Trash/Recycling",
    "request_reason": "Missed Trash Pick-Up",
    "date_created": "2022-02-14T18:31:28.000",
    "date_modified": "2022-02-14T18:31:29.000",
    "request_status": "Pending",
    "responsible_agency": "Department of Sanitation",
    "final_address": "531 Second St",
    "address_councildis": "B",
    "status": "Assigned to Contractor",
    "contractor": "Richards Disposal",
    "rowid": "861023",
    "final_x": "3678946.68136",
    "final_y": "519703.907704",
    "longitude": "-90.07654202089383",
    "latitude": "29.923082616838766",
    "geocoded_column": {
      "latitude": "29.923082616838766",
      "longitude": "-90.07654202089383"
    }
  },
  {
    "service_request": "2022-861021",
    "request_type": "Trash/Recycling",
    "request_reason": "Illegal Dumping",
    "date_created": "2022-02-14T17:55:14.000",
    "date_modified": "2022-02-14T17:55:14.000",
    "request_status": "Pending",
    "responsible_agency": "Department of Code Enforcement",
    "final_address": "5950 Chef Menteur Hwy",
    "address_councildis": "E",
    "status": "Pending",
    "rowid": "861021",
    "final_x": "3696543.20829",
    "final_y": "551360.472085",
    "longitude": "-90.01985139569683",
    "latitude": "30.00958446585331",
    "geocoded_column": {
      "latitude": "30.00958446585331",
      "longitude": "-90.01985139569683"
    }
  },
  {
    "service_request": "2022-861020",
    "request_type": "Traffic Signals/Signs/Striping/Streetlights",
    "request_reason": "Traffic Sign Missing/Damaged",
    "date_created": "2022-02-14T17:54:53.000",
    "date_modified": "2022-02-14T18:01:12.000",
    "request_status": "Pending",
    "responsible_agency": "Department of Public Works",
    "final_address": "New Orleans,LA",
    "address_councildis": "B",
    "rowid": "861020",
    "final_x": "3677605.5",
    "final_y": "518508.38",
    "longitude": "-90.08081686726277",
    "latitude": "29.919835683037633",
    "geocoded_column": {
      "latitude": "29.919835683037633",
      "longitude": "-90.08081686726277"
    }
  },
  {
    "service_request": "2022-861019",
    "request_type": "Trash/Recycling",
    "request_reason": "Illegal Dumping",
    "date_created": "2022-02-14T17:50:04.000",
    "date_modified": "2022-02-14T17:50:04.000",
    "request_status": "Pending",
    "responsible_agency": "Department of Sanitation",
    "final_address": "ALMONASTER AVE & JOURDAN ONRAMP",
    "address_councildis": "E",
    "status": "Pending",
    "rowid": "861019",
    "final_x": "3696857.51",
    "final_y": "549558.95",
    "longitude": "-90.01892370081363",
    "latitude": "30.004621041965862",
    "geocoded_column": {
      "latitude": "30.004621041965862",
      "longitude": "-90.01892370081363"
    }
  },
  {
    "service_request": "2022-861018",
    "request_type": "Trash/Recycling",
    "request_reason": "Illegal Dumping",
    "date_created": "2022-02-14T17:48:50.000",
    "date_modified": "2022-02-14T17:48:50.000",
    "request_status": "Pending",
    "responsible_agency": "Department of Sanitation",
    "final_address": "I 10 W ONRAMP & DOWNMAN EXIT & DOWNMAN RD & CARNOT ST",
    "address_councildis": "E",
    "status": "Pending",
    "rowid": "861018",
    "final_x": "3696265.4",
    "final_y": "551221.28",
    "longitude": "-90.02073412287027",
    "latitude": "30.009210492985336",
    "geocoded_column": {
      "latitude": "30.009210492985336",
      "longitude": "-90.02073412287027"
    }
  },
  {
    "service_request": "2022-861017",
    "request_type": "Roads/Drainage",
    "request_reason": "Man hole cover issue",
    "date_created": "2022-02-14T17:42:36.000",
    "date_modified": "2022-02-14T17:42:36.000",
    "request_status": "Pending",
    "responsible_agency": "Department of Public Works",
    "final_address": "955 N Carrollton Ave",
    "address_councildis": "A",
    "status": "Pending",
    "rowid": "861017",
    "final_x": "3673391.33243",
    "final_y": "540971.066251",
    "longitude": "-90.09335166833031",
    "latitude": "29.98172663250626",
    "geocoded_column": {
      "latitude": "29.98172663250626",
      "longitude": "-90.09335166833031"
    }
  },
  {
    "service_request": "2022-861016",
    "request_type": "Traffic Signals/Signs/Striping/Streetlights",
    "request_reason": "Street Light Outage/Malfunction",
    "date_created": "2022-02-14T17:35:51.000",
    "date_modified": "2022-02-14T17:35:52.000",
    "request_status": "Pending",
    "responsible_agency": "Department of Public Works",
    "final_address": "1400 Esplanade Ave",
    "address_councildis": "C",
    "status": "Pending",
    "contractor": "Royal Engineering",
    "rowid": "861016",
    "final_x": "3681749.01077",
    "final_y": "536113.979271",
    "longitude": "-90.06712373602709",
    "latitude": "29.968119992982643",
    "geocoded_column": {
      "latitude": "29.968119992982643",
      "longitude": "-90.06712373602709"
    }
  },
  {
    "service_request": "2022-861015",
    "request_type": "Trash/Recycling",
    "request_reason": "Order Recycling Cart",
    "date_created": "2022-02-14T17:35:19.000",
    "date_modified": "2022-02-14T17:35:19.000",
    "request_status": "Pending",
    "responsible_agency": "Department of Sanitation",
    "final_address": "3918 Coliseum St",
    "address_councildis": "B",
    "status": "Pending",
    "rowid": "861015",
    "final_x": "3672665.87668",
    "final_y": "519952.525688",
    "longitude": "-90.09635966783422",
    "latitude": "29.92395416697287",
    "geocoded_column": {
      "latitude": "29.92395416697287",
      "longitude": "-90.09635966783422"
    }
  },
  {
    "service_request": "2022-861014",
    "request_type": "Roads/Drainage",
    "request_reason": "Catch Basin - Broken/Damage",
    "date_created": "2022-02-14T17:35:10.000",
    "date_modified": "2022-02-14T17:35:10.000",
    "request_status": "Pending",
    "responsible_agency": "Department of Public Works",
    "final_address": "955 N Carrollton Ave",
    "address_councildis": "A",
    "status": "Pending",
    "rowid": "861014",
    "final_x": "3673391.33243",
    "final_y": "540971.066251",
    "longitude": "-90.09335166833031",
    "latitude": "29.98172663250626",
    "geocoded_column": {
      "latitude": "29.98172663250626",
      "longitude": "-90.09335166833031"
    }
  },
  {
    "service_request": "2022-861013",
    "request_type": "Trash/Recycling",
    "request_reason": "Request a Large Item Pick Up",
    "date_created": "2022-02-14T17:31:17.000",
    "date_modified": "2022-02-14T17:31:18.000",
    "request_status": "Pending",
    "responsible_agency": "Department of Sanitation",
    "final_address": "313 N Rocheblave St, New Orleans, Louisiana, 70119",
    "address_councildis": "B",
    "status": "Assigned to Contractor",
    "contractor": "Richards Disposal",
    "rowid": "861013",
    "final_x": "3676685.40552",
    "final_y": "535283.659846",
    "longitude": "-90.08314342295064",
    "latitude": "29.96598978294525",
    "geocoded_column": {
      "latitude": "29.96598978294525",
      "longitude": "-90.08314342295064"
    }
  },
  {
    "service_request": "2022-861012",
    "request_type": "Trash/Recycling",
    "request_reason": "Illegal Dumping",
    "date_created": "2022-02-14T17:26:08.000",
    "date_modified": "2022-02-14T17:26:08.000",
    "request_status": "Pending",
    "responsible_agency": "Department of Sanitation",
    "final_address": "1210 Clouet St",
    "address_councildis": "C",
    "status": "Pending",
    "rowid": "861012",
    "final_x": "3689085.48252",
    "final_y": "536457.458503",
    "longitude": "-90.04394273306319",
    "latitude": "29.968839482016797",
    "geocoded_column": {
      "latitude": "29.968839482016797",
      "longitude": "-90.04394273306319"
    }
  },
  {
    "service_request": "2022-861011",
    "request_type": "Trash/Recycling",
    "request_reason": "Request a Large Item Pick Up",
    "date_created": "2022-02-14T17:08:47.000",
    "date_modified": "2022-02-14T17:08:47.000",
    "request_status": "Pending",
    "responsible_agency": "Department of Sanitation",
    "final_address": "1208 Hillary St",
    "address_councildis": "A",
    "status": "Assigned to Contractor",
    "contractor": "Richards Disposal",
    "rowid": "861011",
    "final_x": "3663335.54336",
    "final_y": "527266.528319",
    "longitude": "-90.1255689756006",
    "latitude": "29.94433902233611",
    "geocoded_column": {
      "latitude": "29.94433902233611",
      "longitude": "-90.1255689756006"
    }
  },
  {
    "service_request": "2022-861010",
    "request_type": "Abandoned Vehicles",
    "request_reason": "Abandoned/Junk Vehicles",
    "date_created": "2022-02-14T17:02:07.000",
    "date_modified": "2022-02-14T17:03:35.000",
    "request_status": "Pending",
    "responsible_agency": "Department of Public Works",
    "final_address": "4021 Stutz St",
    "address_councildis": "D",
    "status": "Pending",
    "rowid": "861010",
    "final_x": "3688704.88649",
    "final_y": "548089.218002",
    "longitude": "-90.04473157065209",
    "latitude": "30.00083444091931",
    "geocoded_column": {
      "latitude": "30.00083444091931",
      "longitude": "-90.04473157065209"
    }
  },
  {
    "service_request": "2022-861009",
    "request_type": "Trash/Recycling",
    "request_reason": "Missed Trash Pick-Up",
    "date_created": "2022-02-14T16:55:10.000",
    "date_modified": "2022-02-14T16:55:11.000",
    "request_status": "Pending",
    "responsible_agency": "Department of Sanitation",
    "final_address": "907 N Villere St",
    "address_councildis": "C",
    "status": "Assigned to Contractor",
    "contractor": "Richards Disposal",
    "rowid": "861009",
    "final_x": "3680783.62031",
    "final_y": "534880.907078",
    "longitude": "-90.07021540221359",
    "latitude": "29.96475876519435",
    "geocoded_column": {
      "latitude": "29.96475876519435",
      "longitude": "-90.07021540221359"
    }
  },
  {
    "service_request": "2022-861008",
    "request_type": "Roads/Drainage",
    "request_reason": "Unpermitted work in ROW",
    "date_created": "2022-02-14T16:53:21.000",
    "date_modified": "2022-02-14T16:53:21.000",
    "request_status": "Pending",
    "responsible_agency": "Department of Public Works",
    "final_address": "1000 BLK Pleasant St",
    "address_councildis": "B",
    "status": "Pending",
    "rowid": "861008",
    "final_x": "3675636.18478",
    "final_y": "519702.475475",
    "longitude": "-90.08699204331577",
    "latitude": "29.923178105653502",
    "geocoded_column": {
      "latitude": "29.923178105653502",
      "longitude": "-90.08699204331577"
    }
  },
  {
    "service_request": "2022-861007",
    "request_type": "Traffic Signals/Signs/Striping/Streetlights",
    "request_reason": "Street Light Outage/Malfunction",
    "date_created": "2022-02-14T16:42:22.000",
    "date_modified": "2022-02-14T16:42:22.000",
    "request_status": "Pending",
    "responsible_agency": "Department of Public Works",
    "final_address": "2115 New Orleans St",
    "address_councildis": "D",
    "status": "Pending",
    "contractor": "Royal Engineering",
    "rowid": "861007",
    "final_x": "3682128.87413",
    "final_y": "539935.640138",
    "longitude": "-90.06579060542812",
    "latitude": "29.978616688167563",
    "geocoded_column": {
      "latitude": "29.978616688167563",
      "longitude": "-90.06579060542812"
    }
  },
  {
    "service_request": "2022-861006",
    "request_type": "Trash/Recycling",
    "request_reason": "Request a Large Item Pick Up",
    "date_created": "2022-02-14T16:38:43.000",
    "date_modified": "2022-02-14T16:38:45.000",
    "request_status": "Pending",
    "responsible_agency": "Department of Sanitation",
    "final_address": "4440 Baccich St",
    "address_councildis": "D",
    "status": "Assigned to Contractor",
    "contractor": "Metro Disposal",
    "rowid": "861006",
    "final_x": "3687782.63964",
    "final_y": "549240.086355",
    "longitude": "-90.04760421473537",
    "latitude": "30.004027396459538",
    "geocoded_column": {
      "latitude": "30.004027396459538",
      "longitude": "-90.04760421473537"
    }
  },
  {
    "service_request": "2022-861005",
    "request_type": "Trash/Recycling",
    "request_reason": "Order Trash Cart",
    "date_created": "2022-02-14T16:35:59.000",
    "date_modified": "2022-02-14T16:35:59.000",
    "request_status": "Pending",
    "responsible_agency": "Department of Sanitation",
    "final_address": "New Orleans,LA",
    "status": "Assigned to Contractor",
    "rowid": "861005",
    "longitude": "0.0",
    "latitude": "0.0",
    "geocoded_column": {
      "latitude": "0.0",
      "longitude": "0.0"
    }
  },
  {
    "service_request": "2022-861004",
    "request_type": "Trash/Recycling",
    "request_reason": "Return Recycling Cart",
    "date_created": "2022-02-14T16:24:28.000",
    "date_modified": "2022-02-14T16:24:28.000",
    "request_status": "Pending",
    "responsible_agency": "Department of Sanitation",
    "final_address": "7660 Arbor Dr, New Orleans, Louisiana, 70126",
    "address_councildis": "E",
    "status": "Pending",
    "rowid": "861004",
    "final_x": "3702355.9546",
    "final_y": "558332.316764",
    "longitude": "-90.00123094569753",
    "latitude": "30.028569874305187",
    "geocoded_column": {
      "latitude": "30.028569874305187",
      "longitude": "-90.00123094569753"
    }
  },
  {
    "service_request": "2022-861003",
    "request_type": "Law Enforcement Services",
    "request_reason": "Off Duty Officer for Hire",
    "date_created": "2022-02-14T16:18:34.000",
    "date_modified": "2022-02-14T16:18:34.000",
    "request_status": "Pending",
    "responsible_agency": "Office of Police Secondary Employment",
    "status": "Pending",
    "rowid": "861003",
    "longitude": "0.0",
    "latitude": "0.0",
    "geocoded_column": {
      "latitude": "0.0",
      "longitude": "0.0"
    }
  },
  {
    "service_request": "2022-861002",
    "request_type": "Trash/Recycling",
    "request_reason": "Repair Trash Cart",
    "date_created": "2022-02-14T16:17:48.000",
    "date_modified": "2022-02-14T16:17:49.000",
    "request_status": "Pending",
    "responsible_agency": "Department of Sanitation",
    "final_address": "535 Marigny St",
    "address_councildis": "C",
    "status": "Assigned to Contractor",
    "contractor": "Metro Disposal",
    "rowid": "861002",
    "final_x": "3685593.88553",
    "final_y": "534479.830853",
    "longitude": "-90.05503906617052",
    "latitude": "29.963509264214558",
    "geocoded_column": {
      "latitude": "29.963509264214558",
      "longitude": "-90.05503906617052"
    }
  },
  {
    "service_request": "2022-861001",
    "request_type": "Safety & Permits",
    "request_reason": "Licenses & Permits",
    "date_created": "2022-02-14T16:10:20.000",
    "date_modified": "2022-02-14T16:10:20.000",
    "request_status": "Pending",
    "responsible_agency": "Safety and Permits",
    "final_address": "5309 Wilton Dr",
    "address_councildis": "D",
    "status": "Pending",
    "rowid": "861001",
    "final_x": "3681995.73448",
    "final_y": "552418.209494",
    "longitude": "-90.06577498463035",
    "latitude": "30.012943363377314",
    "geocoded_column": {
      "latitude": "30.012943363377314",
      "longitude": "-90.06577498463035"
    }
  },
  {
    "service_request": "2022-861000",
    "request_type": "Roads/Drainage",
    "request_reason": "Street Flooding / Drainage",
    "date_created": "2022-02-14T16:07:18.000",
    "date_modified": "2022-02-14T16:07:18.000",
    "request_status": "Pending",
    "responsible_agency": "Department of Public Works",
    "final_address": "342 S Cortez St",
    "address_councildis": "A",
    "status": "Pending",
    "rowid": "861000",
    "final_x": "3671402.80731",
    "final_y": "536660.811527",
    "longitude": "-90.09977893981669",
    "latitude": "29.969933911955593",
    "geocoded_column": {
      "latitude": "29.969933911955593",
      "longitude": "-90.09977893981669"
    }
  },
  {
    "service_request": "2022-860999",
    "request_type": "Trash/Recycling",
    "request_reason": "Order Recycling Cart",
    "date_created": "2022-02-14T16:02:04.000",
    "date_modified": "2022-02-14T16:02:04.000",
    "request_status": "Pending",
    "responsible_agency": "Department of Sanitation",
    "final_address": "1700 Seventh St",
    "address_councildis": "B",
    "status": "Pending",
    "rowid": "860999",
    "final_x": "3674977.84373",
    "final_y": "522422.861434",
    "longitude": "-90.08897692167677",
    "latitude": "29.930677961724257",
    "geocoded_column": {
      "latitude": "29.930677961724257",
      "longitude": "-90.08897692167677"
    }
  },
  {
    "service_request": "2022-860997",
    "request_type": "Parks & Parkways",
    "request_reason": "Request Tree Service (Right of Way/Public Property)",
    "date_created": "2022-02-14T16:01:57.000",
    "date_modified": "2022-02-14T17:59:45.000",
    "request_status": "Pending",
    "responsible_agency": "Department of Parks & Parkway",
    "final_address": "927 Arabella St",
    "address_councildis": "A",
    "status": "Pending",
    "rowid": "860997",
    "final_x": "3665990.43348",
    "final_y": "519471.485559",
    "longitude": "-90.11744784953662",
    "latitude": "29.922827921978076",
    "geocoded_column": {
      "latitude": "29.922827921978076",
      "longitude": "-90.11744784953662"
    }
  },
  {
    "service_request": "2022-860994",
    "request_type": "Trash/Recycling",
    "request_reason": "Order Trash Cart",
    "date_created": "2022-02-14T15:59:06.000",
    "date_modified": "2022-02-14T15:59:07.000",
    "request_status": "Pending",
    "responsible_agency": "Department of Sanitation",
    "final_address": "1017 St Louis St",
    "address_councildis": "C",
    "status": "Assigned to Contractor",
    "contractor": "Empire Services",
    "rowid": "860994",
    "final_x": "3681154.13346",
    "final_y": "532618.977028",
    "longitude": "-90.06912415636033",
    "latitude": "29.958527993462727",
    "geocoded_column": {
      "latitude": "29.958527993462727",
      "longitude": "-90.06912415636033"
    }
  },
  {
    "service_request": "2022-860993",
    "request_type": "Trash/Recycling",
    "request_reason": "Replace Trash Cart",
    "date_created": "2022-02-14T15:58:43.000",
    "date_modified": "2022-02-14T15:58:43.000",
    "request_status": "Pending",
    "responsible_agency": "Department of Sanitation",
    "final_address": "3020 First St Apt 2",
    "address_councildis": "B",
    "status": "Assigned to Contractor",
    "contractor": "Richards Disposal",
    "rowid": "860993",
    "final_x": "3673967.51182",
    "final_y": "527586.914943",
    "longitude": "-90.09198978859096",
    "latitude": "29.94490755503634",
    "geocoded_column": {
      "latitude": "29.94490755503634",
      "longitude": "-90.09198978859096"
    }
  },
  {
    "service_request": "2022-860992",
    "request_type": "Abandoned Vehicles",
    "request_reason": "Abandoned/Junk Vehicles",
    "date_created": "2022-02-14T15:56:28.000",
    "date_modified": "2022-02-14T15:56:28.000",
    "request_status": "Pending",
    "responsible_agency": "Department of Public Works",
    "final_address": "200 BLK Clinton St",
    "address_councildis": "C",
    "status": "Pending",
    "rowid": "860992",
    "final_x": "3682262.90873",
    "final_y": "530618.581595",
    "longitude": "-90.06569282187012",
    "latitude": "29.952993902194727",
    "geocoded_column": {
      "latitude": "29.952993902194727",
      "longitude": "-90.06569282187012"
    }
  },
  {
    "service_request": "2022-860991",
    "request_type": "Trash/Recycling",
    "request_reason": "Return Trash Cart",
    "date_created": "2022-02-14T15:55:33.000",
    "date_modified": "2022-02-14T15:55:34.000",
    "request_status": "Pending",
    "responsible_agency": "Department of Sanitation",
    "final_address": "921 Verret St",
    "address_councildis": "C",
    "status": "Assigned to Contractor",
    "contractor": "Richards Disposal",
    "rowid": "860991",
    "final_x": "3687145.86364",
    "final_y": "528142.380032",
    "longitude": "-90.05036217710926",
    "latitude": "29.94603575349964",
    "geocoded_column": {
      "latitude": "29.94603575349964",
      "longitude": "-90.05036217710926"
    }
  },
  {
    "service_request": "2022-860990",
    "request_type": "Trash/Recycling",
    "request_reason": "Order Recycling Cart",
    "date_created": "2022-02-14T15:55:15.000",
    "date_modified": "2022-02-14T15:55:15.000",
    "request_status": "Pending",
    "responsible_agency": "Department of Sanitation",
    "final_address": "1017 St Louis St",
    "address_councildis": "C",
    "status": "Pending",
    "rowid": "860990",
    "final_x": "3681154.13346",
    "final_y": "532618.977028",
    "longitude": "-90.06912415636033",
    "latitude": "29.958527993462727",
    "geocoded_column": {
      "latitude": "29.958527993462727",
      "longitude": "-90.06912415636033"
    }
  },
  {
    "service_request": "2022-860989",
    "request_type": "Trash/Recycling",
    "request_reason": "Request a Large Item Pick Up",
    "date_created": "2022-02-14T15:55:11.000",
    "date_modified": "2022-02-14T15:55:12.000",
    "request_status": "Pending",
    "responsible_agency": "Department of Sanitation",
    "final_address": "2519 Upperline St",
    "address_councildis": "B",
    "status": "Assigned to Contractor",
    "contractor": "Richards Disposal",
    "rowid": "860989",
    "final_x": "3669205.39879",
    "final_y": "524085.472956",
    "longitude": "-90.10714358004745",
    "latitude": "29.93542071823589",
    "geocoded_column": {
      "latitude": "29.93542071823589",
      "longitude": "-90.10714358004745"
    }
  },
  {
    "service_request": "2022-860988",
    "request_type": "Trash/Recycling",
    "request_reason": "Missed Trash Pick-Up",
    "date_created": "2022-02-14T15:54:59.000",
    "date_modified": "2022-02-14T15:54:59.000",
    "request_status": "Pending",
    "responsible_agency": "Department of Sanitation",
    "final_address": "5600 BLK N dOrgenois St",
    "address_councildis": "E",
    "status": "Assigned to Contractor",
    "contractor": "Metro Disposal",
    "rowid": "860988",
    "final_x": "3699618.60991",
    "final_y": "538964.273237",
    "longitude": "-90.01058728343203",
    "latitude": "29.975402205130973",
    "geocoded_column": {
      "latitude": "29.975402205130973",
      "longitude": "-90.01058728343203"
    }
  },
  {
    "service_request": "2022-860987",
    "request_type": "Trash/Recycling",
    "request_reason": "Request a Large Item Pick Up",
    "date_created": "2022-02-14T15:53:55.000",
    "date_modified": "2022-02-14T15:53:57.000",
    "request_status": "Pending",
    "responsible_agency": "Department of Sanitation",
    "final_address": "8628 Belfast St",
    "address_councildis": "A",
    "status": "Assigned to Contractor",
    "contractor": "Richards Disposal",
    "rowid": "860987",
    "final_x": "3664083.8912",
    "final_y": "533681.455237",
    "longitude": "-90.12299227716157",
    "latitude": "29.961956282988496",
    "geocoded_column": {
      "latitude": "29.961956282988496",
      "longitude": "-90.12299227716157"
    }
  },
  {
    "service_request": "2022-860986",
    "request_type": "Traffic Signals/Signs/Striping/Streetlights",
    "request_reason": "Street Light Outage/Malfunction",
    "date_created": "2022-02-14T15:53:49.000",
    "date_modified": "2022-02-14T15:53:51.000",
    "request_status": "Pending",
    "responsible_agency": "Department of Public Works",
    "final_address": "601 Congress St",
    "address_councildis": "C",
    "status": "Pending",
    "contractor": "Royal Engineering",
    "rowid": "860986",
    "final_x": "3690301.23337",
    "final_y": "533745.181701",
    "longitude": "-90.04019999524186",
    "latitude": "29.96134399784388",
    "geocoded_column": {
      "latitude": "29.96134399784388",
      "longitude": "-90.04019999524186"
    }
  },
  {
    "service_request": "2022-860985",
    "request_type": "Trash/Recycling",
    "request_reason": "Request a Large Item Pick Up",
    "date_created": "2022-02-14T15:52:53.000",
    "date_modified": "2022-02-14T15:52:54.000",
    "request_status": "Pending",
    "responsible_agency": "Department of Sanitation",
    "final_address": "823 Fourth St",
    "address_councildis": "B",
    "status": "Assigned to Contractor",
    "contractor": "Richards Disposal",
    "rowid": "860985",
    "final_x": "3677855.94402",
    "final_y": "520256.7342",
    "longitude": "-90.07996597157067",
    "latitude": "29.92463556114099",
    "geocoded_column": {
      "latitude": "29.92463556114099",
      "longitude": "-90.07996597157067"
    }
  },
  {
    "service_request": "2022-860984",
    "request_type": "Roads/Drainage",
    "request_reason": "Man hole cover issue",
    "date_created": "2022-02-14T15:47:41.000",
    "date_modified": "2022-02-14T15:49:16.000",
    "request_status": "Pending",
    "responsible_agency": "Department of Public Works",
    "final_address": "New Orleans,LA",
    "address_councildis": "A",
    "rowid": "860984",
    "final_x": "3662518.3",
    "final_y": "525096.88",
    "longitude": "-90.12822130573575",
    "latitude": "29.938396840576125",
    "geocoded_column": {
      "latitude": "29.938396840576125",
      "longitude": "-90.12822130573575"
    }
  },
  {
    "service_request": "2022-860983",
    "request_type": "Roads/Drainage",
    "request_reason": "Street Flooding / Drainage",
    "date_created": "2022-02-14T15:44:09.000",
    "date_modified": "2022-02-14T15:44:09.000",
    "request_status": "Pending",
    "responsible_agency": "Department of Public Works",
    "final_address": "1208 Caffin Ave",
    "address_councildis": "E",
    "status": "Pending",
    "rowid": "860983",
    "final_x": "3698077.57091",
    "final_y": "534220.950341",
    "longitude": "-90.01562654850434",
    "latitude": "29.96240859267331",
    "geocoded_column": {
      "latitude": "29.96240859267331",
      "longitude": "-90.01562654850434"
    }
  },
  {
    "service_request": "2022-860981",
    "request_type": "Safety & Permits",
    "request_reason": "Licenses & Permits",
    "date_created": "2022-02-14T15:43:55.000",
    "date_modified": "2022-02-14T15:43:55.000",
    "request_status": "Pending",
    "responsible_agency": "Safety and Permits",
    "final_address": "2600 Royal St",
    "address_councildis": "C",
    "status": "Pending",
    "rowid": "860981",
    "final_x": "3686766.8815",
    "final_y": "534932.010118",
    "longitude": "-90.05131890209373",
    "latitude": "29.964716566509487",
    "geocoded_column": {
      "latitude": "29.964716566509487",
      "longitude": "-90.05131890209373"
    }
  },
  {
    "service_request": "2022-860980",
    "request_type": "Trash/Recycling",
    "request_reason": "Request a Large Item Pick Up",
    "date_created": "2022-02-14T15:41:41.000",
    "date_modified": "2022-02-14T15:41:42.000",
    "request_status": "Pending",
    "responsible_agency": "Department of Sanitation",
    "final_address": "3425 N Claiborne Ave",
    "address_councildis": "D",
    "status": "Assigned to Contractor",
    "contractor": "Metro Disposal",
    "rowid": "860980",
    "final_x": "3690835.5896",
    "final_y": "537563.673416",
    "longitude": "-90.03837632460952",
    "latitude": "29.97182691616684",
    "geocoded_column": {
      "latitude": "29.97182691616684",
      "longitude": "-90.03837632460952"
    }
  },
  {
    "service_request": "2022-860979",
    "request_type": "Property Maintenance",
    "request_reason": "Property Maintenance",
    "date_created": "2022-02-14T15:41:05.000",
    "date_modified": "2022-02-14T15:41:05.000",
    "request_status": "Pending",
    "responsible_agency": "Department of Code Enforcement",
    "final_address": "5243 Canal Blvd",
    "address_councildis": "A",
    "status": "Pending",
    "rowid": "860979",
    "final_x": "3668151.57082",
    "final_y": "542313.111181",
    "longitude": "-90.10985609313417",
    "latitude": "29.985571672776864",
    "geocoded_column": {
      "latitude": "29.985571672776864",
      "longitude": "-90.10985609313417"
    }
  },
  {
    "service_request": "2022-860978",
    "request_type": "Property Maintenance",
    "request_reason": "Property Maintenance",
    "date_created": "2022-02-14T15:40:37.000",
    "date_modified": "2022-02-14T15:40:37.000",
    "request_status": "Pending",
    "responsible_agency": "Department of Code Enforcement",
    "final_address": "937 Caffin Ave",
    "address_councildis": "E",
    "status": "Pending",
    "rowid": "860978",
    "final_x": "3697942.42627",
    "final_y": "533287.40378",
    "longitude": "-90.01608720362415",
    "latitude": "29.959845944005593",
    "geocoded_column": {
      "latitude": "29.959845944005593",
      "longitude": "-90.01608720362415"
    }
  },
  {
    "service_request": "2022-860977",
    "request_type": "Traffic Signals/Signs/Striping/Streetlights",
    "request_reason": "Traffic Signal Malfunctioning/Damaged",
    "date_created": "2022-02-14T15:39:26.000",
    "date_modified": "2022-02-14T15:39:26.000",
    "request_status": "Pending",
    "responsible_agency": "Department of Public Works",
    "final_address": "6020 Bullard Ave",
    "address_councildis": "E",
    "status": "Pending",
    "rowid": "860977",
    "final_x": "3715428.30744",
    "final_y": "564044.862753",
    "longitude": "-89.95970699125441",
    "latitude": "30.04385272923982",
    "geocoded_column": {
      "latitude": "30.04385272923982",
      "longitude": "-89.95970699125441"
    }
  },
  {
    "service_request": "2022-860976",
    "request_type": "Parks & Parkways",
    "request_reason": "Request Tree Service (Right of Way/Public Property)",
    "date_created": "2022-02-14T15:38:44.000",
    "date_modified": "2022-02-14T15:38:44.000",
    "request_status": "Pending",
    "responsible_agency": "Department of Parks & Parkway",
    "final_address": "1334 Granada Dr",
    "address_councildis": "D",
    "status": "Pending",
    "rowid": "860976",
    "final_x": "3677523.26107",
    "final_y": "550455.57314",
    "longitude": "-90.07997341406467",
    "latitude": "30.00768209809782",
    "geocoded_column": {
      "latitude": "30.00768209809782",
      "longitude": "-90.07997341406467"
    }
  },
  {
    "service_request": "2022-860975",
    "request_type": "Traffic Signals/Signs/Striping/Streetlights",
    "request_reason": "Street Light Outage/Malfunction",
    "date_created": "2022-02-14T15:36:03.000",
    "date_modified": "2022-02-14T15:36:04.000",
    "request_status": "Pending",
    "responsible_agency": "Department of Public Works",
    "final_address": "11302 Curran Rd",
    "address_councildis": "E",
    "status": "Pending",
    "contractor": "Royal Engineering",
    "rowid": "860975",
    "final_x": "3711223.49061",
    "final_y": "566506.592035",
    "longitude": "-89.97290354883573",
    "latitude": "30.050759420668914",
    "geocoded_column": {
      "latitude": "30.050759420668914",
      "longitude": "-89.97290354883573"
    }
  },
  {
    "service_request": "2022-860974",
    "request_type": "Property Maintenance",
    "request_reason": "Property Maintenance",
    "date_created": "2022-02-14T15:34:06.000",
    "date_modified": "2022-02-14T15:34:06.000",
    "request_status": "Pending",
    "responsible_agency": "Department of Code Enforcement",
    "final_address": "3303 Lamarque St",
    "address_councildis": "C",
    "status": "Pending",
    "rowid": "860974",
    "final_x": "3696428.89008",
    "final_y": "526567.661246",
    "longitude": "-90.02110959497826",
    "latitude": "29.941416759473466",
    "geocoded_column": {
      "latitude": "29.941416759473466",
      "longitude": "-90.02110959497826"
    }
  },
  {
    "service_request": "2022-860973",
    "request_type": "Trash/Recycling",
    "request_reason": "Missed Trash Pick-Up",
    "date_created": "2022-02-14T15:32:06.000",
    "date_modified": "2022-02-14T15:32:07.000",
    "request_status": "Pending",
    "responsible_agency": "Department of Sanitation",
    "final_address": "1921 Independence St",
    "address_councildis": "D",
    "status": "Assigned to Contractor",
    "contractor": "Metro Disposal",
    "rowid": "860973",
    "final_x": "3691793.79984",
    "final_y": "538689.441033",
    "longitude": "-90.03530988278393",
    "latitude": "29.974892566674427",
    "geocoded_column": {
      "latitude": "29.974892566674427",
      "longitude": "-90.03530988278393"
    }
  },
  {
    "service_request": "2022-860972",
    "request_type": "Trash/Recycling",
    "request_reason": "Replace Trash Cart",
    "date_created": "2022-02-14T15:31:48.000",
    "date_modified": "2022-02-14T15:31:49.000",
    "request_status": "Pending",
    "responsible_agency": "Department of Sanitation",
    "final_address": "New Orleans,LA",
    "status": "Assigned to Contractor",
    "rowid": "860972",
    "longitude": "0.0",
    "latitude": "0.0",
    "geocoded_column": {
      "latitude": "0.0",
      "longitude": "0.0"
    }
  },
  {
    "service_request": "2022-860971",
    "request_type": "Property Maintenance",
    "request_reason": "Property Maintenance",
    "date_created": "2022-02-14T15:30:22.000",
    "date_modified": "2022-02-14T15:30:22.000",
    "request_status": "Pending",
    "responsible_agency": "Department of Code Enforcement",
    "final_address": "1239 Horace St",
    "address_councildis": "C",
    "status": "Pending",
    "rowid": "860971",
    "final_x": "3696310.54717",
    "final_y": "526656.906878",
    "longitude": "-90.02147999870358",
    "latitude": "29.94166588005054",
    "geocoded_column": {
      "latitude": "29.94166588005054",
      "longitude": "-90.02147999870358"
    }
  },
  {
    "service_request": "2022-860970",
    "request_type": "Trash/Recycling",
    "request_reason": "Order Trash Cart",
    "date_created": "2022-02-14T15:29:30.000",
    "date_modified": "2022-02-14T15:29:30.000",
    "request_status": "Pending",
    "responsible_agency": "Department of Sanitation",
    "final_address": "3030 Orleans Ave",
    "address_councildis": "A",
    "status": "Assigned to Contractor",
    "contractor": "Richards Disposal",
    "rowid": "860970",
    "final_x": "3675529.01224",
    "final_y": "537878.974793",
    "longitude": "-90.08670611614704",
    "latitude": "29.973160659547332",
    "geocoded_column": {
      "latitude": "29.973160659547332",
      "longitude": "-90.08670611614704"
    }
  },
  {
    "service_request": "2022-860969",
    "request_type": "Trash/Recycling",
    "request_reason": "Start Trash Service",
    "date_created": "2022-02-14T15:29:22.000",
    "date_modified": "2022-02-14T15:29:23.000",
    "request_status": "Pending",
    "responsible_agency": "Department of Sanitation",
    "final_address": "3030 Orleans Ave",
    "address_councildis": "A",
    "status": "Assigned to Contractor",
    "contractor": "Richards Disposal",
    "rowid": "860969",
    "final_x": "3675529.01224",
    "final_y": "537878.974793",
    "longitude": "-90.08670611614704",
    "latitude": "29.973160659547332",
    "geocoded_column": {
      "latitude": "29.973160659547332",
      "longitude": "-90.08670611614704"
    }
  },
  {
    "service_request": "2022-860968",
    "request_type": "Trash/Recycling",
    "request_reason": "Start Trash Service",
    "date_created": "2022-02-14T15:28:59.000",
    "date_modified": "2022-02-14T15:28:59.000",
    "request_status": "Pending",
    "responsible_agency": "Department of Sanitation",
    "final_address": "3028 Orleans Ave",
    "address_councildis": "A",
    "status": "Assigned to Contractor",
    "contractor": "Richards Disposal",
    "rowid": "860968",
    "final_x": "3675536.99835",
    "final_y": "537872.724745",
    "longitude": "-90.08668110915045",
    "latitude": "29.97314323513878",
    "geocoded_column": {
      "latitude": "29.97314323513878",
      "longitude": "-90.08668110915045"
    }
  },
  {
    "service_request": "2022-860967",
    "request_type": "Trash/Recycling",
    "request_reason": "Order Trash Cart",
    "date_created": "2022-02-14T15:28:48.000",
    "date_modified": "2022-02-14T15:28:48.000",
    "request_status": "Pending",
    "responsible_agency": "Department of Sanitation",
    "final_address": "3028 Orleans Ave",
    "address_councildis": "A",
    "status": "Assigned to Contractor",
    "contractor": "Richards Disposal",
    "rowid": "860967",
    "final_x": "3675536.99835",
    "final_y": "537872.724745",
    "longitude": "-90.08668110915045",
    "latitude": "29.97314323513878",
    "geocoded_column": {
      "latitude": "29.97314323513878",
      "longitude": "-90.08668110915045"
    }
  },
  {
    "service_request": "2022-860966",
    "request_type": "Traffic Signals/Signs/Striping/Streetlights",
    "request_reason": "Street Name Sign Damaged or Missing",
    "date_created": "2022-02-14T15:24:25.000",
    "date_modified": "2022-02-14T15:24:25.000",
    "request_status": "Pending",
    "responsible_agency": "Department of Public Works",
    "final_address": "FRANCISCO VERRETT DR & BENTLEY DR & DWYER RD",
    "address_councildis": "E",
    "status": "Pending",
    "rowid": "860966",
    "final_x": "3704067.6",
    "final_y": "556360.08",
    "longitude": "-89.99589500987352",
    "latitude": "30.023092162167938",
    "geocoded_column": {
      "latitude": "30.023092162167938",
      "longitude": "-89.99589500987352"
    }
  },
  {
    "service_request": "2022-860965",
    "request_type": "Abandoned Vehicles",
    "request_reason": "Abandoned/Junk Vehicles",
    "date_created": "2022-02-14T15:19:07.000",
    "date_modified": "2022-02-14T15:19:07.000",
    "request_status": "Pending",
    "responsible_agency": "Department of Public Works",
    "final_address": "8721 Oak St",
    "address_councildis": "A",
    "status": "Pending",
    "rowid": "860965",
    "final_x": "3660280.26982",
    "final_y": "529963.264257",
    "longitude": "-90.13512636962612",
    "latitude": "29.951842382365673",
    "geocoded_column": {
      "latitude": "29.951842382365673",
      "longitude": "-90.13512636962612"
    }
  },
  {
    "service_request": "2022-860964",
    "request_type": "Trash/Recycling",
    "request_reason": "Order Recycling Cart",
    "date_created": "2022-02-14T15:17:00.000",
    "date_modified": "2022-02-14T15:17:00.000",
    "request_status": "Pending",
    "responsible_agency": "Department of Sanitation",
    "final_address": "2816 Joliet St",
    "address_councildis": "A",
    "status": "Pending",
    "rowid": "860964",
    "final_x": "3664858.82612",
    "final_y": "533740.753029",
    "longitude": "-90.12054316093777",
    "latitude": "29.96209680215001",
    "geocoded_column": {
      "latitude": "29.96209680215001",
      "longitude": "-90.12054316093777"
    }
  },
  {
    "service_request": "2022-860963",
    "request_type": "Trash/Recycling",
    "request_reason": "Repair Trash Cart",
    "date_created": "2022-02-14T15:16:15.000",
    "date_modified": "2022-02-14T15:16:16.000",
    "request_status": "Pending",
    "responsible_agency": "Department of Sanitation",
    "final_address": "2816 Joliet St",
    "address_councildis": "A",
    "status": "Assigned to Contractor",
    "contractor": "Richards Disposal",
    "rowid": "860963",
    "final_x": "3664858.82612",
    "final_y": "533740.753029",
    "longitude": "-90.12054316093777",
    "latitude": "29.96209680215001",
    "geocoded_column": {
      "latitude": "29.96209680215001",
      "longitude": "-90.12054316093777"
    }
  },
  {
    "service_request": "2022-860961",
    "request_type": "Trash/Recycling",
    "request_reason": "Missed Trash Pick-Up",
    "date_created": "2022-02-14T15:04:53.000",
    "date_modified": "2022-02-14T15:04:54.000",
    "request_status": "Pending",
    "responsible_agency": "Department of Sanitation",
    "final_address": "442 S Rendon St",
    "address_councildis": "B",
    "status": "Assigned to Contractor",
    "contractor": "Richards Disposal",
    "rowid": "860961",
    "final_x": "3672710.80532",
    "final_y": "535228.605062",
    "longitude": "-90.09569700141458",
    "latitude": "29.965957042838507",
    "geocoded_column": {
      "latitude": "29.965957042838507",
      "longitude": "-90.09569700141458"
    }
  },
  {
    "service_request": "2022-860960",
    "request_type": "Trash/Recycling",
    "request_reason": "Request a Large Item Pick Up",
    "date_created": "2022-02-14T14:59:00.000",
    "date_modified": "2022-02-14T14:59:44.000",
    "request_status": "Pending",
    "responsible_agency": "Department of Sanitation",
    "final_address": "408 Leboeuf St",
    "address_councildis": "C",
    "status": "Assigned to Contractor",
    "contractor": "Richards Disposal",
    "rowid": "860960",
    "final_x": "3689904.16124",
    "final_y": "530158.685057",
    "longitude": "-90.0415815525006",
    "latitude": "29.95149469059292",
    "geocoded_column": {
      "latitude": "29.95149469059292",
      "longitude": "-90.0415815525006"
    }
  },
  {
    "service_request": "2022-860959",
    "request_type": "Traffic Signals/Signs/Striping/Streetlights",
    "request_reason": "Traffic Sign Missing/Damaged",
    "date_created": "2022-02-14T14:58:41.000",
    "date_modified": "2022-02-14T14:58:41.000",
    "request_status": "Pending",
    "responsible_agency": "Department of Public Works",
    "final_address": "2503 Calhoun St",
    "address_councildis": "A",
    "status": "Pending",
    "rowid": "860959",
    "final_x": "3666248.44186",
    "final_y": "526056.810622",
    "longitude": "-90.11641264735123",
    "latitude": "29.940927942737243",
    "geocoded_column": {
      "latitude": "29.940927942737243",
      "longitude": "-90.11641264735123"
    }
  },
  {
    "service_request": "2022-860958",
    "request_type": "Trash/Recycling",
    "request_reason": "Repair Trash Cart",
    "date_created": "2022-02-14T14:56:47.000",
    "date_modified": "2022-02-14T15:02:05.000",
    "request_status": "Pending",
    "responsible_agency": "Department of Sanitation",
    "final_address": "5010 N Dorgenois St, New Orleans, Louisiana, 70117",
    "address_councildis": "E",
    "contractor": "Metro Disposal",
    "rowid": "860958",
    "final_x": "3697537.89872",
    "final_y": "539442.106378",
    "longitude": "-90.01714135878656",
    "latitude": "29.976781955012342",
    "geocoded_column": {
      "latitude": "29.976781955012342",
      "longitude": "-90.01714135878656"
    }
  },
  {
    "service_request": "2022-860957",
    "request_type": "Trash/Recycling",
    "request_reason": "Replace Trash Cart",
    "date_created": "2022-02-14T14:52:28.000",
    "date_modified": "2022-02-14T14:52:29.000",
    "request_status": "Pending",
    "responsible_agency": "Department of Sanitation",
    "final_address": "4520 Crowder Blvd",
    "address_councildis": "E",
    "status": "Assigned to Contractor",
    "contractor": "Metro Disposal",
    "rowid": "860957",
    "final_x": "3706441.01444",
    "final_y": "554408.75164",
    "longitude": "-89.98846797290149",
    "latitude": "30.017650378962514",
    "geocoded_column": {
      "latitude": "30.017650378962514",
      "longitude": "-89.98846797290149"
    }
  },
  {
    "service_request": "2022-860956",
    "request_type": "Trash/Recycling",
    "request_reason": "Repair Trash Cart",
    "date_created": "2022-02-14T14:44:26.000",
    "date_modified": "2022-02-14T14:44:27.000",
    "request_status": "Pending",
    "responsible_agency": "Department of Sanitation",
    "final_address": "1301 Mandolin St",
    "address_councildis": "D",
    "status": "Assigned to Contractor",
    "contractor": "Metro Disposal",
    "rowid": "860956",
    "final_x": "3677304.78958",
    "final_y": "548112.18549",
    "longitude": "-90.08074456134314",
    "latitude": "30.001245183873444",
    "geocoded_column": {
      "latitude": "30.001245183873444",
      "longitude": "-90.08074456134314"
    }
  },
  {
    "service_request": "2022-860955",
    "request_type": "Trash/Recycling",
    "request_reason": "Missed Trash Pick-Up",
    "date_created": "2022-02-14T14:42:45.000",
    "date_modified": "2022-02-14T14:46:00.000",
    "request_status": "Pending",
    "responsible_agency": "Department of Sanitation",
    "final_address": "1600 Dumaine St",
    "address_councildis": "C",
    "status": "Assigned to Contractor",
    "contractor": "Richards Disposal",
    "rowid": "860955",
    "final_x": "3680460.95695",
    "final_y": "534941.444486",
    "longitude": "-90.07123224540456",
    "latitude": "29.964934998638434",
    "geocoded_column": {
      "latitude": "29.964934998638434",
      "longitude": "-90.07123224540456"
    }
  },
  {
    "service_request": "2022-860954",
    "request_type": "Trash/Recycling",
    "request_reason": "Repair Recycling Cart",
    "date_created": "2022-02-14T14:32:17.000",
    "date_modified": "2022-02-14T14:32:18.000",
    "request_status": "Pending",
    "responsible_agency": "Department of Sanitation",
    "final_address": "2200 Easter Ln",
    "address_councildis": "C",
    "status": "Pending",
    "contractor": "Richards Disposal",
    "rowid": "860954",
    "final_x": "3699399.09373",
    "final_y": "523112.481531",
    "longitude": "-90.01185795032185",
    "latitude": "29.931822351342287",
    "geocoded_column": {
      "latitude": "29.931822351342287",
      "longitude": "-90.01185795032185"
    }
  },
  {
    "service_request": "2022-860953",
    "request_type": "Trash/Recycling",
    "request_reason": "Repair Trash Cart",
    "date_created": "2022-02-14T14:31:53.000",
    "date_modified": "2022-02-14T14:31:54.000",
    "request_status": "Pending",
    "responsible_agency": "Department of Sanitation",
    "final_address": "2200 Easter Ln",
    "address_councildis": "C",
    "status": "Assigned to Contractor",
    "contractor": "Richards Disposal",
    "rowid": "860953",
    "final_x": "3699399.09373",
    "final_y": "523112.481531",
    "longitude": "-90.01185795032185",
    "latitude": "29.931822351342287",
    "geocoded_column": {
      "latitude": "29.931822351342287",
      "longitude": "-90.01185795032185"
    }
  },
  {
    "service_request": "2022-860952",
    "request_type": "Trash/Recycling",
    "request_reason": "Replace Trash Cart",
    "date_created": "2022-02-14T14:28:37.000",
    "date_modified": "2022-02-14T14:28:38.000",
    "request_status": "Pending",
    "responsible_agency": "Department of Sanitation",
    "final_address": "5135 Timber Crest Dr",
    "address_councildis": "C",
    "status": "Assigned to Contractor",
    "contractor": "Richards Disposal",
    "rowid": "860952",
    "final_x": "3703195.92337",
    "final_y": "511151.977648",
    "longitude": "-90.00031112147039",
    "latitude": "29.89881411960551",
    "geocoded_column": {
      "latitude": "29.89881411960551",
      "longitude": "-90.00031112147039"
    }
  },
  {
    "service_request": "2022-860951",
    "request_type": "Roads/Drainage",
    "request_reason": "Pothole",
    "date_created": "2022-02-14T14:24:40.000",
    "date_modified": "2022-02-14T14:24:40.000",
    "request_status": "Pending",
    "responsible_agency": "Department of Public Works",
    "final_address": "1600 BLK Valmont St",
    "address_councildis": "B",
    "status": "Pending",
    "rowid": "860951",
    "final_x": "3667884.12679",
    "final_y": "521581.031429",
    "longitude": "-90.11139917230841",
    "latitude": "29.928573115392687",
    "geocoded_column": {
      "latitude": "29.928573115392687",
      "longitude": "-90.11139917230841"
    }
  },
  {
    "service_request": "2022-860947",
    "request_type": "Trash/Recycling",
    "request_reason": "Missed Trash Pick-Up",
    "date_created": "2022-02-14T14:14:17.000",
    "date_modified": "2022-02-14T14:14:18.000",
    "case_close_date": "2022-01-10T18:00:00.000",
    "request_status": "Pending",
    "responsible_agency": "Department of Sanitation",
    "final_address": "3515 N Claiborne Ave",
    "address_councildis": "D",
    "status": "Assigned to Contractor",
    "contractor": "Metro Disposal",
    "rowid": "860947",
    "final_x": "3691060.39894",
    "final_y": "537543.223688",
    "longitude": "-90.03766707434649",
    "latitude": "29.9717636988118",
    "geocoded_column": {
      "latitude": "29.9717636988118",
      "longitude": "-90.03766707434649"
    }
  },
  {
    "service_request": "2022-860946",
    "request_type": "Traffic Signals/Signs/Striping/Streetlights",
    "request_reason": "Street Name Sign Damaged or Missing",
    "date_created": "2022-02-14T14:09:18.000",
    "date_modified": "2022-02-14T14:09:18.000",
    "request_status": "Pending",
    "responsible_agency": "Department of Public Works",
    "final_address": "28TH ST & PONTCHARTRAIN BLVD",
    "address_councildis": "A",
    "status": "Pending",
    "rowid": "860946",
    "final_x": "3666226.4",
    "final_y": "550175.58",
    "longitude": "-90.11567303582765",
    "latitude": "30.007247147366304",
    "geocoded_column": {
      "latitude": "30.007247147366304",
      "longitude": "-90.11567303582765"
    }
  },
  {
    "service_request": "2022-860945",
    "request_type": "Traffic Signals/Signs/Striping/Streetlights",
    "request_reason": "Street Name Sign Damaged or Missing",
    "date_created": "2022-02-14T14:08:48.000",
    "date_modified": "2022-02-14T14:08:48.000",
    "request_status": "Pending",
    "responsible_agency": "Department of Public Works",
    "final_address": "28TH ST & FLEUR DE LIS DR",
    "address_councildis": "A",
    "status": "Pending",
    "rowid": "860945",
    "final_x": "3665267.2",
    "final_y": "550224.28",
    "longitude": "-90.11870179713671",
    "latitude": "30.007409048330423",
    "geocoded_column": {
      "latitude": "30.007409048330423",
      "longitude": "-90.11870179713671"
    }
  },
  {
    "service_request": "2022-860944",
    "request_type": "Trash/Recycling",
    "request_reason": "Request a Large Item Pick Up",
    "date_created": "2022-02-14T14:07:22.000",
    "date_modified": "2022-02-14T14:07:23.000",
    "request_status": "Pending",
    "responsible_agency": "Department of Sanitation",
    "final_address": "7833 Means Ave, New Orleans, Louisiana, 70127",
    "address_councildis": "E",
    "status": "Assigned to Contractor",
    "contractor": "Metro Disposal",
    "rowid": "860944",
    "final_x": "3707739.4259",
    "final_y": "565420.449954",
    "longitude": "-89.98395581098059",
    "latitude": "30.047886244829495",
    "geocoded_column": {
      "latitude": "30.047886244829495",
      "longitude": "-89.98395581098059"
    }
  },
  {
    "service_request": "2022-860943",
    "request_type": "Trash/Recycling",
    "request_reason": "Illegal Dumping",
    "date_created": "2022-02-14T14:05:53.000",
    "date_modified": "2022-02-14T14:06:21.000",
    "case_close_date": "2022-02-14T08:06:21.000",
    "request_status": "Closed",
    "responsible_agency": "Department of Sanitation",
    "final_address": "DWYER RD & A ST & DWYER BLVD",
    "address_councildis": "E",
    "status": "Resolved",
    "rowid": "860943",
    "final_x": "3731192.4",
    "final_y": "563849.48",
    "longitude": "-89.90989405788135",
    "latitude": "30.0427864666134",
    "geocoded_column": {
      "latitude": "30.0427864666134",
      "longitude": "-89.90989405788135"
    }
  },
  {
    "service_request": "2022-860942",
    "request_type": "Trash/Recycling",
    "request_reason": "Illegal Dumping",
    "date_created": "2022-02-14T14:01:13.000",
    "date_modified": "2022-02-14T14:01:42.000",
    "case_close_date": "2022-02-14T08:01:42.000",
    "request_status": "Closed",
    "responsible_agency": "Department of Sanitation",
    "final_address": "6000 BLK N dOrgenois St",
    "address_councildis": "E",
    "status": "Resolved",
    "rowid": "860942",
    "final_x": "3701317.66229",
    "final_y": "538384.631024",
    "longitude": "-90.00524247271849",
    "latitude": "29.973754359638946",
    "geocoded_column": {
      "latitude": "29.973754359638946",
      "longitude": "-90.00524247271849"
    }
  },
  {
    "service_request": "2022-860941",
    "request_type": "Trash/Recycling",
    "request_reason": "Illegal Dumping",
    "date_created": "2022-02-14T13:58:46.000",
    "date_modified": "2022-02-14T13:59:24.000",
    "case_close_date": "2022-02-14T07:59:24.000",
    "request_status": "Closed",
    "responsible_agency": "Department of Sanitation",
    "final_address": "6000 BLK N Rocheblave St",
    "address_councildis": "E",
    "status": "Resolved",
    "rowid": "860941",
    "final_x": "3701173.52478",
    "final_y": "538027.511987",
    "longitude": "-90.00571075511124",
    "latitude": "29.972777004748448",
    "geocoded_column": {
      "latitude": "29.972777004748448",
      "longitude": "-90.00571075511124"
    }
  },
  {
    "service_request": "2022-860940",
    "request_type": "Traffic Signals/Signs/Striping/Streetlights",
    "request_reason": "Request for Traffic Calming due to Speeding",
    "date_created": "2022-02-14T13:57:53.000",
    "date_modified": "2022-02-14T13:57:53.000",
    "request_status": "Pending",
    "responsible_agency": "Department of Public Works",
    "final_address": "6236 Pontchartrain Blvd",
    "address_councildis": "A",
    "status": "Pending",
    "rowid": "860940",
    "final_x": "3666140.49153",
    "final_y": "549362.488147",
    "longitude": "-90.11597173689881",
    "latitude": "30.005013936827794",
    "geocoded_column": {
      "latitude": "30.005013936827794",
      "longitude": "-90.11597173689881"
    }
  },
  {
    "service_request": "2022-860939",
    "request_type": "Trash/Recycling",
    "request_reason": "Illegal Dumping",
    "date_created": "2022-02-14T13:57:07.000",
    "date_modified": "2022-02-14T13:57:52.000",
    "case_close_date": "2022-02-14T07:57:52.000",
    "request_status": "Closed",
    "responsible_agency": "Department of Sanitation",
    "final_address": "5900 N Tonti St",
    "address_councildis": "E",
    "status": "Resolved",
    "rowid": "860939",
    "final_x": "3700123.87127",
    "final_y": "537887.625673",
    "longitude": "-90.00903084136263",
    "latitude": "29.972425766818926",
    "geocoded_column": {
      "latitude": "29.972425766818926",
      "longitude": "-90.00903084136263"
    }
  },
  {
    "service_request": "2022-860938",
    "request_type": "Safety & Permits",
    "request_reason": "Licenses & Permits",
    "date_created": "2022-02-14T13:55:48.000",
    "date_modified": "2022-02-14T13:55:48.000",
    "request_status": "Pending",
    "responsible_agency": "Safety and Permits",
    "final_address": "1736 Second St",
    "address_councildis": "B",
    "status": "Pending",
    "rowid": "860938",
    "final_x": "3676287.05576",
    "final_y": "523610.965627",
    "longitude": "-90.08480305765268",
    "latitude": "29.93390570177759",
    "geocoded_column": {
      "latitude": "29.93390570177759",
      "longitude": "-90.08480305765268"
    }
  },
  {
    "service_request": "2022-860937",
    "request_type": "Abandoned Vehicles",
    "request_reason": "Vehicle Blocking Your Driveway",
    "date_created": "2022-02-14T13:55:19.000",
    "date_modified": "2022-02-14T13:55:19.000",
    "request_status": "Pending",
    "responsible_agency": "Department of Public Works",
    "final_address": "324 S White St",
    "address_councildis": "B",
    "status": "Pending",
    "rowid": "860937",
    "final_x": "3674305.94222",
    "final_y": "534635.060166",
    "longitude": "-90.09067992567418",
    "latitude": "29.96427752324886",
    "geocoded_column": {
      "latitude": "29.96427752324886",
      "longitude": "-90.09067992567418"
    }
  },
  {
    "service_request": "2022-860936",
    "request_type": "Traffic Signals/Signs/Striping/Streetlights",
    "request_reason": "Request for Stop Sign",
    "date_created": "2022-02-14T13:55:13.000",
    "date_modified": "2022-02-14T13:55:13.000",
    "request_status": "Pending",
    "responsible_agency": "Department of Public Works",
    "final_address": "1800 W Homestead Dr",
    "address_councildis": "C",
    "status": "Pending",
    "rowid": "860936",
    "final_x": "3696965.53187",
    "final_y": "525350.282173",
    "longitude": "-90.01945939307744",
    "latitude": "29.938052479245066",
    "geocoded_column": {
      "latitude": "29.938052479245066",
      "longitude": "-90.01945939307744"
    }
  },
  {
    "service_request": "2022-860935",
    "request_type": "Trash/Recycling",
    "request_reason": "Missed Trash Pick-Up",
    "date_created": "2022-02-14T13:49:47.000",
    "date_modified": "2022-02-14T13:49:48.000",
    "case_close_date": "2022-01-02T18:00:00.000",
    "request_status": "Pending",
    "responsible_agency": "Department of Sanitation",
    "final_address": "2133 Port St",
    "address_councildis": "D",
    "status": "Assigned to Contractor",
    "contractor": "Metro Disposal",
    "rowid": "860935",
    "final_x": "3688479.83273",
    "final_y": "540409.618763",
    "longitude": "-90.04571515248844",
    "latitude": "29.979725255954794",
    "geocoded_column": {
      "latitude": "29.979725255954794",
      "longitude": "-90.04571515248844"
    }
  },
  {
    "service_request": "2022-860934",
    "request_type": "Trash/Recycling",
    "request_reason": "Replace Trash Cart",
    "date_created": "2022-02-14T13:48:45.000",
    "date_modified": "2022-02-14T13:48:45.000",
    "request_status": "Pending",
    "responsible_agency": "Department of Sanitation",
    "final_address": "2807 Bienville Ave",
    "address_councildis": "B",
    "status": "Assigned to Contractor",
    "contractor": "Richards Disposal",
    "rowid": "860934",
    "final_x": "3675354.93128",
    "final_y": "536203.337479",
    "longitude": "-90.08731344580089",
    "latitude": "29.968558433101197",
    "geocoded_column": {
      "latitude": "29.968558433101197",
      "longitude": "-90.08731344580089"
    }
  },
  {
    "service_request": "2022-860933",
    "request_type": "Trash/Recycling",
    "request_reason": "Repair Trash Cart",
    "date_created": "2022-02-14T13:48:04.000",
    "date_modified": "2022-02-14T13:48:05.000",
    "request_status": "Pending",
    "responsible_agency": "Department of Sanitation",
    "final_address": "2805 Bienville Ave",
    "address_councildis": "B",
    "status": "Assigned to Contractor",
    "contractor": "Richards Disposal",
    "rowid": "860933",
    "final_x": "3675354.93128",
    "final_y": "536203.337479",
    "longitude": "-90.08731344580089",
    "latitude": "29.968558433101197",
    "geocoded_column": {
      "latitude": "29.968558433101197",
      "longitude": "-90.08731344580089"
    }
  },
  {
    "service_request": "2022-860932",
    "request_type": "Property Maintenance",
    "request_reason": "Property Maintenance",
    "date_created": "2022-02-14T13:46:39.000",
    "date_modified": "2022-02-14T13:46:39.000",
    "request_status": "Pending",
    "responsible_agency": "Department of Code Enforcement",
    "final_address": "5423 N Villere St",
    "address_councildis": "E",
    "status": "Pending",
    "rowid": "860932",
    "final_x": "3697629.29981",
    "final_y": "535066.739398",
    "longitude": "-90.0170114346152",
    "latitude": "29.964748378571883",
    "geocoded_column": {
      "latitude": "29.964748378571883",
      "longitude": "-90.0170114346152"
    }
  },
  {
    "service_request": "2022-860931",
    "request_type": "Roads/Drainage",
    "request_reason": "Catch Basin - Clogged",
    "date_created": "2022-02-14T13:46:26.000",
    "date_modified": "2022-02-14T13:46:26.000",
    "request_status": "Pending",
    "responsible_agency": "Department of Public Works",
    "final_address": "2011 Camp St",
    "address_councildis": "B",
    "status": "Pending",
    "rowid": "860931",
    "final_x": "3679182.50933",
    "final_y": "522834.092603",
    "longitude": "-90.07568915396513",
    "latitude": "29.931682488155037",
    "geocoded_column": {
      "latitude": "29.931682488155037",
      "longitude": "-90.07568915396513"
    }
  },
  {
    "service_request": "2022-860930",
    "request_type": "Trash/Recycling",
    "request_reason": "Dead Animal Pick Up",
    "date_created": "2022-02-14T13:45:23.000",
    "date_modified": "2022-02-14T13:45:24.000",
    "request_status": "Pending",
    "responsible_agency": "Department of Sanitation",
    "final_address": "Mt Carmel Academy of New Orleans",
    "status": "Assigned to Contractor",
    "rowid": "860930",
    "longitude": "0.0",
    "latitude": "0.0",
    "geocoded_column": {
      "latitude": "0.0",
      "longitude": "0.0"
    }
  },
  {
    "service_request": "2022-860929",
    "request_type": "Trash/Recycling",
    "request_reason": "Replace Trash Cart",
    "date_created": "2022-02-14T13:37:06.000",
    "date_modified": "2022-02-14T13:37:07.000",
    "request_status": "Pending",
    "responsible_agency": "Department of Sanitation",
    "final_address": "4324 Burgundy St, New Orleans, Louisiana, 70117",
    "address_councildis": "C",
    "status": "Assigned to Contractor",
    "contractor": "Metro Disposal",
    "rowid": "860929",
    "final_x": "3692703.60886",
    "final_y": "534213.156549",
    "longitude": "-90.03259696999206",
    "latitude": "29.96255599727041",
    "geocoded_column": {
      "latitude": "29.96255599727041",
      "longitude": "-90.03259696999206"
    }
  },
  {
    "service_request": "2022-860928",
    "request_type": "Trash/Recycling",
    "request_reason": "Request a Large Item Pick Up",
    "date_created": "2022-02-14T13:36:15.000",
    "date_modified": "2022-02-14T13:36:16.000",
    "request_status": "Pending",
    "responsible_agency": "Department of Sanitation",
    "final_address": "5857 Louisville St",
    "address_councildis": "A",
    "status": "Assigned to Contractor",
    "contractor": "Metro Disposal",
    "rowid": "860928",
    "final_x": "3667709.73921",
    "final_y": "546386.92712",
    "longitude": "-90.11111441111679",
    "latitude": "29.99678623815592",
    "geocoded_column": {
      "latitude": "29.99678623815592",
      "longitude": "-90.11111441111679"
    }
  },
  {
    "service_request": "2022-860927",
    "request_type": "Trash/Recycling",
    "request_reason": "Illegal Dumping",
    "date_created": "2022-02-14T13:34:57.000",
    "date_modified": "2022-02-14T13:34:57.000",
    "request_status": "Pending",
    "responsible_agency": "Department of Sanitation",
    "final_address": "1724 N Derbigny St",
    "address_councildis": "D",
    "status": "Pending",
    "rowid": "860927",
    "final_x": "3682814.1732",
    "final_y": "538254.800713",
    "longitude": "-90.06368500183227",
    "latitude": "29.973974102704698",
    "geocoded_column": {
      "latitude": "29.973974102704698",
      "longitude": "-90.06368500183227"
    }
  },
  {
    "service_request": "2022-860926",
    "request_type": "Abandoned Vehicles",
    "request_reason": "Abandoned/Junk Vehicles",
    "date_created": "2022-02-14T13:34:46.000",
    "date_modified": "2022-02-14T13:34:46.000",
    "request_status": "Pending",
    "responsible_agency": "Department of Public Works",
    "final_address": "29 Eugenie Ct",
    "address_councildis": "C",
    "status": "Pending",
    "rowid": "860926",
    "final_x": "3700061.83396",
    "final_y": "511584.750704",
    "longitude": "-90.01018599458169",
    "latitude": "29.900103983723422",
    "geocoded_column": {
      "latitude": "29.900103983723422",
      "longitude": "-90.01018599458169"
    }
  },
  {
    "service_request": "2022-860924",
    "request_type": "Tax and Revenue",
    "request_reason": "Occupational License Tax",
    "date_created": "2022-02-14T13:29:17.000",
    "date_modified": "2022-02-14T13:29:17.000",
    "request_status": "Pending",
    "responsible_agency": "Bureau of Revenue",
    "status": "Pending",
    "rowid": "860924",
    "longitude": "0.0",
    "latitude": "0.0",
    "geocoded_column": {
      "latitude": "0.0",
      "longitude": "0.0"
    }
  },
  {
    "service_request": "2022-860923",
    "request_type": "Trash/Recycling",
    "request_reason": "Missed Trash Pick-Up",
    "date_created": "2022-02-14T13:27:38.000",
    "date_modified": "2022-02-14T13:27:39.000",
    "request_status": "Pending",
    "responsible_agency": "Department of Sanitation",
    "final_address": "13411 N Nemours St",
    "address_councildis": "E",
    "status": "Assigned to Contractor",
    "contractor": "Metro Disposal",
    "rowid": "860923",
    "final_x": "3725194.57856",
    "final_y": "562733.04944",
    "longitude": "-89.9288925658763",
    "latitude": "30.039920251058728",
    "geocoded_column": {
      "latitude": "30.039920251058728",
      "longitude": "-89.9288925658763"
    }
  },
  {
    "service_request": "2022-860922",
    "request_type": "Trash/Recycling",
    "request_reason": "Missed Trash Pick-Up",
    "date_created": "2022-02-14T13:19:21.000",
    "date_modified": "2022-02-14T13:19:22.000",
    "request_status": "Pending",
    "responsible_agency": "Department of Sanitation",
    "final_address": "1927 Orleans Ave",
    "address_councildis": "D",
    "status": "Assigned to Contractor",
    "contractor": "Richards Disposal",
    "rowid": "860922",
    "final_x": "3679129.09858",
    "final_y": "535334.396038",
    "longitude": "-90.07542454961231",
    "latitude": "29.966055751508375",
    "geocoded_column": {
      "latitude": "29.966055751508375",
      "longitude": "-90.07542454961231"
    }
  },
  {
    "service_request": "2022-860921",
    "request_type": "Trash/Recycling",
    "request_reason": "Request a Large Item Pick Up",
    "date_created": "2022-02-14T13:15:02.000",
    "date_modified": "2022-02-14T13:15:03.000",
    "request_status": "Pending",
    "responsible_agency": "Department of Sanitation",
    "final_address": "8421 Lomond Rd",
    "address_councildis": "E",
    "status": "Assigned to Contractor",
    "contractor": "Metro Disposal",
    "rowid": "860921",
    "final_x": "3703614.27556",
    "final_y": "562107.635231",
    "longitude": "-89.99711562106411",
    "latitude": "30.03891024172641",
    "geocoded_column": {
      "latitude": "30.03891024172641",
      "longitude": "-89.99711562106411"
    }
  },
  {
    "service_request": "2022-860920",
    "request_type": "Roads/Drainage",
    "request_reason": "Catch Basin - Clogged",
    "date_created": "2022-02-14T13:12:29.000",
    "date_modified": "2022-02-14T13:12:29.000",
    "request_status": "Pending",
    "responsible_agency": "Department of Public Works",
    "final_address": "1806 Audubon St",
    "address_councildis": "A",
    "status": "Pending",
    "rowid": "860920",
    "final_x": "3665617.16928",
    "final_y": "528184.363904",
    "longitude": "-90.11833447102542",
    "latitude": "29.946796449510195",
    "geocoded_column": {
      "latitude": "29.946796449510195",
      "longitude": "-90.11833447102542"
    }
  },
  {
    "service_request": "2022-860919",
    "request_type": "Trash/Recycling",
    "request_reason": "Repair Trash Cart",
    "date_created": "2022-02-14T13:07:43.000",
    "date_modified": "2022-02-14T13:07:44.000",
    "request_status": "Pending",
    "responsible_agency": "Department of Sanitation",
    "final_address": "8211 Apple St",
    "address_councildis": "A",
    "status": "Assigned to Contractor",
    "contractor": "Richards Disposal",
    "rowid": "860919",
    "final_x": "3665041.98765",
    "final_y": "532439.407619",
    "longitude": "-90.12000827694052",
    "latitude": "29.95851319652663",
    "geocoded_column": {
      "latitude": "29.95851319652663",
      "longitude": "-90.12000827694052"
    }
  },
  {
    "service_request": "2022-860918",
    "request_type": "Trash/Recycling",
    "request_reason": "Return Trash Cart",
    "date_created": "2022-02-14T13:04:46.000",
    "date_modified": "2022-02-14T13:04:47.000",
    "request_status": "Pending",
    "responsible_agency": "Department of Sanitation",
    "final_address": "8215 Apple St",
    "address_councildis": "A",
    "status": "Assigned to Contractor",
    "contractor": "Richards Disposal",
    "rowid": "860918",
    "final_x": "3665025.1049",
    "final_y": "532454.261955",
    "longitude": "-90.12006109175707",
    "latitude": "29.958554532645714",
    "geocoded_column": {
      "latitude": "29.958554532645714",
      "longitude": "-90.12006109175707"
    }
  },
  {
    "service_request": "2022-860917",
    "request_type": "Traffic Signals/Signs/Striping/Streetlights",
    "request_reason": "Street Light Outage/Malfunction",
    "date_created": "2022-02-14T13:03:54.000",
    "date_modified": "2022-02-14T13:03:55.000",
    "request_status": "Pending",
    "responsible_agency": "Department of Public Works",
    "final_address": "2539 Esplanade Ave",
    "address_councildis": "D",
    "status": "Pending",
    "contractor": "Royal Engineering",
    "rowid": "860917",
    "final_x": "3678419.23874",
    "final_y": "538850.452489",
    "longitude": "-90.07754457853274",
    "latitude": "29.975745111065464",
    "geocoded_column": {
      "latitude": "29.975745111065464",
      "longitude": "-90.07754457853274"
    }
  },
  {
    "service_request": "2022-860916",
    "request_type": "Trash/Recycling",
    "request_reason": "Replace Trash Cart",
    "date_created": "2022-02-14T13:03:35.000",
    "date_modified": "2022-02-14T13:03:37.000",
    "request_status": "Pending",
    "responsible_agency": "Department of Sanitation",
    "final_address": "1231 Chartres St",
    "address_councildis": "C",
    "status": "Assigned to Contractor",
    "contractor": "Empire Services",
    "rowid": "860916",
    "final_x": "3684082.00956",
    "final_y": "533924.433669",
    "longitude": "-90.05983289523448",
    "latitude": "29.96202840332864",
    "geocoded_column": {
      "latitude": "29.96202840332864",
      "longitude": "-90.05983289523448"
    }
  },
  {
    "service_request": "2022-860915",
    "request_type": "Trash/Recycling",
    "request_reason": "Request a Large Item Pick Up",
    "date_created": "2022-02-14T13:02:40.000",
    "date_modified": "2022-02-14T13:02:41.000",
    "request_status": "Pending",
    "responsible_agency": "Department of Sanitation",
    "final_address": "725 Hagan St",
    "address_councildis": "A",
    "status": "Assigned to Contractor",
    "contractor": "Richards Disposal",
    "rowid": "860915",
    "final_x": "3674762.31803",
    "final_y": "538649.247113",
    "longitude": "-90.08910107657262",
    "latitude": "29.975301559389216",
    "geocoded_column": {
      "latitude": "29.975301559389216",
      "longitude": "-90.08910107657262"
    }
  },
  {
    "service_request": "2022-860914",
    "request_type": "Trash/Recycling",
    "request_reason": "Order Recycling Cart",
    "date_created": "2022-02-14T13:01:51.000",
    "date_modified": "2022-02-14T13:01:51.000",
    "request_status": "Pending",
    "responsible_agency": "Department of Sanitation",
    "final_address": "2034 Saint Philip St, New Orleans, Louisiana, 70116",
    "status": "Pending",
    "rowid": "860914",
    "longitude": "0.0",
    "latitude": "0.0",
    "geocoded_column": {
      "latitude": "0.0",
      "longitude": "0.0"
    }
  },
  {
    "service_request": "2022-860913",
    "request_type": "Abandoned Vehicles",
    "request_reason": "Abandoned/Junk Vehicles",
    "date_created": "2022-02-14T13:01:00.000",
    "date_modified": "2022-02-14T13:02:27.000",
    "request_status": "Pending",
    "responsible_agency": "Department of Public Works",
    "final_address": "2539 Esplanade Ave",
    "address_councildis": "D",
    "status": "Pending",
    "rowid": "860913",
    "final_x": "3678419.23874",
    "final_y": "538850.452489",
    "longitude": "-90.07754457853274",
    "latitude": "29.975745111065464",
    "geocoded_column": {
      "latitude": "29.975745111065464",
      "longitude": "-90.07754457853274"
    }
  },
  {
    "service_request": "2022-860912",
    "request_type": "Abandoned Vehicles",
    "request_reason": "Abandoned/Junk Vehicles",
    "date_created": "2022-02-14T13:00:30.000",
    "date_modified": "2022-02-14T13:00:30.000",
    "request_status": "Pending",
    "responsible_agency": "Department of Public Works",
    "final_address": "2334 Mandeville St",
    "address_councildis": "D",
    "status": "Pending",
    "rowid": "860912",
    "final_x": "3685360.34933",
    "final_y": "541085.979596",
    "longitude": "-90.05554390919752",
    "latitude": "29.98168102926595",
    "geocoded_column": {
      "latitude": "29.98168102926595",
      "longitude": "-90.05554390919752"
    }
  },
  {
    "service_request": "2022-860911",
    "request_type": "Trash/Recycling",
    "request_reason": "Request a Large Item Pick Up",
    "date_created": "2022-02-14T12:56:27.000",
    "date_modified": "2022-02-14T12:56:28.000",
    "request_status": "Pending",
    "responsible_agency": "Department of Sanitation",
    "final_address": "2034 Saint Philip St, New Orleans, Louisiana, 70116",
    "status": "Assigned to Contractor",
    "rowid": "860911",
    "longitude": "0.0",
    "latitude": "0.0",
    "geocoded_column": {
      "latitude": "0.0",
      "longitude": "0.0"
    }
  },
  {
    "service_request": "2022-860910",
    "request_type": "Roads/Drainage",
    "request_reason": "Damaged Sidewalk",
    "date_created": "2022-02-14T12:55:57.000",
    "date_modified": "2022-02-14T12:55:57.000",
    "request_status": "Pending",
    "responsible_agency": "Department of Public Works",
    "final_address": "6555 Memphis St",
    "address_councildis": "A",
    "status": "Pending",
    "rowid": "860910",
    "final_x": "3669624.07943",
    "final_y": "551028.283669",
    "longitude": "-90.10490990952725",
    "latitude": "30.009492065982442",
    "geocoded_column": {
      "latitude": "30.009492065982442",
      "longitude": "-90.10490990952725"
    }
  },
  {
    "service_request": "2022-860909",
    "request_type": "Trash/Recycling",
    "request_reason": "Request a Large Item Pick Up",
    "date_created": "2022-02-14T12:54:29.000",
    "date_modified": "2022-02-14T12:55:00.000",
    "request_status": "Pending",
    "responsible_agency": "Department of Sanitation",
    "final_address": "13335 Dwyer Blvd",
    "address_councildis": "E",
    "status": "Assigned to Contractor",
    "contractor": "Metro Disposal",
    "rowid": "860909",
    "final_x": "3725202.27782",
    "final_y": "561837.838815",
    "longitude": "-89.92890291018888",
    "latitude": "30.037458531639118",
    "geocoded_column": {
      "latitude": "30.037458531639118",
      "longitude": "-89.92890291018888"
    }
  },
  {
    "service_request": "2022-860908",
    "request_type": "Trash/Recycling",
    "request_reason": "Request a Large Item Pick Up",
    "date_created": "2022-02-14T12:52:53.000",
    "date_modified": "2022-02-14T12:52:54.000",
    "request_status": "Pending",
    "responsible_agency": "Department of Sanitation",
    "final_address": "5227 Michoud Blvd",
    "address_councildis": "E",
    "status": "Assigned to Contractor",
    "contractor": "Metro Disposal",
    "rowid": "860908",
    "final_x": "3724890.90419",
    "final_y": "562601.41136",
    "longitude": "-89.92985735356956",
    "latitude": "30.039568531492975",
    "geocoded_column": {
      "latitude": "30.039568531492975",
      "longitude": "-89.92985735356956"
    }
  },
  {
    "service_request": "2022-860907",
    "request_type": "Trash/Recycling",
    "request_reason": "MIssed Recycling Pick-Up",
    "date_created": "2022-02-14T12:49:24.000",
    "date_modified": "2022-02-14T12:49:25.000",
    "request_status": "Pending",
    "responsible_agency": "Department of Sanitation",
    "final_address": "4300 Banks St",
    "address_councildis": "A",
    "status": "Assigned to Contractor",
    "contractor": "Richards Disposal",
    "rowid": "860907",
    "final_x": "3669496.62113",
    "final_y": "537957.348105",
    "longitude": "-90.10575501098809",
    "latitude": "29.973555240716877",
    "geocoded_column": {
      "latitude": "29.973555240716877",
      "longitude": "-90.10575501098809"
    }
  },
  {
    "service_request": "2022-860906",
    "request_type": "Trash/Recycling",
    "request_reason": "Repair Trash Cart",
    "date_created": "2022-02-14T12:47:25.000",
    "date_modified": "2022-02-14T12:47:26.000",
    "request_status": "Pending",
    "responsible_agency": "Department of Sanitation",
    "final_address": "4322 Fields St",
    "address_councildis": "C",
    "status": "Assigned to Contractor",
    "contractor": "Richards Disposal",
    "rowid": "860906",
    "final_x": "3707917.2755",
    "final_y": "514841.446131",
    "longitude": "-89.985274406567",
    "latitude": "29.90880701844939",
    "geocoded_column": {
      "latitude": "29.90880701844939",
      "longitude": "-89.985274406567"
    }
  },
  {
    "service_request": "2022-860905",
    "request_type": "Trash/Recycling",
    "request_reason": "MIssed Recycling Pick-Up",
    "date_created": "2022-02-14T12:44:54.000",
    "date_modified": "2022-02-14T12:44:55.000",
    "request_status": "Pending",
    "responsible_agency": "Department of Sanitation",
    "final_address": "1210 Peniston St, New Orleans, Louisiana, 70115",
    "address_councildis": "B",
    "status": "Assigned to Contractor",
    "contractor": "Richards Disposal",
    "rowid": "860905",
    "final_x": "3673070.73268",
    "final_y": "520149.477688",
    "longitude": "-90.0950749614316",
    "latitude": "29.924483698017024",
    "geocoded_column": {
      "latitude": "29.924483698017024",
      "longitude": "-90.0950749614316"
    }
  },
  {
    "service_request": "2022-860904",
    "request_type": "Trash/Recycling",
    "request_reason": "Order Trash Cart",
    "date_created": "2022-02-14T12:42:51.000",
    "date_modified": "2022-02-14T12:42:52.000",
    "request_status": "Pending",
    "responsible_agency": "Department of Sanitation",
    "final_address": "4929 Desire Dr, New Orleans, Louisiana, 70126",
    "address_councildis": "D",
    "status": "Assigned to Contractor",
    "contractor": "Metro Disposal",
    "rowid": "860904",
    "final_x": "3691675.87465",
    "final_y": "552152.384086",
    "longitude": "-90.03520061372417",
    "latitude": "30.011914447128856",
    "geocoded_column": {
      "latitude": "30.011914447128856",
      "longitude": "-90.03520061372417"
    }
  },
  {
    "service_request": "2022-860902",
    "request_type": "Roads/Drainage",
    "request_reason": "Pothole",
    "date_created": "2022-02-14T12:39:21.000",
    "date_modified": "2022-02-14T12:39:21.000",
    "request_status": "Pending",
    "responsible_agency": "Department of Public Works",
    "final_address": "5710 Garfield St",
    "address_councildis": "A",
    "status": "Pending",
    "rowid": "860902",
    "final_x": "3666210.39777",
    "final_y": "521252.848057",
    "longitude": "-90.11669380107593",
    "latitude": "29.927719687236237",
    "geocoded_column": {
      "latitude": "29.927719687236237",
      "longitude": "-90.11669380107593"
    }
  },
  {
    "service_request": "2022-860901",
    "request_type": "Abandoned Vehicles",
    "request_reason": "Abandoned/Junk Vehicles",
    "date_created": "2022-02-14T12:31:52.000",
    "date_modified": "2022-02-14T12:35:22.000",
    "case_close_date": "2022-02-14T06:35:22.000",
    "request_status": "Closed",
    "responsible_agency": "Department of Public Works",
    "final_address": "10200 Almonaster Ave",
    "address_councildis": "E",
    "status": "Pending",
    "rowid": "860901",
    "final_x": "3713684.56383",
    "final_y": "551626.395989",
    "longitude": "-89.96568637555853",
    "latitude": "30.00976423388402",
    "geocoded_column": {
      "latitude": "30.00976423388402",
      "longitude": "-89.96568637555853"
    }
  },
  {
    "service_request": "2022-860900",
    "request_type": "Abandoned Vehicles",
    "request_reason": "Abandoned/Junk Vehicles",
    "date_created": "2022-02-14T12:30:12.000",
    "date_modified": "2022-02-14T12:30:56.000",
    "request_status": "Pending",
    "responsible_agency": "Department of Public Works",
    "final_address": "1301 St Bernard Ave",
    "address_councildis": "C",
    "status": "Pending",
    "rowid": "860900",
    "final_x": "3682919.3446",
    "final_y": "536532.769031",
    "longitude": "-90.06341312216362",
    "latitude": "29.969235907623844",
    "geocoded_column": {
      "latitude": "29.969235907623844",
      "longitude": "-90.06341312216362"
    }
  },
  {
    "service_request": "2022-860898",
    "request_type": "Trash/Recycling",
    "request_reason": "Illegal Dumping",
    "date_created": "2022-02-14T12:29:27.000",
    "date_modified": "2022-02-14T12:29:27.000",
    "request_status": "Pending",
    "responsible_agency": "Department of Sanitation",
    "final_address": "938 Ursulines Ave",
    "address_councildis": "C",
    "status": "Pending",
    "rowid": "860898",
    "final_x": "3682605.20693",
    "final_y": "534241.796741",
    "longitude": "-90.06448530890812",
    "latitude": "29.96294609151255",
    "geocoded_column": {
      "latitude": "29.96294609151255",
      "longitude": "-90.06448530890812"
    }
  },
  {
    "service_request": "2022-860897",
    "request_type": "Abandoned Vehicles",
    "request_reason": "Abandoned/Junk Vehicles",
    "date_created": "2022-02-14T12:28:56.000",
    "date_modified": "2022-02-14T12:29:51.000",
    "request_status": "Pending",
    "responsible_agency": "Department of Public Works",
    "final_address": "4300 BLK Stemway Dr",
    "address_councildis": "D",
    "status": "Pending",
    "rowid": "860897",
    "final_x": "3697219.15835",
    "final_y": "552014.587359",
    "longitude": "-90.01769211506057",
    "latitude": "30.01136171494193",
    "geocoded_column": {
      "latitude": "30.01136171494193",
      "longitude": "-90.01769211506057"
    }
  },
  {
    "service_request": "2022-860896",
    "request_type": "Trash/Recycling",
    "request_reason": "Order Trash Cart",
    "date_created": "2022-02-14T12:26:02.000",
    "date_modified": "2022-02-14T12:26:05.000",
    "request_status": "Pending",
    "responsible_agency": "Department of Sanitation",
    "final_address": "New Orleans,LA",
    "status": "Assigned to Contractor",
    "rowid": "860896",
    "longitude": "0.0",
    "latitude": "0.0",
    "geocoded_column": {
      "latitude": "0.0",
      "longitude": "0.0"
    }
  },
  {
    "service_request": "2022-860895",
    "request_type": "Trash/Recycling",
    "request_reason": "Missed Trash Pick-Up",
    "date_created": "2022-02-14T12:24:24.000",
    "date_modified": "2022-02-14T12:24:25.000",
    "request_status": "Pending",
    "responsible_agency": "Department of Sanitation",
    "final_address": "3306 Banks St",
    "address_councildis": "B",
    "status": "Assigned to Contractor",
    "contractor": "Richards Disposal",
    "rowid": "860895",
    "final_x": "3672747.8162",
    "final_y": "535472.218566",
    "longitude": "-90.09557181149168",
    "latitude": "29.966625798861337",
    "geocoded_column": {
      "latitude": "29.966625798861337",
      "longitude": "-90.09557181149168"
    }
  },
  {
    "service_request": "2022-860894",
    "request_type": "Trash/Recycling",
    "request_reason": "Illegal Dumping",
    "date_created": "2022-02-14T12:20:18.000",
    "date_modified": "2022-02-14T12:20:18.000",
    "request_status": "Pending",
    "responsible_agency": "Department of Code Enforcement",
    "final_address": "2328 Touro St",
    "address_councildis": "D",
    "status": "Pending",
    "rowid": "860894",
    "final_x": "3683825.40188",
    "final_y": "540899.588427",
    "longitude": "-90.06039852587745",
    "latitude": "29.98121549562343",
    "geocoded_column": {
      "latitude": "29.98121549562343",
      "longitude": "-90.06039852587745"
    }
  },
  {
    "service_request": "2022-860893",
    "request_type": "Property Maintenance",
    "request_reason": "Property Maintenance",
    "date_created": "2022-02-14T12:19:45.000",
    "date_modified": "2022-02-14T12:19:45.000",
    "request_status": "Pending",
    "responsible_agency": "Department of Code Enforcement",
    "final_address": "2328 Touro St",
    "address_councildis": "D",
    "status": "Pending",
    "rowid": "860893",
    "final_x": "3683825.40188",
    "final_y": "540899.588427",
    "longitude": "-90.06039852587745",
    "latitude": "29.98121549562343",
    "geocoded_column": {
      "latitude": "29.98121549562343",
      "longitude": "-90.06039852587745"
    }
  },
  {
    "service_request": "2022-860892",
    "request_type": "Traffic Signals/Signs/Striping/Streetlights",
    "request_reason": "Street Light Outage/Malfunction",
    "date_created": "2022-02-14T12:18:37.000",
    "date_modified": "2022-02-14T12:18:38.000",
    "request_status": "Pending",
    "responsible_agency": "Department of Public Works",
    "final_address": "2443 Oriole St",
    "address_councildis": "D",
    "status": "Pending",
    "contractor": "Royal Engineering",
    "rowid": "860892",
    "final_x": "3684894.45493",
    "final_y": "558292.075676",
    "longitude": "-90.05640980054785",
    "latitude": "30.029005839426734",
    "geocoded_column": {
      "latitude": "30.029005839426734",
      "longitude": "-90.05640980054785"
    }
  },
  {
    "service_request": "2022-860891",
    "request_type": "Traffic Signals/Signs/Striping/Streetlights",
    "request_reason": "Street Light Outage/Malfunction",
    "date_created": "2022-02-14T12:16:02.000",
    "date_modified": "2022-02-14T12:16:02.000",
    "request_status": "Pending",
    "responsible_agency": "Department of Public Works",
    "final_address": "2337 Oriole St",
    "address_councildis": "D",
    "status": "Pending",
    "contractor": "Royal Engineering",
    "rowid": "860891",
    "final_x": "3684352.09461",
    "final_y": "558199.521371",
    "longitude": "-90.05812689376464",
    "latitude": "30.028767957284263",
    "geocoded_column": {
      "latitude": "30.028767957284263",
      "longitude": "-90.05812689376464"
    }
  },
  {
    "service_request": "2022-860890",
    "request_type": "COVID-19",
    "request_reason": "COVID-19 Business Non-Compliance",
    "date_created": "2022-02-14T12:15:43.000",
    "date_modified": "2022-02-14T12:15:45.000",
    "request_status": "Pending",
    "responsible_agency": "Safety and Permits",
    "final_address": "626 S Carrollton Ave",
    "address_councildis": "A",
    "status": "Pending",
    "rowid": "860890",
    "final_x": "3660729.36915",
    "final_y": "527044.214974",
    "longitude": "-90.13380480827108",
    "latitude": "29.94380300796679",
    "geocoded_column": {
      "latitude": "29.94380300796679",
      "longitude": "-90.13380480827108"
    }
  },
  {
    "service_request": "2022-860889",
    "request_type": "Traffic Signals/Signs/Striping/Streetlights",
    "request_reason": "Street Light Outage/Malfunction",
    "date_created": "2022-02-14T12:15:09.000",
    "date_modified": "2022-02-14T12:15:11.000",
    "request_status": "Pending",
    "responsible_agency": "Department of Public Works",
    "final_address": "2301 Oriole St",
    "address_councildis": "D",
    "status": "Pending",
    "contractor": "Royal Engineering",
    "rowid": "860889",
    "final_x": "3684080.45103",
    "final_y": "558158.439963",
    "longitude": "-90.0589867190889",
    "latitude": "30.028663308352076",
    "geocoded_column": {
      "latitude": "30.028663308352076",
      "longitude": "-90.0589867190889"
    }
  },
  {
    "service_request": "2022-860888",
    "request_type": "Traffic Signals/Signs/Striping/Streetlights",
    "request_reason": "Street Light Outage/Malfunction",
    "date_created": "2022-02-14T12:14:03.000",
    "date_modified": "2022-02-14T12:14:04.000",
    "request_status": "Pending",
    "responsible_agency": "Department of Public Works",
    "final_address": "2221 Oriole St",
    "address_councildis": "D",
    "status": "Pending",
    "contractor": "Royal Engineering",
    "rowid": "860888",
    "final_x": "3683815.70953",
    "final_y": "558136.752475",
    "longitude": "-90.05982405126709",
    "latitude": "30.028611768958207",
    "geocoded_column": {
      "latitude": "30.028611768958207",
      "longitude": "-90.05982405126709"
    }
  },