[
  {
    "service_request": "2025-1241020",
    "request_type": "Roads and Streets",
    "request_reason": "Sidewalk Damaged or Missing",
    "date_created": "2025-11-18T23:59:52.000",
    "date_modified": "2025-11-18T23:59:54.000",
    "request_status": "Pending",
    "responsible_agency": "Department of Public Works",
    "final_address": "7341 Wayside Dr",
    "address_councildis": "E",
    "status": "Pending",
    "rowid": "1241020",
    "final_x": "3716986.27512",
    "final_y": "568841.520677",
    "longitude": "-89.95460078352062",
    "latitude": "30.05699012428545",
    "geocoded_column": {
      "latitude": "30.05699012428545",
      "longitude": "-89.95460078352062"
    }
  },
  {
    "service_request": "2025-1241019",
    "request_type": "Drainage",
    "request_reason": "Catch Basin Not Draining",
    "date_created": "2025-11-18T23:55:30.000",
    "date_modified": "2025-11-18T23:55:42.000",
    "request_status": "Pending",
    "responsible_agency": "Sewerage & Water Board",
    "final_address": "7341 Wayside Dr",
    "address_councildis": "E",
    "status": "Pending",
    "rowid": "1241019",
    "final_x": "3716986.27512",
    "final_y": "568841.520677",
    "longitude": "-89.95460078352062",
    "latitude": "30.05699012428545",
    "geocoded_column": {
      "latitude": "30.05699012428545",
      "longitude": "-89.95460078352062"
    }
  },
  {
    "service_request": "2025-1241018",
    "request_type": "Streetlights",
    "request_reason": "Streetlight Outage/Malfunction",
    "date_created": "2025-11-18T21:48:21.000",
    "date_modified": "2025-11-18T21:48:23.000",
    "request_status": "Pending",
    "responsible_agency": "Department of Public Works",
    "final_address": "3502 Baudin St",
    "address_councildis": "B",
    "status": "Pending",
    "rowid": "1241018",
    "final_x": "3671834.74305",
    "final_y": "535717.053575",
    "longitude": "-90.09844696292788",
    "latitude": "29.96732610187719",
    "geocoded_column": {
      "latitude": "29.96732610187719",
      "longitude": "-90.09844696292788"
    }
  },
  {
    "service_request": "2025-1241017",
    "request_type": "Trash/Recycling",
    "request_reason": "Replace Trash Cart",
    "date_created": "2025-11-18T21:21:18.000",
    "date_modified": "2025-11-18T21:21:20.000",
    "request_status": "Pending",
    "responsible_agency": "Department of Sanitation",
    "final_address": "2626 Joseph St",
    "address_councildis": "A",
    "status": "Assigned to Contractor",
    "contractor": "IV Waste",
    "rowid": "1241017",
    "final_x": "3667571.83207",
    "final_y": "525675.731389",
    "longitude": "-90.11224727448703",
    "latitude": "29.93984138497667",
    "geocoded_column": {
      "latitude": "29.93984138497667",
      "longitude": "-90.11224727448703"
    }
  },
  {
    "service_request": "2025-1241016",
    "request_type": "Trash/Recycling",
    "request_reason": "Replace Trash Cart",
    "date_created": "2025-11-18T21:17:26.000",
    "date_modified": "2025-11-18T21:17:28.000",
    "request_status": "Pending",
    "responsible_agency": "Department of Sanitation",
    "final_address": "4730 De Montluzin St",
    "address_councildis": "D",
    "status": "Assigned to Contractor",
    "contractor": "IV Waste",
    "rowid": "1241016",
    "final_x": "3687097.72034",
    "final_y": "550514.446932",
    "longitude": "-90.04972289045585",
    "latitude": "30.007552538216025",
    "geocoded_column": {
      "latitude": "30.007552538216025",
      "longitude": "-90.04972289045585"
    }
  },
  {
    "service_request": "2025-1241015",
    "request_type": "Trash/Recycling",
    "request_reason": "Repair Trash Cart",
    "date_created": "2025-11-18T21:05:15.000",
    "date_modified": "2025-11-18T21:05:16.000",
    "request_status": "Pending",
    "responsible_agency": "Department of Sanitation",
    "final_address": "1027 Flanders St",
    "address_councildis": "C",
    "status": "Assigned to Contractor",
    "contractor": "Richards Disposal",
    "rowid": "1241015",
    "final_x": "3696708.34039",
    "final_y": "527567.306111",
    "longitude": "-90.02019115199406",
    "latitude": "29.9441566330765",
    "geocoded_column": {
      "latitude": "29.9441566330765",
      "longitude": "-90.02019115199406"
    }
  },
  {
    "service_request": "2025-1241014",
    "request_type": "Trash/Recycling",
    "request_reason": "Illegal Dumping",
    "date_created": "2025-11-18T20:07:39.000",
    "date_modified": "2025-11-18T20:07:41.000",
    "request_status": "Pending",
    "responsible_agency": "Department of Sanitation",
    "final_address": "1320 Clouet St",
    "address_councildis": "C",
    "status": "Pending",
    "rowid": "1241014",
    "final_x": "3689190.42281",
    "final_y": "536898.3938",
    "longitude": "-90.04359565238873",
    "latitude": "29.970048651906122",
    "geocoded_column": {
      "latitude": "29.970048651906122",
      "longitude": "-90.04359565238873"
    }
  },
  {
    "service_request": "2025-1241013",
    "request_type": "Roads and Streets",
    "request_reason": "Pothole",
    "date_created": "2025-11-18T19:42:24.000",
    "date_modified": "2025-11-18T19:42:26.000",
    "request_status": "Pending",
    "responsible_agency": "Department of Public Works",
    "final_address": "6218 Camp St",
    "address_councildis": "A",
    "status": "Pending",
    "rowid": "1241013",
    "final_x": "3663735.52493",
    "final_y": "519935.705976",
    "longitude": "-90.12455028280617",
    "latitude": "29.924169983324653",
    "geocoded_column": {
      "latitude": "29.924169983324653",
      "longitude": "-90.12455028280617"
    }
  },
  {
    "service_request": "2025-1241012",
    "request_type": "Streetlights",
    "request_reason": "Streetlight Outage/Malfunction",
    "date_created": "2025-11-18T19:34:36.000",
    "date_modified": "2025-11-18T19:34:37.000",
    "request_status": "Pending",
    "responsible_agency": "Department of Public Works",
    "final_address": "2049 Lafreniere St",
    "address_councildis": "D",
    "status": "Pending",
    "rowid": "1241012",
    "final_x": "3683315.87336",
    "final_y": "545540.425104",
    "longitude": "-90.06184519441204",
    "latitude": "29.993991711041648",
    "geocoded_column": {
      "latitude": "29.993991711041648",
      "longitude": "-90.06184519441204"
    }
  },
  {
    "service_request": "2025-1241011",
    "request_type": "Abandoned Vehicles",
    "request_reason": "Abandoned/Junk Vehicles",
    "date_created": "2025-11-18T19:32:36.000",
    "date_modified": "2025-11-18T19:32:37.000",
    "request_status": "Pending",
    "responsible_agency": "Department of Public Works",
    "final_address": "3537 Frenchmen St",
    "address_councildis": "D",
    "status": "Pending",
    "rowid": "1241011",
    "final_x": "3683873.42594",
    "final_y": "545792.443536",
    "longitude": "-90.06007512109286",
    "latitude": "29.99466764825896",
    "geocoded_column": {
      "latitude": "29.99466764825896",
      "longitude": "-90.06007512109286"
    }
  },
  {
    "service_request": "2025-1241010",
    "request_type": "Trash/Recycling",
    "request_reason": "Replace Trash Cart",
    "date_created": "2025-11-18T19:29:39.000",
    "date_modified": "2025-11-18T19:29:41.000",
    "request_status": "Pending",
    "responsible_agency": "Department of Sanitation",
    "final_address": "4237 Tulane Ave",
    "address_councildis": "A",
    "status": "Assigned to Contractor",
    "contractor": "IV Waste",
    "rowid": "1241010",
    "final_x": "3668675.30516",
    "final_y": "536706.842375",
    "longitude": "-90.10839112869526",
    "latitude": "29.97014093755322",
    "geocoded_column": {
      "latitude": "29.97014093755322",
      "longitude": "-90.10839112869526"
    }
  },
  {
    "service_request": "2025-1241009",
    "request_type": "Trash/Recycling",
    "request_reason": "Request a Large Item Pick Up",
    "date_created": "2025-11-18T19:23:36.000",
    "date_modified": "2025-11-18T19:23:38.000",
    "request_status": "Pending",
    "responsible_agency": "Department of Sanitation",
    "final_address": "11283 Winrock Dr",
    "address_councildis": "E",
    "status": "Assigned to Contractor",
    "contractor": "Waste Pro",
    "rowid": "1241009",
    "final_x": "3716712.63884",
    "final_y": "561668.571935",
    "longitude": "-89.95573828024344",
    "latitude": "30.037276496200594",
    "geocoded_column": {
      "latitude": "30.037276496200594",
      "longitude": "-89.95573828024344"
    }
  },
  {
    "service_request": "2025-1241008",
    "request_type": "Trash/Recycling",
    "request_reason": "Request a Large Item Pick Up",
    "date_created": "2025-11-18T19:15:14.000",
    "date_modified": "2025-11-18T19:15:16.000",
    "request_status": "Pending",
    "responsible_agency": "Department of Sanitation",
    "final_address": "520 Whitney Ave",
    "address_councildis": "C",
    "status": "Assigned to Contractor",
    "contractor": "Richards Disposal",
    "rowid": "1241008",
    "final_x": "3690317.83728",
    "final_y": "529618.149313",
    "longitude": "-90.04029462935715",
    "latitude": "29.949995574008152",
    "geocoded_column": {
      "latitude": "29.949995574008152",
      "longitude": "-90.04029462935715"
    }
  },
  {
    "service_request": "2025-1241007",
    "request_type": "Property Maintenance",
    "request_reason": "Property Maintenance",
    "date_created": "2025-11-18T19:13:03.000",
    "date_modified": "2025-11-18T19:13:05.000",
    "request_status": "Pending",
    "responsible_agency": "Department of Code Enforcement",
    "final_address": "4600 BLK S Johnson St",
    "address_councildis": "B",
    "status": "Pending",
    "rowid": "1241007",
    "final_x": "3669371.04836",
    "final_y": "527133.969798",
    "longitude": "-90.10651757947207",
    "latitude": "29.94379822429975",
    "geocoded_column": {
      "latitude": "29.94379822429975",
      "longitude": "-90.10651757947207"
    }
  },
  {
    "service_request": "2025-1241006",
    "request_type": "Property Maintenance",
    "request_reason": "Property Maintenance",
    "date_created": "2025-11-18T18:54:31.000",
    "date_modified": "2025-11-18T18:54:32.000",
    "request_status": "Pending",
    "responsible_agency": "Department of Code Enforcement",
    "final_address": "3030 Baudin St",
    "address_councildis": "B",
    "status": "Pending",
    "rowid": "1241006",
    "final_x": "3673145.68507",
    "final_y": "534718.272454",
    "longitude": "-90.09434108763625",
    "latitude": "29.964540876764026",
    "geocoded_column": {
      "latitude": "29.964540876764026",
      "longitude": "-90.09434108763625"
    }
  },
  {
    "service_request": "2025-1241005",
    "request_type": "Trash/Recycling",
    "request_reason": "Request a Large Item Pick Up",
    "date_created": "2025-11-18T18:53:42.000",
    "date_modified": "2025-11-18T18:53:44.000",
    "request_status": "Pending",
    "responsible_agency": "Department of Sanitation",
    "final_address": "3921 S Pin Oak Ave",
    "address_councildis": "C",
    "status": "Assigned to Contractor",
    "contractor": "Richards Disposal",
    "rowid": "1241005",
    "final_x": "3704817.5146",
    "final_y": "513590.156018",
    "longitude": "-89.99510380363346",
    "latitude": "29.905466309486183",
    "geocoded_column": {
      "latitude": "29.905466309486183",
      "longitude": "-89.99510380363346"
    }
  },
  {
    "service_request": "2025-1241004",
    "request_type": "Trash/Recycling",
    "request_reason": "Request a Large Item Pick Up",
    "date_created": "2025-11-18T18:40:29.000",
    "date_modified": "2025-11-18T18:40:30.000",
    "request_status": "Pending",
    "responsible_agency": "Department of Sanitation",
    "final_address": "14507 Beekman Rd",
    "address_councildis": "E",
    "status": "Assigned to Contractor",
    "contractor": "Waste Pro",
    "rowid": "1241004",
    "final_x": "3720766.15442",
    "final_y": "572845.040617",
    "longitude": "-89.94249969168273",
    "latitude": "30.067872527208547",
    "geocoded_column": {
      "latitude": "30.067872527208547",
      "longitude": "-89.94249969168273"
    }
  },
  {
    "service_request": "2025-1241003",
    "request_type": "Streetlights",
    "request_reason": "Streetlight Outage/Malfunction",
    "date_created": "2025-11-18T18:36:18.000",
    "date_modified": "2025-11-18T18:36:19.000",
    "request_status": "Pending",
    "responsible_agency": "Department of Public Works",
    "final_address": "6245 Curie St",
    "address_councildis": "D",
    "status": "Pending",
    "rowid": "1241003",
    "final_x": "3682513.61973",
    "final_y": "556243.545498",
    "longitude": "-90.06400486423345",
    "latitude": "30.02344587599323",
    "geocoded_column": {
      "latitude": "30.02344587599323",
      "longitude": "-90.06400486423345"
    }
  },
  {
    "service_request": "2025-1241002",
    "request_type": "Trash/Recycling",
    "request_reason": "Replace Recycling Cart",
    "date_created": "2025-11-18T18:23:20.000",
    "date_modified": "2025-11-18T18:23:23.000",
    "request_status": "Pending",
    "responsible_agency": "Department of Sanitation",
    "final_address": "5005 Dauphine St",
    "address_councildis": "E",
    "status": "Pending",
    "rowid": "1241002",
    "final_x": "3695758.67158",
    "final_y": "533184.182596",
    "longitude": "-90.0229867073637",
    "latitude": "29.959630969448952",
    "geocoded_column": {
      "latitude": "29.959630969448952",
      "longitude": "-90.0229867073637"
    }
  },
  {
    "service_request": "2025-1241001",
    "request_type": "Trash/Recycling",
    "request_reason": "Missed Trash Pick-Up",
    "date_created": "2025-11-18T18:11:14.000",
    "date_modified": "2025-11-18T18:11:17.000",
    "request_status": "Pending",
    "responsible_agency": "Department of Sanitation",
    "final_address": "2415 Eagle St",
    "address_councildis": "A",
    "status": "Assigned to Contractor",
    "contractor": "IV Waste",
    "rowid": "1241001",
    "final_x": "3663187.29075",
    "final_y": "533340.807556",
    "longitude": "-90.12583495124953",
    "latitude": "29.96104562388078",
    "geocoded_column": {
      "latitude": "29.96104562388078",
      "longitude": "-90.12583495124953"
    }
  },
  {
    "service_request": "2025-1241000",
    "request_type": "Trash/Recycling",
    "request_reason": "Request a Large Item Pick Up",
    "date_created": "2025-11-18T17:55:06.000",
    "date_modified": "2025-11-18T17:55:09.000",
    "request_status": "Pending",
    "responsible_agency": "Department of Sanitation",
    "final_address": "3921 S Pin Oak Ave",
    "address_councildis": "C",
    "status": "Assigned to Contractor",
    "contractor": "Richards Disposal",
    "rowid": "1241000",
    "final_x": "3704817.5146",
    "final_y": "513590.156018",
    "longitude": "-89.99510380363346",
    "latitude": "29.905466309486183",
    "geocoded_column": {
      "latitude": "29.905466309486183",
      "longitude": "-89.99510380363346"
    }
  },
  {
    "service_request": "2025-1240999",
    "request_type": "Trash/Recycling",
    "request_reason": "Request a Large Item Pick Up",
    "date_created": "2025-11-18T17:43:04.000",
    "date_modified": "2025-11-18T17:43:06.000",
    "request_status": "Pending",
    "responsible_agency": "Department of Sanitation",
    "final_address": "7231 Chadbourne Dr",
    "address_councildis": "E",
    "status": "Assigned to Contractor",
    "contractor": "Waste Pro",
    "rowid": "1240999",
    "final_x": "3700973.11044",
    "final_y": "557540.181275",
    "longitude": "-90.00562964358878",
    "latitude": "30.026435938521832",
    "geocoded_column": {
      "latitude": "30.026435938521832",
      "longitude": "-90.00562964358878"
    }
  },
  {
    "service_request": "2025-1240998",
    "request_type": "Trash/Recycling",
    "request_reason": "Request a Large Item Pick Up",
    "date_created": "2025-11-18T17:28:05.000",
    "date_modified": "2025-11-18T17:28:08.000",
    "request_status": "Pending",
    "responsible_agency": "Department of Sanitation",
    "final_address": "2113 Forstall St",
    "address_councildis": "E",
    "status": "Assigned to Contractor",
    "contractor": "Waste Pro",
    "rowid": "1240998",
    "final_x": "3697376.07978",
    "final_y": "538043.400137",
    "longitude": "-90.01770315219639",
    "latitude": "29.972941126644542",
    "geocoded_column": {
      "latitude": "29.972941126644542",
      "longitude": "-90.01770315219639"
    }
  },
  {
    "service_request": "2025-1240997",
    "request_type": "Abandoned Vehicles",
    "request_reason": "Abandoned/Junk Vehicles",
    "date_created": "2025-11-18T17:21:51.000",
    "date_modified": "2025-11-18T17:21:54.000",
    "request_status": "Pending",
    "responsible_agency": "Department of Public Works",
    "final_address": "1428 N Galvez St",
    "address_councildis": "D",
    "status": "Pending",
    "rowid": "1240997",
    "final_x": "3680085.35279",
    "final_y": "537835.617289",
    "longitude": "-90.0723177969988",
    "latitude": "29.972904351168285",
    "geocoded_column": {
      "latitude": "29.972904351168285",
      "longitude": "-90.0723177969988"
    }
  },
  {
    "service_request": "2025-1240996",
    "request_type": "Trash/Recycling",
    "request_reason": "Request a Large Item Pick Up",
    "date_created": "2025-11-18T17:13:17.000",
    "date_modified": "2025-11-18T17:13:20.000",
    "request_status": "Pending",
    "responsible_agency": "Department of Sanitation",
    "final_address": "4616 Shalimar Dr",
    "address_councildis": "D",
    "status": "Assigned to Contractor",
    "contractor": "Waste Pro",
    "rowid": "1240996",
    "final_x": "3697175.03613",
    "final_y": "553563.849047",
    "longitude": "-90.01777531707988",
    "latitude": "30.015622994795326",
    "geocoded_column": {
      "latitude": "30.015622994795326",
      "longitude": "-90.01777531707988"
    }
  },
  {
    "service_request": "2025-1240995",
    "request_type": "Abandoned Vehicles",
    "request_reason": "Abandoned/Junk Vehicles",
    "date_created": "2025-11-18T17:07:26.000",
    "date_modified": "2025-11-18T17:07:28.000",
    "request_status": "Pending",
    "responsible_agency": "Department of Public Works",
    "final_address": "3217 Banks St",
    "address_councildis": "B",
    "status": "Pending",
    "rowid": "1240995",
    "final_x": "3673058.28443",
    "final_y": "535418.57095",
    "longitude": "-90.09459318500666",
    "latitude": "29.96646906065243",
    "geocoded_column": {
      "latitude": "29.96646906065243",
      "longitude": "-90.09459318500666"
    }
  },
  {
    "service_request": "2025-1240994",
    "request_type": "Trash/Recycling",
    "request_reason": "Repair Recycling Cart",
    "date_created": "2025-11-18T16:56:28.000",
    "date_modified": "2025-11-18T16:56:30.000",
    "request_status": "Pending",
    "responsible_agency": "Department of Sanitation",
    "final_address": "716 Pelican Ave",
    "address_councildis": "C",
    "status": "Pending",
    "rowid": "1240994",
    "final_x": "3687728.903",
    "final_y": "530812.561026",
    "longitude": "-90.04842678948329",
    "latitude": "29.953359874582418",
    "geocoded_column": {
      "latitude": "29.953359874582418",
      "longitude": "-90.04842678948329"
    }
  },
  {
    "service_request": "2025-1240993",
    "request_type": "Trash/Recycling",
    "request_reason": "Request a Large Item Pick Up",
    "date_created": "2025-11-18T16:53:45.000",
    "date_modified": "2025-11-18T16:53:47.000",
    "request_status": "Pending",
    "responsible_agency": "Department of Sanitation",
    "final_address": "4616 Eastern St",
    "address_councildis": "D",
    "status": "Assigned to Contractor",
    "contractor": "IV Waste",
    "rowid": "1240993",
    "final_x": "3688016.82089",
    "final_y": "549908.610196",
    "longitude": "-90.0468406845979",
    "latitude": "30.005858365966148",
    "geocoded_column": {
      "latitude": "30.005858365966148",
      "longitude": "-90.0468406845979"
    }
  },
  {
    "service_request": "2025-1240992",
    "request_type": "Trash/Recycling",
    "request_reason": "Request a Large Item Pick Up",
    "date_created": "2025-11-18T16:53:28.000",
    "date_modified": "2025-11-18T16:53:30.000",
    "request_status": "Pending",
    "responsible_agency": "Department of Sanitation",
    "final_address": "1839 Calhoun St",
    "address_councildis": "A",
    "status": "Assigned to Contractor",
    "contractor": "IV Waste",
    "rowid": "1240992",
    "final_x": "3665388.1618",
    "final_y": "524037.77638",
    "longitude": "-90.11919626073026",
    "latitude": "29.935401337613936",
    "geocoded_column": {
      "latitude": "29.935401337613936",
      "longitude": "-90.11919626073026"
    }
  },
  {
    "service_request": "2025-1240991",
    "request_type": "Trash/Recycling",
    "request_reason": "Repair Trash Cart",
    "date_created": "2025-11-18T16:51:37.000",
    "date_modified": "2025-11-18T16:51:39.000",
    "request_status": "Pending",
    "responsible_agency": "Department of Sanitation",
    "final_address": "1108 Flanders St",
    "address_councildis": "C",
    "status": "Assigned to Contractor",
    "contractor": "Richards Disposal",
    "rowid": "1240991",
    "final_x": "3696810.13975",
    "final_y": "527287.723327",
    "longitude": "-90.01987986297848",
    "latitude": "29.94338466940364",
    "geocoded_column": {
      "latitude": "29.94338466940364",
      "longitude": "-90.01987986297848"
    }
  },
  {
    "service_request": "2025-1240990",
    "request_type": "Trash/Recycling",
    "request_reason": "Repair Recycling Cart",
    "date_created": "2025-11-18T16:50:23.000",
    "date_modified": "2025-11-18T16:50:25.000",
    "request_status": "Pending",
    "responsible_agency": "Department of Sanitation",
    "final_address": "11 Bluebird St",
    "address_councildis": "D",
    "status": "Pending",
    "rowid": "1240990",
    "final_x": "3672827.66452",
    "final_y": "554695.506904",
    "longitude": "-90.09466339897445",
    "latitude": "30.019480799717762",
    "geocoded_column": {
      "latitude": "30.019480799717762",
      "longitude": "-90.09466339897445"
    }
  },
  {
    "service_request": "2025-1240989",
    "request_type": "Trash/Recycling",
    "request_reason": "Repair Trash Cart",
    "date_created": "2025-11-18T16:41:35.000",
    "date_modified": "2025-11-18T16:41:37.000",
    "request_status": "Pending",
    "responsible_agency": "Department of Sanitation",
    "final_address": "5701 Carlisle Ct",
    "address_councildis": "C",
    "status": "Assigned to Contractor",
    "contractor": "Richards Disposal",
    "rowid": "1240989",
    "final_x": "3704589.07921",
    "final_y": "516501.079093",
    "longitude": "-89.99571750703478",
    "latitude": "29.913477685716984",
    "geocoded_column": {
      "latitude": "29.913477685716984",
      "longitude": "-89.99571750703478"
    }
  },
  {
    "service_request": "2025-1240988",
    "request_type": "Trash/Recycling",
    "request_reason": "Repair Recycling Cart",
    "date_created": "2025-11-18T16:36:58.000",
    "date_modified": "2025-11-18T16:36:59.000",
    "request_status": "Pending",
    "responsible_agency": "Department of Sanitation",
    "final_address": "0 BLK Crane St",
    "address_councildis": "D",
    "status": "Pending",
    "rowid": "1240988",
    "final_x": "3673240.03439",
    "final_y": "554739.01006",
    "longitude": "-90.09335895819596",
    "latitude": "30.0195881540786",
    "geocoded_column": {
      "latitude": "30.0195881540786",
      "longitude": "-90.09335895819596"
    }
  },
  {
    "service_request": "2025-1240987",
    "request_type": "Trash/Recycling",
    "request_reason": "Request a Large Item Pick Up",
    "date_created": "2025-11-18T16:36:46.000",
    "date_modified": "2025-11-18T16:36:48.000",
    "request_status": "Pending",
    "responsible_agency": "Department of Sanitation",
    "final_address": "4616 Eastern St",
    "address_councildis": "D",
    "status": "Assigned to Contractor",
    "contractor": "IV Waste",
    "rowid": "1240987",
    "final_x": "3688016.82089",
    "final_y": "549908.610196",
    "longitude": "-90.0468406845979",
    "latitude": "30.005858365966148",
    "geocoded_column": {
      "latitude": "30.005858365966148",
      "longitude": "-90.0468406845979"
    }
  },
  {
    "service_request": "2025-1240986",
    "request_type": "Trash/Recycling",
    "request_reason": "Replace Recycling Cart",
    "date_created": "2025-11-18T16:36:36.000",
    "date_modified": "2025-11-18T16:36:38.000",
    "request_status": "Pending",
    "responsible_agency": "Department of Sanitation",
    "final_address": "1413 Arts St",
    "address_councildis": "C",
    "status": "Pending",
    "rowid": "1240986",
    "final_x": "3687144.05583",
    "final_y": "537704.1346",
    "longitude": "-90.0500297703778",
    "latitude": "29.97232733273385",
    "geocoded_column": {
      "latitude": "29.97232733273385",
      "longitude": "-90.0500297703778"
    }
  },
  {
    "service_request": "2025-1240985",
    "request_type": "Trash/Recycling",
    "request_reason": "Order Recycling Cart",
    "date_created": "2025-11-18T16:35:18.000",
    "date_modified": "2025-11-18T16:35:19.000",
    "request_status": "Pending",
    "responsible_agency": "Department of Sanitation",
    "final_address": "7529 Sardonyx St",
    "address_councildis": "D",
    "status": "Pending",
    "rowid": "1240985",
    "final_x": "3669754.03406",
    "final_y": "556525.601626",
    "longitude": "-90.10431304875087",
    "latitude": "30.02460390968506",
    "geocoded_column": {
      "latitude": "30.02460390968506",
      "longitude": "-90.10431304875087"
    }
  },
  {
    "service_request": "2025-1240984",
    "request_type": "Street and Traffic Signs",
    "request_reason": "Additional Signage Request",
    "date_created": "2025-11-18T16:34:18.000",
    "date_modified": "2025-11-18T16:34:20.000",
    "request_status": "Pending",
    "responsible_agency": "Department of Public Works",
    "final_address": "1413 Arts St",
    "address_councildis": "C",
    "status": "Pending",
    "rowid": "1240984",
    "final_x": "3687144.05583",
    "final_y": "537704.1346",
    "longitude": "-90.0500297703778",
    "latitude": "29.97232733273385",
    "geocoded_column": {
      "latitude": "29.97232733273385",
      "longitude": "-90.0500297703778"
    }
  },
  {
    "service_request": "2025-1240983",
    "request_type": "Trash/Recycling",
    "request_reason": "Request a Large Item Pick Up",
    "date_created": "2025-11-18T16:30:47.000",
    "date_modified": "2025-11-18T16:30:49.000",
    "request_status": "Pending",
    "responsible_agency": "Department of Sanitation",
    "final_address": "1709 Tupelo St",
    "address_councildis": "E",
    "status": "Assigned to Contractor",
    "contractor": "Waste Pro",
    "rowid": "1240983",
    "final_x": "3700414.10999",
    "final_y": "535502.819782",
    "longitude": "-90.00820132357286",
    "latitude": "29.96585918387198",
    "geocoded_column": {
      "latitude": "29.96585918387198",
      "longitude": "-90.00820132357286"
    }
  },
  {
    "service_request": "2025-1240982",
    "request_type": "Trash/Recycling",
    "request_reason": "Request a Large Item Pick Up",
    "date_created": "2025-11-18T16:13:52.000",
    "date_modified": "2025-11-18T16:33:08.000",
    "request_status": "Pending",
    "responsible_agency": "Department of Sanitation",
    "final_address": "4729 Corinne St",
    "address_councildis": "E",
    "status": "Assigned to Contractor",
    "contractor": "Waste Pro",
    "rowid": "1240982",
    "final_x": "3715115.48043",
    "final_y": "556819.672538",
    "longitude": "-89.96096913964354",
    "latitude": "30.023996661919245",
    "geocoded_column": {
      "latitude": "30.023996661919245",
      "longitude": "-89.96096913964354"
    }
  },
  {
    "service_request": "2025-1240981",
    "request_type": "Trash/Recycling",
    "request_reason": "Request a Large Item Pick Up",
    "date_created": "2025-11-18T16:12:08.000",
    "date_modified": "2025-11-18T16:12:10.000",
    "request_status": "Pending",
    "responsible_agency": "Department of Sanitation",
    "final_address": "4913 Nighthart St",
    "address_councildis": "E",
    "status": "Assigned to Contractor",
    "contractor": "Waste Pro",
    "rowid": "1240981",
    "final_x": "3716104.05733",
    "final_y": "557593.477211",
    "longitude": "-89.95781611051827",
    "latitude": "30.026091723887163",
    "geocoded_column": {
      "latitude": "30.026091723887163",
      "longitude": "-89.95781611051827"
    }
  },
  {
    "service_request": "2025-1240980",
    "request_type": "Trash/Recycling",
    "request_reason": "Order Second Trash Cart",
    "date_created": "2025-11-18T16:08:26.000",
    "date_modified": "2025-11-18T16:08:27.000",
    "request_status": "Pending",
    "responsible_agency": "Department of Sanitation",
    "final_address": "10054 S Interstate 10 Service Rd",
    "address_councildis": "E",
    "status": "Assigned to Contractor",
    "contractor": "Waste Pro",
    "rowid": "1240980",
    "final_x": "3711283.04389",
    "final_y": "561856.390239",
    "longitude": "-89.97288982672558",
    "latitude": "30.037971292516893",
    "geocoded_column": {
      "latitude": "30.037971292516893",
      "longitude": "-89.97288982672558"
    }
  },
  {
    "service_request": "2025-1240979",
    "request_type": "Abandoned Vehicles",
    "request_reason": "Abandoned/Junk Vehicles",
    "date_created": "2025-11-18T16:06:59.000",
    "date_modified": "2025-11-18T16:07:00.000",
    "request_status": "Pending",
    "responsible_agency": "Department of Public Works",
    "final_address": "2916 Sabine St",
    "address_councildis": "C",
    "status": "Pending",
    "rowid": "1240979",
    "final_x": "3693229.98365",
    "final_y": "519568.396599",
    "longitude": "-90.03146019302794",
    "latitude": "29.922271506865464",
    "geocoded_column": {
      "latitude": "29.922271506865464",
      "longitude": "-90.03146019302794"
    }
  },
  {
    "service_request": "2025-1240978",
    "request_type": "Trash/Recycling",
    "request_reason": "Request a Large Item Pick Up",
    "date_created": "2025-11-18T16:06:00.000",
    "date_modified": "2025-11-18T16:06:01.000",
    "request_status": "Pending",
    "responsible_agency": "Department of Sanitation",
    "final_address": "5961 Eastover Dr",
    "address_councildis": "E",
    "status": "Assigned to Contractor",
    "contractor": "Waste Pro",
    "rowid": "1240978",
    "final_x": "3718968.45829",
    "final_y": "564949.12605",
    "longitude": "-89.94848416547583",
    "latitude": "30.046221916475794",
    "geocoded_column": {
      "latitude": "30.046221916475794",
      "longitude": "-89.94848416547583"
    }
  },
  {
    "service_request": "2025-1240977",
    "request_type": "Trash/Recycling",
    "request_reason": "Request a Large Item Pick Up",
    "date_created": "2025-11-18T16:04:38.000",
    "date_modified": "2025-11-18T16:04:40.000",
    "request_status": "Pending",
    "responsible_agency": "Department of Sanitation",
    "final_address": "2916 Sabine St",
    "address_councildis": "C",
    "status": "Assigned to Contractor",
    "contractor": "Richards Disposal",
    "rowid": "1240977",
    "final_x": "3693229.98365",
    "final_y": "519568.396599",
    "longitude": "-90.03146019302794",
    "latitude": "29.922271506865464",
    "geocoded_column": {
      "latitude": "29.922271506865464",
      "longitude": "-90.03146019302794"
    }
  },
  {
    "service_request": "2025-1240976",
    "request_type": "Roads and Streets",
    "request_reason": "Pothole",
    "date_created": "2025-11-18T16:03:37.000",
    "date_modified": "2025-11-18T16:03:38.000",
    "request_status": "Pending",
    "responsible_agency": "Department of Public Works",
    "final_address": "1519 Marigny St",
    "address_councildis": "C",
    "status": "Pending",
    "rowid": "1240976",
    "final_x": "3685321.39132",
    "final_y": "537973.086217",
    "longitude": "-90.0557765783403",
    "latitude": "29.973122859281244",
    "geocoded_column": {
      "latitude": "29.973122859281244",
      "longitude": "-90.0557765783403"
    }
  },
  {
    "service_request": "2025-1240975",
    "request_type": "Streetlights",
    "request_reason": "Streetlight Outage/Malfunction",
    "date_created": "2025-11-18T16:02:39.000",
    "date_modified": "2025-11-18T16:02:41.000",
    "request_status": "Pending",
    "responsible_agency": "Department of Public Works",
    "final_address": "1519 Marigny St",
    "address_councildis": "C",
    "status": "Pending",
    "rowid": "1240975",
    "final_x": "3685321.39132",
    "final_y": "537973.086217",
    "longitude": "-90.0557765783403",
    "latitude": "29.973122859281244",
    "geocoded_column": {
      "latitude": "29.973122859281244",
      "longitude": "-90.0557765783403"
    }
  },
  {
    "service_request": "2025-1240974",
    "request_type": "Trash/Recycling",
    "request_reason": "Request a Large Item Pick Up",
    "date_created": "2025-11-18T16:01:59.000",
    "date_modified": "2025-11-18T16:02:01.000",
    "request_status": "Pending",
    "responsible_agency": "Department of Sanitation",
    "final_address": "4559 Laine Ave",
    "address_councildis": "E",
    "status": "Assigned to Contractor",
    "contractor": "Waste Pro",
    "rowid": "1240974",
    "final_x": "3705879.89745",
    "final_y": "554232.633048",
    "longitude": "-89.99024739024397",
    "latitude": "30.017184217280562",
    "geocoded_column": {
      "latitude": "30.017184217280562",
      "longitude": "-89.99024739024397"
    }
  },
  {
    "service_request": "2025-1240973",
    "request_type": "Trash/Recycling",
    "request_reason": "Request a Large Item Pick Up",
    "date_created": "2025-11-18T15:54:22.000",
    "date_modified": "2025-11-18T15:54:24.000",
    "request_status": "Pending",
    "responsible_agency": "Department of Sanitation",
    "final_address": "5623 N Villere St",
    "address_councildis": "E",
    "status": "Assigned to Contractor",
    "contractor": "Waste Pro",
    "rowid": "1240973",
    "final_x": "3698561.62781",
    "final_y": "534879.766086",
    "longitude": "-90.01407402130717",
    "latitude": "29.96420478584312",
    "geocoded_column": {
      "latitude": "29.96420478584312",
      "longitude": "-90.01407402130717"
    }
  },
  {
    "service_request": "2025-1240972",
    "request_type": "Roads and Streets",
    "request_reason": "Street Subsidence (Sinking)",
    "date_created": "2025-11-18T15:52:17.000",
    "date_modified": "2025-11-18T15:52:20.000",
    "request_status": "Pending",
    "responsible_agency": "Sewerage & Water Board",
    "final_address": "2222 N Miro St",
    "address_councildis": "D",
    "status": "Pending",
    "rowid": "1240972",
    "final_x": "3684961.33583",
    "final_y": "540346.812619",
    "longitude": "-90.05683018719935",
    "latitude": "29.9796608090612",
    "geocoded_column": {
      "latitude": "29.9796608090612",
      "longitude": "-90.05683018719935"
    }
  },
  {
    "service_request": "2025-1240971",
    "request_type": "Parks & Parkways",
    "request_reason": "Request Tree Service (Right of Way/Public Property)",
    "date_created": "2025-11-18T15:47:00.000",
    "date_modified": "2025-11-18T15:47:01.000",
    "request_status": "Pending",
    "responsible_agency": "Department of Parks & Parkway",
    "final_address": "2227 Louisiana Ave",
    "address_councildis": "B",
    "status": "Pending",
    "rowid": "1240971",
    "final_x": "3673321.98952",
    "final_y": "523744.971259",
    "longitude": "-90.09415908547675",
    "latitude": "29.934362677038166",
    "geocoded_column": {
      "latitude": "29.934362677038166",
      "longitude": "-90.09415908547675"
    }
  },
  {
    "service_request": "2025-1240970",
    "request_type": "General Services",
    "request_reason": "General Service Request",
    "date_created": "2025-11-18T15:39:45.000",
    "date_modified": "2025-11-18T15:44:04.000",
    "case_close_date": "2025-11-18T09:44:03.000",
    "request_status": "Closed",
    "responsible_agency": "Orleans Parish Communication District",
    "final_address": "S MAESTRI PL & CAMP ST",
    "address_councildis": "B",
    "status": "Referred to Risk Management",
    "rowid": "1240970",
    "final_x": "3680961.4",
    "final_y": "528649.18",
    "longitude": "-90.06987098099223",
    "latitude": "29.94761823784248",
    "geocoded_column": {
      "latitude": "29.94761823784248",
      "longitude": "-90.06987098099223"
    }
  },
  {
    "service_request": "2025-1240969",
    "request_type": "Traffic Signals",
    "request_reason": "Traffic Signal Malfunctioning or Damaged",
    "date_created": "2025-11-18T15:39:34.000",
    "date_modified": "2025-11-18T15:39:35.000",
    "request_status": "Pending",
    "responsible_agency": "Department of Public Works",
    "final_address": "N CLAIBORNE AVE & FRANKLIN AVE",
    "address_councildis": "C",
    "status": "Pending",
    "rowid": "1240969",
    "final_x": "3687527.2",
    "final_y": "538355.38",
    "longitude": "-90.04879668107014",
    "latitude": "29.974106224369567",
    "geocoded_column": {
      "latitude": "29.974106224369567",
      "longitude": "-90.04879668107014"
    }
  },
  {
    "service_request": "2025-1240968",
    "request_type": "Roads and Streets",
    "request_reason": "Pothole",
    "date_created": "2025-11-18T15:37:55.000",
    "date_modified": "2025-11-18T15:37:57.000",
    "request_status": "Pending",
    "responsible_agency": "Department of Public Works",
    "final_address": "S MAESTRI PL & CAMP ST",
    "address_councildis": "B",
    "status": "Pending",
    "rowid": "1240968",
    "final_x": "3680961.4",
    "final_y": "528649.18",
    "longitude": "-90.06987098099223",
    "latitude": "29.94761823784248",
    "geocoded_column": {
      "latitude": "29.94761823784248",
      "longitude": "-90.06987098099223"
    }
  },
  {
    "service_request": "2025-1240967",
    "request_type": "Trash/Recycling",
    "request_reason": "Request a Large Item Pick Up",
    "date_created": "2025-11-18T15:37:10.000",
    "date_modified": "2025-11-18T15:37:12.000",
    "request_status": "Pending",
    "responsible_agency": "Department of Sanitation",
    "final_address": "712 Washington Ave",
    "address_councildis": "B",
    "status": "Assigned to Contractor",
    "contractor": "IV Waste",
    "rowid": "1240967",
    "final_x": "3677766.65083",
    "final_y": "519657.888952",
    "longitude": "-90.08026851273989",
    "latitude": "29.922991616262955",
    "geocoded_column": {
      "latitude": "29.922991616262955",
      "longitude": "-90.08026851273989"
    }
  },
  {
    "service_request": "2025-1240966",
    "request_type": "Trash/Recycling",
    "request_reason": "Request a Large Item Pick Up",
    "date_created": "2025-11-18T15:37:09.000",
    "date_modified": "2025-11-18T15:37:10.000",
    "request_status": "Pending",
    "responsible_agency": "Department of Sanitation",
    "final_address": "4662 Wilson Ave",
    "address_councildis": "E",
    "status": "Assigned to Contractor",
    "contractor": "Waste Pro",
    "rowid": "1240966",
    "final_x": "3702996.81258",
    "final_y": "554543.6982",
    "longitude": "-89.99934525523744",
    "latitude": "30.01813213265821",
    "geocoded_column": {
      "latitude": "30.01813213265821",
      "longitude": "-89.99934525523744"
    }
  },
  {
    "service_request": "2025-1240965",
    "request_type": "Trash/Recycling",
    "request_reason": "Request a Large Item Pick Up",
    "date_created": "2025-11-18T15:37:06.000",
    "date_modified": "2025-11-18T15:37:07.000",
    "request_status": "Pending",
    "responsible_agency": "Department of Sanitation",
    "final_address": "2366 Beck St",
    "address_councildis": "C",
    "status": "Assigned to Contractor",
    "contractor": "Richards Disposal",
    "rowid": "1240965",
    "final_x": "3700356.72861",
    "final_y": "521879.629306",
    "longitude": "-90.00887980769949",
    "latitude": "29.92840203135869",
    "geocoded_column": {
      "latitude": "29.92840203135869",
      "longitude": "-90.00887980769949"
    }
  },
  {
    "service_request": "2025-1240964",
    "request_type": "Trash/Recycling",
    "request_reason": "Request a Large Item Pick Up",
    "date_created": "2025-11-18T15:31:35.000",
    "date_modified": "2025-11-18T15:31:36.000",
    "request_status": "Pending",
    "responsible_agency": "Department of Sanitation",
    "final_address": "5317 Douglass St",
    "address_councildis": "E",
    "status": "Assigned to Contractor",
    "contractor": "Waste Pro",
    "rowid": "1240964",
    "final_x": "3696381.23191",
    "final_y": "531917.787075",
    "longitude": "-90.02106661305902",
    "latitude": "29.956129237803463",
    "geocoded_column": {
      "latitude": "29.956129237803463",
      "longitude": "-90.02106661305902"
    }
  },
  {
    "service_request": "2025-1240963",
    "request_type": "Trash/Recycling",
    "request_reason": "Return Trash Cart",
    "date_created": "2025-11-18T15:25:57.000",
    "date_modified": "2025-11-18T15:26:00.000",
    "request_status": "Pending",
    "responsible_agency": "Department of Sanitation",
    "final_address": "4602 General Meyer Ave",
    "address_councildis": "C",
    "status": "Assigned to Contractor",
    "contractor": "Richards Disposal",
    "rowid": "1240963",
    "final_x": "3702331.51217",
    "final_y": "523241.650299",
    "longitude": "-90.00259595577305",
    "latitude": "29.93208420381388",
    "geocoded_column": {
      "latitude": "29.93208420381388",
      "longitude": "-90.00259595577305"
    }
  },
  {
    "service_request": "2025-1240962",
    "request_type": "Trash/Recycling",
    "request_reason": "Repair Trash Cart",
    "date_created": "2025-11-18T15:25:07.000",
    "date_modified": "2025-11-18T15:25:08.000",
    "request_status": "Pending",
    "responsible_agency": "Department of Sanitation",
    "final_address": "8724 Plum St",
    "address_councildis": "A",
    "status": "Assigned to Contractor",
    "contractor": "IV Waste",
    "rowid": "1240962",
    "final_x": "3660429.61171",
    "final_y": "530188.754305",
    "longitude": "-90.13464736807991",
    "latitude": "29.952458112775656",
    "geocoded_column": {
      "latitude": "29.952458112775656",
      "longitude": "-90.13464736807991"
    }
  },
  {
    "service_request": "2025-1240961",
    "request_type": "Property Maintenance",
    "request_reason": "Property Maintenance",
    "date_created": "2025-11-18T15:24:00.000",
    "date_modified": "2025-11-18T15:24:01.000",
    "request_status": "Pending",
    "responsible_agency": "Department of Code Enforcement",
    "final_address": "1000 Cambronne St",
    "address_councildis": "A",
    "status": "Pending",
    "rowid": "1240961",
    "final_x": "3660689.3065",
    "final_y": "528643.928384",
    "longitude": "-90.13387842693757",
    "latitude": "29.948202863443193",
    "geocoded_column": {
      "latitude": "29.948202863443193",
      "longitude": "-90.13387842693757"
    }
  },
  {
    "service_request": "2025-1240960",
    "request_type": "Trash/Recycling",
    "request_reason": "Request a Large Item Pick Up",
    "date_created": "2025-11-18T15:23:40.000",
    "date_modified": "2025-11-18T15:26:21.000",
    "request_status": "Pending",
    "responsible_agency": "Department of Sanitation",
    "final_address": "4602 General Meyer Ave",
    "address_councildis": "C",
    "status": "Assigned to Contractor",
    "contractor": "Richards Disposal",
    "rowid": "1240960",
    "final_x": "3702331.51217",
    "final_y": "523241.650299",
    "longitude": "-90.00259595577305",
    "latitude": "29.93208420381388",
    "geocoded_column": {
      "latitude": "29.93208420381388",
      "longitude": "-90.00259595577305"
    }
  },
  {
    "service_request": "2025-1240959",
    "request_type": "Trash/Recycling",
    "request_reason": "Request a Large Item Pick Up",
    "date_created": "2025-11-18T15:16:43.000",
    "date_modified": "2025-11-18T15:16:45.000",
    "request_status": "Pending",
    "responsible_agency": "Department of Sanitation",
    "final_address": "1814 Constantinople St",
    "address_councildis": "B",
    "status": "Assigned to Contractor",
    "contractor": "IV Waste",
    "rowid": "1240959",
    "final_x": "3672188.65275",
    "final_y": "521863.992826",
    "longitude": "-90.09780103493951",
    "latitude": "29.929224245808793",
    "geocoded_column": {
      "latitude": "29.929224245808793",
      "longitude": "-90.09780103493951"
    }
  },
  {
    "service_request": "2025-1240958",
    "request_type": "Streetlights",
    "request_reason": "Streetlight Outage/Malfunction",
    "date_created": "2025-11-18T15:16:31.000",
    "date_modified": "2025-11-18T15:16:32.000",
    "request_status": "Pending",
    "responsible_agency": "Department of Public Works",
    "final_address": "3801 Texas Dr",
    "address_councildis": "C",
    "status": "Pending",
    "rowid": "1240958",
    "final_x": "3696645.27939",
    "final_y": "517842.74687",
    "longitude": "-90.02074196472573",
    "latitude": "29.917419415738795",
    "geocoded_column": {
      "latitude": "29.917419415738795",
      "longitude": "-90.02074196472573"
    }
  },
  {
    "service_request": "2025-1240957",
    "request_type": "Trash/Recycling",
    "request_reason": "Return Trash Cart",
    "date_created": "2025-11-18T15:11:42.000",
    "date_modified": "2025-11-18T15:11:43.000",
    "request_status": "Pending",
    "responsible_agency": "Department of Sanitation",
    "final_address": "1556 N Johnson St",
    "address_councildis": "D",
    "status": "Assigned to Contractor",
    "contractor": "IV Waste",
    "rowid": "1240957",
    "final_x": "3680938.09339",
    "final_y": "538438.824137",
    "longitude": "-90.06960367046547",
    "latitude": "29.97453712963074",
    "geocoded_column": {
      "latitude": "29.97453712963074",
      "longitude": "-90.06960367046547"
    }
  },
  {
    "service_request": "2025-1240956",
    "request_type": "Parks & Parkways",
    "request_reason": "Request Tree Service (Right of Way/Public Property)",
    "date_created": "2025-11-18T15:10:28.000",
    "date_modified": "2025-11-18T15:10:30.000",
    "request_status": "Pending",
    "responsible_agency": "Department of Parks & Parkway",
    "final_address": "1814 Laharpe St",
    "address_councildis": "D",
    "status": "Pending",
    "rowid": "1240956",
    "final_x": "3681244.22338",
    "final_y": "537974.785737",
    "longitude": "-90.0686530137473",
    "latitude": "29.973251897513993",
    "geocoded_column": {
      "latitude": "29.973251897513993",
      "longitude": "-90.0686530137473"
    }
  },
  {
    "service_request": "2025-1240955",
    "request_type": "Trash/Recycling",
    "request_reason": "Request a Large Item Pick Up",
    "date_created": "2025-11-18T15:09:33.000",
    "date_modified": "2025-11-18T15:09:34.000",
    "request_status": "Pending",
    "responsible_agency": "Department of Sanitation",
    "final_address": "1219 Delery St",
    "address_councildis": "E",
    "status": "Assigned to Contractor",
    "contractor": "Waste Pro",
    "rowid": "1240955",
    "final_x": "3700636.02807",
    "final_y": "533320.955012",
    "longitude": "-90.00758023913357",
    "latitude": "29.959852778936103",
    "geocoded_column": {
      "latitude": "29.959852778936103",
      "longitude": "-90.00758023913357"
    }
  },
  {
    "service_request": "2025-1240954",
    "request_type": "Roads and Streets",
    "request_reason": "Pothole",
    "date_created": "2025-11-18T15:09:16.000",
    "date_modified": "2025-11-18T15:09:18.000",
    "request_status": "Pending",
    "responsible_agency": "Department of Public Works",
    "final_address": "6443 Franklin Ave",
    "address_councildis": "D",
    "status": "Pending",
    "rowid": "1240954",
    "final_x": "3686350.94959",
    "final_y": "557083.40041",
    "longitude": "-90.05185004972276",
    "latitude": "30.025637722976466",
    "geocoded_column": {
      "latitude": "30.025637722976466",
      "longitude": "-90.05185004972276"
    }
  },
  {
    "service_request": "2025-1240953",
    "request_type": "Trash/Recycling",
    "request_reason": "Replace Trash Cart",
    "date_created": "2025-11-18T15:01:35.000",
    "date_modified": "2025-11-18T15:01:37.000",
    "request_status": "Pending",
    "responsible_agency": "Department of Sanitation",
    "final_address": "5833 Fontainebleau Dr",
    "address_councildis": "B",
    "status": "Assigned to Contractor",
    "contractor": "IV Waste",
    "rowid": "1240953",
    "final_x": "3668295.0434",
    "final_y": "529969.291137",
    "longitude": "-90.10981924139543",
    "latitude": "29.95162606932585",
    "geocoded_column": {
      "latitude": "29.95162606932585",
      "longitude": "-90.10981924139543"
    }
  },
  {
    "service_request": "2025-1240952",
    "request_type": "Street and Traffic Signs",
    "request_reason": "Additional Signage Request",
    "date_created": "2025-11-18T14:57:01.000",
    "date_modified": "2025-11-18T14:57:03.000",
    "request_status": "Pending",
    "responsible_agency": "Department of Public Works",
    "final_address": "3400 BLK S Robertson St",
    "address_councildis": "B",
    "status": "Pending",
    "rowid": "1240952",
    "final_x": "3672598.9169",
    "final_y": "524711.86539",
    "longitude": "-90.09640885853338",
    "latitude": "29.9370428041437",
    "geocoded_column": {
      "latitude": "29.9370428041437",
      "longitude": "-90.09640885853338"
    }
  },
  {
    "service_request": "2025-1240951",
    "request_type": "Trash/Recycling",
    "request_reason": "MIssed Recycling Pick-Up",
    "date_created": "2025-11-18T14:44:06.000",
    "date_modified": "2025-11-18T15:39:13.000",
    "case_close_date": "2025-11-18T09:39:12.000",
    "request_status": "Closed",
    "responsible_agency": "Department of Sanitation",
    "final_address": "5958 Louis Xiv St",
    "address_councildis": "A",
    "status": "Invalid Request",
    "contractor": "IV Waste",
    "contractor_action": "Invalid",
    "rowid": "1240951",
    "final_x": "3667963.60993",
    "final_y": "547118.412881",
    "longitude": "-90.1102877800883",
    "latitude": "29.998790123410615",
    "geocoded_column": {
      "latitude": "29.998790123410615",
      "longitude": "-90.1102877800883"
    }
  },
  {
    "service_request": "2025-1240950",
    "request_type": "Trash/Recycling",
    "request_reason": "Request a Large Item Pick Up",
    "date_created": "2025-11-18T14:43:53.000",
    "date_modified": "2025-11-18T14:43:55.000",
    "request_status": "Pending",
    "responsible_agency": "Department of Sanitation",
    "final_address": "10138 Hammond St",
    "address_councildis": "E",
    "status": "Assigned to Contractor",
    "contractor": "Waste Pro",
    "rowid": "1240950",
    "final_x": "3713115.06776",
    "final_y": "556352.927258",
    "longitude": "-89.96730757583401",
    "latitude": "30.022779022531825",
    "geocoded_column": {
      "latitude": "30.022779022531825",
      "longitude": "-89.96730757583401"
    }
  },
  {
    "service_request": "2025-1240949",
    "request_type": "Streetlights",
    "request_reason": "Streetlight Outage/Malfunction",
    "date_created": "2025-11-18T14:41:25.000",
    "date_modified": "2025-11-18T14:41:27.000",
    "request_status": "Pending",
    "responsible_agency": "Department of Public Works",
    "final_address": "TOULOUSE ST & BURGUNDY ST",
    "address_councildis": "C",
    "status": "Pending",
    "rowid": "1240949",
    "final_x": "3681459.5",
    "final_y": "532811.38",
    "longitude": "-90.06815318180021",
    "latitude": "29.95904776869286",
    "geocoded_column": {
      "latitude": "29.95904776869286",
      "longitude": "-90.06815318180021"
    }
  },
  {
    "service_request": "2025-1240948",
    "request_type": "Trash/Recycling",
    "request_reason": "Request a Large Item Pick Up",
    "date_created": "2025-11-18T14:40:37.000",
    "date_modified": "2025-11-18T14:40:39.000",
    "request_status": "Pending",
    "responsible_agency": "Department of Sanitation",
    "final_address": "4320 Eastern St",
    "address_councildis": "D",
    "status": "Assigned to Contractor",
    "contractor": "IV Waste",
    "rowid": "1240948",
    "final_x": "3688091.48265",
    "final_y": "549037.042515",
    "longitude": "-90.04663573092411",
    "latitude": "30.00345956739647",
    "geocoded_column": {
      "latitude": "30.00345956739647",
      "longitude": "-90.04663573092411"
    }
  },
  {
    "service_request": "2025-1240947",
    "request_type": "Trash/Recycling",
    "request_reason": "Request a Large Item Pick Up",
    "date_created": "2025-11-18T14:38:26.000",
    "date_modified": "2025-11-18T14:38:27.000",
    "request_status": "Pending",
    "responsible_agency": "Department of Sanitation",
    "final_address": "4641 De Montluzin St",
    "address_councildis": "D",
    "status": "Assigned to Contractor",
    "contractor": "IV Waste",
    "rowid": "1240947",
    "final_x": "3687233.8982",
    "final_y": "550080.853396",
    "longitude": "-90.04930801689552",
    "latitude": "30.006356118835825",
    "geocoded_column": {
      "latitude": "30.006356118835825",
      "longitude": "-90.04930801689552"
    }
  },
  {
    "service_request": "2025-1240946",
    "request_type": "Property Maintenance",
    "request_reason": "Property Maintenance",
    "date_created": "2025-11-18T14:37:09.000",
    "date_modified": "2025-11-18T14:37:10.000",
    "request_status": "Pending",
    "responsible_agency": "Department of Code Enforcement",
    "final_address": "4116 Erato St",
    "address_councildis": "B",
    "status": "Pending",
    "rowid": "1240946",
    "final_x": "3671261.35707",
    "final_y": "531214.948482",
    "longitude": "-90.10041071086543",
    "latitude": "29.954963790149375",
    "geocoded_column": {
      "latitude": "29.954963790149375",
      "longitude": "-90.10041071086543"
    }
  },
  {
    "service_request": "2025-1240945",
    "request_type": "Abandoned Vehicles",
    "request_reason": "Abandoned/Junk Vehicles",
    "date_created": "2025-11-18T14:35:27.000",
    "date_modified": "2025-11-18T14:35:29.000",
    "request_status": "Pending",
    "responsible_agency": "Department of Public Works",
    "final_address": "1616 N Prieur St",
    "address_councildis": "D",
    "status": "Pending",
    "rowid": "1240945",
    "final_x": "3681500.32085",
    "final_y": "538536.671625",
    "longitude": "-90.06782460804065",
    "latitude": "29.974789114494484",
    "geocoded_column": {
      "latitude": "29.974789114494484",
      "longitude": "-90.06782460804065"
    }
  },
  {
    "service_request": "2025-1240944",
    "request_type": "Streetlights",
    "request_reason": "Streetlight Knocked Down/Leaning",
    "date_created": "2025-11-18T14:29:40.000",
    "date_modified": "2025-11-18T14:29:42.000",
    "request_status": "Pending",
    "responsible_agency": "Department of Public Works",
    "final_address": "7771 S Coronet Ct",
    "address_councildis": "E",
    "status": "Pending",
    "rowid": "1240944",
    "final_x": "3702826.68049",
    "final_y": "557313.189531",
    "longitude": "-89.9997809641292",
    "latitude": "30.02575261328651",
    "geocoded_column": {
      "latitude": "30.02575261328651",
      "longitude": "-89.9997809641292"
    }
  },
  {
    "service_request": "2025-1240943",
    "request_type": "Abandoned Vehicles",
    "request_reason": "Abandoned/Junk Vehicles",
    "date_created": "2025-11-18T14:29:01.000",
    "date_modified": "2025-11-18T14:29:03.000",
    "request_status": "Pending",
    "responsible_agency": "Department of Public Works",
    "final_address": "1900 General Taylor St",
    "address_councildis": "B",
    "status": "Pending",
    "rowid": "1240943",
    "final_x": "3672334.99675",
    "final_y": "522143.98361",
    "longitude": "-90.09732951967057",
    "latitude": "29.929989790569767",
    "geocoded_column": {
      "latitude": "29.929989790569767",
      "longitude": "-90.09732951967057"
    }
  },
  {
    "service_request": "2025-1240942",
    "request_type": "Roads and Streets",
    "request_reason": "Street Subsidence (Sinking)",
    "date_created": "2025-11-18T14:27:51.000",
    "date_modified": "2025-11-18T14:27:53.000",
    "request_status": "Pending",
    "responsible_agency": "Sewerage & Water Board",
    "final_address": "4810 Bundy Rd",
    "address_councildis": "E",
    "status": "Pending",
    "rowid": "1240942",
    "final_x": "3709227.71659",
    "final_y": "556181.547226",
    "longitude": "-89.97959699427521",
    "latitude": "30.022434648712302",
    "geocoded_column": {
      "latitude": "30.022434648712302",
      "longitude": "-89.97959699427521"
    }
  },
  {
    "service_request": "2025-1240941",
    "request_type": "Roads and Streets",
    "request_reason": "Sidewalk Damaged or Missing",
    "date_created": "2025-11-18T14:26:26.000",
    "date_modified": "2025-11-18T15:07:39.000",
    "request_status": "Pending",
    "responsible_agency": "Department of Public Works",
    "final_address": "2021 Pine St",
    "address_councildis": "A",
    "status": "Pending",
    "rowid": "1240941",
    "final_x": "3665642.01056",
    "final_y": "529160.773312",
    "longitude": "-90.11822334518563",
    "latitude": "29.949480535426062",
    "geocoded_column": {
      "latitude": "29.949480535426062",
      "longitude": "-90.11822334518563"
    }
  },
  {
    "service_request": "2025-1240940",
    "request_type": "Trash/Recycling",
    "request_reason": "Dead Animal Pick Up",
    "date_created": "2025-11-18T14:21:58.000",
    "date_modified": "2025-11-18T14:22:01.000",
    "request_status": "Pending",
    "responsible_agency": "Department of Sanitation",
    "final_address": "1623 Murl St",
    "address_councildis": "C",
    "status": "Assigned to Contractor",
    "contractor": "Richards Disposal",
    "rowid": "1240940",
    "final_x": "3695314.74493",
    "final_y": "525315.586941",
    "longitude": "-90.02467229793973",
    "latitude": "29.9380090236239",
    "geocoded_column": {
      "latitude": "29.9380090236239",
      "longitude": "-90.02467229793973"
    }
  },
  {
    "service_request": "2025-1240939",
    "request_type": "Trash/Recycling",
    "request_reason": "Request a Large Item Pick Up",
    "date_created": "2025-11-18T14:13:20.000",
    "date_modified": "2025-11-18T14:14:11.000",
    "request_status": "Pending",
    "responsible_agency": "Department of Sanitation",
    "final_address": "6321 S Prieur St",
    "address_councildis": "A",
    "status": "Assigned to Contractor",
    "contractor": "IV Waste",
    "rowid": "1240939",
    "final_x": "3666564.57434",
    "final_y": "527356.284991",
    "longitude": "-90.11537094765691",
    "latitude": "29.944491843215697",
    "geocoded_column": {
      "latitude": "29.944491843215697",
      "longitude": "-90.11537094765691"
    }
  },
  {
    "service_request": "2025-1240938",
    "request_type": "Trash/Recycling",
    "request_reason": "Request a Large Item Pick Up",
    "date_created": "2025-11-18T14:12:11.000",
    "date_modified": "2025-11-18T14:12:13.000",
    "request_status": "Pending",
    "responsible_agency": "Department of Sanitation",
    "final_address": "20 Castle Pines Dr",
    "address_councildis": "C",
    "status": "Assigned to Contractor",
    "contractor": "Richards Disposal",
    "rowid": "1240938",
    "final_x": "3719411.67916",
    "final_y": "511415.107056",
    "longitude": "-89.94912728996862",
    "latitude": "29.89900895790808",
    "geocoded_column": {
      "latitude": "29.89900895790808",
      "longitude": "-89.94912728996862"
    }
  },
  {
    "service_request": "2025-1240937",
    "request_type": "Streetlights",
    "request_reason": "Streetlight Outage/Malfunction",
    "date_created": "2025-11-18T14:09:32.000",
    "date_modified": "2025-11-18T14:09:34.000",
    "request_status": "Pending",
    "responsible_agency": "Department of Public Works",
    "final_address": "1515 S Robertson St",
    "address_councildis": "B",
    "status": "Pending",
    "rowid": "1240937",
    "final_x": "3676023.91048",
    "final_y": "527330.482815",
    "longitude": "-90.08550592172978",
    "latitude": "29.94414103424774",
    "geocoded_column": {
      "latitude": "29.94414103424774",
      "longitude": "-90.08550592172978"
    }
  },
  {
    "service_request": "2025-1240936",
    "request_type": "Streetlights",
    "request_reason": "Streetlight Outage/Malfunction",
    "date_created": "2025-11-18T14:07:57.000",
    "date_modified": "2025-11-18T14:07:58.000",
    "request_status": "Pending",
    "responsible_agency": "Department of Public Works",
    "final_address": "2325 Lafreniere St",
    "address_councildis": "D",
    "status": "Pending",
    "rowid": "1240936",
    "final_x": "3685224.82825",
    "final_y": "545714.882576",
    "longitude": "-90.05580894304819",
    "latitude": "29.994413023310692",
    "geocoded_column": {
      "latitude": "29.994413023310692",
      "longitude": "-90.05580894304819"
    }
  },
  {
    "service_request": "2025-1240935",
    "request_type": "Parks & Parkways",
    "request_reason": "Request Tree Service (Right of Way/Public Property)",
    "date_created": "2025-11-18T14:07:20.000",
    "date_modified": "2025-11-18T14:50:46.000",
    "case_close_date": "2025-11-18T08:50:46.000",
    "request_status": "Closed",
    "responsible_agency": "Department of Parks & Parkway",
    "final_address": "2844 Magazine St",
    "address_councildis": "B",
    "status": "Duplicate Request",
    "rowid": "1240935",
    "final_x": "3676804.04129",
    "final_y": "520547.0142",
    "longitude": "-90.08327648062173",
    "latitude": "29.925465333362045",
    "geocoded_column": {
      "latitude": "29.925465333362045",
      "longitude": "-90.08327648062173"
    }
  },
  {
    "service_request": "2025-1240934",
    "request_type": "Roads and Streets",
    "request_reason": "Pothole",
    "date_created": "2025-11-18T14:07:17.000",
    "date_modified": "2025-11-18T14:07:19.000",
    "request_status": "Pending",
    "responsible_agency": "Department of Public Works",
    "final_address": "3285 Potomac St",
    "address_councildis": "C",
    "status": "Pending",
    "rowid": "1240934",
    "final_x": "3694882.31549",
    "final_y": "517536.244342",
    "longitude": "-90.02631765520378",
    "latitude": "29.916632049428795",
    "geocoded_column": {
      "latitude": "29.916632049428795",
      "longitude": "-90.02631765520378"
    }
  },
  {
    "service_request": "2025-1240933",
    "request_type": "Streetlights",
    "request_reason": "Streetlight Outage/Malfunction",
    "date_created": "2025-11-18T14:06:14.000",
    "date_modified": "2025-11-18T14:06:16.000",
    "request_status": "Pending",
    "responsible_agency": "Department of Public Works",
    "final_address": "20 Castle Pines Dr",
    "address_councildis": "C",
    "status": "Pending",
    "rowid": "1240933",
    "final_x": "3719411.67916",
    "final_y": "511415.107056",
    "longitude": "-89.94912728996862",
    "latitude": "29.89900895790808",
    "geocoded_column": {
      "latitude": "29.89900895790808",
      "longitude": "-89.94912728996862"
    }
  },
  {
    "service_request": "2025-1240932",
    "request_type": "General Services",
    "request_reason": "General Service Request",
    "date_created": "2025-11-18T14:05:35.000",
    "date_modified": "2025-11-18T14:35:15.000",
    "case_close_date": "2025-11-18T08:35:14.000",
    "request_status": "Closed",
    "responsible_agency": "Orleans Parish Communication District",
    "final_address": "3820 St Claude Ave",
    "address_councildis": "C",
    "status": "Question Answered.",
    "rowid": "1240932",
    "final_x": "3691325.99593",
    "final_y": "535336.381382",
    "longitude": "-90.03690713581696",
    "latitude": "29.965687399911342",
    "geocoded_column": {
      "latitude": "29.965687399911342",
      "longitude": "-90.03690713581696"
    }
  },
  {
    "service_request": "2025-1240931",
    "request_type": "Property Maintenance",
    "request_reason": "Property Maintenance",
    "date_created": "2025-11-18T14:05:22.000",
    "date_modified": "2025-11-18T14:39:06.000",
    "case_close_date": "2025-11-18T08:39:05.000",
    "request_status": "Closed",
    "responsible_agency": "Department of Code Enforcement",
    "final_address": "4600 S Johnson St",
    "address_councildis": "B",
    "status": "Referred to Code Enforcement",
    "rowid": "1240931",
    "final_x": "3669420.57985",
    "final_y": "527096.215999",
    "longitude": "-90.10636247112458",
    "latitude": "29.943692955317424",
    "geocoded_column": {
      "latitude": "29.943692955317424",
      "longitude": "-90.10636247112458"
    }
  },
  {
    "service_request": "2025-1240930",
    "request_type": "Trash/Recycling",
    "request_reason": "Repair Trash Cart",
    "date_created": "2025-11-18T14:04:07.000",
    "date_modified": "2025-11-18T14:04:09.000",
    "request_status": "Pending",
    "responsible_agency": "Department of Sanitation",
    "final_address": "2428 Pine St",
    "address_councildis": "A",
    "status": "Assigned to Contractor",
    "contractor": "IV Waste",
    "rowid": "1240930",
    "final_x": "3666495.29965",
    "final_y": "530566.075586",
    "longitude": "-90.11548195738578",
    "latitude": "29.953319751088713",
    "geocoded_column": {
      "latitude": "29.953319751088713",
      "longitude": "-90.11548195738578"
    }
  },
  {
    "service_request": "2025-1240929",
    "request_type": "Property Maintenance",
    "request_reason": "Property Maintenance",
    "date_created": "2025-11-18T14:01:11.000",
    "date_modified": "2025-11-18T14:01:16.000",
    "request_status": "Pending",
    "responsible_agency": "Department of Code Enforcement",
    "final_address": "6744 W Laverne St",
    "address_councildis": "D",
    "status": "Pending",
    "rowid": "1240929",
    "final_x": "3696114.99626",
    "final_y": "555839.197593",
    "longitude": "-90.02104220797794",
    "latitude": "30.021912766159357",
    "geocoded_column": {
      "latitude": "30.021912766159357",
      "longitude": "-90.02104220797794"
    }
  },
  {
    "service_request": "2025-1240928",
    "request_type": "Abandoned Vehicles",
    "request_reason": "Abandoned/Junk Vehicles",
    "date_created": "2025-11-18T13:55:12.000",
    "date_modified": "2025-11-18T13:55:14.000",
    "request_status": "Pending",
    "responsible_agency": "Department of Public Works",
    "final_address": "5714 Vicksburg St",
    "address_councildis": "A",
    "status": "Pending",
    "rowid": "1240928",
    "final_x": "3668664.2299",
    "final_y": "545525.046032",
    "longitude": "-90.10812832836237",
    "latitude": "29.994388333011024",
    "geocoded_column": {
      "latitude": "29.994388333011024",
      "longitude": "-90.10812832836237"
    }
  },
  {
    "service_request": "2025-1240927",
    "request_type": "Trash/Recycling",
    "request_reason": "Order Recycling Cart",
    "date_created": "2025-11-18T13:55:05.000",
    "date_modified": "2025-11-18T13:55:06.000",
    "request_status": "Pending",
    "responsible_agency": "Department of Sanitation",
    "final_address": "4916 Haik Dr",
    "address_councildis": "D",
    "status": "Pending",
    "rowid": "1240927",
    "final_x": "3681923.04367",
    "final_y": "550777.925781",
    "longitude": "-90.0660619642023",
    "latitude": "30.008435387590307",
    "geocoded_column": {
      "latitude": "30.008435387590307",
      "longitude": "-90.0660619642023"
    }
  },
  {
    "service_request": "2025-1240926",
    "request_type": "Trash/Recycling",
    "request_reason": "Dead Animal Pick Up",
    "date_created": "2025-11-18T13:53:35.000",
    "date_modified": "2025-11-18T13:58:11.000",
    "request_status": "Pending",
    "responsible_agency": "Department of Sanitation",
    "final_address": "RAY AVE & CHEF MENTEUR HWY",
    "address_councildis": "E",
    "status": "Assigned to Contractor",
    "contractor": "Waste Pro",
    "rowid": "1240926",
    "final_x": "3699023.3",
    "final_y": "551837.78",
    "longitude": "-90.0119985711506",
    "latitude": "30.01081847936158",
    "geocoded_column": {
      "latitude": "30.01081847936158",
      "longitude": "-90.0119985711506"
    }
  },
  {
    "service_request": "2025-1240925",
    "request_type": "Graffiti Removal",
    "request_reason": "Graffiti Removal",
    "date_created": "2025-11-18T13:47:00.000",
    "date_modified": "2025-11-18T13:47:02.000",
    "request_status": "Pending",
    "responsible_agency": "Department of Code Enforcement",
    "final_address": "8244 S Claiborne Ave",
    "address_councildis": "A",
    "status": "Pending",
    "rowid": "1240925",
    "final_x": "3664248.82567",
    "final_y": "531896.028611",
    "longitude": "-90.12253101498881",
    "latitude": "29.95704215123937",
    "geocoded_column": {
      "latitude": "29.95704215123937",
      "longitude": "-90.12253101498881"
    }
  },
  {
    "service_request": "2025-1240924",
    "request_type": "Trash/Recycling",
    "request_reason": "Request a Large Item Pick Up",
    "date_created": "2025-11-18T13:46:50.000",
    "date_modified": "2025-11-18T13:48:16.000",
    "request_status": "Pending",
    "responsible_agency": "Department of Sanitation",
    "final_address": "7615 Ebbtide Dr",
    "address_councildis": "E",
    "status": "Assigned to Contractor",
    "contractor": "Waste Pro",
    "rowid": "1240924",
    "final_x": "3702266.20004",
    "final_y": "561479.389279",
    "longitude": "-90.00139896729617",
    "latitude": "30.03722596790005",
    "geocoded_column": {
      "latitude": "30.03722596790005",
      "longitude": "-90.00139896729617"
    }
  },
  {
    "service_request": "2025-1240923",
    "request_type": "Trash/Recycling",
    "request_reason": "Request a Large Item Pick Up",
    "date_created": "2025-11-18T13:46:45.000",
    "date_modified": "2025-11-18T13:46:46.000",
    "request_status": "Pending",
    "responsible_agency": "Department of Sanitation",
    "final_address": "5520 Patio Way",
    "address_councildis": "E",
    "status": "Assigned to Contractor",
    "contractor": "Waste Pro",
    "rowid": "1240923",
    "final_x": "3725280.75494",
    "final_y": "563997.450209",
    "longitude": "-89.92857123733302",
    "latitude": "30.043393925234472",
    "geocoded_column": {
      "latitude": "30.043393925234472",
      "longitude": "-89.92857123733302"
    }
  },
  {
    "service_request": "2025-1240922",
    "request_type": "Trash/Recycling",
    "request_reason": "Order Recycling Cart",
    "date_created": "2025-11-18T13:45:44.000",
    "date_modified": "2025-11-18T13:45:46.000",
    "request_status": "Pending",
    "responsible_agency": "Department of Sanitation",
    "final_address": "7320 Sardonyx St",
    "address_councildis": "D",
    "status": "Pending",
    "rowid": "1240922",
    "final_x": "3669514.6747",
    "final_y": "555696.958297",
    "longitude": "-90.10509745193409",
    "latitude": "30.022332493621704",
    "geocoded_column": {
      "latitude": "30.022332493621704",
      "longitude": "-90.10509745193409"
    }
  },
  {
    "service_request": "2025-1240921",
    "request_type": "Trash/Recycling",
    "request_reason": "Replace Trash Cart",
    "date_created": "2025-11-18T13:44:55.000",
    "date_modified": "2025-11-18T13:44:57.000",
    "request_status": "Pending",
    "responsible_agency": "Department of Sanitation",
    "final_address": "1435 Elysian Fields Ave",
    "address_councildis": "C",
    "status": "Assigned to Contractor",
    "contractor": "IV Waste",
    "rowid": "1240921",
    "final_x": "3685003.3149",
    "final_y": "537710.684808",
    "longitude": "-90.05679035723793",
    "latitude": "29.97241109446096",
    "geocoded_column": {
      "latitude": "29.97241109446096",
      "longitude": "-90.05679035723793"
    }
  },
  {
    "service_request": "2025-1240920",
    "request_type": "Trash/Recycling",
    "request_reason": "Repair Trash Cart",
    "date_created": "2025-11-18T13:43:10.000",
    "date_modified": "2025-11-18T13:43:12.000",
    "request_status": "Pending",
    "responsible_agency": "Department of Sanitation",
    "final_address": "1816 Laharpe St",
    "address_councildis": "D",
    "status": "Assigned to Contractor",
    "contractor": "IV Waste",
    "rowid": "1240920",
    "final_x": "3681235.88648",
    "final_y": "537981.163657",
    "longitude": "-90.06867912103006",
    "latitude": "29.973269687596908",
    "geocoded_column": {
      "latitude": "29.973269687596908",
      "longitude": "-90.06867912103006"
    }
  },
  {
    "service_request": "2025-1240919",
    "request_type": "Trash/Recycling",
    "request_reason": "Request a Large Item Pick Up",
    "date_created": "2025-11-18T13:33:18.000",
    "date_modified": "2025-11-18T13:33:22.000",
    "request_status": "Pending",
    "responsible_agency": "Department of Sanitation",
    "final_address": "7581 Vincent Rd",
    "address_councildis": "E",
    "status": "Assigned to Contractor",
    "contractor": "Waste Pro",
    "rowid": "1240919",
    "final_x": "3718689.82162",
    "final_y": "571425.137512",
    "longitude": "-89.94911753541153",
    "latitude": "30.064037522945117",
    "geocoded_column": {
      "latitude": "30.064037522945117",
      "longitude": "-89.94911753541153"
    }
  },
  {
    "service_request": "2025-1240918",
    "request_type": "Trash/Recycling",
    "request_reason": "Request a Large Item Pick Up",
    "date_created": "2025-11-18T13:29:56.000",
    "date_modified": "2025-11-18T13:29:59.000",
    "request_status": "Pending",
    "responsible_agency": "Department of Sanitation",
    "final_address": "1310 General Ogden St",
    "address_councildis": "A",
    "status": "Assigned to Contractor",
    "contractor": "IV Waste",
    "rowid": "1240918",
    "final_x": "3660148.888",
    "final_y": "530645.540226",
    "longitude": "-90.13551869300866",
    "latitude": "29.953722199515283",
    "geocoded_column": {
      "latitude": "29.953722199515283",
      "longitude": "-90.13551869300866"
    }
  },
  {
    "service_request": "2025-1240917",
    "request_type": "Trash/Recycling",
    "request_reason": "Repair Recycling Cart",
    "date_created": "2025-11-18T13:23:17.000",
    "date_modified": "2025-11-18T13:23:18.000",
    "request_status": "Pending",
    "responsible_agency": "Department of Sanitation",
    "final_address": "434 Lakeshore Prkwy",
    "address_councildis": "D",
    "status": "Pending",
    "rowid": "1240917",
    "final_x": "3668069.77684",
    "final_y": "556987.942426",
    "longitude": "-90.10961942766372",
    "latitude": "30.025924747176497",
    "geocoded_column": {
      "latitude": "30.025924747176497",
      "longitude": "-90.10961942766372"
    }
  },
  {
    "service_request": "2025-1240916",
    "request_type": "Trash/Recycling",
    "request_reason": "Replace Trash Cart",
    "date_created": "2025-11-18T13:19:26.000",
    "date_modified": "2025-11-18T13:19:27.000",
    "request_status": "Pending",
    "responsible_agency": "Department of Sanitation",
    "final_address": "3216 Toledano St",
    "address_councildis": "B",
    "status": "Assigned to Contractor",
    "contractor": "IV Waste",
    "rowid": "1240916",
    "final_x": "3672058.26516",
    "final_y": "527476.706303",
    "longitude": "-90.09802162670528",
    "latitude": "29.944661252781774",
    "geocoded_column": {
      "latitude": "29.944661252781774",
      "longitude": "-90.09802162670528"
    }
  },
  {
    "service_request": "2025-1240915",
    "request_type": "Trash/Recycling",
    "request_reason": "Request a Large Item Pick Up",
    "date_created": "2025-11-18T13:16:38.000",
    "date_modified": "2025-11-18T13:16:39.000",
    "request_status": "Pending",
    "responsible_agency": "Department of Sanitation",
    "final_address": "6729 Dorchester St",
    "address_councildis": "E",
    "status": "Assigned to Contractor",
    "contractor": "Waste Pro",
    "rowid": "1240915",
    "final_x": "3698216.84336",
    "final_y": "559339.837725",
    "longitude": "-90.01427361861448",
    "latitude": "30.031471830690112",
    "geocoded_column": {
      "latitude": "30.031471830690112",
      "longitude": "-90.01427361861448"
    }
  },
  {
    "service_request": "2025-1240914",
    "request_type": "Trash/Recycling",
    "request_reason": "Repair Trash Cart",
    "date_created": "2025-11-18T13:12:24.000",
    "date_modified": "2025-11-18T13:12:25.000",
    "request_status": "Pending",
    "responsible_agency": "Department of Sanitation",
    "final_address": "8305 Sycamore St",
    "address_councildis": "A",
    "status": "Assigned to Contractor",
    "contractor": "IV Waste",
    "rowid": "1240914",
    "final_x": "3663780.87424",
    "final_y": "531524.576323",
    "longitude": "-90.1240210458095",
    "latitude": "29.956034366452887",
    "geocoded_column": {
      "latitude": "29.956034366452887",
      "longitude": "-90.1240210458095"
    }
  },
  {
    "service_request": "2025-1240913",
    "request_type": "Trash/Recycling",
    "request_reason": "Repair Trash Cart",
    "date_created": "2025-11-18T13:09:17.000",
    "date_modified": "2025-11-18T13:09:19.000",
    "request_status": "Pending",
    "responsible_agency": "Department of Sanitation",
    "final_address": "1920 Elysian Fields Ave",
    "address_councildis": "D",
    "status": "Assigned to Contractor",
    "contractor": "IV Waste",
    "rowid": "1240913",
    "final_x": "3684661.81711",
    "final_y": "539412.089354",
    "longitude": "-90.05780905056449",
    "latitude": "29.977099819378783",
    "geocoded_column": {
      "latitude": "29.977099819378783",
      "longitude": "-90.05780905056449"
    }
  },
  {
    "service_request": "2025-1240912",
    "request_type": "Roads and Streets",
    "request_reason": "Pothole",
    "date_created": "2025-11-18T13:08:37.000",
    "date_modified": "2025-11-18T13:08:40.000",
    "request_status": "Pending",
    "responsible_agency": "Department of Public Works",
    "final_address": "ELYSIAN FIELDS AVE & LOMBARD ST",
    "address_councildis": "D",
    "status": "Pending",
    "rowid": "1240912",
    "final_x": "3683929.6",
    "final_y": "549191.98",
    "longitude": "-90.05977831771975",
    "latitude": "30.004013437529117",
    "geocoded_column": {
      "latitude": "30.004013437529117",
      "longitude": "-90.05977831771975"
    }
  },
  {
    "service_request": "2025-1240911",
    "request_type": "Trash/Recycling",
    "request_reason": "Return Trash Cart",
    "date_created": "2025-11-18T13:05:46.000",
    "date_modified": "2025-11-18T13:05:47.000",
    "request_status": "Pending",
    "responsible_agency": "Department of Sanitation",
    "final_address": "4316 Fontainebleau Dr",
    "address_councildis": "A",
    "status": "Assigned to Contractor",
    "contractor": "IV Waste",
    "rowid": "1240911",
    "final_x": "3669295.05249",
    "final_y": "529393.803009",
    "longitude": "-90.10668113856835",
    "latitude": "29.95001426654048",
    "geocoded_column": {
      "latitude": "29.95001426654048",
      "longitude": "-90.10668113856835"
    }
  },
  {
    "service_request": "2025-1240910",
    "request_type": "Trash/Recycling",
    "request_reason": "Order Recycling Cart",
    "date_created": "2025-11-18T13:03:27.000",
    "date_modified": "2025-11-18T13:03:28.000",
    "request_status": "Pending",
    "responsible_agency": "Department of Sanitation",
    "final_address": "6203 Warrington Dr",
    "address_councildis": "D",
    "status": "Pending",
    "rowid": "1240910",
    "final_x": "3680889.23426",
    "final_y": "555627.682393",
    "longitude": "-90.06915905052286",
    "latitude": "30.021801856150017",
    "geocoded_column": {
      "latitude": "30.021801856150017",
      "longitude": "-90.06915905052286"
    }
  },
  {
    "service_request": "2025-1240909",
    "request_type": "Trash/Recycling",
    "request_reason": "Request a Large Item Pick Up",
    "date_created": "2025-11-18T13:02:05.000",
    "date_modified": "2025-11-18T13:02:09.000",
    "request_status": "Pending",
    "responsible_agency": "Department of Sanitation",
    "final_address": "5053 Good Dr",
    "address_councildis": "E",
    "status": "Assigned to Contractor",
    "contractor": "Waste Pro",
    "rowid": "1240909",
    "final_x": "3714714.14181",
    "final_y": "558256.843228",
    "longitude": "-89.96218293759814",
    "latitude": "30.027961521302625",
    "geocoded_column": {
      "latitude": "30.027961521302625",
      "longitude": "-89.96218293759814"
    }
  },
  {
    "service_request": "2025-1240908",
    "request_type": "Trash/Recycling",
    "request_reason": "Order Trash Cart",
    "date_created": "2025-11-18T12:58:06.000",
    "date_modified": "2025-11-18T12:58:08.000",
    "request_status": "Pending",
    "responsible_agency": "Department of Sanitation",
    "final_address": "6201 Warrington Dr",
    "address_councildis": "D",
    "status": "Assigned to Contractor",
    "contractor": "IV Waste",
    "rowid": "1240908",
    "final_x": "3680891.40443",
    "final_y": "555605.981017",
    "longitude": "-90.06915294988005",
    "latitude": "30.02174211947043",
    "geocoded_column": {
      "latitude": "30.02174211947043",
      "longitude": "-90.06915294988005"
    }
  },
  {
    "service_request": "2025-1240907",
    "request_type": "Trash/Recycling",
    "request_reason": "Request a Large Item Pick Up",
    "date_created": "2025-11-18T12:53:01.000",
    "date_modified": "2025-11-18T12:53:03.000",
    "request_status": "Pending",
    "responsible_agency": "Department of Sanitation",
    "final_address": "11311 S Parkwood Ct",
    "address_councildis": "E",
    "status": "Assigned to Contractor",
    "contractor": "Waste Pro",
    "rowid": "1240907",
    "final_x": "3716913.28562",
    "final_y": "559251.695644",
    "longitude": "-89.95519606072024",
    "latitude": "30.03062442534535",
    "geocoded_column": {
      "latitude": "30.03062442534535",
      "longitude": "-89.95519606072024"
    }
  },
  {
    "service_request": "2025-1240906",
    "request_type": "Trash/Recycling",
    "request_reason": "Request a Large Item Pick Up",
    "date_created": "2025-11-18T12:51:28.000",
    "date_modified": "2025-11-18T12:51:30.000",
    "request_status": "Pending",
    "responsible_agency": "Department of Sanitation",
    "final_address": "7200 Salem Dr",
    "address_councildis": "E",
    "status": "Assigned to Contractor",
    "contractor": "Waste Pro",
    "rowid": "1240906",
    "final_x": "3706282.2611",
    "final_y": "561441.368158",
    "longitude": "-89.98870881604982",
    "latitude": "30.036992452609777",
    "geocoded_column": {
      "latitude": "30.036992452609777",
      "longitude": "-89.98870881604982"
    }
  },
  {
    "service_request": "2025-1240905",
    "request_type": "Trash/Recycling",
    "request_reason": "Repair Trash Cart",
    "date_created": "2025-11-18T12:49:19.000",
    "date_modified": "2025-11-18T12:49:20.000",
    "request_status": "Pending",
    "responsible_agency": "Department of Sanitation",
    "final_address": "8907 Colapissa St",
    "address_councildis": "A",
    "status": "Assigned to Contractor",
    "contractor": "IV Waste",
    "rowid": "1240905",
    "final_x": "3664412.33831",
    "final_y": "535387.17607",
    "longitude": "-90.12189814017599",
    "latitude": "29.96663691131138",
    "geocoded_column": {
      "latitude": "29.96663691131138",
      "longitude": "-90.12189814017599"
    }
  },
  {
    "service_request": "2025-1240904",
    "request_type": "Trash/Recycling",
    "request_reason": "Request a Large Item Pick Up",
    "date_created": "2025-11-18T12:49:06.000",
    "date_modified": "2025-11-18T12:49:08.000",
    "request_status": "Pending",
    "responsible_agency": "Department of Sanitation",
    "final_address": "1773 Sere St",
    "address_councildis": "D",
    "status": "Assigned to Contractor",
    "contractor": "IV Waste",
    "rowid": "1240904",
    "final_x": "3681071.42203",
    "final_y": "545700.195536",
    "longitude": "-90.06892952526506",
    "latitude": "29.994499314018398",
    "geocoded_column": {
      "latitude": "29.994499314018398",
      "longitude": "-90.06892952526506"
    }
  },
  {
    "service_request": "2025-1240903",
    "request_type": "Trash/Recycling",
    "request_reason": "Repair Trash Cart",
    "date_created": "2025-11-18T12:45:07.000",
    "date_modified": "2025-11-18T12:45:09.000",
    "request_status": "Pending",
    "responsible_agency": "Department of Sanitation",
    "final_address": "8521 Plum St",
    "address_councildis": "A",
    "status": "Assigned to Contractor",
    "contractor": "IV Waste",
    "rowid": "1240903",
    "final_x": "3661031.32474",
    "final_y": "529756.015681",
    "longitude": "-90.13276173922056",
    "latitude": "29.95125089858376",
    "geocoded_column": {
      "latitude": "29.95125089858376",
      "longitude": "-90.13276173922056"
    }
  },
  {
    "service_request": "2025-1240902",
    "request_type": "Parks & Parkways",
    "request_reason": "Request Tree Service (Right of Way/Public Property)",
    "date_created": "2025-11-18T12:45:00.000",
    "date_modified": "2025-11-18T14:48:49.000",
    "case_close_date": "2025-11-18T08:48:48.000",
    "request_status": "Closed",
    "responsible_agency": "Department of Parks & Parkway",
    "final_address": "2844 Magazine St",
    "address_councildis": "B",
    "status": "Duplicate Request",
    "rowid": "1240902",
    "final_x": "3676804.04129",
    "final_y": "520547.0142",
    "longitude": "-90.08327648062173",
    "latitude": "29.925465333362045",
    "geocoded_column": {
      "latitude": "29.925465333362045",
      "longitude": "-90.08327648062173"
    }
  },
  {
    "service_request": "2025-1240901",
    "request_type": "Trash/Recycling",
    "request_reason": "MIssed Recycling Pick-Up",
    "date_created": "2025-11-18T12:43:46.000",
    "date_modified": "2025-11-18T12:43:47.000",
    "request_status": "Pending",
    "responsible_agency": "Department of Sanitation",
    "final_address": "705 Patterson St",
    "address_councildis": "C",
    "status": "Assigned to Contractor",
    "contractor": "Richards Disposal",
    "rowid": "1240901",
    "final_x": "3687673.99535",
    "final_y": "531408.048899",
    "longitude": "-90.04857908142694",
    "latitude": "29.954998954409437",
    "geocoded_column": {
      "latitude": "29.954998954409437",
      "longitude": "-90.04857908142694"
    }
  },
  {
    "service_request": "2025-1240900",
    "request_type": "Trash/Recycling",
    "request_reason": "Request a Large Item Pick Up",
    "date_created": "2025-11-18T12:42:18.000",
    "date_modified": "2025-11-18T12:43:21.000",
    "request_status": "Pending",
    "responsible_agency": "Department of Sanitation",
    "final_address": "401 Andry St",
    "address_councildis": "E",
    "status": "Assigned to Contractor",
    "contractor": "Waste Pro",
    "rowid": "1240900",
    "final_x": "3696548.85661",
    "final_y": "531596.573827",
    "longitude": "-90.02054893466108",
    "latitude": "29.955240734818638",
    "geocoded_column": {
      "latitude": "29.955240734818638",
      "longitude": "-90.02054893466108"
    }
  },
  {
    "service_request": "2025-1240899",
    "request_type": "Abandoned Vehicles",
    "request_reason": "Abandoned/Junk Vehicles",
    "date_created": "2025-11-18T12:38:53.000",
    "date_modified": "2025-11-18T12:38:54.000",
    "request_status": "Pending",
    "responsible_agency": "Department of Public Works",
    "final_address": "2626 Louisiana Ave",
    "address_councildis": "B",
    "status": "Pending",
    "rowid": "1240899",
    "final_x": "3672609.16289",
    "final_y": "524948.112317",
    "longitude": "-90.096368459708",
    "latitude": "29.937692102302023",
    "geocoded_column": {
      "latitude": "29.937692102302023",
      "longitude": "-90.096368459708"
    }
  },
  {
    "service_request": "2025-1240898",
    "request_type": "Trash/Recycling",
    "request_reason": "Order Recycling Cart",
    "date_created": "2025-11-18T12:38:46.000",
    "date_modified": "2025-11-18T12:38:47.000",
    "request_status": "Pending",
    "responsible_agency": "Department of Sanitation",
    "final_address": "4880 Treves St",
    "address_councildis": "E",
    "status": "Pending",
    "rowid": "1240898",
    "final_x": "3729914.66214",
    "final_y": "562635.259936",
    "longitude": "-89.91397969410895",
    "latitude": "30.039491451446914",
    "geocoded_column": {
      "latitude": "30.039491451446914",
      "longitude": "-89.91397969410895"
    }
  },
  {
    "service_request": "2025-1240897",
    "request_type": "Parks & Parkways",
    "request_reason": "Request Tree Service (Right of Way/Public Property)",
    "date_created": "2025-11-18T12:35:15.000",
    "date_modified": "2025-11-18T12:35:17.000",
    "request_status": "Pending",
    "responsible_agency": "Department of Parks & Parkway",
    "final_address": "2844 Magazine St",
    "address_councildis": "B",
    "status": "Pending",
    "rowid": "1240897",
    "final_x": "3676804.04129",
    "final_y": "520547.0142",
    "longitude": "-90.08327648062173",
    "latitude": "29.925465333362045",
    "geocoded_column": {
      "latitude": "29.925465333362045",
      "longitude": "-90.08327648062173"
    }
  },
  {
    "service_request": "2025-1240896",
    "request_type": "Trash/Recycling",
    "request_reason": "Replace Trash Cart",
    "date_created": "2025-11-18T12:35:05.000",
    "date_modified": "2025-11-18T12:35:07.000",
    "request_status": "Pending",
    "responsible_agency": "Department of Sanitation",
    "final_address": "4121 Willow St",
    "address_councildis": "B",
    "status": "Assigned to Contractor",
    "contractor": "IV Waste",
    "rowid": "1240896",
    "final_x": "3671362.73582",
    "final_y": "525570.673725",
    "longitude": "-90.10028238408671",
    "latitude": "29.93944088362213",
    "geocoded_column": {
      "latitude": "29.93944088362213",
      "longitude": "-90.10028238408671"
    }
  },
  {
    "service_request": "2025-1240895",
    "request_type": "Health Related Request",
    "request_reason": "Homeless Encampment Complaint",
    "date_created": "2025-11-18T12:34:16.000",
    "date_modified": "2025-11-18T12:34:18.000",
    "request_status": "Pending",
    "responsible_agency": "Office Of Homeless Services And Strategy",
    "final_address": "2001 Simon Bolivar Ave",
    "address_councildis": "B",
    "status": "Pending",
    "rowid": "1240895",
    "final_x": "3676717.90139",
    "final_y": "525952.084605",
    "longitude": "-90.08336227086328",
    "latitude": "29.940330095023615",
    "geocoded_column": {
      "latitude": "29.940330095023615",
      "longitude": "-90.08336227086328"
    }
  },
  {
    "service_request": "2025-1240894",
    "request_type": "Trash/Recycling",
    "request_reason": "Order Second Trash Cart",
    "date_created": "2025-11-18T12:30:44.000",
    "date_modified": "2025-11-18T12:30:46.000",
    "request_status": "Pending",
    "responsible_agency": "Department of Sanitation",
    "final_address": "8521 Plum St",
    "address_councildis": "A",
    "status": "Assigned to Contractor",
    "contractor": "IV Waste",
    "rowid": "1240894",
    "final_x": "3661031.32474",
    "final_y": "529756.015681",
    "longitude": "-90.13276173922056",
    "latitude": "29.95125089858376",
    "geocoded_column": {
      "latitude": "29.95125089858376",
      "longitude": "-90.13276173922056"
    }
  },
  {
    "service_request": "2025-1240893",
    "request_type": "Trash/Recycling",
    "request_reason": "Request a Large Item Pick Up",
    "date_created": "2025-11-18T12:22:37.000",
    "date_modified": "2025-11-18T12:22:39.000",
    "request_status": "Pending",
    "responsible_agency": "Department of Sanitation",
    "final_address": "2744 Edna St",
    "address_councildis": "D",
    "status": "Assigned to Contractor",
    "contractor": "IV Waste",
    "rowid": "1240893",
    "final_x": "3689755.43683",
    "final_y": "545257.359759",
    "longitude": "-90.04151367154127",
    "latitude": "29.993015330572405",
    "geocoded_column": {
      "latitude": "29.993015330572405",
      "longitude": "-90.04151367154127"
    }
  },
  {
    "service_request": "2025-1240892",
    "request_type": "Trash/Recycling",
    "request_reason": "Order Trash Cart",
    "date_created": "2025-11-18T12:20:46.000",
    "date_modified": "2025-11-18T12:33:28.000",
    "request_status": "Pending",
    "responsible_agency": "Department of Sanitation",
    "final_address": "13194 Sevres St",
    "address_councildis": "E",
    "status": "Assigned to Contractor",
    "contractor": "Waste Pro",
    "rowid": "1240892",
    "final_x": "3724824.25324",
    "final_y": "560899.287518",
    "longitude": "-89.93013386147977",
    "latitude": "30.034890635874813",
    "geocoded_column": {
      "latitude": "30.034890635874813",
      "longitude": "-89.93013386147977"
    }
  },
  {
    "service_request": "2025-1240891",
    "request_type": "Trash/Recycling",
    "request_reason": "Request a Large Item Pick Up",
    "date_created": "2025-11-18T12:20:00.000",
    "date_modified": "2025-11-18T12:20:01.000",
    "request_status": "Pending",
    "responsible_agency": "Department of Sanitation",
    "final_address": "10450 Heritage Dr",
    "address_councildis": "E",
    "status": "Assigned to Contractor",
    "contractor": "Waste Pro",
    "rowid": "1240891",
    "final_x": "3709944.74289",
    "final_y": "564454.441633",
    "longitude": "-89.97702196786084",
    "latitude": "30.045158517087447",
    "geocoded_column": {
      "latitude": "30.045158517087447",
      "longitude": "-89.97702196786084"
    }
  },
  {
    "service_request": "2025-1240890",
    "request_type": "Trash/Recycling",
    "request_reason": "Return Trash Cart",
    "date_created": "2025-11-18T12:19:56.000",
    "date_modified": "2025-11-18T12:19:58.000",
    "request_status": "Pending",
    "responsible_agency": "Department of Sanitation",
    "final_address": "27 Neron Pl",
    "address_councildis": "A",
    "status": "Assigned to Contractor",
    "contractor": "IV Waste",
    "rowid": "1240890",
    "final_x": "3665127.87943",
    "final_y": "530776.048898",
    "longitude": "-90.11979268016171",
    "latitude": "29.953937001089827",
    "geocoded_column": {
      "latitude": "29.953937001089827",
      "longitude": "-90.11979268016171"
    }
  },
  {
    "service_request": "2025-1240889",
    "request_type": "Trash/Recycling",
    "request_reason": "Order Trash Cart",
    "date_created": "2025-11-18T12:12:56.000",
    "date_modified": "2025-11-18T12:12:57.000",
    "request_status": "Pending",
    "responsible_agency": "Department of Sanitation",
    "final_address": "541 Joseph St",
    "address_councildis": "A",
    "status": "Assigned to Contractor",
    "contractor": "IV Waste",
    "rowid": "1240889",
    "final_x": "3666000.768",
    "final_y": "518203.335926",
    "longitude": "-90.11745770465625",
    "latitude": "29.919340606742185",
    "geocoded_column": {
      "latitude": "29.919340606742185",
      "longitude": "-90.11745770465625"
    }
  },
  {
    "service_request": "2025-1240888",
    "request_type": "Trash/Recycling",
    "request_reason": "Request a Large Item Pick Up",
    "date_created": "2025-11-18T12:12:00.000",
    "date_modified": "2025-11-18T12:12:03.000",
    "request_status": "Pending",
    "responsible_agency": "Department of Sanitation",
    "final_address": "4413 Fontainebleau Dr",
    "address_councildis": "B",
    "status": "Assigned to Contractor",
    "contractor": "IV Waste",
    "rowid": "1240888",
    "final_x": "3669169.94324",
    "final_y": "529676.689217",
    "longitude": "-90.10706660903043",
    "latitude": "29.950795793224927",
    "geocoded_column": {
      "latitude": "29.950795793224927",
      "longitude": "-90.10706660903043"
    }
  },
  {
    "service_request": "2025-1240887",
    "request_type": "Trash/Recycling",
    "request_reason": "Repair Trash Cart",
    "date_created": "2025-11-18T12:11:08.000",
    "date_modified": "2025-11-18T12:11:26.000",
    "request_status": "Pending",
    "responsible_agency": "Department of Sanitation",
    "final_address": "3512 Dante St Apt 2B",
    "address_councildis": "A",
    "status": "Assigned to Contractor",
    "contractor": "IV Waste",
    "rowid": "1240887",
    "final_x": "3666987.48033",
    "final_y": "535090.89063",
    "longitude": "-90.1137757901055",
    "latitude": "29.96574711207545",
    "geocoded_column": {
      "latitude": "29.96574711207545",
      "longitude": "-90.1137757901055"
    }
  },
  {
    "service_request": "2025-1240886",
    "request_type": "Trash/Recycling",
    "request_reason": "Repair Trash Cart",
    "date_created": "2025-11-18T12:09:38.000",
    "date_modified": "2025-11-18T12:09:40.000",
    "request_status": "Pending",
    "responsible_agency": "Department of Sanitation",
    "final_address": "1904 Dublin St",
    "address_councildis": "A",
    "status": "Assigned to Contractor",
    "contractor": "IV Waste",
    "rowid": "1240886",
    "final_x": "3663380.07002",
    "final_y": "530506.568194",
    "longitude": "-90.12532054341112",
    "latitude": "29.95324679904011",
    "geocoded_column": {
      "latitude": "29.95324679904011",
      "longitude": "-90.12532054341112"
    }
  },
  {
    "service_request": "2025-1240885",
    "request_type": "Abandoned Vehicles",
    "request_reason": "Abandoned/Junk Vehicles",
    "date_created": "2025-11-18T12:06:09.000",
    "date_modified": "2025-11-18T12:06:10.000",
    "request_status": "Pending",
    "responsible_agency": "Department of Public Works",
    "final_address": "422 S Murat St",
    "address_councildis": "A",
    "status": "Pending",
    "rowid": "1240885",
    "final_x": "3668870.86369",
    "final_y": "538223.934665",
    "longitude": "-90.10772228587554",
    "latitude": "29.97430668296207",
    "geocoded_column": {
      "latitude": "29.97430668296207",
      "longitude": "-90.10772228587554"
    }
  },
  {
    "service_request": "2025-1240884",
    "request_type": "Trash/Recycling",
    "request_reason": "Request a Large Item Pick Up",
    "date_created": "2025-11-18T12:05:08.000",
    "date_modified": "2025-11-18T12:05:11.000",
    "request_status": "Pending",
    "responsible_agency": "Department of Sanitation",
    "final_address": "2360 N Robertson St",
    "address_councildis": "C",
    "status": "Assigned to Contractor",
    "contractor": "IV Waste",
    "rowid": "1240884",
    "final_x": "3686188.05103",
    "final_y": "537847.900041",
    "longitude": "-90.05304391896235",
    "latitude": "29.972752043170342",
    "geocoded_column": {
      "latitude": "29.972752043170342",
      "longitude": "-90.05304391896235"
    }
  },
  {
    "service_request": "2025-1240883",
    "request_type": "Property Maintenance",
    "request_reason": "Property Maintenance",
    "date_created": "2025-11-18T12:04:41.000",
    "date_modified": "2025-11-18T12:05:17.000",
    "request_status": "Pending",
    "responsible_agency": "Department of Code Enforcement",
    "final_address": "4923 Perrault Walk",
    "address_councildis": "E",
    "status": "Pending",
    "rowid": "1240883",
    "final_x": "3709754.65861",
    "final_y": "556780.875482",
    "longitude": "-89.97790959925578",
    "latitude": "30.024065438518235",
    "geocoded_column": {
      "latitude": "30.024065438518235",
      "longitude": "-89.97790959925578"
    }
  },