[
  {
    "service_request": "2024-1115203",
    "request_type": "Trash/Recycling",
    "request_reason": "Replace Trash Cart",
    "date_created": "2024-07-23T23:53:20.000",
    "date_modified": "2024-07-23T23:53:21.000",
    "request_status": "Pending",
    "responsible_agency": "Department of Sanitation",
    "final_address": "618 Hagan St",
    "address_councildis": "A",
    "status": "Assigned to Contractor",
    "contractor": "IV Waste",
    "rowid": "1115203",
    "final_x": "3674523.32654",
    "final_y": "538229.642889",
    "longitude": "-90.08987025778504",
    "latitude": "29.974154924344155",
    "geocoded_column": {
      "latitude": "29.974154924344155",
      "longitude": "-90.08987025778504"
    }
  },
  {
    "service_request": "2024-1115202",
    "request_type": "Roads/Drainage",
    "request_reason": "Road Shoulder Repair",
    "date_created": "2024-07-23T23:31:45.000",
    "date_modified": "2024-07-23T23:31:45.000",
    "request_status": "Pending",
    "responsible_agency": "Department of Public Works",
    "final_address": "2521 Monroe St",
    "address_councildis": "A",
    "status": "Pending",
    "rowid": "1115202",
    "final_x": "3663710.32032",
    "final_y": "533400.063876",
    "longitude": "-90.1241813381651",
    "latitude": "29.961193393601647",
    "geocoded_column": {
      "latitude": "29.961193393601647",
      "longitude": "-90.1241813381651"
    }
  },
  {
    "service_request": "2024-1115201",
    "request_type": "Abandoned Vehicles",
    "request_reason": "Abandoned/Junk Vehicles",
    "date_created": "2024-07-23T23:27:05.000",
    "date_modified": "2024-07-23T23:27:05.000",
    "request_status": "Pending",
    "responsible_agency": "Department of Public Works",
    "final_address": "125 Wilshire Pl",
    "address_councildis": "D",
    "status": "Pending",
    "rowid": "1115201",
    "final_x": "3677525.61902",
    "final_y": "544667.567311",
    "longitude": "-90.08016595252089",
    "latitude": "29.99176705750782",
    "geocoded_column": {
      "latitude": "29.99176705750782",
      "longitude": "-90.08016595252089"
    }
  },
  {
    "service_request": "2024-1115200",
    "request_type": "Graffiti Removal",
    "request_reason": "Graffiti Removal",
    "date_created": "2024-07-23T23:08:49.000",
    "date_modified": "2024-07-23T23:08:49.000",
    "request_status": "Pending",
    "responsible_agency": "Department of Code Enforcement",
    "final_address": "1320 N Broad St",
    "address_councildis": "D",
    "status": "Pending",
    "rowid": "1115200",
    "final_x": "3678196.39848",
    "final_y": "538820.420745",
    "longitude": "-90.07824940976504",
    "latitude": "29.975669247509128",
    "geocoded_column": {
      "latitude": "29.975669247509128",
      "longitude": "-90.07824940976504"
    }
  },
  {
    "service_request": "2024-1115199",
    "request_type": "Graffiti Removal",
    "request_reason": "Graffiti Removal",
    "date_created": "2024-07-23T22:59:21.000",
    "date_modified": "2024-07-23T22:59:21.000",
    "request_status": "Pending",
    "responsible_agency": "Department of Code Enforcement",
    "final_address": "3040 Paris Ave",
    "address_councildis": "D",
    "status": "Pending",
    "rowid": "1115199",
    "final_x": "3679754.91752",
    "final_y": "543699.040398",
    "longitude": "-90.07315771877842",
    "latitude": "29.989036721142426",
    "geocoded_column": {
      "latitude": "29.989036721142426",
      "longitude": "-90.07315771877842"
    }
  },
  {
    "service_request": "2024-1115198",
    "request_type": "Property Maintenance",
    "request_reason": "Property Maintenance",
    "date_created": "2024-07-23T22:49:52.000",
    "date_modified": "2024-07-23T22:49:52.000",
    "request_status": "Pending",
    "responsible_agency": "Department of Code Enforcement",
    "final_address": "1725 Paul Morphy St",
    "address_councildis": "D",
    "status": "Pending",
    "rowid": "1115198",
    "final_x": "3679355.5172",
    "final_y": "541184.911756",
    "longitude": "-90.07450654960651",
    "latitude": "29.982135817218385",
    "geocoded_column": {
      "latitude": "29.982135817218385",
      "longitude": "-90.07450654960651"
    }
  },
  {
    "service_request": "2024-1115197",
    "request_type": "Traffic Signals/Signs/Striping/Streetlights",
    "request_reason": "Street Light Knocked Down/Leaning",
    "date_created": "2024-07-23T22:40:39.000",
    "date_modified": "2024-07-23T22:40:40.000",
    "request_status": "Pending",
    "responsible_agency": "Department of Public Works",
    "final_address": "100 BLK N Broad St",
    "address_councildis": "B",
    "status": "Pending",
    "contractor": "Legacy Professional Services",
    "rowid": "1115197",
    "final_x": "3675516.06888",
    "final_y": "535393.128476",
    "longitude": "-90.08683239871802",
    "latitude": "29.966325813707858",
    "geocoded_column": {
      "latitude": "29.966325813707858",
      "longitude": "-90.08683239871802"
    }
  },
  {
    "service_request": "2024-1115196",
    "request_type": "Traffic Signals/Signs/Striping/Streetlights",
    "request_reason": "Traffic Signal Malfunctioning/Damaged",
    "date_created": "2024-07-23T22:33:18.000",
    "date_modified": "2024-07-23T22:33:18.000",
    "request_status": "Pending",
    "responsible_agency": "Department of Public Works",
    "final_address": "2401 S Carrollton Ave",
    "address_councildis": "A",
    "status": "Pending",
    "rowid": "1115196",
    "final_x": "3665055.04538",
    "final_y": "531519.175683",
    "longitude": "-90.1199978141166",
    "latitude": "29.95598247875537",
    "geocoded_column": {
      "latitude": "29.95598247875537",
      "longitude": "-90.1199978141166"
    }
  },
  {
    "service_request": "2024-1115195",
    "request_type": "Traffic Signals/Signs/Striping/Streetlights",
    "request_reason": "Street Light Outage/Malfunction",
    "date_created": "2024-07-23T22:25:18.000",
    "date_modified": "2024-07-23T22:25:19.000",
    "request_status": "Pending",
    "responsible_agency": "Department of Public Works",
    "final_address": "5793 Crowder Blvd",
    "address_councildis": "E",
    "status": "Assigned to Contractor",
    "contractor": "Legacy Professional Services",
    "rowid": "1115195",
    "final_x": "3705176.45751",
    "final_y": "558686.03574",
    "longitude": "-89.9923052780382",
    "latitude": "30.029452002014178",
    "geocoded_column": {
      "latitude": "30.029452002014178",
      "longitude": "-89.9923052780382"
    }
  },
  {
    "service_request": "2024-1115194",
    "request_type": "Property Maintenance",
    "request_reason": "Property Maintenance",
    "date_created": "2024-07-23T22:00:04.000",
    "date_modified": "2024-07-23T22:00:04.000",
    "request_status": "Pending",
    "responsible_agency": "Department of Code Enforcement",
    "final_address": "6143 Milne Blvd",
    "address_councildis": "A",
    "status": "Pending",
    "rowid": "1115194",
    "final_x": "3667173.07341",
    "final_y": "548410.033618",
    "longitude": "-90.11274163780057",
    "latitude": "30.002364812163187",
    "geocoded_column": {
      "latitude": "30.002364812163187",
      "longitude": "-90.11274163780057"
    }
  },
  {
    "service_request": "2024-1115193",
    "request_type": "Mosquito, Termite & Rodent Control",
    "request_reason": "Rodent Complaint (Rats)",
    "date_created": "2024-07-23T20:53:51.000",
    "date_modified": "2024-07-23T20:53:51.000",
    "request_status": "Pending",
    "responsible_agency": "Mosquito, Termite & Rodent Control Board",
    "final_address": "900 Convention Center Blvd",
    "address_councildis": "B",
    "status": "Pending",
    "rowid": "1115193",
    "final_x": "3682754.61621",
    "final_y": "526612.577726",
    "longitude": "-90.0642803209631",
    "latitude": "29.941963775301154",
    "geocoded_column": {
      "latitude": "29.941963775301154",
      "longitude": "-90.0642803209631"
    }
  },
  {
    "service_request": "2024-1115192",
    "request_type": "Trash/Recycling",
    "request_reason": "Replace Recycling Cart",
    "date_created": "2024-07-23T20:51:22.000",
    "date_modified": "2024-07-23T20:51:22.000",
    "request_status": "Pending",
    "responsible_agency": "Department of Sanitation",
    "final_address": "4620 Bienville Ave",
    "address_councildis": "A",
    "status": "Pending",
    "rowid": "1115192",
    "final_x": "3669713.55713",
    "final_y": "540305.195403",
    "longitude": "-90.10499039031016",
    "latitude": "29.980004635608747",
    "geocoded_column": {
      "latitude": "29.980004635608747",
      "longitude": "-90.10499039031016"
    }
  },
  {
    "service_request": "2024-1115191",
    "request_type": "Trash/Recycling",
    "request_reason": "Replace Recycling Cart",
    "date_created": "2024-07-23T20:49:14.000",
    "date_modified": "2024-07-23T20:49:14.000",
    "request_status": "Pending",
    "responsible_agency": "Department of Sanitation",
    "final_address": "4620 Bienville Ave",
    "address_councildis": "A",
    "status": "Pending",
    "rowid": "1115191",
    "final_x": "3669713.55713",
    "final_y": "540305.195403",
    "longitude": "-90.10499039031016",
    "latitude": "29.980004635608747",
    "geocoded_column": {
      "latitude": "29.980004635608747",
      "longitude": "-90.10499039031016"
    }
  },
  {
    "service_request": "2024-1115190",
    "request_type": "Trash/Recycling",
    "request_reason": "Order Recycling Cart",
    "date_created": "2024-07-23T20:34:48.000",
    "date_modified": "2024-07-23T20:34:48.000",
    "request_status": "Pending",
    "responsible_agency": "Department of Sanitation",
    "final_address": "2331 Rousseau St",
    "address_councildis": "B",
    "status": "Pending",
    "rowid": "1115190",
    "final_x": "3679677.49871",
    "final_y": "519916.9998",
    "longitude": "-90.07422772106777",
    "latitude": "29.923646489582143",
    "geocoded_column": {
      "latitude": "29.923646489582143",
      "longitude": "-90.07422772106777"
    }
  },
  {
    "service_request": "2024-1115189",
    "request_type": "Trash/Recycling",
    "request_reason": "Replace Trash Cart",
    "date_created": "2024-07-23T20:33:40.000",
    "date_modified": "2024-07-23T20:33:41.000",
    "request_status": "Pending",
    "responsible_agency": "Department of Sanitation",
    "final_address": "2331 Rousseau St",
    "address_councildis": "B",
    "status": "Assigned to Contractor",
    "contractor": "IV Waste",
    "rowid": "1115189",
    "final_x": "3679677.49871",
    "final_y": "519916.9998",
    "longitude": "-90.07422772106777",
    "latitude": "29.923646489582143",
    "geocoded_column": {
      "latitude": "29.923646489582143",
      "longitude": "-90.07422772106777"
    }
  },
  {
    "service_request": "2024-1115188",
    "request_type": "Abandoned Vehicles",
    "request_reason": "Abandoned/Junk Vehicles",
    "date_created": "2024-07-23T20:18:27.000",
    "date_modified": "2024-07-23T20:18:27.000",
    "request_status": "Pending",
    "responsible_agency": "Department of Public Works",
    "final_address": "8200 Sycamore St",
    "address_councildis": "A",
    "status": "Pending",
    "rowid": "1115188",
    "final_x": "3664000.25005",
    "final_y": "531219.565058",
    "longitude": "-90.12333849959812",
    "latitude": "29.955189316477167",
    "geocoded_column": {
      "latitude": "29.955189316477167",
      "longitude": "-90.12333849959812"
    }
  },
  {
    "service_request": "2024-1115187",
    "request_type": "Safety & Permits",
    "request_reason": "Construction permit",
    "date_created": "2024-07-23T20:01:53.000",
    "date_modified": "2024-07-23T20:01:53.000",
    "request_status": "Pending",
    "responsible_agency": "Safety and Permits",
    "final_address": "336 Hillary St",
    "address_councildis": "A",
    "status": "Pending",
    "rowid": "1115187",
    "final_x": "3661326.12237",
    "final_y": "525064.776253",
    "longitude": "-90.13198621104692",
    "latitude": "29.938342988262605",
    "geocoded_column": {
      "latitude": "29.938342988262605",
      "longitude": "-90.13198621104692"
    }
  },
  {
    "service_request": "2024-1115186",
    "request_type": "Property Maintenance",
    "request_reason": "Property Maintenance",
    "date_created": "2024-07-23T19:59:36.000",
    "date_modified": "2024-07-23T19:59:36.000",
    "request_status": "Pending",
    "responsible_agency": "Department of Code Enforcement",
    "final_address": "1520 S White St",
    "address_councildis": "B",
    "status": "Pending",
    "rowid": "1115186",
    "final_x": "3671265.85275",
    "final_y": "530239.097473",
    "longitude": "-90.10042967017637",
    "latitude": "29.952280388807036",
    "geocoded_column": {
      "latitude": "29.952280388807036",
      "longitude": "-90.10042967017637"
    }
  },
  {
    "service_request": "2024-1115185",
    "request_type": "Trash/Recycling",
    "request_reason": "Missed Trash Pick-Up",
    "date_created": "2024-07-23T19:32:52.000",
    "date_modified": "2024-07-23T19:32:53.000",
    "request_status": "Pending",
    "responsible_agency": "Department of Sanitation",
    "final_address": "7951 Benson St",
    "address_councildis": "E",
    "status": "Assigned to Contractor",
    "contractor": "Waste Pro",
    "rowid": "1115185",
    "final_x": "3703973.06513",
    "final_y": "563445.56048",
    "longitude": "-89.99593240304598",
    "latitude": "30.042577499458787",
    "geocoded_column": {
      "latitude": "30.042577499458787",
      "longitude": "-89.99593240304598"
    }
  },
  {
    "service_request": "2024-1115184",
    "request_type": "Trash/Recycling",
    "request_reason": "Replace Trash Cart",
    "date_created": "2024-07-23T19:29:36.000",
    "date_modified": "2024-07-23T19:29:37.000",
    "request_status": "Pending",
    "responsible_agency": "Department of Sanitation",
    "final_address": "5825 Fontainebleau Dr",
    "address_councildis": "B",
    "status": "Assigned to Contractor",
    "contractor": "IV Waste",
    "rowid": "1115184",
    "final_x": "3668326.61178",
    "final_y": "529916.278593",
    "longitude": "-90.10972135085393",
    "latitude": "29.951479375246524",
    "geocoded_column": {
      "latitude": "29.951479375246524",
      "longitude": "-90.10972135085393"
    }
  },
  {
    "service_request": "2024-1115183",
    "request_type": "Trash/Recycling",
    "request_reason": "Repair Trash Cart",
    "date_created": "2024-07-23T19:16:02.000",
    "date_modified": "2024-07-23T19:16:03.000",
    "request_status": "Pending",
    "responsible_agency": "Department of Sanitation",
    "final_address": "2453 Madrid St",
    "address_councildis": "D",
    "status": "Assigned to Contractor",
    "contractor": "IV Waste",
    "rowid": "1115183",
    "final_x": "3685461.44726",
    "final_y": "555533.309657",
    "longitude": "-90.0547154044085",
    "latitude": "30.021402870972672",
    "geocoded_column": {
      "latitude": "30.021402870972672",
      "longitude": "-90.0547154044085"
    }
  },
  {
    "service_request": "2024-1115182",
    "request_type": "Trash/Recycling",
    "request_reason": "Replace Trash Cart",
    "date_created": "2024-07-23T19:08:57.000",
    "date_modified": "2024-07-23T19:08:58.000",
    "request_status": "Pending",
    "responsible_agency": "Department of Sanitation",
    "final_address": "4120 LaSalle St",
    "address_councildis": "B",
    "status": "Assigned to Contractor",
    "contractor": "IV Waste",
    "rowid": "1115182",
    "final_x": "3671501.56833",
    "final_y": "523758.262715",
    "longitude": "-90.09990566463874",
    "latitude": "29.934453231595125",
    "geocoded_column": {
      "latitude": "29.934453231595125",
      "longitude": "-90.09990566463874"
    }
  },
  {
    "service_request": "2024-1115181",
    "request_type": "Roads/Drainage",
    "request_reason": "Street Flooding / Drainage",
    "date_created": "2024-07-23T19:04:18.000",
    "date_modified": "2024-07-23T19:04:18.000",
    "request_status": "Pending",
    "responsible_agency": "Department of Public Works",
    "final_address": "3301 Loyola Ave",
    "address_councildis": "B",
    "status": "Pending",
    "rowid": "1115181",
    "final_x": "3673673.73793",
    "final_y": "523686.346043",
    "longitude": "-90.09305062729821",
    "latitude": "29.934191012290608",
    "geocoded_column": {
      "latitude": "29.934191012290608",
      "longitude": "-90.09305062729821"
    }
  },
  {
    "service_request": "2024-1115180",
    "request_type": "Trash/Recycling",
    "request_reason": "Request a Large Item Pick Up",
    "date_created": "2024-07-23T19:03:51.000",
    "date_modified": "2024-07-23T19:03:52.000",
    "request_status": "Pending",
    "responsible_agency": "Department of Sanitation",
    "final_address": "4734 Knight Dr",
    "address_councildis": "E",
    "status": "Assigned to Contractor",
    "contractor": "Waste Pro",
    "rowid": "1115180",
    "final_x": "3708066.25566",
    "final_y": "555496.059737",
    "longitude": "-89.98329241774074",
    "latitude": "30.0205875039124",
    "geocoded_column": {
      "latitude": "30.0205875039124",
      "longitude": "-89.98329241774074"
    }
  },
  {
    "service_request": "2024-1115179",
    "request_type": "Trash/Recycling",
    "request_reason": "Request a Large Item Pick Up",
    "date_created": "2024-07-23T19:01:49.000",
    "date_modified": "2024-07-23T19:01:50.000",
    "request_status": "Pending",
    "responsible_agency": "Department of Sanitation",
    "final_address": "11211 N Idlewood Ct, New Orleans, Louisiana, 70128",
    "address_councildis": "E",
    "status": "Assigned to Contractor",
    "contractor": "Waste Pro",
    "rowid": "1115179",
    "final_x": "3716025.86207",
    "final_y": "560277.469149",
    "longitude": "-89.9579613954362",
    "latitude": "30.03347420878148",
    "geocoded_column": {
      "latitude": "30.03347420878148",
      "longitude": "-89.9579613954362"
    }
  },
  {
    "service_request": "2024-1115178",
    "request_type": "Trash/Recycling",
    "request_reason": "Order Recycling Cart",
    "date_created": "2024-07-23T18:45:25.000",
    "date_modified": "2024-07-23T18:45:25.000",
    "request_status": "Pending",
    "responsible_agency": "Department of Sanitation",
    "final_address": "1026 Burgundy St",
    "address_councildis": "C",
    "status": "Pending",
    "rowid": "1115178",
    "final_x": "3682524.0484",
    "final_y": "534160.211461",
    "longitude": "-90.06474444955015",
    "latitude": "29.96272423085476",
    "geocoded_column": {
      "latitude": "29.96272423085476",
      "longitude": "-90.06474444955015"
    }
  },
  {
    "service_request": "2024-1115177",
    "request_type": "Property Maintenance",
    "request_reason": "Property Maintenance",
    "date_created": "2024-07-23T18:27:36.000",
    "date_modified": "2024-07-23T18:27:36.000",
    "request_status": "Pending",
    "responsible_agency": "Department of Code Enforcement",
    "final_address": "204 Fairfax Pl",
    "address_councildis": "C",
    "status": "Pending",
    "rowid": "1115177",
    "final_x": "3706226.78673",
    "final_y": "517505.84575",
    "longitude": "-89.9905112711674",
    "latitude": "29.916187776969036",
    "geocoded_column": {
      "latitude": "29.916187776969036",
      "longitude": "-89.9905112711674"
    }
  },
  {
    "service_request": "2024-1115176",
    "request_type": "Parks & Parkways",
    "request_reason": "Request Tree Service (Right of Way/Public Property)",
    "date_created": "2024-07-23T18:12:30.000",
    "date_modified": "2024-07-23T18:12:30.000",
    "request_status": "Pending",
    "responsible_agency": "Department of Parks & Parkway",
    "final_address": "4238 S Claiborne Ave",
    "address_councildis": "B",
    "status": "Pending",
    "rowid": "1115176",
    "final_x": "3670851.4347",
    "final_y": "525744.757693",
    "longitude": "-90.10189072658652",
    "latitude": "29.939934677312124",
    "geocoded_column": {
      "latitude": "29.939934677312124",
      "longitude": "-90.10189072658652"
    }
  },
  {
    "service_request": "2024-1115175",
    "request_type": "Trash/Recycling",
    "request_reason": "Illegal Dumping",
    "date_created": "2024-07-23T18:11:35.000",
    "date_modified": "2024-07-23T18:11:35.000",
    "request_status": "Pending",
    "responsible_agency": "Department of Sanitation",
    "final_address": "2400 Dumaine St",
    "address_councildis": "D",
    "status": "Pending",
    "rowid": "1115175",
    "final_x": "3678194.76725",
    "final_y": "536680.906823",
    "longitude": "-90.0783285710288",
    "latitude": "29.969786367326638",
    "geocoded_column": {
      "latitude": "29.969786367326638",
      "longitude": "-90.0783285710288"
    }
  },
  {
    "service_request": "2024-1115174",
    "request_type": "Trash/Recycling",
    "request_reason": "Illegal Dumping",
    "date_created": "2024-07-23T18:09:58.000",
    "date_modified": "2024-07-23T18:09:58.000",
    "request_status": "Pending",
    "responsible_agency": "Department of Sanitation",
    "final_address": "2414 St Ann St",
    "address_councildis": "D",
    "status": "Pending",
    "rowid": "1115174",
    "final_x": "3677868.58926",
    "final_y": "536419.755207",
    "longitude": "-90.07936769725389",
    "latitude": "29.969078108763366",
    "geocoded_column": {
      "latitude": "29.969078108763366",
      "longitude": "-90.07936769725389"
    }
  },
  {
    "service_request": "2024-1115173",
    "request_type": "Trash/Recycling",
    "request_reason": "Return Recycling Cart",
    "date_created": "2024-07-23T18:09:25.000",
    "date_modified": "2024-07-23T18:09:25.000",
    "request_status": "Pending",
    "responsible_agency": "Department of Sanitation",
    "final_address": "5415 Bellaire Dr",
    "address_councildis": "A",
    "status": "Pending",
    "rowid": "1115173",
    "final_x": "3664075.03303",
    "final_y": "543747.530894",
    "longitude": "-90.12268439979964",
    "latitude": "29.98963489841442",
    "geocoded_column": {
      "latitude": "29.98963489841442",
      "longitude": "-90.12268439979964"
    }
  },
  {
    "service_request": "2024-1115172",
    "request_type": "Trash/Recycling",
    "request_reason": "Missed Trash Pick-Up",
    "date_created": "2024-07-23T18:08:52.000",
    "date_modified": "2024-07-23T18:08:53.000",
    "request_status": "Pending",
    "responsible_agency": "Department of Sanitation",
    "final_address": "8123 Burthe St",
    "address_councildis": "A",
    "status": "Assigned to Contractor",
    "contractor": "IV Waste",
    "rowid": "1115172",
    "final_x": "3661151.85965",
    "final_y": "527752.619071",
    "longitude": "-90.13244744385328",
    "latitude": "29.94573872547685",
    "geocoded_column": {
      "latitude": "29.94573872547685",
      "longitude": "-90.13244744385328"
    }
  },
  {
    "service_request": "2024-1115171",
    "request_type": "Abandoned Vehicles",
    "request_reason": "Abandoned/Junk Vehicles",
    "date_created": "2024-07-23T18:07:07.000",
    "date_modified": "2024-07-23T18:07:07.000",
    "request_status": "Pending",
    "responsible_agency": "Department of Public Works",
    "final_address": "1301 Kentucky St",
    "address_councildis": "D",
    "status": "Pending",
    "rowid": "1115171",
    "final_x": "3693603.12105",
    "final_y": "535709.983815",
    "longitude": "-90.02970266928355",
    "latitude": "29.96664363639869",
    "geocoded_column": {
      "latitude": "29.96664363639869",
      "longitude": "-90.02970266928355"
    }
  },
  {
    "service_request": "2024-1115170",
    "request_type": "Trash/Recycling",
    "request_reason": "Request a Large Item Pick Up",
    "date_created": "2024-07-23T18:00:53.000",
    "date_modified": "2024-07-23T18:00:54.000",
    "request_status": "Pending",
    "responsible_agency": "Department of Sanitation",
    "final_address": "4500 BLK Rosemont Pl",
    "address_councildis": "E",
    "status": "Assigned to Contractor",
    "contractor": "Waste Pro",
    "rowid": "1115170",
    "final_x": "3702828.60415",
    "final_y": "553775.737709",
    "longitude": "-89.99990496355933",
    "latitude": "30.016025918632",
    "geocoded_column": {
      "latitude": "30.016025918632",
      "longitude": "-89.99990496355933"
    }
  },
  {
    "service_request": "2024-1115169",
    "request_type": "Trash/Recycling",
    "request_reason": "Request a Large Item Pick Up",
    "date_created": "2024-07-23T17:58:53.000",
    "date_modified": "2024-07-23T17:58:54.000",
    "request_status": "Pending",
    "responsible_agency": "Department of Sanitation",
    "final_address": "4500 BLK Rosemont Pl",
    "address_councildis": "E",
    "status": "Assigned to Contractor",
    "contractor": "Waste Pro",
    "rowid": "1115169",
    "final_x": "3702828.60415",
    "final_y": "553775.737709",
    "longitude": "-89.99990496355933",
    "latitude": "30.016025918632",
    "geocoded_column": {
      "latitude": "30.016025918632",
      "longitude": "-89.99990496355933"
    }
  },
  {
    "service_request": "2024-1115168",
    "request_type": "Trash/Recycling",
    "request_reason": "Illegal Dumping",
    "date_created": "2024-07-23T17:57:50.000",
    "date_modified": "2024-07-23T17:57:50.000",
    "request_status": "Pending",
    "responsible_agency": "Department of Sanitation",
    "final_address": "8370 Lake Forest Blvd",
    "address_councildis": "E",
    "status": "Pending",
    "rowid": "1115168",
    "final_x": "3705126.33047",
    "final_y": "557578.049883",
    "longitude": "-89.99250464736014",
    "latitude": "30.026407085389657",
    "geocoded_column": {
      "latitude": "30.026407085389657",
      "longitude": "-89.99250464736014"
    }
  },
  {
    "service_request": "2024-1115167",
    "request_type": "Trash/Recycling",
    "request_reason": "Request a Large Item Pick Up",
    "date_created": "2024-07-23T17:37:37.000",
    "date_modified": "2024-07-23T17:37:38.000",
    "request_status": "Pending",
    "responsible_agency": "Department of Sanitation",
    "final_address": "5244 Prytania St",
    "address_councildis": "B",
    "status": "Assigned to Contractor",
    "contractor": "IV Waste",
    "rowid": "1115167",
    "final_x": "3667752.41223",
    "final_y": "520133.14604",
    "longitude": "-90.11186369222682",
    "latitude": "29.924595751211545",
    "geocoded_column": {
      "latitude": "29.924595751211545",
      "longitude": "-90.11186369222682"
    }
  },
  {
    "service_request": "2024-1115166",
    "request_type": "Trash/Recycling",
    "request_reason": "Request a Large Item Pick Up",
    "date_created": "2024-07-23T17:32:44.000",
    "date_modified": "2024-07-23T17:32:45.000",
    "request_status": "Pending",
    "responsible_agency": "Department of Sanitation",
    "final_address": "5244 Prytania St",
    "address_councildis": "B",
    "status": "Assigned to Contractor",
    "contractor": "IV Waste",
    "rowid": "1115166",
    "final_x": "3667752.41223",
    "final_y": "520133.14604",
    "longitude": "-90.11186369222682",
    "latitude": "29.924595751211545",
    "geocoded_column": {
      "latitude": "29.924595751211545",
      "longitude": "-90.11186369222682"
    }
  },
  {
    "service_request": "2024-1115165",
    "request_type": "Property Maintenance",
    "request_reason": "Property Maintenance",
    "date_created": "2024-07-23T17:21:02.000",
    "date_modified": "2024-07-23T17:21:02.000",
    "request_status": "Pending",
    "responsible_agency": "Department of Code Enforcement",
    "final_address": "1509 Bodenger Blvd",
    "address_councildis": "C",
    "status": "Pending",
    "rowid": "1115165",
    "final_x": "3688442.08476",
    "final_y": "526098.28595",
    "longitude": "-90.0463420662766",
    "latitude": "29.94037521948223",
    "geocoded_column": {
      "latitude": "29.94037521948223",
      "longitude": "-90.0463420662766"
    }
  },
  {
    "service_request": "2024-1115164",
    "request_type": "Trash/Recycling",
    "request_reason": "Request a Large Item Pick Up",
    "date_created": "2024-07-23T17:20:56.000",
    "date_modified": "2024-07-23T17:20:57.000",
    "request_status": "Pending",
    "responsible_agency": "Department of Sanitation",
    "final_address": "3460 Roger Williams St",
    "address_councildis": "D",
    "status": "Assigned to Contractor",
    "contractor": "IV Waste",
    "rowid": "1115164",
    "final_x": "3676341.58939",
    "final_y": "543894.30843",
    "longitude": "-90.08393268752003",
    "latitude": "29.989676418308647",
    "geocoded_column": {
      "latitude": "29.989676418308647",
      "longitude": "-90.08393268752003"
    }
  },
  {
    "service_request": "2024-1115163",
    "request_type": "Roads/Drainage",
    "request_reason": "Catch Basin - Clogged",
    "date_created": "2024-07-23T17:19:13.000",
    "date_modified": "2024-07-23T17:19:13.000",
    "request_status": "Pending",
    "responsible_agency": "Department of Public Works",
    "final_address": "1001 N Salcedo St, New Orleans, Louisiana, 70119",
    "address_councildis": "A",
    "status": "Pending",
    "rowid": "1115163",
    "final_x": "3676185.54965",
    "final_y": "538904.38241",
    "longitude": "-90.08459734599633",
    "latitude": "29.975960522945527",
    "geocoded_column": {
      "latitude": "29.975960522945527",
      "longitude": "-90.08459734599633"
    }
  },
  {
    "service_request": "2024-1115162",
    "request_type": "Trash/Recycling",
    "request_reason": "Request a Large Item Pick Up",
    "date_created": "2024-07-23T17:17:17.000",
    "date_modified": "2024-07-23T17:17:18.000",
    "request_status": "Pending",
    "responsible_agency": "Department of Sanitation",
    "final_address": "3460 Roger Williams St",
    "address_councildis": "D",
    "status": "Assigned to Contractor",
    "contractor": "IV Waste",
    "rowid": "1115162",
    "final_x": "3676341.58939",
    "final_y": "543894.30843",
    "longitude": "-90.08393268752003",
    "latitude": "29.989676418308647",
    "geocoded_column": {
      "latitude": "29.989676418308647",
      "longitude": "-90.08393268752003"
    }
  },
  {
    "service_request": "2024-1115161",
    "request_type": "Trash/Recycling",
    "request_reason": "Replace Recycling Cart",
    "date_created": "2024-07-23T17:17:05.000",
    "date_modified": "2024-07-23T17:17:05.000",
    "request_status": "Pending",
    "responsible_agency": "Department of Sanitation",
    "final_address": "5939 Argonne Blvd",
    "address_councildis": "A",
    "status": "Pending",
    "rowid": "1115161",
    "final_x": "3670177.98388",
    "final_y": "546766.271953",
    "longitude": "-90.10330447237176",
    "latitude": "29.997756682145862",
    "geocoded_column": {
      "latitude": "29.997756682145862",
      "longitude": "-90.10330447237176"
    }
  },
  {
    "service_request": "2024-1115160",
    "request_type": "Roads/Drainage",
    "request_reason": "Street Flooding / Drainage",
    "date_created": "2024-07-23T17:15:42.000",
    "date_modified": "2024-07-23T17:15:42.000",
    "request_status": "Pending",
    "responsible_agency": "Department of Public Works",
    "final_address": "3310 Lancaster St",
    "address_councildis": "C",
    "status": "Pending",
    "rowid": "1115160",
    "final_x": "3709994.41662",
    "final_y": "518538.588151",
    "longitude": "-89.97858071125493",
    "latitude": "29.9189055129541",
    "geocoded_column": {
      "latitude": "29.9189055129541",
      "longitude": "-89.97858071125493"
    }
  },
  {
    "service_request": "2024-1115159",
    "request_type": "Roads/Drainage",
    "request_reason": "Catch Basin - Clogged",
    "date_created": "2024-07-23T17:14:54.000",
    "date_modified": "2024-07-23T17:14:54.000",
    "request_status": "Pending",
    "responsible_agency": "Department of Public Works",
    "final_address": "1032 N Robertson St",
    "address_councildis": "C",
    "status": "Pending",
    "rowid": "1115159",
    "final_x": "3680957.53487",
    "final_y": "535485.376326",
    "longitude": "-90.0696451400005",
    "latitude": "29.966415575923815",
    "geocoded_column": {
      "latitude": "29.966415575923815",
      "longitude": "-90.0696451400005"
    }
  },
  {
    "service_request": "2024-1115158",
    "request_type": "Roads/Drainage",
    "request_reason": "Damaged Sidewalk",
    "date_created": "2024-07-23T17:14:41.000",
    "date_modified": "2024-07-23T17:14:41.000",
    "request_status": "Pending",
    "responsible_agency": "Department of Public Works",
    "final_address": "CHATHAM DR & PRENTISS AVE",
    "address_councildis": "D",
    "status": "Pending",
    "rowid": "1115158",
    "final_x": "3679687.7",
    "final_y": "553456.28",
    "longitude": "-90.07303104942812",
    "latitude": "30.01586768393322",
    "geocoded_column": {
      "latitude": "30.01586768393322",
      "longitude": "-90.07303104942812"
    }
  },
  {
    "service_request": "2024-1115157",
    "request_type": "Roads/Drainage",
    "request_reason": "Pothole",
    "date_created": "2024-07-23T17:12:32.000",
    "date_modified": "2024-07-23T17:12:32.000",
    "request_status": "Pending",
    "responsible_agency": "Department of Public Works",
    "final_address": "8100 BLK Oak St",
    "address_councildis": "A",
    "status": "Pending",
    "rowid": "1115157",
    "final_x": "3661845.44825",
    "final_y": "528480.632787",
    "longitude": "-90.13023340919166",
    "latitude": "29.94772052463341",
    "geocoded_column": {
      "latitude": "29.94772052463341",
      "longitude": "-90.13023340919166"
    }
  },
  {
    "service_request": "2024-1115156",
    "request_type": "Parks & Parkways",
    "request_reason": "Request Tree Service (Right of Way/Public Property)",
    "date_created": "2024-07-23T17:12:10.000",
    "date_modified": "2024-07-23T17:12:10.000",
    "request_status": "Pending",
    "responsible_agency": "Department of Parks & Parkway",
    "final_address": "1654 Prentiss Ave",
    "address_councildis": "D",
    "status": "Pending",
    "rowid": "1115156",
    "final_x": "3679599.91375",
    "final_y": "553400.328599",
    "longitude": "-90.07331035853066",
    "latitude": "30.015716492477274",
    "geocoded_column": {
      "latitude": "30.015716492477274",
      "longitude": "-90.07331035853066"
    }
  },
  {
    "service_request": "2024-1115155",
    "request_type": "Trash/Recycling",
    "request_reason": "Illegal Dumping",
    "date_created": "2024-07-23T17:11:40.000",
    "date_modified": "2024-07-23T17:11:40.000",
    "request_status": "Pending",
    "responsible_agency": "Department of Sanitation",
    "final_address": "7313 Chef Menteur Hwy",
    "address_councildis": "E",
    "status": "Pending",
    "rowid": "1115155",
    "final_x": "3702132.30871",
    "final_y": "552491.597206",
    "longitude": "-90.00215206828244",
    "latitude": "30.012517282782703",
    "geocoded_column": {
      "latitude": "30.012517282782703",
      "longitude": "-90.00215206828244"
    }
  },
  {
    "service_request": "2024-1115154",
    "request_type": "Roads/Drainage",
    "request_reason": "Pothole",
    "date_created": "2024-07-23T17:10:44.000",
    "date_modified": "2024-07-23T17:10:44.000",
    "request_status": "Pending",
    "responsible_agency": "Department of Public Works",
    "final_address": "6040 Mandeville St",
    "address_councildis": "D",
    "status": "Pending",
    "rowid": "1115154",
    "final_x": "3684190.96265",
    "final_y": "555345.186905",
    "longitude": "-90.05873639451029",
    "latitude": "30.020924523221098",
    "geocoded_column": {
      "latitude": "30.020924523221098",
      "longitude": "-90.05873639451029"
    }
  },
  {
    "service_request": "2024-1115153",
    "request_type": "Roads/Drainage",
    "request_reason": "Pothole",
    "date_created": "2024-07-23T17:09:49.000",
    "date_modified": "2024-07-23T17:09:49.000",
    "request_status": "Pending",
    "responsible_agency": "Department of Public Works",
    "final_address": "8100 BLK Oak St",
    "address_councildis": "A",
    "status": "Pending",
    "rowid": "1115153",
    "final_x": "3661845.44825",
    "final_y": "528480.632787",
    "longitude": "-90.13023340919166",
    "latitude": "29.94772052463341",
    "geocoded_column": {
      "latitude": "29.94772052463341",
      "longitude": "-90.13023340919166"
    }
  },
  {
    "service_request": "2024-1115152",
    "request_type": "Property Maintenance",
    "request_reason": "Property Maintenance",
    "date_created": "2024-07-23T17:07:26.000",
    "date_modified": "2024-07-23T17:07:26.000",
    "request_status": "Pending",
    "responsible_agency": "Department of Code Enforcement",
    "final_address": "2313 Madrid St",
    "address_councildis": "D",
    "status": "Pending",
    "rowid": "1115152",
    "final_x": "3684393.70581",
    "final_y": "555498.462105",
    "longitude": "-90.05809039563871",
    "latitude": "30.02133977086682",
    "geocoded_column": {
      "latitude": "30.02133977086682",
      "longitude": "-90.05809039563871"
    }
  },
  {
    "service_request": "2024-1115151",
    "request_type": "Traffic Signals/Signs/Striping/Streetlights",
    "request_reason": "Street Light Outage/Malfunction",
    "date_created": "2024-07-23T17:05:46.000",
    "date_modified": "2024-07-23T17:05:47.000",
    "request_status": "Pending",
    "responsible_agency": "Department of Public Works",
    "final_address": "1625 Joseph St",
    "address_councildis": "A",
    "status": "Assigned to Contractor",
    "contractor": "Legacy Professional Services",
    "rowid": "1115151",
    "final_x": "3666927.67655",
    "final_y": "522129.349882",
    "longitude": "-90.11440008081586",
    "latitude": "29.930108828242663",
    "geocoded_column": {
      "latitude": "29.930108828242663",
      "longitude": "-90.11440008081586"
    }
  },
  {
    "service_request": "2024-1115150",
    "request_type": "Trash/Recycling",
    "request_reason": "Return Trash Cart",
    "date_created": "2024-07-23T17:05:22.000",
    "date_modified": "2024-07-23T17:05:23.000",
    "request_status": "Pending",
    "responsible_agency": "Department of Sanitation",
    "final_address": "12 Hawk St",
    "address_councildis": "D",
    "status": "Assigned to Contractor",
    "contractor": "IV Waste",
    "rowid": "1115150",
    "final_x": "3672195.74017",
    "final_y": "555677.265049",
    "longitude": "-90.09662659266958",
    "latitude": "30.02219905110282",
    "geocoded_column": {
      "latitude": "30.02219905110282",
      "longitude": "-90.09662659266958"
    }
  },
  {
    "service_request": "2024-1115148",
    "request_type": "Trash/Recycling",
    "request_reason": "Replace Trash Cart",
    "date_created": "2024-07-23T17:00:01.000",
    "date_modified": "2024-07-23T17:00:02.000",
    "request_status": "Pending",
    "responsible_agency": "Department of Sanitation",
    "final_address": "1000 BLK Kerlerec St",
    "address_councildis": "C",
    "status": "Assigned to Contractor",
    "contractor": "IV Waste",
    "rowid": "1115148",
    "final_x": "3683251.46581",
    "final_y": "535471.363228",
    "longitude": "-90.06240143920553",
    "latitude": "29.966307282916365",
    "geocoded_column": {
      "latitude": "29.966307282916365",
      "longitude": "-90.06240143920553"
    }
  },
  {
    "service_request": "2024-1115147",
    "request_type": "Trash/Recycling",
    "request_reason": "Repair Trash Cart",
    "date_created": "2024-07-23T16:57:28.000",
    "date_modified": "2024-07-23T16:57:29.000",
    "request_status": "Pending",
    "responsible_agency": "Department of Sanitation",
    "final_address": "7715 Hickman St",
    "address_councildis": "E",
    "status": "Assigned to Contractor",
    "contractor": "Waste Pro",
    "rowid": "1115147",
    "final_x": "3706059.66929",
    "final_y": "563620.772833",
    "longitude": "-89.98933146453597",
    "latitude": "30.0429921334462",
    "geocoded_column": {
      "latitude": "30.0429921334462",
      "longitude": "-89.98933146453597"
    }
  },
  {
    "service_request": "2024-1115146",
    "request_type": "Property Maintenance",
    "request_reason": "Property Maintenance",
    "date_created": "2024-07-23T16:54:14.000",
    "date_modified": "2024-07-23T16:54:15.000",
    "request_status": "Pending",
    "responsible_agency": "Department of Code Enforcement",
    "final_address": "9003 Fig St",
    "address_councildis": "A",
    "status": "Pending",
    "rowid": "1115146",
    "final_x": "3663942.18503",
    "final_y": "535339.756102",
    "longitude": "-90.12338446872319",
    "latitude": "29.96652018130879",
    "geocoded_column": {
      "latitude": "29.96652018130879",
      "longitude": "-90.12338446872319"
    }
  },
  {
    "service_request": "2024-1115145",
    "request_type": "Trash/Recycling",
    "request_reason": "MIssed Recycling Pick-Up",
    "date_created": "2024-07-23T16:48:46.000",
    "date_modified": "2024-07-23T16:48:47.000",
    "request_status": "Pending",
    "responsible_agency": "Department of Sanitation",
    "final_address": "2251 Cambronne St",
    "address_councildis": "A",
    "status": "Assigned to Contractor",
    "contractor": "IV Waste",
    "rowid": "1115145",
    "final_x": "3663838.73095",
    "final_y": "531975.581827",
    "longitude": "-90.123823320781",
    "latitude": "29.957272805862658",
    "geocoded_column": {
      "latitude": "29.957272805862658",
      "longitude": "-90.123823320781"
    }
  },
  {
    "service_request": "2024-1115144",
    "request_type": "Roads/Drainage",
    "request_reason": "Street Flooding / Drainage",
    "date_created": "2024-07-23T16:41:21.000",
    "date_modified": "2024-07-23T16:41:21.000",
    "request_status": "Pending",
    "responsible_agency": "Department of Public Works",
    "final_address": "614 N Salcedo St",
    "address_councildis": "A",
    "status": "Pending",
    "rowid": "1115144",
    "final_x": "3675292.37461",
    "final_y": "537600.147272",
    "longitude": "-90.0874630404143",
    "latitude": "29.972401055779482",
    "geocoded_column": {
      "latitude": "29.972401055779482",
      "longitude": "-90.0874630404143"
    }
  },
  {
    "service_request": "2024-1115143",
    "request_type": "Trash/Recycling",
    "request_reason": "Illegal Dumping",
    "date_created": "2024-07-23T16:38:59.000",
    "date_modified": "2024-07-23T16:38:59.000",
    "request_status": "Pending",
    "responsible_agency": "Department of Sanitation",
    "final_address": "811 N Prieur St",
    "address_councildis": "D",
    "status": "Pending",
    "rowid": "1115143",
    "final_x": "3679168.27714",
    "final_y": "535652.589254",
    "longitude": "-90.0752897923092",
    "latitude": "29.966929491523672",
    "geocoded_column": {
      "latitude": "29.966929491523672",
      "longitude": "-90.0752897923092"
    }
  },
  {
    "service_request": "2024-1115142",
    "request_type": "Property Maintenance",
    "request_reason": "Property Maintenance",
    "date_created": "2024-07-23T16:38:39.000",
    "date_modified": "2024-07-23T16:38:39.000",
    "request_status": "Pending",
    "responsible_agency": "Department of Code Enforcement",
    "final_address": "2121 Comet St",
    "address_councildis": "C",
    "status": "Pending",
    "rowid": "1115142",
    "final_x": "3700170.26832",
    "final_y": "523291.562555",
    "longitude": "-90.0094169200436",
    "latitude": "29.932290284622766",
    "geocoded_column": {
      "latitude": "29.932290284622766",
      "longitude": "-90.0094169200436"
    }
  },
  {
    "service_request": "2024-1115141",
    "request_type": "Trash/Recycling",
    "request_reason": "Return Trash Cart",
    "date_created": "2024-07-23T16:37:05.000",
    "date_modified": "2024-07-23T16:37:06.000",
    "request_status": "Pending",
    "responsible_agency": "Department of Sanitation",
    "final_address": "6254 Kuebel Dr",
    "address_councildis": "E",
    "status": "Assigned to Contractor",
    "contractor": "Waste Pro",
    "rowid": "1115141",
    "final_x": "3695867.10435",
    "final_y": "559926.455645",
    "longitude": "-90.02167764310424",
    "latitude": "30.03315897192916",
    "geocoded_column": {
      "latitude": "30.03315897192916",
      "longitude": "-90.02167764310424"
    }
  },
  {
    "service_request": "2024-1115140",
    "request_type": "Roads/Drainage",
    "request_reason": "Catch Basin - Broken/Damage",
    "date_created": "2024-07-23T16:34:27.000",
    "date_modified": "2024-07-23T16:34:27.000",
    "request_status": "Pending",
    "responsible_agency": "Department of Public Works",
    "final_address": "2646 Piety St",
    "address_councildis": "D",
    "status": "Pending",
    "rowid": "1115140",
    "final_x": "3691313.58294",
    "final_y": "541826.631692",
    "longitude": "-90.03671440588731",
    "latitude": "29.983533671119613",
    "geocoded_column": {
      "latitude": "29.983533671119613",
      "longitude": "-90.03671440588731"
    }
  },
  {
    "service_request": "2024-1115139",
    "request_type": "Property Maintenance",
    "request_reason": "Property Maintenance",
    "date_created": "2024-07-23T16:33:40.000",
    "date_modified": "2024-07-23T16:33:40.000",
    "request_status": "Pending",
    "responsible_agency": "Department of Code Enforcement",
    "final_address": "1400 BLK N Broad St",
    "address_councildis": "A",
    "status": "Pending",
    "rowid": "1115139",
    "final_x": "3678466.81331",
    "final_y": "539363.425326",
    "longitude": "-90.07737656658465",
    "latitude": "29.97715417576759",
    "geocoded_column": {
      "latitude": "29.97715417576759",
      "longitude": "-90.07737656658465"
    }
  },
  {
    "service_request": "2024-1115138",
    "request_type": "Parks & Parkways",
    "request_reason": "Request Tree Service (Right of Way/Public Property)",
    "date_created": "2024-07-23T16:32:06.000",
    "date_modified": "2024-07-23T16:32:07.000",
    "request_status": "Pending",
    "responsible_agency": "Department of Parks & Parkway",
    "final_address": "1240 Kabel Dr",
    "address_councildis": "C",
    "status": "Pending",
    "rowid": "1115138",
    "final_x": "3700854.93764",
    "final_y": "522949.754235",
    "longitude": "-90.0072679857564",
    "latitude": "29.931328660634737",
    "geocoded_column": {
      "latitude": "29.931328660634737",
      "longitude": "-90.0072679857564"
    }
  },
  {
    "service_request": "2024-1115137",
    "request_type": "Trash/Recycling",
    "request_reason": "Request a Large Item Pick Up",
    "date_created": "2024-07-23T16:30:14.000",
    "date_modified": "2024-07-23T16:30:15.000",
    "request_status": "Pending",
    "responsible_agency": "Department of Sanitation",
    "final_address": "7325 Sycamore St",
    "address_councildis": "A",
    "status": "Assigned to Contractor",
    "contractor": "IV Waste",
    "rowid": "1115137",
    "final_x": "3665769.09658",
    "final_y": "529789.572865",
    "longitude": "-90.11780101427084",
    "latitude": "29.95120582402513",
    "geocoded_column": {
      "latitude": "29.95120582402513",
      "longitude": "-90.11780101427084"
    }
  },
  {
    "service_request": "2024-1115136",
    "request_type": "Roads/Drainage",
    "request_reason": "Pothole",
    "date_created": "2024-07-23T16:26:42.000",
    "date_modified": "2024-07-23T16:26:42.000",
    "request_status": "Pending",
    "responsible_agency": "Department of Public Works",
    "final_address": "4216 Chestnut St",
    "address_councildis": "B",
    "status": "Pending",
    "rowid": "1115136",
    "final_x": "3671574.31393",
    "final_y": "519539.203703",
    "longitude": "-90.09981939416457",
    "latitude": "29.922850019854593",
    "geocoded_column": {
      "latitude": "29.922850019854593",
      "longitude": "-90.09981939416457"
    }
  },
  {
    "service_request": "2024-1115135",
    "request_type": "Roads/Drainage",
    "request_reason": "Pothole",
    "date_created": "2024-07-23T16:26:11.000",
    "date_modified": "2024-07-23T16:26:11.000",
    "request_status": "Pending",
    "responsible_agency": "Department of Public Works",
    "final_address": "1112 Constantinople St",
    "address_councildis": "B",
    "status": "Pending",
    "rowid": "1115135",
    "final_x": "3672348.95259",
    "final_y": "519796.384952",
    "longitude": "-90.09736540233975",
    "latitude": "29.923534233550217",
    "geocoded_column": {
      "latitude": "29.923534233550217",
      "longitude": "-90.09736540233975"
    }
  },
  {
    "service_request": "2024-1115134",
    "request_type": "Trash/Recycling",
    "request_reason": "Request a Large Item Pick Up",
    "date_created": "2024-07-23T16:22:50.000",
    "date_modified": "2024-07-23T16:22:51.000",
    "request_status": "Pending",
    "responsible_agency": "Department of Sanitation",
    "final_address": "60 Yosemite Dr",
    "address_councildis": "C",
    "status": "Assigned to Contractor",
    "contractor": "Richards Disposal",
    "rowid": "1115134",
    "final_x": "3699738.33597",
    "final_y": "516500.445045",
    "longitude": "-90.01102788677301",
    "latitude": "29.91363075398537",
    "geocoded_column": {
      "latitude": "29.91363075398537",
      "longitude": "-90.01102788677301"
    }
  },
  {
    "service_request": "2024-1115133",
    "request_type": "Property Maintenance",
    "request_reason": "Property Maintenance",
    "date_created": "2024-07-23T16:21:59.000",
    "date_modified": "2024-07-23T16:21:59.000",
    "request_status": "Pending",
    "responsible_agency": "Department of Code Enforcement",
    "final_address": "930 Seventh St",
    "address_councildis": "B",
    "status": "Pending",
    "rowid": "1115133",
    "final_x": "3676590.08955",
    "final_y": "519955.903224",
    "longitude": "-90.08397220580974",
    "latitude": "29.923846385762214",
    "geocoded_column": {
      "latitude": "29.923846385762214",
      "longitude": "-90.08397220580974"
    }
  },
  {
    "service_request": "2024-1115132",
    "request_type": "Trash/Recycling",
    "request_reason": "Repair Trash Cart",
    "date_created": "2024-07-23T16:21:44.000",
    "date_modified": "2024-07-23T16:21:45.000",
    "request_status": "Pending",
    "responsible_agency": "Department of Sanitation",
    "final_address": "3431 Dryades St",
    "address_councildis": "B",
    "status": "Assigned to Contractor",
    "contractor": "IV Waste",
    "rowid": "1115132",
    "final_x": "3673488.47892",
    "final_y": "522470.985338",
    "longitude": "-90.09367699466509",
    "latitude": "29.93085467654048",
    "geocoded_column": {
      "latitude": "29.93085467654048",
      "longitude": "-90.09367699466509"
    }
  },
  {
    "service_request": "2024-1115131",
    "request_type": "Trash/Recycling",
    "request_reason": "Repair Trash Cart",
    "date_created": "2024-07-23T16:19:56.000",
    "date_modified": "2024-07-23T16:19:57.000",
    "request_status": "Pending",
    "responsible_agency": "Department of Sanitation",
    "final_address": "8639 Nelson St",
    "address_councildis": "A",
    "status": "Assigned to Contractor",
    "contractor": "IV Waste",
    "rowid": "1115131",
    "final_x": "3663602.7968",
    "final_y": "533275.17818",
    "longitude": "-90.1245250400697",
    "latitude": "29.960853118178555",
    "geocoded_column": {
      "latitude": "29.960853118178555",
      "longitude": "-90.1245250400697"
    }
  },
  {
    "service_request": "2024-1115130",
    "request_type": "Trash/Recycling",
    "request_reason": "Request a Large Item Pick Up",
    "date_created": "2024-07-23T16:14:16.000",
    "date_modified": "2024-07-23T16:14:17.000",
    "request_status": "Pending",
    "responsible_agency": "Department of Sanitation",
    "final_address": "7914 Hickman St",
    "address_councildis": "E",
    "status": "Assigned to Contractor",
    "contractor": "Waste Pro",
    "rowid": "1115130",
    "final_x": "3705629.15633",
    "final_y": "564097.620193",
    "longitude": "-89.99067439221129",
    "latitude": "30.044317151993784",
    "geocoded_column": {
      "latitude": "30.044317151993784",
      "longitude": "-89.99067439221129"
    }
  },
  {
    "service_request": "2024-1115128",
    "request_type": "Trash/Recycling",
    "request_reason": "Repair Trash Cart",
    "date_created": "2024-07-23T15:55:10.000",
    "date_modified": "2024-07-23T15:55:11.000",
    "request_status": "Pending",
    "responsible_agency": "Department of Sanitation",
    "final_address": "5108 Wentworth Dr",
    "address_councildis": "E",
    "status": "Assigned to Contractor",
    "contractor": "Waste Pro",
    "rowid": "1115128",
    "final_x": "3704824.73982",
    "final_y": "556666.839066",
    "longitude": "-89.99349129965633",
    "latitude": "30.02391130946168",
    "geocoded_column": {
      "latitude": "30.02391130946168",
      "longitude": "-89.99349129965633"
    }
  },
  {
    "service_request": "2024-1115126",
    "request_type": "Traffic Signals/Signs/Striping/Streetlights",
    "request_reason": "Street Light Outage/Malfunction",
    "date_created": "2024-07-23T15:54:45.000",
    "date_modified": "2024-07-23T15:54:46.000",
    "request_status": "Pending",
    "responsible_agency": "Department of Public Works",
    "final_address": "4532 Marque Dr",
    "address_councildis": "E",
    "status": "Assigned to Contractor",
    "contractor": "Legacy Professional Services",
    "rowid": "1115126",
    "final_x": "3710135.85374",
    "final_y": "554390.17532",
    "longitude": "-89.97679453838664",
    "latitude": "30.01747954312944",
    "geocoded_column": {
      "latitude": "30.01747954312944",
      "longitude": "-89.97679453838664"
    }
  },
  {
    "service_request": "2024-1115125",
    "request_type": "Trash/Recycling",
    "request_reason": "Repair Trash Cart",
    "date_created": "2024-07-23T15:54:34.000",
    "date_modified": "2024-07-23T15:54:35.000",
    "request_status": "Pending",
    "responsible_agency": "Department of Sanitation",
    "final_address": "4876 Brittany Ct",
    "address_councildis": "E",
    "status": "Assigned to Contractor",
    "contractor": "Waste Pro",
    "rowid": "1115125",
    "final_x": "3726739.09779",
    "final_y": "561927.827935",
    "longitude": "-89.92404277368108",
    "latitude": "30.03765408197709",
    "geocoded_column": {
      "latitude": "30.03765408197709",
      "longitude": "-89.92404277368108"
    }
  },
  {
    "service_request": "2024-1115124",
    "request_type": "Trash/Recycling",
    "request_reason": "Request a Large Item Pick Up",
    "date_created": "2024-07-23T15:51:39.000",
    "date_modified": "2024-07-23T15:51:40.000",
    "request_status": "Pending",
    "responsible_agency": "Department of Sanitation",
    "final_address": "316 Burdette St",
    "address_councildis": "A",
    "status": "Assigned to Contractor",
    "contractor": "IV Waste",
    "rowid": "1115124",
    "final_x": "3660744.12019",
    "final_y": "525419.077117",
    "longitude": "-90.13381194888429",
    "latitude": "29.939333969268738",
    "geocoded_column": {
      "latitude": "29.939333969268738",
      "longitude": "-90.13381194888429"
    }
  },
  {
    "service_request": "2024-1115123",
    "request_type": "Roads/Drainage",
    "request_reason": "Damaged Sidewalk",
    "date_created": "2024-07-23T15:45:43.000",
    "date_modified": "2024-07-23T15:45:43.000",
    "request_status": "Pending",
    "responsible_agency": "Department of Public Works",
    "final_address": "6023 Congress Dr",
    "address_councildis": "D",
    "status": "Pending",
    "rowid": "1115123",
    "final_x": "3690867.32355",
    "final_y": "556059.259033",
    "longitude": "-90.03761558187274",
    "latitude": "30.022682060903612",
    "geocoded_column": {
      "latitude": "30.022682060903612",
      "longitude": "-90.03761558187274"
    }
  },
  {
    "service_request": "2024-1115122",
    "request_type": "Roads/Drainage",
    "request_reason": "Damaged Sidewalk",
    "date_created": "2024-07-23T15:45:22.000",
    "date_modified": "2024-07-23T15:45:22.000",
    "request_status": "Pending",
    "responsible_agency": "Department of Public Works",
    "final_address": "6011 Congress Dr",
    "address_councildis": "D",
    "status": "Pending",
    "rowid": "1115122",
    "final_x": "3690941.01801",
    "final_y": "555990.805273",
    "longitude": "-90.03738517170748",
    "latitude": "30.022491547134365",
    "geocoded_column": {
      "latitude": "30.022491547134365",
      "longitude": "-90.03738517170748"
    }
  },
  {
    "service_request": "2024-1115121",
    "request_type": "Roads/Drainage",
    "request_reason": "Damaged Sidewalk",
    "date_created": "2024-07-23T15:45:05.000",
    "date_modified": "2024-07-23T15:45:06.000",
    "request_status": "Pending",
    "responsible_agency": "Department of Public Works",
    "final_address": "6011 Congress Dr",
    "address_councildis": "D",
    "status": "Pending",
    "rowid": "1115121",
    "final_x": "3690941.01801",
    "final_y": "555990.805273",
    "longitude": "-90.03738517170748",
    "latitude": "30.022491547134365",
    "geocoded_column": {
      "latitude": "30.022491547134365",
      "longitude": "-90.03738517170748"
    }
  },
  {
    "service_request": "2024-1115120",
    "request_type": "Trash/Recycling",
    "request_reason": "Order Recycling Cart",
    "date_created": "2024-07-23T15:44:13.000",
    "date_modified": "2024-07-23T15:44:13.000",
    "request_status": "Pending",
    "responsible_agency": "Department of Sanitation",
    "final_address": "1201 Coliseum St Apt 2A",
    "address_councildis": "B",
    "status": "Pending",
    "rowid": "1115120",
    "final_x": "3680127.81979",
    "final_y": "525631.871869",
    "longitude": "-90.07260773870934",
    "latitude": "29.939346893627235",
    "geocoded_column": {
      "latitude": "29.939346893627235",
      "longitude": "-90.07260773870934"
    }
  },
  {
    "service_request": "2024-1115119",
    "request_type": "Trash/Recycling",
    "request_reason": "Order Trash Cart",
    "date_created": "2024-07-23T15:42:01.000",
    "date_modified": "2024-07-23T15:42:02.000",
    "request_status": "Pending",
    "responsible_agency": "Department of Sanitation",
    "final_address": "7447 St Charles Ave",
    "address_councildis": "A",
    "status": "Assigned to Contractor",
    "contractor": "IV Waste",
    "rowid": "1115119",
    "final_x": "3662317.1465",
    "final_y": "525399.170301",
    "longitude": "-90.12884633833542",
    "latitude": "29.93923385867505",
    "geocoded_column": {
      "latitude": "29.93923385867505",
      "longitude": "-90.12884633833542"
    }
  },
  {
    "service_request": "2024-1115118",
    "request_type": "Trash/Recycling",
    "request_reason": "Replace Trash Cart",
    "date_created": "2024-07-23T15:40:06.000",
    "date_modified": "2024-07-23T15:40:07.000",
    "request_status": "Pending",
    "responsible_agency": "Department of Sanitation",
    "final_address": "7901 Means Ave",
    "address_councildis": "E",
    "status": "Assigned to Contractor",
    "contractor": "Waste Pro",
    "rowid": "1115118",
    "final_x": "3707697.22276",
    "final_y": "565496.02141",
    "longitude": "-89.9840863831204",
    "latitude": "30.04809540252796",
    "geocoded_column": {
      "latitude": "30.04809540252796",
      "longitude": "-89.9840863831204"
    }
  },
  {
    "service_request": "2024-1115117",
    "request_type": "Trash/Recycling",
    "request_reason": "Replace Recycling Cart",
    "date_created": "2024-07-23T15:39:21.000",
    "date_modified": "2024-07-23T15:39:22.000",
    "request_status": "Pending",
    "responsible_agency": "Department of Sanitation",
    "final_address": "7901 Means Ave",
    "address_councildis": "E",
    "status": "Pending",
    "rowid": "1115117",
    "final_x": "3707697.22276",
    "final_y": "565496.02141",
    "longitude": "-89.9840863831204",
    "latitude": "30.04809540252796",
    "geocoded_column": {
      "latitude": "30.04809540252796",
      "longitude": "-89.9840863831204"
    }
  },
  {
    "service_request": "2024-1115116",
    "request_type": "Trash/Recycling",
    "request_reason": "Request a Large Item Pick Up",
    "date_created": "2024-07-23T15:37:08.000",
    "date_modified": "2024-07-23T15:37:09.000",
    "request_status": "Pending",
    "responsible_agency": "Department of Sanitation",
    "final_address": "4428 Constance St",
    "address_councildis": "B",
    "status": "Assigned to Contractor",
    "contractor": "IV Waste",
    "rowid": "1115116",
    "final_x": "3670797.62561",
    "final_y": "518343.355254",
    "longitude": "-90.10231165481648",
    "latitude": "29.919584784086783",
    "geocoded_column": {
      "latitude": "29.919584784086783",
      "longitude": "-90.10231165481648"
    }
  },
  {
    "service_request": "2024-1115115",
    "request_type": "Property Maintenance",
    "request_reason": "Property Maintenance",
    "date_created": "2024-07-23T15:35:28.000",
    "date_modified": "2024-07-23T15:35:28.000",
    "request_status": "Pending",
    "responsible_agency": "Department of Code Enforcement",
    "final_address": "5637 Chartres St",
    "address_councildis": "E",
    "status": "Pending",
    "rowid": "1115115",
    "final_x": "3697797.20631",
    "final_y": "531896.137283",
    "longitude": "-90.0165962587321",
    "latitude": "29.956025043125535",
    "geocoded_column": {
      "latitude": "29.956025043125535",
      "longitude": "-90.0165962587321"
    }
  },
  {
    "service_request": "2024-1115114",
    "request_type": "Utility Poles",
    "request_reason": "Utility Pole Leaning",
    "date_created": "2024-07-23T15:34:45.000",
    "date_modified": "2024-07-23T15:34:48.000",
    "request_status": "Pending",
    "responsible_agency": "Utility Company Collective",
    "final_address": "3901 Coliseum St",
    "address_councildis": "B",
    "status": "Pending",
    "rowid": "1115114",
    "final_x": "3672800.42113",
    "final_y": "520042.70668",
    "longitude": "-90.09593188416397",
    "latitude": "29.924198141358563",
    "geocoded_column": {
      "latitude": "29.924198141358563",
      "longitude": "-90.09593188416397"
    }
  },
  {
    "service_request": "2024-1115113",
    "request_type": "Trash/Recycling",
    "request_reason": "Repair Trash Cart",
    "date_created": "2024-07-23T15:34:03.000",
    "date_modified": "2024-07-23T15:34:04.000",
    "request_status": "Pending",
    "responsible_agency": "Department of Sanitation",
    "final_address": "4438 Canal St",
    "address_councildis": "A",
    "status": "Assigned to Contractor",
    "contractor": "IV Waste",
    "rowid": "1115113",
    "final_x": "3669693.35796",
    "final_y": "539299.658826",
    "longitude": "-90.1050882309143",
    "latitude": "29.977240345709724",
    "geocoded_column": {
      "latitude": "29.977240345709724",
      "longitude": "-90.1050882309143"
    }
  },
  {
    "service_request": "2024-1115112",
    "request_type": "Trash/Recycling",
    "request_reason": "Repair Trash Cart",
    "date_created": "2024-07-23T15:33:52.000",
    "date_modified": "2024-07-23T15:33:53.000",
    "request_status": "Pending",
    "responsible_agency": "Department of Sanitation",
    "final_address": "8610 Pontchartrain Blvd",
    "address_councildis": "A",
    "status": "Assigned to Contractor",
    "contractor": "IV Waste",
    "rowid": "1115112",
    "final_x": "3666502.37108",
    "final_y": "555742.875289",
    "longitude": "-90.11461408964412",
    "latitude": "30.022547188509336",
    "geocoded_column": {
      "latitude": "30.022547188509336",
      "longitude": "-90.11461408964412"
    }
  },
  {
    "service_request": "2024-1115111",
    "request_type": "Traffic Signals/Signs/Striping/Streetlights",
    "request_reason": "Street Light Outage/Malfunction",
    "date_created": "2024-07-23T15:31:41.000",
    "date_modified": "2024-07-23T15:31:42.000",
    "request_status": "Pending",
    "responsible_agency": "Department of Public Works",
    "final_address": "900 BLK Broadway St",
    "address_councildis": "A",
    "status": "Assigned to Contractor",
    "contractor": "Legacy Professional Services",
    "rowid": "1115111",
    "final_x": "3663684.41275",
    "final_y": "525745.078547",
    "longitude": "-90.12451816642954",
    "latitude": "29.940145405782477",
    "geocoded_column": {
      "latitude": "29.940145405782477",
      "longitude": "-90.12451816642954"
    }
  },
  {
    "service_request": "2024-1115110",
    "request_type": "Trash/Recycling",
    "request_reason": "Repair Recycling Cart",
    "date_created": "2024-07-23T15:30:51.000",
    "date_modified": "2024-07-23T15:30:52.000",
    "request_status": "Pending",
    "responsible_agency": "Department of Sanitation",
    "final_address": "1500 Leda St",
    "address_councildis": "A",
    "status": "Pending",
    "rowid": "1115110",
    "final_x": "3675673.84379",
    "final_y": "541502.82766",
    "longitude": "-90.08612413540982",
    "latitude": "29.983120678006042",
    "geocoded_column": {
      "latitude": "29.983120678006042",
      "longitude": "-90.08612413540982"
    }
  },
  {
    "service_request": "2024-1115109",
    "request_type": "Traffic Signals/Signs/Striping/Streetlights",
    "request_reason": "Street Light Outage/Malfunction",
    "date_created": "2024-07-23T15:30:23.000",
    "date_modified": "2024-07-23T15:30:24.000",
    "request_status": "Pending",
    "responsible_agency": "Department of Public Works",
    "final_address": "1523 Broadway St",
    "address_councildis": "A",
    "status": "Assigned to Contractor",
    "contractor": "Legacy Professional Services",
    "rowid": "1115109",
    "final_x": "3664930.00244",
    "final_y": "527516.074047",
    "longitude": "-90.12052645008423",
    "latitude": "29.94497888485074",
    "geocoded_column": {
      "latitude": "29.94497888485074",
      "longitude": "-90.12052645008423"
    }
  },
  {
    "service_request": "2024-1115108",
    "request_type": "Roads/Drainage",
    "request_reason": "Pothole",
    "date_created": "2024-07-23T15:28:27.000",
    "date_modified": "2024-07-23T15:28:27.000",
    "request_status": "Pending",
    "responsible_agency": "Department of Public Works",
    "final_address": "4911 Press Dr",
    "address_councildis": "D",
    "status": "Pending",
    "rowid": "1115108",
    "final_x": "3689617.90633",
    "final_y": "551419.177301",
    "longitude": "-90.04172870370233",
    "latitude": "30.00996234562915",
    "geocoded_column": {
      "latitude": "30.00996234562915",
      "longitude": "-90.04172870370233"
    }
  },
  {
    "service_request": "2024-1115107",
    "request_type": "Traffic Signals/Signs/Striping/Streetlights",
    "request_reason": "Traffic Sign Missing/Damaged",
    "date_created": "2024-07-23T15:28:16.000",
    "date_modified": "2024-07-23T15:28:16.000",
    "request_status": "Pending",
    "responsible_agency": "Department of Public Works",
    "final_address": "4401 State Street Dr",
    "address_councildis": "B",
    "status": "Pending",
    "rowid": "1115107",
    "final_x": "3668778.44423",
    "final_y": "531915.476995",
    "longitude": "-90.10822718786228",
    "latitude": "29.95696324001366",
    "geocoded_column": {
      "latitude": "29.95696324001366",
      "longitude": "-90.10822718786228"
    }
  },
  {
    "service_request": "2024-1115106",
    "request_type": "Trash/Recycling",
    "request_reason": "Request a Large Item Pick Up",
    "date_created": "2024-07-23T15:27:44.000",
    "date_modified": "2024-07-23T15:27:45.000",
    "request_status": "Pending",
    "responsible_agency": "Department of Sanitation",
    "final_address": "5104 Marigny St",
    "address_councildis": "D",
    "status": "Assigned to Contractor",
    "contractor": "IV Waste",
    "rowid": "1115106",
    "final_x": "3684288.67369",
    "final_y": "551485.038421",
    "longitude": "-90.05856334974636",
    "latitude": "30.010307538709817",
    "geocoded_column": {
      "latitude": "30.010307538709817",
      "longitude": "-90.05856334974636"
    }
  },
  {
    "service_request": "2024-1115105",
    "request_type": "Roads/Drainage",
    "request_reason": "Pothole",
    "date_created": "2024-07-23T15:26:31.000",
    "date_modified": "2024-07-23T15:26:31.000",
    "request_status": "Closed",
    "responsible_agency": "Department of Public Works",
    "final_address": "1569 Mandolin St",
    "address_councildis": "D",
    "status": "Referred to External Agency",
    "rowid": "1115105",
    "final_x": "3679264.93941",
    "final_y": "548157.444178",
    "longitude": "-90.0745507046921",
    "latitude": "30.00131056523442",
    "geocoded_column": {
      "latitude": "30.00131056523442",
      "longitude": "-90.0745507046921"
    }
  },
  {
    "service_request": "2024-1115104",
    "request_type": "Healthy Homes",
    "request_reason": "Healthy Homes",
    "date_created": "2024-07-23T15:25:09.000",
    "date_modified": "2024-07-23T15:25:09.000",
    "request_status": "Pending",
    "responsible_agency": "Department of Code Enforcement",
    "final_address": "3120 N Robertson St",
    "address_councildis": "C",
    "status": "Pending",
    "rowid": "1115104",
    "final_x": "3689538.88771",
    "final_y": "537392.249608",
    "longitude": "-90.0424775984218",
    "latitude": "29.971395792177702",
    "geocoded_column": {
      "latitude": "29.971395792177702",
      "longitude": "-90.0424775984218"
    }
  },
  {
    "service_request": "2024-1115103",
    "request_type": "Trash/Recycling",
    "request_reason": "Return Recycling Cart",
    "date_created": "2024-07-23T15:24:04.000",
    "date_modified": "2024-07-23T15:24:05.000",
    "request_status": "Pending",
    "responsible_agency": "Department of Sanitation",
    "final_address": "7506 Hampson St",
    "address_councildis": "A",
    "status": "Pending",
    "rowid": "1115103",
    "final_x": "3662272.60135",
    "final_y": "525706.620861",
    "longitude": "-90.1289767713507",
    "latitude": "29.940080537585576",
    "geocoded_column": {
      "latitude": "29.940080537585576",
      "longitude": "-90.1289767713507"
    }
  },
  {
    "service_request": "2024-1115102",
    "request_type": "Trash/Recycling",
    "request_reason": "Request a Large Item Pick Up",
    "date_created": "2024-07-23T15:23:58.000",
    "date_modified": "2024-07-23T15:23:59.000",
    "request_status": "Pending",
    "responsible_agency": "Department of Sanitation",
    "final_address": "6943 W Laverne St",
    "address_councildis": "D",
    "status": "Assigned to Contractor",
    "contractor": "Waste Pro",
    "rowid": "1115102",
    "final_x": "3696052.31683",
    "final_y": "556458.580762",
    "longitude": "-90.02121784697528",
    "latitude": "30.02361780867705",
    "geocoded_column": {
      "latitude": "30.02361780867705",
      "longitude": "-90.02121784697528"
    }
  },
  {
    "service_request": "2024-1115101",
    "request_type": "Trash/Recycling",
    "request_reason": "Illegal Dumping",
    "date_created": "2024-07-23T15:21:05.000",
    "date_modified": "2024-07-23T15:21:05.000",
    "request_status": "Pending",
    "responsible_agency": "Department of Sanitation",
    "final_address": "1200 BLK Mirabeau Ave",
    "address_councildis": "D",
    "status": "Pending",
    "rowid": "1115101",
    "final_x": "3677301.23033",
    "final_y": "550219.262538",
    "longitude": "-90.08068303607615",
    "latitude": "30.007039004256306",
    "geocoded_column": {
      "latitude": "30.007039004256306",
      "longitude": "-90.08068303607615"
    }
  },
  {
    "service_request": "2024-1115100",
    "request_type": "Trash/Recycling",
    "request_reason": "Replace Recycling Cart",
    "date_created": "2024-07-23T15:16:26.000",
    "date_modified": "2024-07-23T15:16:26.000",
    "request_status": "Pending",
    "responsible_agency": "Department of Sanitation",
    "final_address": "6103 Bellaire Dr",
    "address_councildis": "A",
    "status": "Pending",
    "rowid": "1115100",
    "final_x": "3664373.1961",
    "final_y": "548261.631698",
    "longitude": "-90.1215917931192",
    "latitude": "30.002038469919228",
    "geocoded_column": {
      "latitude": "30.002038469919228",
      "longitude": "-90.1215917931192"
    }
  },
  {
    "service_request": "2024-1115099",
    "request_type": "Abandoned Vehicles",
    "request_reason": "Abandoned/Junk Vehicles",
    "date_created": "2024-07-23T15:16:17.000",
    "date_modified": "2024-07-23T15:18:54.000",
    "request_status": "Pending",
    "responsible_agency": "Department of Public Works",
    "final_address": "3022 Cleveland Ave",
    "address_councildis": "B",
    "status": "Pending",
    "rowid": "1115099",
    "final_x": "3673906.46952",
    "final_y": "535629.939206",
    "longitude": "-90.09190739131641",
    "latitude": "29.967025011765784",
    "geocoded_column": {
      "latitude": "29.967025011765784",
      "longitude": "-90.09190739131641"
    }
  },
  {
    "service_request": "2024-1115098",
    "request_type": "Trash/Recycling",
    "request_reason": "Order Trash Cart",
    "date_created": "2024-07-23T15:14:49.000",
    "date_modified": "2024-07-23T15:14:49.000",
    "request_status": "Pending",
    "responsible_agency": "Department of Sanitation",
    "final_address": "4022 Monroe St",
    "address_councildis": "A",
    "status": "Assigned to Contractor",
    "contractor": "IV Waste",
    "rowid": "1115098",
    "final_x": "3667181.14273",
    "final_y": "537325.772744",
    "longitude": "-90.11308904928177",
    "latitude": "29.971886625743277",
    "geocoded_column": {
      "latitude": "29.971886625743277",
      "longitude": "-90.11308904928177"
    }
  },
  {
    "service_request": "2024-1115097",
    "request_type": "Trash/Recycling",
    "request_reason": "Order Trash Cart",
    "date_created": "2024-07-23T15:14:33.000",
    "date_modified": "2024-07-23T15:14:35.000",
    "request_status": "Pending",
    "responsible_agency": "Department of Sanitation",
    "final_address": "4024 Monroe St",
    "address_councildis": "A",
    "status": "Assigned to Contractor",
    "contractor": "IV Waste",
    "rowid": "1115097",
    "final_x": "3667190.71341",
    "final_y": "537340.128712",
    "longitude": "-90.11305834061108",
    "latitude": "29.971925819611737",
    "geocoded_column": {
      "latitude": "29.971925819611737",
      "longitude": "-90.11305834061108"
    }
  },
  {
    "service_request": "2024-1115096",
    "request_type": "Traffic Signals/Signs/Striping/Streetlights",
    "request_reason": "Street Light Outage/Malfunction",
    "date_created": "2024-07-23T15:13:55.000",
    "date_modified": "2024-07-23T15:13:56.000",
    "request_status": "Pending",
    "responsible_agency": "Department of Public Works",
    "final_address": "700 Tupelo St",
    "address_councildis": "E",
    "status": "Assigned to Contractor",
    "contractor": "Legacy Professional Services",
    "rowid": "1115096",
    "final_x": "3698910.59812",
    "final_y": "531964.570947",
    "longitude": "-90.0130780813413",
    "latitude": "29.956177984039464",
    "geocoded_column": {
      "latitude": "29.956177984039464",
      "longitude": "-90.0130780813413"
    }
  },
  {
    "service_request": "2024-1115095",
    "request_type": "Traffic Signals/Signs/Striping/Streetlights",
    "request_reason": "Street Light Outage/Malfunction",
    "date_created": "2024-07-23T15:13:33.000",
    "date_modified": "2024-07-23T15:13:34.000",
    "request_status": "Pending",
    "responsible_agency": "Department of Public Works",
    "final_address": "5231 Constance St",
    "address_councildis": "B",
    "status": "Assigned to Contractor",
    "contractor": "Legacy Professional Services",
    "rowid": "1115095",
    "final_x": "3667777.47437",
    "final_y": "518274.85151",
    "longitude": "-90.11184711199942",
    "latitude": "29.91948529282233",
    "geocoded_column": {
      "latitude": "29.91948529282233",
      "longitude": "-90.11184711199942"
    }
  },
  {
    "service_request": "2024-1115094",
    "request_type": "Trash/Recycling",
    "request_reason": "Repair Trash Cart",
    "date_created": "2024-07-23T15:12:27.000",
    "date_modified": "2024-07-23T15:12:28.000",
    "request_status": "Pending",
    "responsible_agency": "Department of Sanitation",
    "final_address": "3124 Annette St",
    "address_councildis": "D",
    "status": "Assigned to Contractor",
    "contractor": "IV Waste",
    "rowid": "1115094",
    "final_x": "3682459.01077",
    "final_y": "544105.04251",
    "longitude": "-90.06460210392699",
    "latitude": "29.990071034110095",
    "geocoded_column": {
      "latitude": "29.990071034110095",
      "longitude": "-90.06460210392699"
    }
  },
  {
    "service_request": "2024-1115093",
    "request_type": "Abandoned Vehicles",
    "request_reason": "Abandoned/Junk Vehicles",
    "date_created": "2024-07-23T15:12:27.000",
    "date_modified": "2024-07-23T15:12:28.000",
    "request_status": "Pending",
    "responsible_agency": "Department of Public Works",
    "final_address": "3400 BLK General Ogden St",
    "address_councildis": "A",
    "status": "Pending",
    "rowid": "1115093",
    "final_x": "3665272.54311",
    "final_y": "536207.117006",
    "longitude": "-90.11915417062721",
    "latitude": "29.968866443081584",
    "geocoded_column": {
      "latitude": "29.968866443081584",
      "longitude": "-90.11915417062721"
    }
  },
  {
    "service_request": "2024-1115092",
    "request_type": "Property Maintenance",
    "request_reason": "Property Maintenance",
    "date_created": "2024-07-23T15:10:47.000",
    "date_modified": "2024-07-23T15:49:06.000",
    "case_close_date": "2024-07-23T10:49:06.000",
    "request_status": "Closed",
    "responsible_agency": "Department of Code Enforcement",
    "final_address": "8705 Apricot St",
    "address_councildis": "A",
    "status": "Referred to Code Enforcement",
    "rowid": "1115092",
    "final_x": "3664241.11124",
    "final_y": "534121.595013",
    "longitude": "-90.12248111100676",
    "latitude": "29.963161955841667",
    "geocoded_column": {
      "latitude": "29.963161955841667",
      "longitude": "-90.12248111100676"
    }
  },
  {
    "service_request": "2024-1115091",
    "request_type": "Parks & Parkways",
    "request_reason": "Request Tree Service (Right of Way/Public Property)",
    "date_created": "2024-07-23T15:09:08.000",
    "date_modified": "2024-07-23T15:09:08.000",
    "request_status": "Pending",
    "responsible_agency": "Department of Parks & Parkway",
    "final_address": "3802 Martin Luther King, Jr. Blvd",
    "address_councildis": "B",
    "status": "Pending",
    "rowid": "1115091",
    "final_x": "3672579.33147",
    "final_y": "529588.518017",
    "longitude": "-90.09630447983692",
    "latitude": "29.95045258424567",
    "geocoded_column": {
      "latitude": "29.95045258424567",
      "longitude": "-90.09630447983692"
    }
  },
  {
    "service_request": "2024-1115090",
    "request_type": "Abandoned Vehicles",
    "request_reason": "Abandoned/Junk Vehicles",
    "date_created": "2024-07-23T15:07:09.000",
    "date_modified": "2024-07-23T15:07:09.000",
    "request_status": "Pending",
    "responsible_agency": "Department of Public Works",
    "final_address": "8700 BLK Forshey St",
    "address_councildis": "A",
    "status": "Pending",
    "rowid": "1115090",
    "final_x": "3665306.98825",
    "final_y": "535465.041718",
    "longitude": "-90.11907022490236",
    "latitude": "29.96682497771217",
    "geocoded_column": {
      "latitude": "29.96682497771217",
      "longitude": "-90.11907022490236"
    }
  },
  {
    "service_request": "2024-1115089",
    "request_type": "Traffic Signals/Signs/Striping/Streetlights",
    "request_reason": "Traffic Signal Malfunctioning/Damaged",
    "date_created": "2024-07-23T15:07:06.000",
    "date_modified": "2024-07-23T15:07:06.000",
    "request_status": "Pending",
    "responsible_agency": "Department of Public Works",
    "final_address": "S BROAD ST & TULANE AVE",
    "address_councildis": "B",
    "status": "Pending",
    "rowid": "1115089",
    "final_x": "3674313.3",
    "final_y": "533773.18",
    "longitude": "-90.09068620733277",
    "latitude": "29.961907423023113",
    "geocoded_column": {
      "latitude": "29.961907423023113",
      "longitude": "-90.09068620733277"
    }
  },
  {
    "service_request": "2024-1115088",
    "request_type": "Traffic Signals/Signs/Striping/Streetlights",
    "request_reason": "Street Light Outage/Malfunction",
    "date_created": "2024-07-23T15:05:46.000",
    "date_modified": "2024-07-23T15:05:47.000",
    "request_status": "Pending",
    "responsible_agency": "Department of Public Works",
    "final_address": "3723 Martin Luther King, Jr. Blvd",
    "address_councildis": "B",
    "status": "Assigned to Contractor",
    "contractor": "Legacy Professional Services",
    "rowid": "1115088",
    "final_x": "3672528.64558",
    "final_y": "529836.751041",
    "longitude": "-90.09645605922366",
    "latitude": "29.951136647686422",
    "geocoded_column": {
      "latitude": "29.951136647686422",
      "longitude": "-90.09645605922366"
    }
  },
  {
    "service_request": "2024-1115087",
    "request_type": "Trash/Recycling",
    "request_reason": "Illegal Dumping",
    "date_created": "2024-07-23T15:03:43.000",
    "date_modified": "2024-07-23T15:03:43.000",
    "request_status": "Pending",
    "responsible_agency": "Department of Sanitation",
    "final_address": "4735 Banks St",
    "address_councildis": "A",
    "status": "Pending",
    "rowid": "1115087",
    "final_x": "3668188.73901",
    "final_y": "539120.448906",
    "longitude": "-90.10984637041167",
    "latitude": "29.97679184013206",
    "geocoded_column": {
      "latitude": "29.97679184013206",
      "longitude": "-90.10984637041167"
    }
  },
  {
    "service_request": "2024-1115086",
    "request_type": "Utility Poles",
    "request_reason": "Utility Pole Leaning",
    "date_created": "2024-07-23T15:03:17.000",
    "date_modified": "2024-07-23T15:03:21.000",
    "request_status": "Pending",
    "responsible_agency": "Utility Company Collective",
    "final_address": "7830 Venice Blvd",
    "address_councildis": "E",
    "status": "Pending",
    "rowid": "1115086",
    "final_x": "3720754.88678",
    "final_y": "574710.941739",
    "longitude": "-89.94246371246253",
    "latitude": "30.073003341641638",
    "geocoded_column": {
      "latitude": "30.073003341641638",
      "longitude": "-89.94246371246253"
    }
  },
  {
    "service_request": "2024-1115085",
    "request_type": "Trash/Recycling",
    "request_reason": "Illegal Dumping",
    "date_created": "2024-07-23T14:59:17.000",
    "date_modified": "2024-07-23T14:59:18.000",
    "request_status": "Pending",
    "responsible_agency": "Department of Sanitation",
    "final_address": "2625 Almonaster Ave",
    "address_councildis": "D",
    "status": "Pending",
    "rowid": "1115085",
    "final_x": "3688668.8486",
    "final_y": "542316.458893",
    "longitude": "-90.04505045270061",
    "latitude": "29.984962546291076",
    "geocoded_column": {
      "latitude": "29.984962546291076",
      "longitude": "-90.04505045270061"
    }
  },
  {
    "service_request": "2024-1115084",
    "request_type": "Property Maintenance",
    "request_reason": "Property Maintenance",
    "date_created": "2024-07-23T14:59:13.000",
    "date_modified": "2024-07-23T14:59:13.000",
    "request_status": "Pending",
    "responsible_agency": "Department of Code Enforcement",
    "final_address": "2021 Humanity St",
    "address_councildis": "D",
    "status": "Pending",
    "rowid": "1115084",
    "final_x": "3683044.786",
    "final_y": "544713.075791",
    "longitude": "-90.06273050042063",
    "latitude": "29.991725062900578",
    "geocoded_column": {
      "latitude": "29.991725062900578",
      "longitude": "-90.06273050042063"
    }
  },
  {
    "service_request": "2024-1115083",
    "request_type": "Trash/Recycling",
    "request_reason": "Missed Trash Pick-Up",
    "date_created": "2024-07-23T14:59:11.000",
    "date_modified": "2024-07-23T15:16:39.000",
    "case_close_date": "2024-07-23T10:16:39.000",
    "request_status": "Closed",
    "responsible_agency": "Department of Sanitation",
    "final_address": "5315 Wilton Dr",
    "address_councildis": "D",
    "status": "Invalid Request",
    "contractor": "IV Waste",
    "contractor_action": "Invalid",
    "rowid": "1115083",
    "final_x": "3681947.6445",
    "final_y": "552576.909014",
    "longitude": "-90.06592137678247",
    "latitude": "30.013381192131863",
    "geocoded_column": {
      "latitude": "30.013381192131863",
      "longitude": "-90.06592137678247"
    }
  },
  {
    "service_request": "2024-1115082",
    "request_type": "Trash/Recycling",
    "request_reason": "Request a Large Item Pick Up",
    "date_created": "2024-07-23T14:56:14.000",
    "date_modified": "2024-07-23T14:56:15.000",
    "request_status": "Pending",
    "responsible_agency": "Department of Sanitation",
    "final_address": "4901 Michoud Blvd",
    "address_councildis": "E",
    "status": "Assigned to Contractor",
    "contractor": "Waste Pro",
    "rowid": "1115082",
    "final_x": "3725089.9056",
    "final_y": "561155.121182",
    "longitude": "-89.92928446490467",
    "latitude": "30.035585125654556",
    "geocoded_column": {
      "latitude": "30.035585125654556",
      "longitude": "-89.92928446490467"
    }
  },
  {
    "service_request": "2024-1115081",
    "request_type": "Trash/Recycling",
    "request_reason": "Illegal Dumping",
    "date_created": "2024-07-23T14:55:26.000",
    "date_modified": "2024-07-23T14:55:26.000",
    "request_status": "Pending",
    "responsible_agency": "Department of Sanitation",
    "final_address": "11940 Lakeland Ct Unit D",
    "address_councildis": "E",
    "status": "Pending",
    "rowid": "1115081",
    "final_x": "3712626.71058",
    "final_y": "568548.248805",
    "longitude": "-89.96839163006815",
    "latitude": "30.05632726067473",
    "geocoded_column": {
      "latitude": "30.05632726067473",
      "longitude": "-89.96839163006815"
    }
  },
  {
    "service_request": "2024-1115080",
    "request_type": "Trash/Recycling",
    "request_reason": "MIssed Recycling Pick-Up",
    "date_created": "2024-07-23T14:55:09.000",
    "date_modified": "2024-07-23T14:55:09.000",
    "request_status": "Pending",
    "responsible_agency": "Department of Sanitation",
    "final_address": "4216 Mccoy St",
    "address_councildis": "E",
    "status": "Assigned to Contractor",
    "contractor": "Waste Pro",
    "rowid": "1115080",
    "final_x": "3711967.34981",
    "final_y": "553752.011799",
    "longitude": "-89.97103177127718",
    "latitude": "30.015665096050245",
    "geocoded_column": {
      "latitude": "30.015665096050245",
      "longitude": "-89.97103177127718"
    }
  },
  {
    "service_request": "2024-1115079",
    "request_type": "Trash/Recycling",
    "request_reason": "Request a Large Item Pick Up",
    "date_created": "2024-07-23T14:54:20.000",
    "date_modified": "2024-07-23T14:54:21.000",
    "request_status": "Pending",
    "responsible_agency": "Department of Sanitation",
    "final_address": "2134 First St",
    "address_councildis": "B",
    "status": "Assigned to Contractor",
    "contractor": "IV Waste",
    "rowid": "1115079",
    "final_x": "3675780.63374",
    "final_y": "524921.5671",
    "longitude": "-90.08635678473607",
    "latitude": "29.937524590545216",
    "geocoded_column": {
      "latitude": "29.937524590545216",
      "longitude": "-90.08635678473607"
    }
  },
  {
    "service_request": "2024-1115078",
    "request_type": "Trash/Recycling",
    "request_reason": "Replace Trash Cart",
    "date_created": "2024-07-23T14:53:47.000",
    "date_modified": "2024-07-23T14:53:48.000",
    "request_status": "Pending",
    "responsible_agency": "Department of Sanitation",
    "final_address": "2372 N Dorgenois St",
    "address_councildis": "D",
    "status": "Assigned to Contractor",
    "contractor": "IV Waste",
    "rowid": "1115078",
    "final_x": "3685894.31522",
    "final_y": "541533.698828",
    "longitude": "-90.05384160763715",
    "latitude": "29.982895715226764",
    "geocoded_column": {
      "latitude": "29.982895715226764",
      "longitude": "-90.05384160763715"
    }
  },
  {
    "service_request": "2024-1115077",
    "request_type": "Trash/Recycling",
    "request_reason": "Request a Large Item Pick Up",
    "date_created": "2024-07-23T14:53:26.000",
    "date_modified": "2024-07-23T14:53:27.000",
    "request_status": "Pending",
    "responsible_agency": "Department of Sanitation",
    "final_address": "422 Notre Dame St",
    "address_councildis": "B",
    "status": "Assigned to Contractor",
    "contractor": "Empire Services",
    "rowid": "1115077",
    "final_x": "3681566.53013",
    "final_y": "527976.036863",
    "longitude": "-90.06798382061073",
    "latitude": "29.945748959306208",
    "geocoded_column": {
      "latitude": "29.945748959306208",
      "longitude": "-90.06798382061073"
    }
  },
  {
    "service_request": "2024-1115076",
    "request_type": "Trash/Recycling",
    "request_reason": "Order Trash Cart",
    "date_created": "2024-07-23T14:50:10.000",
    "date_modified": "2024-07-23T14:50:11.000",
    "request_status": "Pending",
    "responsible_agency": "Department of Sanitation",
    "final_address": "2622 Jena St",
    "address_councildis": "B",
    "status": "Assigned to Contractor",
    "contractor": "IV Waste",
    "rowid": "1115076",
    "final_x": "3670041.91694",
    "final_y": "524522.565244",
    "longitude": "-90.1044878823283",
    "latitude": "29.936597940198514",
    "geocoded_column": {
      "latitude": "29.936597940198514",
      "longitude": "-90.1044878823283"
    }
  },
  {
    "service_request": "2024-1115075",
    "request_type": "Traffic Signals/Signs/Striping/Streetlights",
    "request_reason": "Traffic Sign Missing/Damaged",
    "date_created": "2024-07-23T14:49:28.000",
    "date_modified": "2024-07-23T14:49:30.000",
    "request_status": "Pending",
    "responsible_agency": "Department of Public Works",
    "final_address": "QUINCE ST & HOLLYGROVE ST",
    "address_councildis": "A",
    "status": "Pending",
    "rowid": "1115075",
    "final_x": "3667256.4",
    "final_y": "538902.88",
    "longitude": "-90.1127983195959",
    "latitude": "29.976220939051526",
    "geocoded_column": {
      "latitude": "29.976220939051526",
      "longitude": "-90.1127983195959"
    }
  },
  {
    "service_request": "2024-1115074",
    "request_type": "Trash/Recycling",
    "request_reason": "Repair Trash Cart",
    "date_created": "2024-07-23T14:48:43.000",
    "date_modified": "2024-07-23T14:48:44.000",
    "request_status": "Pending",
    "responsible_agency": "Department of Sanitation",
    "final_address": "3100 Preston Pl",
    "address_councildis": "C",
    "status": "Assigned to Contractor",
    "contractor": "Richards Disposal",
    "rowid": "1115074",
    "final_x": "3708665.64836",
    "final_y": "518778.395319",
    "longitude": "-89.98276598449011",
    "latitude": "29.919608030209975",
    "geocoded_column": {
      "latitude": "29.919608030209975",
      "longitude": "-89.98276598449011"
    }
  },
  {
    "service_request": "2024-1115073",
    "request_type": "Traffic Signals/Signs/Striping/Streetlights",
    "request_reason": "Street Light Outage/Malfunction",
    "date_created": "2024-07-23T14:44:13.000",
    "date_modified": "2024-07-23T14:44:14.000",
    "request_status": "Pending",
    "responsible_agency": "Department of Public Works",
    "final_address": "4319 Pitt St",
    "address_councildis": "B",
    "status": "Assigned to Contractor",
    "contractor": "Legacy Professional Services",
    "rowid": "1115073",
    "final_x": "3671094.18151",
    "final_y": "520641.884408",
    "longitude": "-90.10129756164734",
    "latitude": "29.92589624357692",
    "geocoded_column": {
      "latitude": "29.92589624357692",
      "longitude": "-90.10129756164734"
    }
  },
  {
    "service_request": "2024-1115072",
    "request_type": "Roads/Drainage",
    "request_reason": "Damaged Sidewalk",
    "date_created": "2024-07-23T14:44:04.000",
    "date_modified": "2024-07-23T14:44:04.000",
    "request_status": "Pending",
    "responsible_agency": "Department of Public Works",
    "final_address": "534 Amethyst St",
    "address_councildis": "D",
    "status": "Pending",
    "rowid": "1115072",
    "final_x": "3668609.10689",
    "final_y": "556742.49833",
    "longitude": "-90.10792350374544",
    "latitude": "30.025234015133943",
    "geocoded_column": {
      "latitude": "30.025234015133943",
      "longitude": "-90.10792350374544"
    }
  },
  {
    "service_request": "2024-1115071",
    "request_type": "Healthy Homes",
    "request_reason": "Healthy Homes",
    "date_created": "2024-07-23T14:42:16.000",
    "date_modified": "2024-07-23T14:42:16.000",
    "request_status": "Pending",
    "responsible_agency": "Department of Code Enforcement",
    "final_address": "3101 Rue Parc Fontaine Apt 1410",
    "address_councildis": "C",
    "status": "Pending",
    "rowid": "1115071",
    "final_x": "3699838.40714",
    "final_y": "519727.737336",
    "longitude": "-90.01059444329093",
    "latitude": "29.922501531464185",
    "geocoded_column": {
      "latitude": "29.922501531464185",
      "longitude": "-90.01059444329093"
    }
  },
  {
    "service_request": "2024-1115070",
    "request_type": "Trash/Recycling",
    "request_reason": "Request a Large Item Pick Up",
    "date_created": "2024-07-23T14:40:17.000",
    "date_modified": "2024-07-23T14:40:18.000",
    "request_status": "Pending",
    "responsible_agency": "Department of Sanitation",
    "final_address": "2129 Valmont St",
    "address_councildis": "B",
    "status": "Assigned to Contractor",
    "contractor": "IV Waste",
    "rowid": "1115070",
    "final_x": "3668160.57844",
    "final_y": "523406.256379",
    "longitude": "-90.11046497821872",
    "latitude": "29.933583792527298",
    "geocoded_column": {
      "latitude": "29.933583792527298",
      "longitude": "-90.11046497821872"
    }
  },
  {
    "service_request": "2024-1115069",
    "request_type": "Trash/Recycling",
    "request_reason": "Order Trash Cart",
    "date_created": "2024-07-23T14:39:49.000",
    "date_modified": "2024-07-23T14:39:50.000",
    "request_status": "Pending",
    "responsible_agency": "Department of Sanitation",
    "final_address": "4427 Dale St",
    "address_councildis": "E",
    "status": "Assigned to Contractor",
    "contractor": "Waste Pro",
    "rowid": "1115069",
    "final_x": "3699655.36247",
    "final_y": "553345.687959",
    "longitude": "-90.00994662869078",
    "latitude": "30.014944599900804",
    "geocoded_column": {
      "latitude": "30.014944599900804",
      "longitude": "-90.00994662869078"
    }
  },
  {
    "service_request": "2024-1115068",
    "request_type": "Abandoned Vehicles",
    "request_reason": "Abandoned/Junk Vehicles",
    "date_created": "2024-07-23T14:39:39.000",
    "date_modified": "2024-07-23T14:39:39.000",
    "request_status": "Pending",
    "responsible_agency": "Department of Public Works",
    "final_address": "8600 BLK Olive St",
    "address_councildis": "A",
    "status": "Pending",
    "rowid": "1115068",
    "final_x": "3665802.3242",
    "final_y": "535489.386158",
    "longitude": "-90.11750513276345",
    "latitude": "29.966877474203958",
    "geocoded_column": {
      "latitude": "29.966877474203958",
      "longitude": "-90.11750513276345"
    }
  },
  {
    "service_request": "2024-1115067",
    "request_type": "Trash/Recycling",
    "request_reason": "Order Trash Cart",
    "date_created": "2024-07-23T14:39:18.000",
    "date_modified": "2024-07-23T14:39:19.000",
    "request_status": "Pending",
    "responsible_agency": "Department of Sanitation",
    "final_address": "4429 Dale St",
    "address_councildis": "E",
    "status": "Assigned to Contractor",
    "contractor": "Waste Pro",
    "rowid": "1115067",
    "final_x": "3699653.39152",
    "final_y": "553364.408407",
    "longitude": "-90.0099521727904",
    "latitude": "30.01499613663033",
    "geocoded_column": {
      "latitude": "30.01499613663033",
      "longitude": "-90.0099521727904"
    }
  },
  {
    "service_request": "2024-1115066",
    "request_type": "Abandoned Vehicles",
    "request_reason": "Abandoned/Junk Vehicles",
    "date_created": "2024-07-23T14:39:00.000",
    "date_modified": "2024-07-23T14:39:00.000",
    "request_status": "Pending",
    "responsible_agency": "Department of Public Works",
    "final_address": "8721 Apricot St",
    "address_councildis": "A",
    "status": "Pending",
    "rowid": "1115066",
    "final_x": "3664140.25549",
    "final_y": "534209.732165",
    "longitude": "-90.12279666261774",
    "latitude": "29.963407234263354",
    "geocoded_column": {
      "latitude": "29.963407234263354",
      "longitude": "-90.12279666261774"
    }
  },
  {
    "service_request": "2024-1115065",
    "request_type": "Trash/Recycling",
    "request_reason": "Order Trash Cart",
    "date_created": "2024-07-23T14:38:24.000",
    "date_modified": "2024-07-23T14:38:25.000",
    "request_status": "Pending",
    "responsible_agency": "Department of Sanitation",
    "final_address": "2235 Pine St",
    "address_councildis": "A",
    "status": "Assigned to Contractor",
    "contractor": "IV Waste",
    "rowid": "1115065",
    "final_x": "3666137.97057",
    "final_y": "529881.231425",
    "longitude": "-90.11663321547826",
    "latitude": "29.95144709041965",
    "geocoded_column": {
      "latitude": "29.95144709041965",
      "longitude": "-90.11663321547826"
    }
  },
  {
    "service_request": "2024-1115064",
    "request_type": "Utility Poles",
    "request_reason": "Utility Pole Leaning",
    "date_created": "2024-07-23T14:37:38.000",
    "date_modified": "2024-07-23T14:37:41.000",
    "request_status": "Pending",
    "responsible_agency": "Utility Company Collective",
    "final_address": "2324 General Pershing St",
    "address_councildis": "B",
    "status": "Pending",
    "rowid": "1115064",
    "final_x": "3670937.53812",
    "final_y": "523581.782587",
    "longitude": "-90.10169228651345",
    "latitude": "29.933984650571237",
    "geocoded_column": {
      "latitude": "29.933984650571237",
      "longitude": "-90.10169228651345"
    }
  },
  {
    "service_request": "2024-1115063",
    "request_type": "Trash/Recycling",
    "request_reason": "Return Trash Cart",
    "date_created": "2024-07-23T14:37:03.000",
    "date_modified": "2024-07-23T14:37:04.000",
    "request_status": "Pending",
    "responsible_agency": "Department of Sanitation",
    "final_address": "2235 Pine St",
    "address_councildis": "A",
    "status": "Assigned to Contractor",
    "contractor": "IV Waste",
    "rowid": "1115063",
    "final_x": "3666137.97057",
    "final_y": "529881.231425",
    "longitude": "-90.11663321547826",
    "latitude": "29.95144709041965",
    "geocoded_column": {
      "latitude": "29.95144709041965",
      "longitude": "-90.11663321547826"
    }
  },
  {
    "service_request": "2024-1115062",
    "request_type": "Trash/Recycling",
    "request_reason": "Repair Recycling Cart",
    "date_created": "2024-07-23T14:37:00.000",
    "date_modified": "2024-07-23T14:37:01.000",
    "request_status": "Pending",
    "responsible_agency": "Department of Sanitation",
    "final_address": "4753 De Montluzin St",
    "address_councildis": "D",
    "status": "Pending",
    "rowid": "1115062",
    "final_x": "3687184.72092",
    "final_y": "550774.672789",
    "longitude": "-90.04943881944698",
    "latitude": "30.008265384193805",
    "geocoded_column": {
      "latitude": "30.008265384193805",
      "longitude": "-90.04943881944698"
    }
  },