[
  {
    "service_request": "2023-989011",
    "request_type": "Property Maintenance",
    "request_reason": "Property Maintenance",
    "date_created": "2023-04-05T23:30:15.000",
    "date_modified": "2023-04-05T23:30:15.000",
    "request_status": "Pending",
    "responsible_agency": "Department of Code Enforcement",
    "final_address": "635 N Scott St",
    "address_councildis": "A",
    "status": "Pending",
    "rowid": "989011",
    "final_x": "3673034.16641",
    "final_y": "539562.001418",
    "longitude": "-90.09452788433894",
    "latitude": "29.97786280846396",
    "geocoded_column": {
      "latitude": "29.97786280846396",
      "longitude": "-90.09452788433894"
    }
  },
  {
    "service_request": "2023-989010",
    "request_type": "Trash/Recycling",
    "request_reason": "Order Trash Cart",
    "date_created": "2023-04-05T23:20:32.000",
    "date_modified": "2023-04-05T23:20:32.000",
    "request_status": "Pending",
    "responsible_agency": "Department of Sanitation",
    "final_address": "6239 Cameron Blvd",
    "address_councildis": "D",
    "status": "Assigned to Contractor",
    "contractor": "IV Waste",
    "rowid": "989010",
    "final_x": "3682266.56316",
    "final_y": "556172.065114",
    "longitude": "-90.06478801123201",
    "latitude": "30.023256854158532",
    "geocoded_column": {
      "latitude": "30.023256854158532",
      "longitude": "-90.06478801123201"
    }
  },
  {
    "service_request": "2023-989009",
    "request_type": "Health Related Request",
    "request_reason": "Noise Ordinance Complaint",
    "date_created": "2023-04-05T22:44:48.000",
    "date_modified": "2023-04-05T22:44:48.000",
    "request_status": "Pending",
    "responsible_agency": "Health Department",
    "final_address": "600 N Broad St",
    "address_councildis": "D",
    "status": "Pending",
    "rowid": "989009",
    "final_x": "3676514.68328",
    "final_y": "536431.051079",
    "longitude": "-90.0836430411453",
    "latitude": "29.969149839828454",
    "geocoded_column": {
      "latitude": "29.969149839828454",
      "longitude": "-90.0836430411453"
    }
  },
  {
    "service_request": "2023-989008",
    "request_type": "Abandoned Vehicles",
    "request_reason": "Abandoned/Junk Vehicles",
    "date_created": "2023-04-05T22:41:40.000",
    "date_modified": "2023-04-05T22:41:40.000",
    "request_status": "Pending",
    "responsible_agency": "Department of Public Works",
    "final_address": "6209 Perlita Dr",
    "address_councildis": "D",
    "status": "Pending",
    "rowid": "989008",
    "final_x": "3678623.10427",
    "final_y": "555553.499737",
    "longitude": "-90.07632200319058",
    "latitude": "30.021666431411926",
    "geocoded_column": {
      "latitude": "30.021666431411926",
      "longitude": "-90.07632200319058"
    }
  },
  {
    "service_request": "2023-989007",
    "request_type": "Property Maintenance",
    "request_reason": "Property Maintenance",
    "date_created": "2023-04-05T22:19:31.000",
    "date_modified": "2023-04-05T22:19:31.000",
    "request_status": "Pending",
    "responsible_agency": "Department of Code Enforcement",
    "status": "Pending",
    "rowid": "989007",
    "longitude": "0.0",
    "latitude": "0.0",
    "geocoded_column": {
      "latitude": "0.0",
      "longitude": "0.0"
    }
  },
  {
    "service_request": "2023-989006",
    "request_type": "Traffic Signals/Signs/Striping/Streetlights",
    "request_reason": "Street Light Outage/Malfunction",
    "date_created": "2023-04-05T22:07:55.000",
    "date_modified": "2023-04-05T22:07:56.000",
    "request_status": "Pending",
    "responsible_agency": "Department of Public Works",
    "final_address": "1500 BLK N Rocheblave St",
    "address_councildis": "D",
    "status": "Assigned to Contractor",
    "contractor": "Legacy Professional Services",
    "rowid": "989006",
    "final_x": "3679602.65749",
    "final_y": "539063.23695",
    "longitude": "-90.07379962319196",
    "latitude": "29.976294479460574",
    "geocoded_column": {
      "latitude": "29.976294479460574",
      "longitude": "-90.07379962319196"
    }
  },
  {
    "service_request": "2023-989005",
    "request_type": "Trash/Recycling",
    "request_reason": "Order Recycling Cart",
    "date_created": "2023-04-05T22:03:58.000",
    "date_modified": "2023-04-05T22:03:58.000",
    "request_status": "Pending",
    "responsible_agency": "Department of Sanitation",
    "final_address": "940 Florida Blvd",
    "address_councildis": "A",
    "status": "Pending",
    "rowid": "989005",
    "final_x": "3670106.12615",
    "final_y": "545122.135247",
    "longitude": "-90.10358721113941",
    "latitude": "29.99323799535953",
    "geocoded_column": {
      "latitude": "29.99323799535953",
      "longitude": "-90.10358721113941"
    }
  },
  {
    "service_request": "2023-989004",
    "request_type": "Abandoned Vehicles",
    "request_reason": "Abandoned/Junk Vehicles",
    "date_created": "2023-04-05T21:29:31.000",
    "date_modified": "2023-04-05T21:29:32.000",
    "request_status": "Pending",
    "responsible_agency": "Department of Public Works",
    "final_address": "4500 BLK Chantilly Dr",
    "address_councildis": "E",
    "status": "Pending",
    "rowid": "989004",
    "final_x": "3700937.55117",
    "final_y": "553585.074704",
    "longitude": "-90.00588679040278",
    "latitude": "30.01556204186045",
    "geocoded_column": {
      "latitude": "30.01556204186045",
      "longitude": "-90.00588679040278"
    }
  },
  {
    "service_request": "2023-989003",
    "request_type": "Mosquito, Termite & Rodent Control",
    "request_reason": "Rodent Complaint (Rats)",
    "date_created": "2023-04-05T20:42:51.000",
    "date_modified": "2023-04-05T20:42:51.000",
    "request_status": "Pending",
    "responsible_agency": "Mosquito, Termite & Rodent Control Board",
    "final_address": "2001 St Bernard Ave",
    "address_councildis": "D",
    "status": "Pending",
    "rowid": "989003",
    "final_x": "3681518.86741",
    "final_y": "539377.467018",
    "longitude": "-90.06773670367747",
    "latitude": "29.97710044673789",
    "geocoded_column": {
      "latitude": "29.97710044673789",
      "longitude": "-90.06773670367747"
    }
  },
  {
    "service_request": "2023-989002",
    "request_type": "Trash/Recycling",
    "request_reason": "MIssed Recycling Pick-Up",
    "date_created": "2023-04-05T19:51:31.000",
    "date_modified": "2023-04-05T19:51:32.000",
    "request_status": "Pending",
    "responsible_agency": "Department of Sanitation",
    "final_address": "1123 Louisiana Ave",
    "address_councildis": "B",
    "status": "Assigned to Contractor",
    "contractor": "Richards Disposal",
    "rowid": "989002",
    "final_x": "3675017.26952",
    "final_y": "519856.663736",
    "longitude": "-90.08894043886947",
    "latitude": "29.92362057005257",
    "geocoded_column": {
      "latitude": "29.92362057005257",
      "longitude": "-90.08894043886947"
    }
  },
  {
    "service_request": "2023-989001",
    "request_type": "Trash/Recycling",
    "request_reason": "MIssed Recycling Pick-Up",
    "date_created": "2023-04-05T19:49:34.000",
    "date_modified": "2023-04-05T19:49:34.000",
    "request_status": "Pending",
    "responsible_agency": "Department of Sanitation",
    "final_address": "1020 Robert St",
    "address_councildis": "B",
    "status": "Assigned to Contractor",
    "contractor": "Richards Disposal",
    "rowid": "989001",
    "final_x": "3668617.12532",
    "final_y": "519138.368375",
    "longitude": "-90.10916762452446",
    "latitude": "29.9218350530379",
    "geocoded_column": {
      "latitude": "29.9218350530379",
      "longitude": "-90.10916762452446"
    }
  },
  {
    "service_request": "2023-988999",
    "request_type": "Traffic Signals/Signs/Striping/Streetlights",
    "request_reason": "Additional signage",
    "date_created": "2023-04-05T19:06:43.000",
    "date_modified": "2023-04-05T19:06:43.000",
    "request_status": "Pending",
    "responsible_agency": "Department of Public Works",
    "final_address": "1900 Allen St",
    "address_councildis": "D",
    "status": "Pending",
    "rowid": "988999",
    "final_x": "3682446.8893",
    "final_y": "539001.387722",
    "longitude": "-90.06481886251697",
    "latitude": "29.976038142656108",
    "geocoded_column": {
      "latitude": "29.976038142656108",
      "longitude": "-90.06481886251697"
    }
  },
  {
    "service_request": "2023-988998",
    "request_type": "Property Maintenance",
    "request_reason": "Property Maintenance",
    "date_created": "2023-04-05T19:06:28.000",
    "date_modified": "2023-04-05T19:06:28.000",
    "request_status": "Pending",
    "responsible_agency": "Department of Code Enforcement",
    "final_address": "3032 Constance St",
    "address_councildis": "B",
    "status": "Pending",
    "rowid": "988998",
    "final_x": "3676365.55957",
    "final_y": "519889.98348",
    "longitude": "-90.08468323401462",
    "latitude": "29.923671857473618",
    "geocoded_column": {
      "latitude": "29.923671857473618",
      "longitude": "-90.08468323401462"
    }
  },
  {
    "service_request": "2023-988997",
    "request_type": "Trash/Recycling",
    "request_reason": "Replace Trash Cart",
    "date_created": "2023-04-05T19:04:35.000",
    "date_modified": "2023-04-05T19:04:36.000",
    "request_status": "Pending",
    "responsible_agency": "Department of Sanitation",
    "final_address": "917 Eighth St",
    "address_councildis": "B",
    "status": "Assigned to Contractor",
    "contractor": "Richards Disposal",
    "rowid": "988997",
    "final_x": "3676471.02849",
    "final_y": "519752.87372",
    "longitude": "-90.08435502466122",
    "latitude": "29.92329168924974",
    "geocoded_column": {
      "latitude": "29.92329168924974",
      "longitude": "-90.08435502466122"
    }
  },
  {
    "service_request": "2023-988996",
    "request_type": "Trash/Recycling",
    "request_reason": "MIssed Recycling Pick-Up",
    "date_created": "2023-04-05T19:03:09.000",
    "date_modified": "2023-04-05T19:03:10.000",
    "request_status": "Pending",
    "responsible_agency": "Department of Sanitation",
    "final_address": "5315 Painters St",
    "address_councildis": "D",
    "status": "Assigned to Contractor",
    "contractor": "IV Waste",
    "rowid": "988996",
    "final_x": "3686152.13814",
    "final_y": "552376.612246",
    "longitude": "-90.05264449583113",
    "latitude": "30.012701905094858",
    "geocoded_column": {
      "latitude": "30.012701905094858",
      "longitude": "-90.05264449583113"
    }
  },
  {
    "service_request": "2023-988994",
    "request_type": "Trash/Recycling",
    "request_reason": "Request a Large Item Pick Up",
    "date_created": "2023-04-05T18:59:20.000",
    "date_modified": "2023-04-05T18:59:21.000",
    "request_status": "Pending",
    "responsible_agency": "Department of Sanitation",
    "final_address": "2350 Magazine St",
    "address_councildis": "B",
    "status": "Assigned to Contractor",
    "contractor": "Richards Disposal",
    "rowid": "988994",
    "final_x": "3678230.97371",
    "final_y": "521558.957753",
    "longitude": "-90.0787371201827",
    "latitude": "29.92820496682615",
    "geocoded_column": {
      "latitude": "29.92820496682615",
      "longitude": "-90.0787371201827"
    }
  },
  {
    "service_request": "2023-988993",
    "request_type": "Roads/Drainage",
    "request_reason": "Pothole",
    "date_created": "2023-04-05T18:53:16.000",
    "date_modified": "2023-04-05T18:53:16.000",
    "request_status": "Pending",
    "responsible_agency": "Department of Public Works",
    "final_address": "FLEUR DE LIS DR & 16TH ST",
    "address_councildis": "A",
    "status": "Pending",
    "rowid": "988993",
    "final_x": "3665239.7",
    "final_y": "548423.38",
    "longitude": "-90.11884898185234",
    "latitude": "30.002457997447138",
    "geocoded_column": {
      "latitude": "30.002457997447138",
      "longitude": "-90.11884898185234"
    }
  },
  {
    "service_request": "2023-988992",
    "request_type": "Trash/Recycling",
    "request_reason": "Request a Large Item Pick Up",
    "date_created": "2023-04-05T18:51:17.000",
    "date_modified": "2023-04-05T18:51:18.000",
    "request_status": "Pending",
    "responsible_agency": "Department of Sanitation",
    "final_address": "2350 Magazine St",
    "address_councildis": "B",
    "status": "Assigned to Contractor",
    "contractor": "Richards Disposal",
    "rowid": "988992",
    "final_x": "3678230.97371",
    "final_y": "521558.957753",
    "longitude": "-90.0787371201827",
    "latitude": "29.92820496682615",
    "geocoded_column": {
      "latitude": "29.92820496682615",
      "longitude": "-90.0787371201827"
    }
  },
  {
    "service_request": "2023-988991",
    "request_type": "Trash/Recycling",
    "request_reason": "Missed Trash Pick-Up",
    "date_created": "2023-04-05T18:43:19.000",
    "date_modified": "2023-04-05T18:43:20.000",
    "request_status": "Pending",
    "responsible_agency": "Department of Sanitation",
    "final_address": "1820 Benefit St",
    "address_councildis": "D",
    "status": "Assigned to Contractor",
    "contractor": "IV Waste",
    "rowid": "988991",
    "final_x": "3681579.28245",
    "final_y": "544150.428302",
    "longitude": "-90.0673793460338",
    "latitude": "29.990222583427304",
    "geocoded_column": {
      "latitude": "29.990222583427304",
      "longitude": "-90.0673793460338"
    }
  },
  {
    "service_request": "2023-988990",
    "request_type": "Property Maintenance",
    "request_reason": "Property Maintenance",
    "date_created": "2023-04-05T18:34:46.000",
    "date_modified": "2023-04-05T18:34:46.000",
    "request_status": "Pending",
    "responsible_agency": "Department of Code Enforcement",
    "final_address": "1738 Bartholomew St",
    "address_councildis": "D",
    "status": "Pending",
    "rowid": "988990",
    "final_x": "3692399.93744",
    "final_y": "537861.299977",
    "longitude": "-90.03342522567895",
    "latitude": "29.972596578988853",
    "geocoded_column": {
      "latitude": "29.972596578988853",
      "longitude": "-90.03342522567895"
    }
  },
  {
    "service_request": "2023-988989",
    "request_type": "Trash/Recycling",
    "request_reason": "Repair Trash Cart",
    "date_created": "2023-04-05T18:20:57.000",
    "date_modified": "2023-04-05T18:20:58.000",
    "request_status": "Pending",
    "responsible_agency": "Department of Sanitation",
    "final_address": "165 Broadway St",
    "address_councildis": "A",
    "status": "Assigned to Contractor",
    "contractor": "Richards Disposal",
    "rowid": "988989",
    "final_x": "3661048.23584",
    "final_y": "521757.188154",
    "longitude": "-90.13297292309639",
    "latitude": "29.92925616875502",
    "geocoded_column": {
      "latitude": "29.92925616875502",
      "longitude": "-90.13297292309639"
    }
  },
  {
    "service_request": "2023-988988",
    "request_type": "Trash/Recycling",
    "request_reason": "MIssed Recycling Pick-Up",
    "date_created": "2023-04-05T18:14:29.000",
    "date_modified": "2023-04-05T18:14:30.000",
    "request_status": "Pending",
    "responsible_agency": "Department of Sanitation",
    "final_address": "2118 Freret St",
    "address_councildis": "B",
    "status": "Assigned to Contractor",
    "contractor": "Richards Disposal",
    "rowid": "988988",
    "final_x": "3675801.34357",
    "final_y": "526418.156094",
    "longitude": "-90.08623997872645",
    "latitude": "29.941639099133855",
    "geocoded_column": {
      "latitude": "29.941639099133855",
      "longitude": "-90.08623997872645"
    }
  },
  {
    "service_request": "2023-988987",
    "request_type": "Abandoned Vehicles",
    "request_reason": "Abandoned/Junk Vehicles",
    "date_created": "2023-04-05T18:07:08.000",
    "date_modified": "2023-04-05T18:08:23.000",
    "request_status": "Pending",
    "responsible_agency": "Department of Public Works",
    "final_address": "3900 BLK dHemecourt St",
    "address_councildis": "B",
    "status": "Pending",
    "rowid": "988987",
    "final_x": "3670429.41993",
    "final_y": "536359.292883",
    "longitude": "-90.10286322502965",
    "latitude": "29.96913361459839",
    "geocoded_column": {
      "latitude": "29.96913361459839",
      "longitude": "-90.10286322502965"
    }
  },
  {
    "service_request": "2023-988986",
    "request_type": "Trash/Recycling",
    "request_reason": "Replace Trash Cart",
    "date_created": "2023-04-05T18:04:49.000",
    "date_modified": "2023-04-05T18:05:30.000",
    "request_status": "Pending",
    "responsible_agency": "Department of Sanitation",
    "final_address": "5953 Marshal Foch St",
    "address_councildis": "A",
    "status": "Assigned to Contractor",
    "contractor": "IV Waste",
    "rowid": "988986",
    "final_x": "3669889.58785",
    "final_y": "546921.323345",
    "longitude": "-90.10421025748067",
    "latitude": "29.998191529099344",
    "geocoded_column": {
      "latitude": "29.998191529099344",
      "longitude": "-90.10421025748067"
    }
  },
  {
    "service_request": "2023-988985",
    "request_type": "Trash/Recycling",
    "request_reason": "Request a Large Item Pick Up",
    "date_created": "2023-04-05T18:03:54.000",
    "date_modified": "2023-04-05T18:03:55.000",
    "request_status": "Pending",
    "responsible_agency": "Department of Sanitation",
    "final_address": "218 N St Patrick St",
    "address_councildis": "A",
    "status": "Assigned to Contractor",
    "contractor": "Richards Disposal",
    "rowid": "988985",
    "final_x": "3669572.18074",
    "final_y": "540251.083659",
    "longitude": "-90.10543874845304",
    "latitude": "29.979860013152777",
    "geocoded_column": {
      "latitude": "29.979860013152777",
      "longitude": "-90.10543874845304"
    }
  },
  {
    "service_request": "2023-988984",
    "request_type": "Safety & Permits",
    "request_reason": "Safety & Permits Request (Cyber Incident Back Up)",
    "date_created": "2023-04-05T17:58:36.000",
    "date_modified": "2023-04-05T17:58:36.000",
    "request_status": "Pending",
    "responsible_agency": "Safety and Permits",
    "status": "Pending",
    "rowid": "988984",
    "longitude": "0.0",
    "latitude": "0.0",
    "geocoded_column": {
      "latitude": "0.0",
      "longitude": "0.0"
    }
  },
  {
    "service_request": "2023-988983",
    "request_type": "Trash/Recycling",
    "request_reason": "MIssed Recycling Pick-Up",
    "date_created": "2023-04-05T17:52:25.000",
    "date_modified": "2023-04-05T17:52:26.000",
    "request_status": "Pending",
    "responsible_agency": "Department of Sanitation",
    "final_address": "10115 Pressburg St",
    "address_councildis": "E",
    "status": "Assigned to Contractor",
    "contractor": "Waste Pro",
    "rowid": "988983",
    "final_x": "3712841.14648",
    "final_y": "557229.241947",
    "longitude": "-89.96814010482213",
    "latitude": "30.025197518417823",
    "geocoded_column": {
      "latitude": "30.025197518417823",
      "longitude": "-89.96814010482213"
    }
  },
  {
    "service_request": "2023-988981",
    "request_type": "Parks & Parkways",
    "request_reason": "Request Tree Service (Right of Way/Public Property)",
    "date_created": "2023-04-05T17:41:40.000",
    "date_modified": "2023-04-05T17:41:40.000",
    "request_status": "Pending",
    "responsible_agency": "Department of Parks & Parkway",
    "status": "Pending",
    "rowid": "988981",
    "longitude": "0.0",
    "latitude": "0.0",
    "geocoded_column": {
      "latitude": "0.0",
      "longitude": "0.0"
    }
  },
  {
    "service_request": "2023-988980",
    "request_type": "Traffic Signals/Signs/Striping/Streetlights",
    "request_reason": "Street Light Outage/Malfunction",
    "date_created": "2023-04-05T17:32:54.000",
    "date_modified": "2023-04-05T17:32:54.000",
    "request_status": "Pending",
    "responsible_agency": "Department of Public Works",
    "final_address": "3810 Blair St",
    "address_councildis": "C",
    "status": "Assigned to Contractor",
    "contractor": "Legacy Professional Services",
    "rowid": "988980",
    "final_x": "3709317.70987",
    "final_y": "516939.208949",
    "longitude": "-89.98077629572866",
    "latitude": "29.914529760555297",
    "geocoded_column": {
      "latitude": "29.914529760555297",
      "longitude": "-89.98077629572866"
    }
  },
  {
    "service_request": "2023-988979",
    "request_type": "Trash/Recycling",
    "request_reason": "Request a Large Item Pick Up",
    "date_created": "2023-04-05T17:21:20.000",
    "date_modified": "2023-04-05T17:21:21.000",
    "request_status": "Pending",
    "responsible_agency": "Department of Sanitation",
    "final_address": "1622 Agriculture St",
    "address_councildis": "D",
    "status": "Assigned to Contractor",
    "contractor": "IV Waste",
    "rowid": "988979",
    "final_x": "3680126.57576",
    "final_y": "542919.684685",
    "longitude": "-90.07201086021256",
    "latitude": "29.986882522098753",
    "geocoded_column": {
      "latitude": "29.986882522098753",
      "longitude": "-90.07201086021256"
    }
  },
  {
    "service_request": "2023-988978",
    "request_type": "Trash/Recycling",
    "request_reason": "Request a Large Item Pick Up",
    "date_created": "2023-04-05T17:14:32.000",
    "date_modified": "2023-04-05T17:14:32.000",
    "request_status": "Pending",
    "responsible_agency": "Department of Sanitation",
    "final_address": "1228 Burdette St",
    "address_councildis": "A",
    "status": "Assigned to Contractor",
    "contractor": "Richards Disposal",
    "rowid": "988978",
    "final_x": "3662935.40679",
    "final_y": "527831.977919",
    "longitude": "-90.12681352933679",
    "latitude": "29.94590541877539",
    "geocoded_column": {
      "latitude": "29.94590541877539",
      "longitude": "-90.12681352933679"
    }
  },
  {
    "service_request": "2023-988977",
    "request_type": "Trash/Recycling",
    "request_reason": "Request a Large Item Pick Up",
    "date_created": "2023-04-05T17:13:34.000",
    "date_modified": "2023-04-05T17:13:35.000",
    "request_status": "Pending",
    "responsible_agency": "Department of Sanitation",
    "final_address": "1621 Maura Pl",
    "address_councildis": "C",
    "status": "Assigned to Contractor",
    "contractor": "Richards Disposal",
    "rowid": "988977",
    "final_x": "3699191.60112",
    "final_y": "524823.550524",
    "longitude": "-90.01245070962338",
    "latitude": "29.93653377689301",
    "geocoded_column": {
      "latitude": "29.93653377689301",
      "longitude": "-90.01245070962338"
    }
  },
  {
    "service_request": "2023-988976",
    "request_type": "Roads/Drainage",
    "request_reason": "Pothole",
    "date_created": "2023-04-05T17:05:36.000",
    "date_modified": "2023-04-05T17:05:36.000",
    "request_status": "Pending",
    "responsible_agency": "Department of Public Works",
    "final_address": "YORKTOWN DR & MIDDLEBORO RD",
    "address_councildis": "E",
    "status": "Pending",
    "rowid": "988976",
    "final_x": "3706048.1",
    "final_y": "560802.68",
    "longitude": "-89.98947248259279",
    "latitude": "30.035243865211374",
    "geocoded_column": {
      "latitude": "30.035243865211374",
      "longitude": "-89.98947248259279"
    }
  },
  {
    "service_request": "2023-988975",
    "request_type": "Roads/Drainage",
    "request_reason": "Pothole",
    "date_created": "2023-04-05T17:04:59.000",
    "date_modified": "2023-04-05T17:04:59.000",
    "request_status": "Pending",
    "responsible_agency": "Department of Public Works",
    "final_address": "6900 Yorktown Dr",
    "address_councildis": "E",
    "status": "Pending",
    "rowid": "988975",
    "final_x": "3706373.14942",
    "final_y": "560020.116253",
    "longitude": "-89.98847430703314",
    "latitude": "30.03308163650069",
    "geocoded_column": {
      "latitude": "30.03308163650069",
      "longitude": "-89.98847430703314"
    }
  },
  {
    "service_request": "2023-988974",
    "request_type": "Traffic Signals/Signs/Striping/Streetlights",
    "request_reason": "Road Surface Marking Maintenance-Traffic Control",
    "date_created": "2023-04-05T17:01:10.000",
    "date_modified": "2023-04-05T17:01:10.000",
    "request_status": "Pending",
    "responsible_agency": "Department of Public Works",
    "final_address": "BULLARD AVE & I 10 W SERVICE RD",
    "address_councildis": "E",
    "status": "Pending",
    "rowid": "988974",
    "final_x": "3714692.5",
    "final_y": "565330.28",
    "longitude": "-89.96198381911823",
    "latitude": "30.047411338068276",
    "geocoded_column": {
      "latitude": "30.047411338068276",
      "longitude": "-89.96198381911823"
    }
  },
  {
    "service_request": "2023-988973",
    "request_type": "Trash/Recycling",
    "request_reason": "Missed Trash Pick-Up",
    "date_created": "2023-04-05T17:00:32.000",
    "date_modified": "2023-04-05T17:00:33.000",
    "request_status": "Pending",
    "responsible_agency": "Department of Sanitation",
    "final_address": "1832 Pine St",
    "address_councildis": "A",
    "status": "Assigned to Contractor",
    "contractor": "Richards Disposal",
    "rowid": "988973",
    "final_x": "3665221.261",
    "final_y": "528716.724736",
    "longitude": "-90.11956669801495",
    "latitude": "29.94827180727553",
    "geocoded_column": {
      "latitude": "29.94827180727553",
      "longitude": "-90.11956669801495"
    }
  },
  {
    "service_request": "2023-988972",
    "request_type": "Trash/Recycling",
    "request_reason": "MIssed Recycling Pick-Up",
    "date_created": "2023-04-05T16:57:26.000",
    "date_modified": "2023-04-05T16:57:26.000",
    "request_status": "Pending",
    "responsible_agency": "Department of Sanitation",
    "final_address": "5348 Laurel St",
    "address_councildis": "B",
    "status": "Assigned to Contractor",
    "contractor": "Richards Disposal",
    "rowid": "988972",
    "final_x": "3666916.88653",
    "final_y": "517846.390326",
    "longitude": "-90.1145779532518",
    "latitude": "29.918332356514675",
    "geocoded_column": {
      "latitude": "29.918332356514675",
      "longitude": "-90.1145779532518"
    }
  },
  {
    "service_request": "2023-988971",
    "request_type": "Trash/Recycling",
    "request_reason": "Request a Large Item Pick Up",
    "date_created": "2023-04-05T16:54:03.000",
    "date_modified": "2023-04-05T16:56:57.000",
    "request_status": "Pending",
    "responsible_agency": "Department of Sanitation",
    "final_address": "7620 Crestmont Rd",
    "address_councildis": "E",
    "status": "Assigned to Contractor",
    "contractor": "Waste Pro",
    "rowid": "988971",
    "final_x": "3699568.4778",
    "final_y": "560282.931293",
    "longitude": "-90.00996799967164",
    "latitude": "30.034022120876525",
    "geocoded_column": {
      "latitude": "30.034022120876525",
      "longitude": "-90.00996799967164"
    }
  },
  {
    "service_request": "2023-988969",
    "request_type": "Parks & Parkways",
    "request_reason": "Request Tree Service (Right of Way/Public Property)",
    "date_created": "2023-04-05T16:52:12.000",
    "date_modified": "2023-04-05T16:52:12.000",
    "request_status": "Pending",
    "responsible_agency": "Department of Parks & Parkway",
    "final_address": "10031 Flossmoor Dr",
    "address_councildis": "E",
    "status": "Pending",
    "rowid": "988969",
    "final_x": "3709369.78283",
    "final_y": "563520.055712",
    "longitude": "-89.97887400768728",
    "latitude": "30.042608030488132",
    "geocoded_column": {
      "latitude": "30.042608030488132",
      "longitude": "-89.97887400768728"
    }
  },
  {
    "service_request": "2023-988968",
    "request_type": "Parks & Parkways",
    "request_reason": "Request Tree Service (Right of Way/Public Property)",
    "date_created": "2023-04-05T16:52:10.000",
    "date_modified": "2023-04-05T16:52:21.000",
    "request_status": "Pending",
    "responsible_agency": "Department of Parks & Parkway",
    "final_address": "LEON C SIMON DR & PRESS DR",
    "address_councildis": "D",
    "status": "Pending",
    "rowid": "988968",
    "final_x": "3688313.4",
    "final_y": "558321.98",
    "longitude": "-90.04560501316018",
    "latitude": "30.028982859086746",
    "geocoded_column": {
      "latitude": "30.028982859086746",
      "longitude": "-90.04560501316018"
    }
  },
  {
    "service_request": "2023-988967",
    "request_type": "Traffic Signals/Signs/Striping/Streetlights",
    "request_reason": "Street Light Outage/Malfunction",
    "date_created": "2023-04-05T16:51:31.000",
    "date_modified": "2023-04-05T16:51:31.000",
    "request_status": "Pending",
    "responsible_agency": "Department of Public Works",
    "final_address": "3136 N Johnson St",
    "address_councildis": "D",
    "status": "Assigned to Contractor",
    "contractor": "Legacy Professional Services",
    "rowid": "988967",
    "final_x": "3689763.16604",
    "final_y": "539359.879754",
    "longitude": "-90.04169925056691",
    "latitude": "29.976799130578126",
    "geocoded_column": {
      "latitude": "29.976799130578126",
      "longitude": "-90.04169925056691"
    }
  },
  {
    "service_request": "2023-988966",
    "request_type": "Trash/Recycling",
    "request_reason": "Repair Trash Cart",
    "date_created": "2023-04-05T16:50:16.000",
    "date_modified": "2023-04-05T16:50:17.000",
    "request_status": "Pending",
    "responsible_agency": "Department of Sanitation",
    "final_address": "925 Eleonore St",
    "address_councildis": "A",
    "status": "Assigned to Contractor",
    "contractor": "Richards Disposal",
    "rowid": "988966",
    "final_x": "3665393.87373",
    "final_y": "519622.972152",
    "longitude": "-90.11932589538851",
    "latitude": "29.923261855295813",
    "geocoded_column": {
      "latitude": "29.923261855295813",
      "longitude": "-90.11932589538851"
    }
  },
  {
    "service_request": "2023-988965",
    "request_type": "Abandoned Vehicles",
    "request_reason": "Abandoned/Junk Vehicles",
    "date_created": "2023-04-05T16:47:05.000",
    "date_modified": "2023-04-05T16:47:05.000",
    "request_status": "Pending",
    "responsible_agency": "Department of Public Works",
    "final_address": "2700 BLK Mendez St",
    "address_councildis": "D",
    "status": "Pending",
    "rowid": "988965",
    "final_x": "3687436.71269",
    "final_y": "553710.647616",
    "longitude": "-90.048538696309",
    "latitude": "30.016330470742023",
    "geocoded_column": {
      "latitude": "30.016330470742023",
      "longitude": "-90.048538696309"
    }
  },
  {
    "service_request": "2023-988964",
    "request_type": "Property Maintenance",
    "request_reason": "Property Maintenance",
    "date_created": "2023-04-05T16:40:30.000",
    "date_modified": "2023-04-05T16:40:30.000",
    "request_status": "Pending",
    "responsible_agency": "Department of Code Enforcement",
    "final_address": "7928 Forshey St",
    "address_councildis": "B",
    "status": "Pending",
    "rowid": "988964",
    "final_x": "3667392.80314",
    "final_y": "533521.207045",
    "longitude": "-90.11254860288972",
    "latitude": "29.961419132925258",
    "geocoded_column": {
      "latitude": "29.961419132925258",
      "longitude": "-90.11254860288972"
    }
  },
  {
    "service_request": "2023-988963",
    "request_type": "Trash/Recycling",
    "request_reason": "Repair Recycling Cart",
    "date_created": "2023-04-05T16:40:30.000",
    "date_modified": "2023-04-05T16:40:48.000",
    "request_status": "Pending",
    "responsible_agency": "Department of Sanitation",
    "final_address": "4834 Sierra Madre Dr",
    "address_councildis": "E",
    "contractor": "Waste Pro",
    "rowid": "988963",
    "final_x": "3713799.96223",
    "final_y": "556800.745818",
    "longitude": "-89.96512659433472",
    "latitude": "30.023987878010406",
    "geocoded_column": {
      "latitude": "30.023987878010406",
      "longitude": "-89.96512659433472"
    }
  },
  {
    "service_request": "2023-988962",
    "request_type": "Trash/Recycling",
    "request_reason": "Missed Trash Pick-Up",
    "date_created": "2023-04-05T16:38:48.000",
    "date_modified": "2023-04-05T16:38:48.000",
    "request_status": "Pending",
    "responsible_agency": "Department of Sanitation",
    "final_address": "9235 Lake Forest Blvd",
    "address_councildis": "E",
    "status": "Assigned to Contractor",
    "contractor": "Waste Pro",
    "rowid": "988962",
    "final_x": "3708042.09848",
    "final_y": "558669.1903",
    "longitude": "-89.98325061416197",
    "latitude": "30.029313155771835",
    "geocoded_column": {
      "latitude": "30.029313155771835",
      "longitude": "-89.98325061416197"
    }
  },
  {
    "service_request": "2023-988961",
    "request_type": "Trash/Recycling",
    "request_reason": "Request a Large Item Pick Up",
    "date_created": "2023-04-05T16:35:03.000",
    "date_modified": "2023-04-05T16:35:04.000",
    "request_status": "Pending",
    "responsible_agency": "Department of Sanitation",
    "final_address": "3501 Annunciation St",
    "address_councildis": "B",
    "status": "Assigned to Contractor",
    "contractor": "Richards Disposal",
    "rowid": "988961",
    "final_x": "3674775.35713",
    "final_y": "518399.114934",
    "longitude": "-90.0897540022201",
    "latitude": "29.91962000043516",
    "geocoded_column": {
      "latitude": "29.91962000043516",
      "longitude": "-90.0897540022201"
    }
  },
  {
    "service_request": "2023-988960",
    "request_type": "Trash/Recycling",
    "request_reason": "Request a Large Item Pick Up",
    "date_created": "2023-04-05T16:33:51.000",
    "date_modified": "2023-04-05T16:33:52.000",
    "request_status": "Pending",
    "responsible_agency": "Department of Sanitation",
    "final_address": "7531 Morel St",
    "address_councildis": "E",
    "status": "Assigned to Contractor",
    "contractor": "Waste Pro",
    "rowid": "988960",
    "final_x": "3719185.9566",
    "final_y": "571562.858728",
    "longitude": "-89.9475439688749",
    "latitude": "30.06439970955594",
    "geocoded_column": {
      "latitude": "30.06439970955594",
      "longitude": "-89.9475439688749"
    }
  },
  {
    "service_request": "2023-988959",
    "request_type": "Trash/Recycling",
    "request_reason": "Order Recycling Cart",
    "date_created": "2023-04-05T16:29:31.000",
    "date_modified": "2023-04-05T16:29:32.000",
    "request_status": "Pending",
    "responsible_agency": "Department of Sanitation",
    "final_address": "2522 Jonquil St",
    "address_councildis": "D",
    "status": "Pending",
    "rowid": "988959",
    "final_x": "3686543.78108",
    "final_y": "547142.698833",
    "longitude": "-90.05159209733519",
    "latitude": "29.998298504116804",
    "geocoded_column": {
      "latitude": "29.998298504116804",
      "longitude": "-90.05159209733519"
    }
  },
  {
    "service_request": "2023-988958",
    "request_type": "Trash/Recycling",
    "request_reason": "Order Trash Cart",
    "date_created": "2023-04-05T16:27:05.000",
    "date_modified": "2023-04-05T16:29:00.000",
    "request_status": "Pending",
    "responsible_agency": "Department of Sanitation",
    "final_address": "2834 Josephine St",
    "address_councildis": "B",
    "status": "Assigned to Contractor",
    "contractor": "Richards Disposal",
    "rowid": "988958",
    "final_x": "3675136.40021",
    "final_y": "527485.817407",
    "longitude": "-90.0883027152805",
    "latitude": "29.94459469899753",
    "geocoded_column": {
      "latitude": "29.94459469899753",
      "longitude": "-90.0883027152805"
    }
  },
  {
    "service_request": "2023-988957",
    "request_type": "Trash/Recycling",
    "request_reason": "MIssed Recycling Pick-Up",
    "date_created": "2023-04-05T16:20:35.000",
    "date_modified": "2023-04-05T16:20:36.000",
    "request_status": "Pending",
    "responsible_agency": "Department of Sanitation",
    "status": "Assigned to Contractor",
    "rowid": "988957",
    "longitude": "0.0",
    "latitude": "0.0",
    "geocoded_column": {
      "latitude": "0.0",
      "longitude": "0.0"
    }
  },
  {
    "service_request": "2023-988956",
    "request_type": "Abandoned Vehicles",
    "request_reason": "Abandoned/Junk Vehicles",
    "date_created": "2023-04-05T16:19:36.000",
    "date_modified": "2023-04-05T16:19:36.000",
    "request_status": "Pending",
    "responsible_agency": "Department of Public Works",
    "status": "Pending",
    "rowid": "988956",
    "longitude": "0.0",
    "latitude": "0.0",
    "geocoded_column": {
      "latitude": "0.0",
      "longitude": "0.0"
    }
  },
  {
    "service_request": "2023-988955",
    "request_type": "Tax and Revenue",
    "request_reason": "Sales Tax Question",
    "date_created": "2023-04-05T16:19:31.000",
    "date_modified": "2023-04-05T16:19:31.000",
    "request_status": "Pending",
    "responsible_agency": "Bureau of Revenue",
    "final_address": "5418 Magazine St",
    "address_councildis": "A",
    "status": "Pending",
    "rowid": "988955",
    "final_x": "3666576.97261",
    "final_y": "518766.800759",
    "longitude": "-90.11562000870622",
    "latitude": "29.920873133473428",
    "geocoded_column": {
      "latitude": "29.920873133473428",
      "longitude": "-90.11562000870622"
    }
  },
  {
    "service_request": "2023-988954",
    "request_type": "Abandoned Vehicles",
    "request_reason": "Abandoned/Junk Vehicles",
    "date_created": "2023-04-05T16:14:49.000",
    "date_modified": "2023-04-05T16:14:49.000",
    "request_status": "Pending",
    "responsible_agency": "Department of Public Works",
    "final_address": "1834 Congress St",
    "address_councildis": "D",
    "status": "Pending",
    "rowid": "988954",
    "final_x": "3691406.583",
    "final_y": "538487.661961",
    "longitude": "-90.03654001946414",
    "latitude": "29.974349801363157",
    "geocoded_column": {
      "latitude": "29.974349801363157",
      "longitude": "-90.03654001946414"
    }
  },
  {
    "service_request": "2023-988953",
    "request_type": "Trash/Recycling",
    "request_reason": "Repair Trash Cart",
    "date_created": "2023-04-05T16:05:39.000",
    "date_modified": "2023-04-05T16:05:40.000",
    "request_status": "Pending",
    "responsible_agency": "Department of Sanitation",
    "final_address": "3608 Inwood Ave",
    "address_councildis": "C",
    "status": "Assigned to Contractor",
    "contractor": "Richards Disposal",
    "rowid": "988953",
    "final_x": "3703817.57156",
    "final_y": "515229.013427",
    "longitude": "-89.99819938951157",
    "latitude": "29.91000468244602",
    "geocoded_column": {
      "latitude": "29.91000468244602",
      "longitude": "-89.99819938951157"
    }
  },
  {
    "service_request": "2023-988952",
    "request_type": "Trash/Recycling",
    "request_reason": "Replace Recycling Cart",
    "date_created": "2023-04-05T16:05:03.000",
    "date_modified": "2023-04-05T16:05:03.000",
    "request_status": "Pending",
    "responsible_agency": "Department of Sanitation",
    "final_address": "1316 Joseph St",
    "address_councildis": "A",
    "status": "Pending",
    "rowid": "988952",
    "final_x": "3666473.94887",
    "final_y": "520699.303481",
    "longitude": "-90.11588039620861",
    "latitude": "29.926189917459155",
    "geocoded_column": {
      "latitude": "29.926189917459155",
      "longitude": "-90.11588039620861"
    }
  },
  {
    "service_request": "2023-988951",
    "request_type": "Trash/Recycling",
    "request_reason": "Order Trash Cart",
    "date_created": "2023-04-05T15:58:43.000",
    "date_modified": "2023-04-05T15:58:44.000",
    "request_status": "Pending",
    "responsible_agency": "Department of Sanitation",
    "final_address": "5444 Debore Dr",
    "address_councildis": "D",
    "status": "Assigned to Contractor",
    "contractor": "IV Waste",
    "rowid": "988951",
    "final_x": "3691806.207",
    "final_y": "554115.28572",
    "longitude": "-90.03471855494355",
    "latitude": "30.017307635905272",
    "geocoded_column": {
      "latitude": "30.017307635905272",
      "longitude": "-90.03471855494355"
    }
  },
  {
    "service_request": "2023-988950",
    "request_type": "Roads/Drainage",
    "request_reason": "Street Flooding / Drainage",
    "date_created": "2023-04-05T15:57:37.000",
    "date_modified": "2023-04-05T15:57:37.000",
    "request_status": "Pending",
    "responsible_agency": "Department of Public Works",
    "final_address": "3932 N Robertson St",
    "address_councildis": "D",
    "status": "Pending",
    "rowid": "988950",
    "final_x": "3692110.93245",
    "final_y": "536763.499976",
    "longitude": "-90.03437725554122",
    "latitude": "29.969587029743277",
    "geocoded_column": {
      "latitude": "29.969587029743277",
      "longitude": "-90.03437725554122"
    }
  },
  {
    "service_request": "2023-988949",
    "request_type": "Trash/Recycling",
    "request_reason": "Repair Trash Cart",
    "date_created": "2023-04-05T15:55:49.000",
    "date_modified": "2023-04-05T15:56:45.000",
    "request_status": "Pending",
    "responsible_agency": "Department of Sanitation",
    "final_address": "2023 S Carrollton Ave",
    "address_councildis": "A",
    "status": "Assigned to Contractor",
    "contractor": "Richards Disposal",
    "rowid": "988949",
    "final_x": "3664101.56263",
    "final_y": "530475.466306",
    "longitude": "-90.12304340798433",
    "latitude": "29.953140344123238",
    "geocoded_column": {
      "latitude": "29.953140344123238",
      "longitude": "-90.12304340798433"
    }
  },
  {
    "service_request": "2023-988948",
    "request_type": "Trash/Recycling",
    "request_reason": "Repair Trash Cart",
    "date_created": "2023-04-05T15:53:36.000",
    "date_modified": "2023-04-05T15:53:37.000",
    "request_status": "Pending",
    "responsible_agency": "Department of Sanitation",
    "final_address": "588 Walnut St",
    "address_councildis": "A",
    "status": "Assigned to Contractor",
    "contractor": "Richards Disposal",
    "rowid": "988948",
    "final_x": "3663247.44211",
    "final_y": "524152.19878",
    "longitude": "-90.12595074745698",
    "latitude": "29.935778160661567",
    "geocoded_column": {
      "latitude": "29.935778160661567",
      "longitude": "-90.12595074745698"
    }
  },
  {
    "service_request": "2023-988947",
    "request_type": "Trash/Recycling",
    "request_reason": "Request a Large Item Pick Up",
    "date_created": "2023-04-05T15:53:28.000",
    "date_modified": "2023-04-05T15:53:29.000",
    "request_status": "Pending",
    "responsible_agency": "Department of Sanitation",
    "final_address": "1519 Jackson Ave",
    "address_councildis": "B",
    "status": "Assigned to Contractor",
    "contractor": "Richards Disposal",
    "rowid": "988947",
    "final_x": "3677876.62894",
    "final_y": "523459.968507",
    "longitude": "-90.0797900565652",
    "latitude": "29.933442788360022",
    "geocoded_column": {
      "latitude": "29.933442788360022",
      "longitude": "-90.0797900565652"
    }
  },
  {
    "service_request": "2023-988946",
    "request_type": "Trash/Recycling",
    "request_reason": "Return Recycling Cart",
    "date_created": "2023-04-05T15:52:47.000",
    "date_modified": "2023-04-05T15:52:48.000",
    "request_status": "Pending",
    "responsible_agency": "Department of Sanitation",
    "final_address": "2007 Jackson Ave",
    "address_councildis": "B",
    "status": "Pending",
    "rowid": "988946",
    "final_x": "3676627.20725",
    "final_y": "525059.174653",
    "longitude": "-90.08367935169002",
    "latitude": "29.93787760640496",
    "geocoded_column": {
      "latitude": "29.93787760640496",
      "longitude": "-90.08367935169002"
    }
  },
  {
    "service_request": "2023-988945",
    "request_type": "Traffic Signals/Signs/Striping/Streetlights",
    "request_reason": "Traffic Sign Missing/Damaged",
    "date_created": "2023-04-05T15:49:31.000",
    "date_modified": "2023-04-05T15:49:32.000",
    "request_status": "Pending",
    "responsible_agency": "Department of Public Works",
    "final_address": "BARONNE ST & GENERAL TAYLOR",
    "address_councildis": "B",
    "status": "Pending",
    "rowid": "988945",
    "final_x": "3672463.7",
    "final_y": "521764.68",
    "longitude": "-90.09693614447633",
    "latitude": "29.928943009730705",
    "geocoded_column": {
      "latitude": "29.928943009730705",
      "longitude": "-90.09693614447633"
    }
  },
  {
    "service_request": "2023-988944",
    "request_type": "Trash/Recycling",
    "request_reason": "Request a Large Item Pick Up",
    "date_created": "2023-04-05T15:46:26.000",
    "date_modified": "2023-04-05T15:46:26.000",
    "request_status": "Pending",
    "responsible_agency": "Department of Sanitation",
    "final_address": "1409 Octavia St",
    "address_councildis": "A",
    "status": "Assigned to Contractor",
    "contractor": "Richards Disposal",
    "rowid": "988944",
    "final_x": "3666956.38663",
    "final_y": "520991.088313",
    "longitude": "-90.11434767435445",
    "latitude": "29.92697813006529",
    "geocoded_column": {
      "latitude": "29.92697813006529",
      "longitude": "-90.11434767435445"
    }
  },
  {
    "service_request": "2023-988943",
    "request_type": "Trash/Recycling",
    "request_reason": "Order Trash Cart",
    "date_created": "2023-04-05T15:40:50.000",
    "date_modified": "2023-04-05T15:40:50.000",
    "request_status": "Pending",
    "responsible_agency": "Department of Sanitation",
    "final_address": "1909 Annette St",
    "address_councildis": "D",
    "status": "Assigned to Contractor",
    "contractor": "IV Waste",
    "rowid": "988943",
    "final_x": "3682953.55189",
    "final_y": "539209.62305",
    "longitude": "-90.0632113869395",
    "latitude": "29.97659528454461",
    "geocoded_column": {
      "latitude": "29.97659528454461",
      "longitude": "-90.0632113869395"
    }
  },
  {
    "service_request": "2023-988942",
    "request_type": "Trash/Recycling",
    "request_reason": "Repair Trash Cart",
    "date_created": "2023-04-05T15:40:47.000",
    "date_modified": "2023-04-05T15:40:47.000",
    "request_status": "Pending",
    "responsible_agency": "Department of Sanitation",
    "final_address": "11019 N Hardy St",
    "address_councildis": "E",
    "status": "Assigned to Contractor",
    "contractor": "Waste Pro",
    "rowid": "988942",
    "final_x": "3712989.06738",
    "final_y": "562461.961119",
    "longitude": "-89.96747560849154",
    "latitude": "30.039580564339666",
    "geocoded_column": {
      "latitude": "30.039580564339666",
      "longitude": "-89.96747560849154"
    }
  },
  {
    "service_request": "2023-988941",
    "request_type": "Trash/Recycling",
    "request_reason": "Order Trash Cart",
    "date_created": "2023-04-05T15:39:24.000",
    "date_modified": "2023-04-05T15:39:25.000",
    "request_status": "Pending",
    "responsible_agency": "Department of Sanitation",
    "final_address": "3616 Toledano St",
    "address_councildis": "B",
    "status": "Assigned to Contractor",
    "contractor": "Richards Disposal",
    "rowid": "988941",
    "final_x": "3671549.72231",
    "final_y": "528645.650816",
    "longitude": "-90.09958751278363",
    "latitude": "29.94789053282873",
    "geocoded_column": {
      "latitude": "29.94789053282873",
      "longitude": "-90.09958751278363"
    }
  },
  {
    "service_request": "2023-988940",
    "request_type": "Roads/Drainage",
    "request_reason": "Catch Basin - Clogged",
    "date_created": "2023-04-05T15:38:24.000",
    "date_modified": "2023-04-05T15:38:24.000",
    "request_status": "Pending",
    "responsible_agency": "Department of Public Works",
    "final_address": "2729 Mandeville St",
    "address_councildis": "D",
    "status": "Pending",
    "rowid": "988940",
    "final_x": "3685289.1158",
    "final_y": "542921.355213",
    "longitude": "-90.05570426054516",
    "latitude": "29.98672984721927",
    "geocoded_column": {
      "latitude": "29.98672984721927",
      "longitude": "-90.05570426054516"
    }
  },
  {
    "service_request": "2023-988939",
    "request_type": "Trash/Recycling",
    "request_reason": "Request a Large Item Pick Up",
    "date_created": "2023-04-05T15:37:21.000",
    "date_modified": "2023-04-05T15:37:22.000",
    "request_status": "Pending",
    "responsible_agency": "Department of Sanitation",
    "final_address": "2635 Soniat St",
    "address_councildis": "B",
    "status": "Assigned to Contractor",
    "contractor": "Richards Disposal",
    "rowid": "988939",
    "final_x": "3668635.81249",
    "final_y": "525251.861245",
    "longitude": "-90.10890242384461",
    "latitude": "29.93864465867663",
    "geocoded_column": {
      "latitude": "29.93864465867663",
      "longitude": "-90.10890242384461"
    }
  },
  {
    "service_request": "2023-988938",
    "request_type": "Trash/Recycling",
    "request_reason": "Illegal Dumping",
    "date_created": "2023-04-05T15:32:30.000",
    "date_modified": "2023-04-05T15:32:31.000",
    "request_status": "Pending",
    "responsible_agency": "Department of Sanitation",
    "final_address": "700 BLK Hendee St",
    "address_councildis": "C",
    "status": "Pending",
    "rowid": "988938",
    "final_x": "3690851.44503",
    "final_y": "528773.129905",
    "longitude": "-90.03863993435412",
    "latitude": "29.94765549364992",
    "geocoded_column": {
      "latitude": "29.94765549364992",
      "longitude": "-90.03863993435412"
    }
  },
  {
    "service_request": "2023-988937",
    "request_type": "Trash/Recycling",
    "request_reason": "Order Recycling Cart",
    "date_created": "2023-04-05T15:32:17.000",
    "date_modified": "2023-04-05T15:32:18.000",
    "request_status": "Pending",
    "responsible_agency": "Department of Sanitation",
    "final_address": "4853 Camelia St",
    "address_councildis": "E",
    "status": "Pending",
    "rowid": "988937",
    "final_x": "3701551.67185",
    "final_y": "554962.868952",
    "longitude": "-90.00389595711262",
    "latitude": "30.019330873545705",
    "geocoded_column": {
      "latitude": "30.019330873545705",
      "longitude": "-90.00389595711262"
    }
  },
  {
    "service_request": "2023-988936",
    "request_type": "Trash/Recycling",
    "request_reason": "Order Trash Cart",
    "date_created": "2023-04-05T15:31:43.000",
    "date_modified": "2023-04-05T15:31:43.000",
    "request_status": "Pending",
    "responsible_agency": "Department of Sanitation",
    "final_address": "4853 Camelia St",
    "address_councildis": "E",
    "status": "Assigned to Contractor",
    "contractor": "Waste Pro",
    "rowid": "988936",
    "final_x": "3701551.67185",
    "final_y": "554962.868952",
    "longitude": "-90.00389595711262",
    "latitude": "30.019330873545705",
    "geocoded_column": {
      "latitude": "30.019330873545705",
      "longitude": "-90.00389595711262"
    }
  },
  {
    "service_request": "2023-988935",
    "request_type": "Abandoned Vehicles",
    "request_reason": "Abandoned/Junk Vehicles",
    "date_created": "2023-04-05T15:28:57.000",
    "date_modified": "2023-04-05T15:28:57.000",
    "request_status": "Pending",
    "responsible_agency": "Department of Public Works",
    "final_address": "1600 BLK N Roman St",
    "address_councildis": "D",
    "status": "Pending",
    "rowid": "988935",
    "final_x": "3681705.64475",
    "final_y": "538350.735422",
    "longitude": "-90.06718263313441",
    "latitude": "29.97427161748417",
    "geocoded_column": {
      "latitude": "29.97427161748417",
      "longitude": "-90.06718263313441"
    }
  },
  {
    "service_request": "2023-988934",
    "request_type": "Trash/Recycling",
    "request_reason": "Request a Large Item Pick Up",
    "date_created": "2023-04-05T15:27:35.000",
    "date_modified": "2023-04-05T15:27:36.000",
    "request_status": "Pending",
    "responsible_agency": "Department of Sanitation",
    "final_address": "5734 Brighton Pl",
    "address_councildis": "C",
    "status": "Assigned to Contractor",
    "contractor": "Richards Disposal",
    "rowid": "988934",
    "final_x": "3704790.89764",
    "final_y": "520298.661304",
    "longitude": "-89.9949405048591",
    "latitude": "29.92391324472578",
    "geocoded_column": {
      "latitude": "29.92391324472578",
      "longitude": "-89.9949405048591"
    }
  },
  {
    "service_request": "2023-988933",
    "request_type": "Trash/Recycling",
    "request_reason": "Illegal Dumping",
    "date_created": "2023-04-05T15:26:19.000",
    "date_modified": "2023-04-05T15:26:19.000",
    "request_status": "Pending",
    "responsible_agency": "Department of Sanitation",
    "final_address": "2515 Annunciation St",
    "address_councildis": "B",
    "status": "Pending",
    "rowid": "988933",
    "final_x": "3678286.36981",
    "final_y": "520373.548792",
    "longitude": "-90.07860322383962",
    "latitude": "29.924943810337435",
    "geocoded_column": {
      "latitude": "29.924943810337435",
      "longitude": "-90.07860322383962"
    }
  },
  {
    "service_request": "2023-988932",
    "request_type": "Abandoned Vehicles",
    "request_reason": "Abandoned/Junk Vehicles",
    "date_created": "2023-04-05T15:25:59.000",
    "date_modified": "2023-04-05T15:26:00.000",
    "request_status": "Pending",
    "responsible_agency": "Department of Public Works",
    "final_address": "4709 S Liberty St",
    "address_councildis": "B",
    "status": "Pending",
    "rowid": "988932",
    "final_x": "3669381.2098",
    "final_y": "523256.031675",
    "longitude": "-90.10661657597494",
    "latitude": "29.933134846705318",
    "geocoded_column": {
      "latitude": "29.933134846705318",
      "longitude": "-90.10661657597494"
    }
  },
  {
    "service_request": "2023-988931",
    "request_type": "Traffic Signals/Signs/Striping/Streetlights",
    "request_reason": "Street Light Outage/Malfunction",
    "date_created": "2023-04-05T15:24:24.000",
    "date_modified": "2023-04-05T15:24:24.000",
    "request_status": "Pending",
    "responsible_agency": "Department of Public Works",
    "final_address": "6018 Wilton Dr",
    "address_councildis": "D",
    "status": "Assigned to Contractor",
    "contractor": "Legacy Professional Services",
    "rowid": "988931",
    "final_x": "3681654.52002",
    "final_y": "554863.424024",
    "longitude": "-90.06676764166825",
    "latitude": "30.019677187466826",
    "geocoded_column": {
      "latitude": "30.019677187466826",
      "longitude": "-90.06676764166825"
    }
  },
  {
    "service_request": "2023-988930",
    "request_type": "Trash/Recycling",
    "request_reason": "Order Recycling Cart",
    "date_created": "2023-04-05T15:23:49.000",
    "date_modified": "2023-04-05T15:23:49.000",
    "request_status": "Pending",
    "responsible_agency": "Department of Sanitation",
    "final_address": "2727 Chestnut St",
    "address_councildis": "B",
    "status": "Pending",
    "rowid": "988930",
    "final_x": "3676701.61985",
    "final_y": "521546.909305",
    "longitude": "-90.08356536719207",
    "latitude": "29.928217792480396",
    "geocoded_column": {
      "latitude": "29.928217792480396",
      "longitude": "-90.08356536719207"
    }
  },
  {
    "service_request": "2023-988929",
    "request_type": "Roads/Drainage",
    "request_reason": "Street Subsidence (Sinking)",
    "date_created": "2023-04-05T15:23:17.000",
    "date_modified": "2023-04-05T15:23:17.000",
    "request_status": "Pending",
    "responsible_agency": "Department of Public Works",
    "final_address": "231 36Th St",
    "address_councildis": "A",
    "status": "Pending",
    "rowid": "988929",
    "final_x": "3665850.517",
    "final_y": "552087.596246",
    "longitude": "-90.11679642657879",
    "latitude": "30.012515503958863",
    "geocoded_column": {
      "latitude": "30.012515503958863",
      "longitude": "-90.11679642657879"
    }
  },
  {
    "service_request": "2023-988928",
    "request_type": "Abandoned Vehicles",
    "request_reason": "Abandoned/Junk Vehicles",
    "date_created": "2023-04-05T15:21:34.000",
    "date_modified": "2023-04-05T15:21:34.000",
    "request_status": "Pending",
    "responsible_agency": "Department of Public Works",
    "final_address": "3829 Banks St",
    "address_councildis": "A",
    "status": "Pending",
    "rowid": "988928",
    "final_x": "3671204.24276",
    "final_y": "536838.852104",
    "longitude": "-90.10039997732386",
    "latitude": "29.970429339973748",
    "geocoded_column": {
      "latitude": "29.970429339973748",
      "longitude": "-90.10039997732386"
    }
  },
  {
    "service_request": "2023-988927",
    "request_type": "Trash/Recycling",
    "request_reason": "Repair Trash Cart",
    "date_created": "2023-04-05T15:09:02.000",
    "date_modified": "2023-04-05T15:09:03.000",
    "request_status": "Pending",
    "responsible_agency": "Department of Sanitation",
    "final_address": "4728 Stemway Dr",
    "address_councildis": "D",
    "status": "Assigned to Contractor",
    "contractor": "Waste Pro",
    "rowid": "988927",
    "final_x": "3696845.24343",
    "final_y": "554186.104984",
    "longitude": "-90.01879475083793",
    "latitude": "30.017344371052182",
    "geocoded_column": {
      "latitude": "30.017344371052182",
      "longitude": "-90.01879475083793"
    }
  },
  {
    "service_request": "2023-988926",
    "request_type": "Trash/Recycling",
    "request_reason": "Request a Large Item Pick Up",
    "date_created": "2023-04-05T15:03:08.000",
    "date_modified": "2023-04-05T15:03:08.000",
    "request_status": "Pending",
    "responsible_agency": "Department of Sanitation",
    "final_address": "4751 Perelli Dr",
    "address_councildis": "E",
    "status": "Assigned to Contractor",
    "contractor": "Waste Pro",
    "rowid": "988926",
    "final_x": "3711781.47998",
    "final_y": "556170.248858",
    "longitude": "-89.9715282236881",
    "latitude": "30.02232037624541",
    "geocoded_column": {
      "latitude": "30.02232037624541",
      "longitude": "-89.9715282236881"
    }
  },
  {
    "service_request": "2023-988924",
    "request_type": "Roads/Drainage",
    "request_reason": "Catch Basin - Broken/Damage",
    "date_created": "2023-04-05T15:00:21.000",
    "date_modified": "2023-04-05T15:00:22.000",
    "request_status": "Pending",
    "responsible_agency": "Department of Public Works",
    "final_address": "700 BLK Soniat St",
    "address_councildis": "B",
    "status": "Pending",
    "rowid": "988924",
    "final_x": "3668323.46286",
    "final_y": "518038.844616",
    "longitude": "-90.11013164576559",
    "latitude": "29.918820332834642",
    "geocoded_column": {
      "latitude": "29.918820332834642",
      "longitude": "-90.11013164576559"
    }
  },
  {
    "service_request": "2023-988923",
    "request_type": "Trash/Recycling",
    "request_reason": "Order Recycling Cart",
    "date_created": "2023-04-05T14:58:22.000",
    "date_modified": "2023-04-05T14:58:22.000",
    "request_status": "Pending",
    "responsible_agency": "Department of Sanitation",
    "final_address": "3218 Desaix Blvd",
    "address_councildis": "A",
    "status": "Pending",
    "rowid": "988923",
    "final_x": "3678124.56712",
    "final_y": "543509.680078",
    "longitude": "-90.07831406202475",
    "latitude": "29.988565247785683",
    "geocoded_column": {
      "latitude": "29.988565247785683",
      "longitude": "-90.07831406202475"
    }
  },
  {
    "service_request": "2023-988922",
    "request_type": "Roads/Drainage",
    "request_reason": "Pothole",
    "date_created": "2023-04-05T14:57:43.000",
    "date_modified": "2023-04-05T14:57:44.000",
    "request_status": "Pending",
    "responsible_agency": "Department of Public Works",
    "final_address": "700 BLK Soniat St",
    "address_councildis": "B",
    "status": "Pending",
    "rowid": "988922",
    "final_x": "3668323.46286",
    "final_y": "518038.844616",
    "longitude": "-90.11013164576559",
    "latitude": "29.918820332834642",
    "geocoded_column": {
      "latitude": "29.918820332834642",
      "longitude": "-90.11013164576559"
    }
  },
  {
    "service_request": "2023-988921",
    "request_type": "Trash/Recycling",
    "request_reason": "MIssed Recycling Pick-Up",
    "date_created": "2023-04-05T14:53:31.000",
    "date_modified": "2023-04-05T14:53:32.000",
    "request_status": "Pending",
    "responsible_agency": "Department of Sanitation",
    "final_address": "1505 Shirley Dr",
    "address_councildis": "C",
    "status": "Assigned to Contractor",
    "contractor": "Richards Disposal",
    "rowid": "988921",
    "final_x": "3692976.42326",
    "final_y": "525337.103485",
    "longitude": "-90.03205377946526",
    "latitude": "29.938141411927322",
    "geocoded_column": {
      "latitude": "29.938141411927322",
      "longitude": "-90.03205377946526"
    }
  },
  {
    "service_request": "2023-988920",
    "request_type": "Mosquito, Termite & Rodent Control",
    "request_reason": "Rodent Complaint (Rats)",
    "date_created": "2023-04-05T14:49:56.000",
    "date_modified": "2023-04-05T14:49:56.000",
    "request_status": "Pending",
    "responsible_agency": "Mosquito, Termite & Rodent Control Board",
    "final_address": "2113 Clara St",
    "address_councildis": "B",
    "status": "Pending",
    "rowid": "988920",
    "final_x": "3675194.25569",
    "final_y": "527268.334847",
    "longitude": "-90.08812751026697",
    "latitude": "29.943994964969768",
    "geocoded_column": {
      "latitude": "29.943994964969768",
      "longitude": "-90.08812751026697"
    }
  },
  {
    "service_request": "2023-988919",
    "request_type": "Property Maintenance",
    "request_reason": "Property Maintenance",
    "date_created": "2023-04-05T14:48:13.000",
    "date_modified": "2023-04-05T14:48:14.000",
    "request_status": "Pending",
    "responsible_agency": "Department of Code Enforcement",
    "final_address": "BENSON ST & GERVAIS ST",
    "address_councildis": "E",
    "status": "Pending",
    "rowid": "988919",
    "final_x": "3704235.3",
    "final_y": "562895.78",
    "longitude": "-89.99512393528605",
    "latitude": "30.041057401738783",
    "geocoded_column": {
      "latitude": "30.041057401738783",
      "longitude": "-89.99512393528605"
    }
  },
  {
    "service_request": "2023-988918",
    "request_type": "Traffic Signals/Signs/Striping/Streetlights",
    "request_reason": "Street Light Knocked Down/Leaning",
    "date_created": "2023-04-05T14:48:00.000",
    "date_modified": "2023-04-05T14:48:27.000",
    "request_status": "Pending",
    "responsible_agency": "Department of Public Works",
    "final_address": "A P TUREAUD AVE & N BROAD ST",
    "address_councildis": "D",
    "contractor": "Legacy Professional Services",
    "rowid": "988918",
    "final_x": "3681463.2",
    "final_y": "543282.78",
    "longitude": "-90.06777629013202",
    "latitude": "29.987840382273525",
    "geocoded_column": {
      "latitude": "29.987840382273525",
      "longitude": "-90.06777629013202"
    }
  },
  {
    "service_request": "2023-988917",
    "request_type": "Roads/Drainage",
    "request_reason": "Man hole cover issue",
    "date_created": "2023-04-05T14:47:17.000",
    "date_modified": "2023-04-05T14:47:17.000",
    "request_status": "Pending",
    "responsible_agency": "Department of Public Works",
    "final_address": "1736 Joseph Guillaume Pl",
    "address_councildis": "C",
    "status": "Pending",
    "rowid": "988917",
    "final_x": "3683477.72092",
    "final_y": "535956.852167",
    "longitude": "-90.06166991537297",
    "latitude": "29.967635307558105",
    "geocoded_column": {
      "latitude": "29.967635307558105",
      "longitude": "-90.06166991537297"
    }
  },
  {
    "service_request": "2023-988916",
    "request_type": "Abandoned Vehicles",
    "request_reason": "Abandoned/Junk Vehicles",
    "date_created": "2023-04-05T14:44:52.000",
    "date_modified": "2023-04-05T14:49:50.000",
    "case_close_date": "2023-04-05T09:49:50.000",
    "request_status": "Closed",
    "responsible_agency": "Department of Public Works",
    "final_address": "N RAMPART ST & CANAL ST & S RAMPART ST",
    "address_councildis": "C",
    "status": "Resolved",
    "rowid": "988916",
    "final_x": "3680023.1",
    "final_y": "531616.58",
    "longitude": "-90.07273048367091",
    "latitude": "29.955806004744357",
    "geocoded_column": {
      "latitude": "29.955806004744357",
      "longitude": "-90.07273048367091"
    }
  },
  {
    "service_request": "2023-988915",
    "request_type": "Traffic Signals/Signs/Striping/Streetlights",
    "request_reason": "Street Light Outage/Malfunction",
    "date_created": "2023-04-05T14:43:52.000",
    "date_modified": "2023-04-05T14:55:35.000",
    "request_status": "Pending",
    "responsible_agency": "Department of Public Works",
    "final_address": "1417 Annunciation St, New Orleans, Louisiana, 70130",
    "address_councildis": "B",
    "status": "Assigned to Contractor",
    "contractor": "Legacy Professional Services",
    "rowid": "988915",
    "final_x": "3681077.79138",
    "final_y": "524185.243516",
    "longitude": "-90.06965892616604",
    "latitude": "29.93534037157529",
    "geocoded_column": {
      "latitude": "29.93534037157529",
      "longitude": "-90.06965892616604"
    }
  },
  {
    "service_request": "2023-988914",
    "request_type": "Trash/Recycling",
    "request_reason": "Replace Trash Cart",
    "date_created": "2023-04-05T14:43:13.000",
    "date_modified": "2023-04-05T14:43:14.000",
    "request_status": "Pending",
    "responsible_agency": "Department of Sanitation",
    "final_address": "9701 W Rockton Cir",
    "address_councildis": "E",
    "status": "Assigned to Contractor",
    "contractor": "Waste Pro",
    "rowid": "988914",
    "final_x": "3708279.93963",
    "final_y": "562696.851616",
    "longitude": "-89.98234898949605",
    "latitude": "30.040379924531216",
    "geocoded_column": {
      "latitude": "30.040379924531216",
      "longitude": "-89.98234898949605"
    }
  },
  {
    "service_request": "2023-988913",
    "request_type": "Trash/Recycling",
    "request_reason": "Order Recycling Cart",
    "date_created": "2023-04-05T14:40:31.000",
    "date_modified": "2023-04-05T14:40:31.000",
    "request_status": "Pending",
    "responsible_agency": "Department of Sanitation",
    "final_address": "8720 Hickory St",
    "address_councildis": "A",
    "status": "Pending",
    "rowid": "988913",
    "final_x": "3661646.9481",
    "final_y": "531455.816195",
    "longitude": "-90.13076156623289",
    "latitude": "29.955907051901747",
    "geocoded_column": {
      "latitude": "29.955907051901747",
      "longitude": "-90.13076156623289"
    }
  },
  {
    "service_request": "2023-988912",
    "request_type": "Trash/Recycling",
    "request_reason": "Replace Trash Cart",
    "date_created": "2023-04-05T14:38:18.000",
    "date_modified": "2023-04-05T14:38:19.000",
    "request_status": "Pending",
    "responsible_agency": "Department of Sanitation",
    "final_address": "5734 Brighton Pl",
    "address_councildis": "C",
    "status": "Assigned to Contractor",
    "contractor": "Richards Disposal",
    "rowid": "988912",
    "final_x": "3704790.89764",
    "final_y": "520298.661304",
    "longitude": "-89.9949405048591",
    "latitude": "29.92391324472578",
    "geocoded_column": {
      "latitude": "29.92391324472578",
      "longitude": "-89.9949405048591"
    }
  },
  {
    "service_request": "2023-988911",
    "request_type": "Roads/Drainage",
    "request_reason": "Pothole",
    "date_created": "2023-04-05T14:31:49.000",
    "date_modified": "2023-04-05T14:31:50.000",
    "request_status": "Pending",
    "responsible_agency": "Department of Public Works",
    "final_address": "RAY AVE & CHEF MENTEUR HWY",
    "address_councildis": "E",
    "status": "Pending",
    "rowid": "988911",
    "final_x": "3699018.3",
    "final_y": "551890.28",
    "longitude": "-90.012012455314",
    "latitude": "30.010962993127364",
    "geocoded_column": {
      "latitude": "30.010962993127364",
      "longitude": "-90.012012455314"
    }
  },
  {
    "service_request": "2023-988910",
    "request_type": "Parks & Parkways",
    "request_reason": "Request Tree Service (Right of Way/Public Property)",
    "date_created": "2023-04-05T14:29:57.000",
    "date_modified": "2023-04-05T15:28:26.000",
    "case_close_date": "2023-04-05T10:28:26.000",
    "request_status": "Closed",
    "responsible_agency": "Department of Parks & Parkway",
    "final_address": "4627 Owens Blvd",
    "address_councildis": "D",
    "status": "Resolved",
    "rowid": "988910",
    "final_x": "3676545.87784",
    "final_y": "549363.024531",
    "longitude": "-90.08309891711255",
    "latitude": "30.00470733789119",
    "geocoded_column": {
      "latitude": "30.00470733789119",
      "longitude": "-90.08309891711255"
    }
  },
  {
    "service_request": "2023-988909",
    "request_type": "Safety & Permits",
    "request_reason": "Licenses & Permits",
    "date_created": "2023-04-05T14:29:15.000",
    "date_modified": "2023-04-05T14:29:15.000",
    "request_status": "Pending",
    "responsible_agency": "Safety and Permits",
    "final_address": "333 Canal St",
    "address_councildis": "C",
    "status": "Pending",
    "rowid": "988909",
    "final_x": "3682449.05404",
    "final_y": "529850.952257",
    "longitude": "-90.06513188402243",
    "latitude": "29.950877517618977",
    "geocoded_column": {
      "latitude": "29.950877517618977",
      "longitude": "-90.06513188402243"
    }
  },
  {
    "service_request": "2023-988908",
    "request_type": "Abandoned Vehicles",
    "request_reason": "Vehicle Blocking Your Driveway",
    "date_created": "2023-04-05T14:29:06.000",
    "date_modified": "2023-04-05T14:29:06.000",
    "request_status": "Pending",
    "responsible_agency": "Department of Public Works",
    "final_address": "2113 Clara St",
    "address_councildis": "B",
    "status": "Pending",
    "rowid": "988908",
    "final_x": "3675194.25569",
    "final_y": "527268.334847",
    "longitude": "-90.08812751026697",
    "latitude": "29.943994964969768",
    "geocoded_column": {
      "latitude": "29.943994964969768",
      "longitude": "-90.08812751026697"
    }
  },
  {
    "service_request": "2023-988907",
    "request_type": "Roads/Drainage",
    "request_reason": "Catch Basin - Clogged",
    "date_created": "2023-04-05T14:26:17.000",
    "date_modified": "2023-04-05T14:26:17.000",
    "request_status": "Pending",
    "responsible_agency": "Department of Public Works",
    "final_address": "4695 Owens Blvd",
    "address_councildis": "D",
    "status": "Pending",
    "rowid": "988907",
    "final_x": "3676562.23323",
    "final_y": "549423.654739",
    "longitude": "-90.08304515713209",
    "latitude": "30.004873558749196",
    "geocoded_column": {
      "latitude": "30.004873558749196",
      "longitude": "-90.08304515713209"
    }
  },
  {
    "service_request": "2023-988906",
    "request_type": "Trash/Recycling",
    "request_reason": "Missed Trash Pick-Up",
    "date_created": "2023-04-05T14:22:33.000",
    "date_modified": "2023-04-05T14:22:34.000",
    "request_status": "Pending",
    "responsible_agency": "Department of Sanitation",
    "final_address": "11021 Dreux Ave",
    "address_councildis": "E",
    "status": "Assigned to Contractor",
    "contractor": "Waste Pro",
    "rowid": "988906",
    "final_x": "3716074.64063",
    "final_y": "556359.116954",
    "longitude": "-89.95795588000402",
    "latitude": "30.02269869503725",
    "geocoded_column": {
      "latitude": "30.02269869503725",
      "longitude": "-89.95795588000402"
    }
  },
  {
    "service_request": "2023-988905",
    "request_type": "Trash/Recycling",
    "request_reason": "Illegal Dumping",
    "date_created": "2023-04-05T14:20:23.000",
    "date_modified": "2023-04-05T14:20:24.000",
    "request_status": "Pending",
    "responsible_agency": "Department of Sanitation",
    "final_address": "2435 Milan St",
    "address_councildis": "B",
    "status": "Pending",
    "rowid": "988905",
    "final_x": "3671331.09044",
    "final_y": "524075.678844",
    "longitude": "-90.10043307809411",
    "latitude": "29.93533106823372",
    "geocoded_column": {
      "latitude": "29.93533106823372",
      "longitude": "-90.10043307809411"
    }
  },
  {
    "service_request": "2023-988904",
    "request_type": "Property Maintenance",
    "request_reason": "Property Maintenance",
    "date_created": "2023-04-05T14:19:52.000",
    "date_modified": "2023-04-05T14:19:52.000",
    "request_status": "Pending",
    "responsible_agency": "Department of Code Enforcement",
    "status": "Pending",
    "rowid": "988904",
    "longitude": "0.0",
    "latitude": "0.0",
    "geocoded_column": {
      "latitude": "0.0",
      "longitude": "0.0"
    }
  },
  {
    "service_request": "2023-988903",
    "request_type": "Trash/Recycling",
    "request_reason": "Request a Large Item Pick Up",
    "date_created": "2023-04-05T14:18:18.000",
    "date_modified": "2023-04-05T14:18:19.000",
    "request_status": "Pending",
    "responsible_agency": "Department of Sanitation",
    "final_address": "4724 Laurel St",
    "address_councildis": "B",
    "status": "Assigned to Contractor",
    "contractor": "Richards Disposal",
    "rowid": "988903",
    "final_x": "3669800.45351",
    "final_y": "517877.58591",
    "longitude": "-90.10547499583606",
    "latitude": "29.91833348525965",
    "geocoded_column": {
      "latitude": "29.91833348525965",
      "longitude": "-90.10547499583606"
    }
  },
  {
    "service_request": "2023-988902",
    "request_type": "Property Maintenance",
    "request_reason": "Property Maintenance",
    "date_created": "2023-04-05T14:17:14.000",
    "date_modified": "2023-04-05T14:17:14.000",
    "request_status": "Pending",
    "responsible_agency": "Department of Code Enforcement",
    "final_address": "2016 S Saratoga St",
    "address_councildis": "B",
    "status": "Pending",
    "rowid": "988902",
    "final_x": "3676938.31842",
    "final_y": "525535.735357",
    "longitude": "-90.08268072572561",
    "latitude": "29.939178658357786",
    "geocoded_column": {
      "latitude": "29.939178658357786",
      "longitude": "-90.08268072572561"
    }
  },
  {
    "service_request": "2023-988901",
    "request_type": "Roads/Drainage",
    "request_reason": "Street Flooding / Drainage",
    "date_created": "2023-04-05T14:15:38.000",
    "date_modified": "2023-04-05T14:15:38.000",
    "request_status": "Pending",
    "responsible_agency": "Department of Public Works",
    "final_address": "6260 Vicksburg St",
    "address_councildis": "A",
    "status": "Pending",
    "rowid": "988901",
    "final_x": "3668938.66215",
    "final_y": "549057.750483",
    "longitude": "-90.10714201055495",
    "latitude": "30.004093975446406",
    "geocoded_column": {
      "latitude": "30.004093975446406",
      "longitude": "-90.10714201055495"
    }
  },
  {
    "service_request": "2023-988900",
    "request_type": "Traffic Signals/Signs/Striping/Streetlights",
    "request_reason": "Street Light Outage/Malfunction",
    "date_created": "2023-04-05T14:12:02.000",
    "date_modified": "2023-04-05T14:12:02.000",
    "request_status": "Pending",
    "responsible_agency": "Department of Public Works",
    "final_address": "6243 N Rampart St",
    "address_councildis": "E",
    "status": "Assigned to Contractor",
    "contractor": "Legacy Professional Services",
    "rowid": "988900",
    "final_x": "3699894.05821",
    "final_y": "532707.909764",
    "longitude": "-90.00994555818372",
    "latitude": "29.958190706950514",
    "geocoded_column": {
      "latitude": "29.958190706950514",
      "longitude": "-90.00994555818372"
    }
  },
  {
    "service_request": "2023-988899",
    "request_type": "Roads/Drainage",
    "request_reason": "Pothole",
    "date_created": "2023-04-05T14:10:02.000",
    "date_modified": "2023-04-05T14:10:03.000",
    "request_status": "Pending",
    "responsible_agency": "Department of Public Works",
    "final_address": "2504 Wisteria St",
    "address_councildis": "D",
    "status": "Pending",
    "rowid": "988899",
    "final_x": "3686307.35644",
    "final_y": "548270.096082",
    "longitude": "-90.05229914350926",
    "latitude": "30.001405709344315",
    "geocoded_column": {
      "latitude": "30.001405709344315",
      "longitude": "-90.05229914350926"
    }
  },
  {
    "service_request": "2023-988898",
    "request_type": "Trash/Recycling",
    "request_reason": "Replace Trash Cart",
    "date_created": "2023-04-05T14:09:56.000",
    "date_modified": "2023-04-05T14:09:57.000",
    "request_status": "Pending",
    "responsible_agency": "Department of Sanitation",
    "final_address": "1227 Hagan St",
    "address_councildis": "A",
    "status": "Assigned to Contractor",
    "contractor": "Richards Disposal",
    "rowid": "988898",
    "final_x": "3675598.51176",
    "final_y": "539899.321162",
    "longitude": "-90.08641718757893",
    "latitude": "29.97871384145324",
    "geocoded_column": {
      "latitude": "29.97871384145324",
      "longitude": "-90.08641718757893"
    }
  },
  {
    "service_request": "2023-988897",
    "request_type": "Roads/Drainage",
    "request_reason": "Alley Way",
    "date_created": "2023-04-05T14:05:33.000",
    "date_modified": "2023-04-05T14:05:58.000",
    "case_close_date": "2023-04-05T09:05:58.000",
    "request_status": "Closed",
    "responsible_agency": "Department of Public Works",
    "final_address": "6900 BLK Argonne Blvd",
    "address_councildis": "A",
    "status": "Resolved",
    "rowid": "988897",
    "final_x": "3670758.28246",
    "final_y": "553504.354065",
    "longitude": "-90.10124244069729",
    "latitude": "30.01626690111509",
    "geocoded_column": {
      "latitude": "30.01626690111509",
      "longitude": "-90.10124244069729"
    }
  },
  {
    "service_request": "2023-988896",
    "request_type": "Trash/Recycling",
    "request_reason": "Request a Large Item Pick Up",
    "date_created": "2023-04-05T14:03:41.000",
    "date_modified": "2023-04-05T14:03:42.000",
    "request_status": "Pending",
    "responsible_agency": "Department of Sanitation",
    "final_address": "5741 Waterford Blvd",
    "address_councildis": "E",
    "status": "Assigned to Contractor",
    "contractor": "Waste Pro",
    "rowid": "988896",
    "final_x": "3714096.56229",
    "final_y": "560930.37667",
    "longitude": "-89.96403346983818",
    "latitude": "30.035332976841016",
    "geocoded_column": {
      "latitude": "30.035332976841016",
      "longitude": "-89.96403346983818"
    }
  },
  {
    "service_request": "2023-988895",
    "request_type": "Trash/Recycling",
    "request_reason": "Missed Trash Pick-Up",
    "date_created": "2023-04-05T13:57:34.000",
    "date_modified": "2023-04-05T13:57:35.000",
    "request_status": "Pending",
    "responsible_agency": "Department of Sanitation",
    "final_address": "624 Fern St",
    "address_councildis": "A",
    "status": "Assigned to Contractor",
    "contractor": "Richards Disposal",
    "rowid": "988895",
    "final_x": "3661268.62291",
    "final_y": "526515.122366",
    "longitude": "-90.13211974171438",
    "latitude": "29.942332638009223",
    "geocoded_column": {
      "latitude": "29.942332638009223",
      "longitude": "-90.13211974171438"
    }
  },
  {
    "service_request": "2023-988894",
    "request_type": "Abandoned Vehicles",
    "request_reason": "Vehicle Blocking Your Driveway",
    "date_created": "2023-04-05T13:56:38.000",
    "date_modified": "2023-04-05T13:56:38.000",
    "request_status": "Pending",
    "responsible_agency": "Department of Public Works",
    "final_address": "5835 West End Blvd",
    "address_councildis": "A",
    "status": "Pending",
    "rowid": "988894",
    "final_x": "3666476.91463",
    "final_y": "546667.382417",
    "longitude": "-90.11499943334893",
    "latitude": "29.997593494217796",
    "geocoded_column": {
      "latitude": "29.997593494217796",
      "longitude": "-90.11499943334893"
    }
  },
  {
    "service_request": "2023-988893",
    "request_type": "Traffic Signals/Signs/Striping/Streetlights",
    "request_reason": "Request for Stop Sign",
    "date_created": "2023-04-05T13:55:49.000",
    "date_modified": "2023-04-05T13:55:49.000",
    "request_status": "Pending",
    "responsible_agency": "Department of Public Works",
    "final_address": "9239 Forshey St",
    "address_councildis": "A",
    "status": "Pending",
    "rowid": "988893",
    "final_x": "3663943.79591",
    "final_y": "536763.537736",
    "longitude": "-90.12333190094226",
    "latitude": "29.97043506453036",
    "geocoded_column": {
      "latitude": "29.97043506453036",
      "longitude": "-90.12333190094226"
    }
  },
  {
    "service_request": "2023-988892",
    "request_type": "Trash/Recycling",
    "request_reason": "Replace Trash Cart",
    "date_created": "2023-04-05T13:54:28.000",
    "date_modified": "2023-04-05T13:54:29.000",
    "request_status": "Pending",
    "responsible_agency": "Department of Sanitation",
    "final_address": "2127 Robert St",
    "address_councildis": "B",
    "status": "Assigned to Contractor",
    "contractor": "Richards Disposal",
    "rowid": "988892",
    "final_x": "3668847.43124",
    "final_y": "523416.263419",
    "longitude": "-90.10829627605551",
    "latitude": "29.93359113499303",
    "geocoded_column": {
      "latitude": "29.93359113499303",
      "longitude": "-90.10829627605551"
    }
  },
  {
    "service_request": "2023-988891",
    "request_type": "Trash/Recycling",
    "request_reason": "Request a Large Item Pick Up",
    "date_created": "2023-04-05T13:51:36.000",
    "date_modified": "2023-04-05T13:51:37.000",
    "request_status": "Pending",
    "responsible_agency": "Department of Sanitation",
    "final_address": "5949 Magazine St",
    "address_councildis": "A",
    "status": "Assigned to Contractor",
    "contractor": "Richards Disposal",
    "rowid": "988891",
    "final_x": "3664861.08",
    "final_y": "519250.621239",
    "longitude": "-90.12102016564745",
    "latitude": "29.922253517876435",
    "geocoded_column": {
      "latitude": "29.922253517876435",
      "longitude": "-90.12102016564745"
    }
  },
  {
    "service_request": "2023-988890",
    "request_type": "Mayor's Request",
    "request_reason": "Entergy Bill Payment Assistance",
    "date_created": "2023-04-05T13:51:33.000",
    "date_modified": "2023-04-05T13:51:34.000",
    "request_status": "Pending",
    "responsible_agency": "Executive Office of the Mayor",
    "final_address": "6201 Cameron Blvd",
    "address_councildis": "D",
    "status": "Pending",
    "rowid": "988890",
    "final_x": "3682293.46351",
    "final_y": "555742.284249",
    "longitude": "-90.06471804721733",
    "latitude": "30.02207429577909",
    "geocoded_column": {
      "latitude": "30.02207429577909",
      "longitude": "-90.06471804721733"
    }
  },
  {
    "service_request": "2023-988889",
    "request_type": "Roads/Drainage",
    "request_reason": "Pothole",
    "date_created": "2023-04-05T13:50:49.000",
    "date_modified": "2023-04-05T13:50:50.000",
    "request_status": "Pending",
    "responsible_agency": "Department of Public Works",
    "final_address": "1137 Southlawn Blvd",
    "address_councildis": "C",
    "status": "Pending",
    "rowid": "988889",
    "final_x": "3695162.78941",
    "final_y": "527734.124991",
    "longitude": "-90.0250648534152",
    "latitude": "29.9446639390927",
    "geocoded_column": {
      "latitude": "29.9446639390927",
      "longitude": "-90.0250648534152"
    }
  },
  {
    "service_request": "2023-988888",
    "request_type": "Trash/Recycling",
    "request_reason": "Repair Trash Cart",
    "date_created": "2023-04-05T13:50:41.000",
    "date_modified": "2023-04-05T13:50:43.000",
    "request_status": "Pending",
    "responsible_agency": "Department of Sanitation",
    "final_address": "2203 S Carrollton Ave",
    "address_councildis": "A",
    "status": "Assigned to Contractor",
    "contractor": "Richards Disposal",
    "rowid": "988888",
    "final_x": "3664489.84141",
    "final_y": "530899.23021",
    "longitude": "-90.12180323925806",
    "latitude": "29.954294274764887",
    "geocoded_column": {
      "latitude": "29.954294274764887",
      "longitude": "-90.12180323925806"
    }
  },
  {
    "service_request": "2023-988887",
    "request_type": "Trash/Recycling",
    "request_reason": "Missed Trash Pick-Up",
    "date_created": "2023-04-05T13:47:33.000",
    "date_modified": "2023-04-05T13:47:33.000",
    "request_status": "Pending",
    "responsible_agency": "Department of Sanitation",
    "final_address": "4827 Patterson St",
    "address_councildis": "C",
    "status": "Assigned to Contractor",
    "contractor": "Richards Disposal",
    "rowid": "988887",
    "final_x": "3702160.53751",
    "final_y": "524465.648956",
    "longitude": "-90.0030908429394",
    "latitude": "29.935455232065408",
    "geocoded_column": {
      "latitude": "29.935455232065408",
      "longitude": "-90.0030908429394"
    }
  },
  {
    "service_request": "2023-988886",
    "request_type": "Property Maintenance",
    "request_reason": "Property Maintenance",
    "date_created": "2023-04-05T13:41:27.000",
    "date_modified": "2023-04-05T13:41:28.000",
    "request_status": "Pending",
    "responsible_agency": "Department of Code Enforcement",
    "final_address": "2012 Hope St",
    "address_councildis": "D",
    "status": "Pending",
    "rowid": "988886",
    "final_x": "3682463.4029",
    "final_y": "542004.198988",
    "longitude": "-90.06466170404026",
    "latitude": "29.984294321159105",
    "geocoded_column": {
      "latitude": "29.984294321159105",
      "longitude": "-90.06466170404026"
    }
  },
  {
    "service_request": "2023-988885",
    "request_type": "Trash/Recycling",
    "request_reason": "Repair Trash Cart",
    "date_created": "2023-04-05T13:40:05.000",
    "date_modified": "2023-04-05T13:40:06.000",
    "request_status": "Pending",
    "responsible_agency": "Department of Sanitation",
    "final_address": "1017 Fourth St",
    "address_councildis": "B",
    "status": "Assigned to Contractor",
    "contractor": "Richards Disposal",
    "rowid": "988885",
    "final_x": "3677473.39771",
    "final_y": "520836.992313",
    "longitude": "-90.08115352558661",
    "latitude": "29.92624258293277",
    "geocoded_column": {
      "latitude": "29.92624258293277",
      "longitude": "-90.08115352558661"
    }
  },
  {
    "service_request": "2023-988884",
    "request_type": "Trash/Recycling",
    "request_reason": "Request a Large Item Pick Up",
    "date_created": "2023-04-05T13:39:19.000",
    "date_modified": "2023-04-05T13:39:20.000",
    "request_status": "Pending",
    "responsible_agency": "Department of Sanitation",
    "final_address": "11419 Curran Rd",
    "address_councildis": "E",
    "status": "Assigned to Contractor",
    "contractor": "Waste Pro",
    "rowid": "988884",
    "final_x": "3711440.52197",
    "final_y": "566805.409508",
    "longitude": "-89.9722063750541",
    "latitude": "30.051573960620196",
    "geocoded_column": {
      "latitude": "30.051573960620196",
      "longitude": "-89.9722063750541"
    }
  },
  {
    "service_request": "2023-988883",
    "request_type": "Roads/Drainage",
    "request_reason": "Accessibility Ramps, Curbs and Sidewalk Repair",
    "date_created": "2023-04-05T13:39:08.000",
    "date_modified": "2023-04-05T13:39:08.000",
    "request_status": "Pending",
    "responsible_agency": "Department of Public Works",
    "final_address": "1104 Music St Apt A",
    "address_councildis": "C",
    "status": "Pending",
    "rowid": "988883",
    "final_x": "3686782.02415",
    "final_y": "536643.079815",
    "longitude": "-90.05121062172142",
    "latitude": "29.96942094682149",
    "geocoded_column": {
      "latitude": "29.96942094682149",
      "longitude": "-90.05121062172142"
    }
  },
  {
    "service_request": "2023-988882",
    "request_type": "Trash/Recycling",
    "request_reason": "Request a Large Item Pick Up",
    "date_created": "2023-04-05T13:36:11.000",
    "date_modified": "2023-04-05T13:36:12.000",
    "request_status": "Pending",
    "responsible_agency": "Department of Sanitation",
    "final_address": "1111 Eighth St",
    "address_councildis": "B",
    "status": "Assigned to Contractor",
    "contractor": "Richards Disposal",
    "rowid": "988882",
    "final_x": "3676100.54984",
    "final_y": "520286.189176",
    "longitude": "-90.085506153388",
    "latitude": "29.924769233213116",
    "geocoded_column": {
      "latitude": "29.924769233213116",
      "longitude": "-90.085506153388"
    }
  },
  {
    "service_request": "2023-988881",
    "request_type": "Trash/Recycling",
    "request_reason": "Repair Trash Cart",
    "date_created": "2023-04-05T13:33:45.000",
    "date_modified": "2023-04-05T13:33:46.000",
    "case_close_date": "2023-04-04T19:00:00.000",
    "request_status": "Pending",
    "responsible_agency": "Department of Sanitation",
    "final_address": "4301 S Johnson St",
    "address_councildis": "B",
    "status": "Assigned to Contractor",
    "contractor": "Richards Disposal",
    "rowid": "988881",
    "final_x": "3670560.32103",
    "final_y": "527297.419007",
    "longitude": "-90.10275717288424",
    "latitude": "29.944212590789466",
    "geocoded_column": {
      "latitude": "29.944212590789466",
      "longitude": "-90.10275717288424"
    }
  },
  {
    "service_request": "2023-988880",
    "request_type": "Trash/Recycling",
    "request_reason": "Request a Large Item Pick Up",
    "date_created": "2023-04-05T13:25:09.000",
    "date_modified": "2023-04-05T13:25:10.000",
    "request_status": "Pending",
    "responsible_agency": "Department of Sanitation",
    "final_address": "917 Reynes St",
    "address_councildis": "E",
    "status": "Assigned to Contractor",
    "contractor": "Waste Pro",
    "rowid": "988880",
    "final_x": "3695825.50134",
    "final_y": "533593.524805",
    "longitude": "-90.0227608910012",
    "latitude": "29.960754414410548",
    "geocoded_column": {
      "latitude": "29.960754414410548",
      "longitude": "-90.0227608910012"
    }
  },
  {
    "service_request": "2023-988879",
    "request_type": "Traffic Signals/Signs/Striping/Streetlights",
    "request_reason": "Street Light Outage/Malfunction",
    "date_created": "2023-04-05T13:24:37.000",
    "date_modified": "2023-04-05T13:24:37.000",
    "request_status": "Pending",
    "responsible_agency": "Department of Public Works",
    "final_address": "7644 Michigan St",
    "address_councildis": "E",
    "status": "Assigned to Contractor",
    "contractor": "Legacy Professional Services",
    "rowid": "988879",
    "final_x": "3711684.58539",
    "final_y": "566588.226851",
    "longitude": "-89.97144313461622",
    "latitude": "30.050968822550484",
    "geocoded_column": {
      "latitude": "30.050968822550484",
      "longitude": "-89.97144313461622"
    }
  },
  {
    "service_request": "2023-988878",
    "request_type": "Trash/Recycling",
    "request_reason": "Order Recycling Cart",
    "date_created": "2023-04-05T13:24:13.000",
    "date_modified": "2023-04-05T13:24:13.000",
    "request_status": "Pending",
    "responsible_agency": "Department of Sanitation",
    "final_address": "2400 Verbena St",
    "address_councildis": "D",
    "status": "Pending",
    "rowid": "988878",
    "final_x": "3685653.0701",
    "final_y": "547629.85653",
    "longitude": "-90.0543886662195",
    "latitude": "29.99966537845854",
    "geocoded_column": {
      "latitude": "29.99966537845854",
      "longitude": "-90.0543886662195"
    }
  },
  {
    "service_request": "2023-988877",
    "request_type": "Trash/Recycling",
    "request_reason": "Repair Trash Cart",
    "date_created": "2023-04-05T13:24:03.000",
    "date_modified": "2023-04-05T13:24:04.000",
    "request_status": "Pending",
    "responsible_agency": "Department of Sanitation",
    "final_address": "8017 Green St",
    "address_councildis": "A",
    "status": "Assigned to Contractor",
    "contractor": "Richards Disposal",
    "rowid": "988877",
    "final_x": "3663391.5353",
    "final_y": "529504.031233",
    "longitude": "-90.12531771437165",
    "latitude": "29.95048981373649",
    "geocoded_column": {
      "latitude": "29.95048981373649",
      "longitude": "-90.12531771437165"
    }
  },
  {
    "service_request": "2023-988876",
    "request_type": "Abandoned Vehicles",
    "request_reason": "Vehicle Blocking Your Driveway",
    "date_created": "2023-04-05T13:20:46.000",
    "date_modified": "2023-04-05T13:20:46.000",
    "request_status": "Pending",
    "responsible_agency": "Department of Public Works",
    "final_address": "1269 Milton St, New Orleans, Louisiana, 70122",
    "address_councildis": "D",
    "status": "Pending",
    "rowid": "988876",
    "final_x": "3677240.77954",
    "final_y": "546090.634",
    "longitude": "-90.08101657181156",
    "latitude": "29.995688554301562",
    "geocoded_column": {
      "latitude": "29.995688554301562",
      "longitude": "-90.08101657181156"
    }
  },
  {
    "service_request": "2023-988875",
    "request_type": "Property Maintenance",
    "request_reason": "Property Maintenance",
    "date_created": "2023-04-05T13:20:16.000",
    "date_modified": "2023-04-05T13:20:16.000",
    "request_status": "Pending",
    "responsible_agency": "Department of Code Enforcement",
    "final_address": "7652 Michigan St",
    "address_councildis": "E",
    "status": "Pending",
    "rowid": "988875",
    "final_x": "3711656.76024",
    "final_y": "566629.731811",
    "longitude": "-89.9715295205813",
    "latitude": "30.051083853661318",
    "geocoded_column": {
      "latitude": "30.051083853661318",
      "longitude": "-89.9715295205813"
    }
  },
  {
    "service_request": "2023-988873",
    "request_type": "Traffic Signals/Signs/Striping/Streetlights",
    "request_reason": "Street Light Outage/Malfunction",
    "date_created": "2023-04-05T13:17:21.000",
    "date_modified": "2023-04-05T13:17:21.000",
    "request_status": "Pending",
    "responsible_agency": "Department of Public Works",
    "final_address": "1624 Urquhart St",
    "address_councildis": "C",
    "status": "Assigned to Contractor",
    "contractor": "Legacy Professional Services",
    "rowid": "988873",
    "final_x": "3682950.11784",
    "final_y": "536849.281608",
    "longitude": "-90.0633048590334",
    "latitude": "29.970105269933754",
    "geocoded_column": {
      "latitude": "29.970105269933754",
      "longitude": "-90.0633048590334"
    }
  },
  {
    "service_request": "2023-988872",
    "request_type": "Trash/Recycling",
    "request_reason": "Missed Trash Pick-Up",
    "date_created": "2023-04-05T13:16:01.000",
    "date_modified": "2023-04-05T13:16:01.000",
    "request_status": "Pending",
    "responsible_agency": "Department of Sanitation",
    "final_address": "1876 Benefit St",
    "address_councildis": "D",
    "status": "Assigned to Contractor",
    "contractor": "IV Waste",
    "rowid": "988872",
    "final_x": "3682034.96789",
    "final_y": "544172.358798",
    "longitude": "-90.0659391896488",
    "latitude": "29.99026903348558",
    "geocoded_column": {
      "latitude": "29.99026903348558",
      "longitude": "-90.0659391896488"
    }
  },
  {
    "service_request": "2023-988870",
    "request_type": "Trash/Recycling",
    "request_reason": "Order Recycling Cart",
    "date_created": "2023-04-05T13:10:12.000",
    "date_modified": "2023-04-05T13:10:13.000",
    "request_status": "Pending",
    "responsible_agency": "Department of Sanitation",
    "final_address": "3142 Maurepas St",
    "address_councildis": "A",
    "status": "Pending",
    "rowid": "988870",
    "final_x": "3676247.02197",
    "final_y": "540713.522251",
    "longitude": "-90.08434091698524",
    "latitude": "29.980933193445807",
    "geocoded_column": {
      "latitude": "29.980933193445807",
      "longitude": "-90.08434091698524"
    }
  },
  {
    "service_request": "2023-988869",
    "request_type": "Trash/Recycling",
    "request_reason": "Missed Trash Pick-Up",
    "date_created": "2023-04-05T13:08:19.000",
    "date_modified": "2023-04-05T13:08:19.000",
    "request_status": "Pending",
    "responsible_agency": "Department of Sanitation",
    "final_address": "1823 Treasure St",
    "address_councildis": "D",
    "status": "Assigned to Contractor",
    "contractor": "IV Waste",
    "rowid": "988869",
    "final_x": "3681618.45301",
    "final_y": "543857.614414",
    "longitude": "-90.06726583624287",
    "latitude": "29.98941625853528",
    "geocoded_column": {
      "latitude": "29.98941625853528",
      "longitude": "-90.06726583624287"
    }
  },
  {
    "service_request": "2023-988868",
    "request_type": "Mosquito, Termite & Rodent Control",
    "request_reason": "Non-Rodent Complaint (Mice, Possums, Snakes)",
    "date_created": "2023-04-05T13:07:56.000",
    "date_modified": "2023-04-05T13:07:56.000",
    "request_status": "Pending",
    "responsible_agency": "Mosquito, Termite & Rodent Control Board",
    "status": "Pending",
    "rowid": "988868",
    "longitude": "0.0",
    "latitude": "0.0",
    "geocoded_column": {
      "latitude": "0.0",
      "longitude": "0.0"
    }
  },
  {
    "service_request": "2023-988867",
    "request_type": "Trash/Recycling",
    "request_reason": "Repair Trash Cart",
    "date_created": "2023-04-05T13:07:48.000",
    "date_modified": "2023-04-05T13:07:49.000",
    "request_status": "Pending",
    "responsible_agency": "Department of Sanitation",
    "final_address": "171 Turnberry Dr",
    "address_councildis": "E",
    "status": "Assigned to Contractor",
    "contractor": "Waste Pro",
    "rowid": "988867",
    "final_x": "3720468.61606",
    "final_y": "563834.933729",
    "longitude": "-89.94378566304587",
    "latitude": "30.043108407528646",
    "geocoded_column": {
      "latitude": "30.043108407528646",
      "longitude": "-89.94378566304587"
    }
  },
  {
    "service_request": "2023-988866",
    "request_type": "Trash/Recycling",
    "request_reason": "Dead Animal Pick Up",
    "date_created": "2023-04-05T13:07:09.000",
    "date_modified": "2023-04-05T13:07:10.000",
    "request_status": "Pending",
    "responsible_agency": "Department of Sanitation",
    "final_address": "N JOHNSON ST & ST BERNARD AVE",
    "address_councildis": "D",
    "status": "Assigned to Contractor",
    "contractor": "IV Waste",
    "rowid": "988866",
    "final_x": "3681454.0",
    "final_y": "539182.58",
    "longitude": "-90.06794837313667",
    "latitude": "29.976566545028174",
    "geocoded_column": {
      "latitude": "29.976566545028174",
      "longitude": "-90.06794837313667"
    }
  },
  {
    "service_request": "2023-988865",
    "request_type": "Traffic Signals/Signs/Striping/Streetlights",
    "request_reason": "Traffic Signal Malfunctioning/Damaged",
    "date_created": "2023-04-05T13:07:01.000",
    "date_modified": "2023-04-05T13:07:01.000",
    "request_status": "Pending",
    "responsible_agency": "Department of Public Works",
    "final_address": "N CLAIBORNE AVE & MAZANT ST",
    "address_councildis": "D",
    "status": "Pending",
    "rowid": "988865",
    "final_x": "3692571.9",
    "final_y": "537102.68",
    "longitude": "-90.03290932977883",
    "latitude": "29.970505277901427",
    "geocoded_column": {
      "latitude": "29.970505277901427",
      "longitude": "-90.03290932977883"
    }
  },