[
  {
    "service_request": "2023-1007237",
    "request_type": "Health Related Request",
    "request_reason": "Noise Ordinance Complaint",
    "date_created": "2023-06-09T01:34:20.000",
    "date_modified": "2023-06-09T01:34:20.000",
    "request_status": "Pending",
    "responsible_agency": "Health Department",
    "final_address": "1015 N Claiborne Ave, New Orleans, Louisiana, 70116",
    "address_councildis": "D",
    "status": "Pending",
    "rowid": "1007237",
    "final_x": "3680383.01128",
    "final_y": "535722.163847",
    "longitude": "-90.07145124149515",
    "latitude": "29.967084070169896",
    "geocoded_column": {
      "latitude": "29.967084070169896",
      "longitude": "-90.07145124149515"
    }
  },
  {
    "service_request": "2023-1007236",
    "request_type": "Roads/Drainage",
    "request_reason": "Street Flooding / Drainage",
    "date_created": "2023-06-09T00:46:01.000",
    "date_modified": "2023-06-09T00:46:01.000",
    "request_status": "Pending",
    "responsible_agency": "Department of Public Works",
    "final_address": "1300 BLK Esplanade Ave",
    "address_councildis": "C",
    "status": "Pending",
    "rowid": "1007236",
    "final_x": "3681953.09669",
    "final_y": "536003.751927",
    "longitude": "-90.06648307383387",
    "latitude": "29.967810702998598",
    "geocoded_column": {
      "latitude": "29.967810702998598",
      "longitude": "-90.06648307383387"
    }
  },
  {
    "service_request": "2023-1007235",
    "request_type": "Health Related Request",
    "request_reason": "Noise Ordinance Complaint",
    "date_created": "2023-06-08T23:24:23.000",
    "date_modified": "2023-06-08T23:24:23.000",
    "request_status": "Pending",
    "responsible_agency": "Health Department",
    "final_address": "1017 N Claiborne Ave, New Orleans, Louisiana, 70116",
    "status": "Pending",
    "rowid": "1007235",
    "longitude": "0.0",
    "latitude": "0.0",
    "geocoded_column": {
      "latitude": "0.0",
      "longitude": "0.0"
    }
  },
  {
    "service_request": "2023-1007234",
    "request_type": "Traffic Signals/Signs/Striping/Streetlights",
    "request_reason": "Street Light Outage/Malfunction",
    "date_created": "2023-06-08T23:09:19.000",
    "date_modified": "2023-06-08T23:09:20.000",
    "request_status": "Pending",
    "responsible_agency": "Department of Public Works",
    "final_address": "2860 Woodland Dr",
    "address_councildis": "C",
    "status": "Assigned to Contractor",
    "contractor": "Legacy Professional Services",
    "rowid": "1007234",
    "final_x": "3705638.42385",
    "final_y": "520200.107512",
    "longitude": "-89.99226883205745",
    "latitude": "29.92361500861629",
    "geocoded_column": {
      "latitude": "29.92361500861629",
      "longitude": "-89.99226883205745"
    }
  },
  {
    "service_request": "2023-1007233",
    "request_type": "Trash/Recycling",
    "request_reason": "Missed Trash Pick-Up",
    "date_created": "2023-06-08T23:06:03.000",
    "date_modified": "2023-06-08T23:06:03.000",
    "request_status": "Pending",
    "responsible_agency": "Department of Sanitation",
    "final_address": "7519 Tricia Ct",
    "address_councildis": "E",
    "status": "Assigned to Contractor",
    "contractor": "Waste Pro",
    "rowid": "1007233",
    "final_x": "3718166.6821",
    "final_y": "570659.463591",
    "longitude": "-89.95080040285838",
    "latitude": "30.061949605507472",
    "geocoded_column": {
      "latitude": "30.061949605507472",
      "longitude": "-89.95080040285838"
    }
  },
  {
    "service_request": "2023-1007232",
    "request_type": "Health Related Request",
    "request_reason": "Noise Ordinance Complaint",
    "date_created": "2023-06-08T22:58:46.000",
    "date_modified": "2023-06-08T22:58:46.000",
    "request_status": "Pending",
    "responsible_agency": "Health Department",
    "final_address": "1017 N Claiborne Ave, New Orleans, Louisiana, 70116",
    "status": "Pending",
    "rowid": "1007232",
    "longitude": "0.0",
    "latitude": "0.0",
    "geocoded_column": {
      "latitude": "0.0",
      "longitude": "0.0"
    }
  },
  {
    "service_request": "2023-1007231",
    "request_type": "Health Related Request",
    "request_reason": "Noise Ordinance Complaint",
    "date_created": "2023-06-08T22:06:39.000",
    "date_modified": "2023-06-08T22:06:39.000",
    "request_status": "Pending",
    "responsible_agency": "Health Department",
    "final_address": "3443 Esplanade Ave",
    "address_councildis": "A",
    "status": "Pending",
    "rowid": "1007231",
    "final_x": "3674984.858",
    "final_y": "541532.608716",
    "longitude": "-90.08829928752895",
    "latitude": "29.98322316835311",
    "geocoded_column": {
      "latitude": "29.98322316835311",
      "longitude": "-90.08829928752895"
    }
  },
  {
    "service_request": "2023-1007230",
    "request_type": "Trash/Recycling",
    "request_reason": "Request a Large Item Pick Up",
    "date_created": "2023-06-08T21:07:04.000",
    "date_modified": "2023-06-08T21:07:05.000",
    "request_status": "Pending",
    "responsible_agency": "Department of Sanitation",
    "final_address": "4702 Wilson Ave",
    "address_councildis": "E",
    "status": "Assigned to Contractor",
    "contractor": "Waste Pro",
    "rowid": "1007230",
    "final_x": "3702967.1562",
    "final_y": "554654.284824",
    "longitude": "-89.99943488995063",
    "latitude": "30.01843715279286",
    "geocoded_column": {
      "latitude": "30.01843715279286",
      "longitude": "-89.99943488995063"
    }
  },
  {
    "service_request": "2023-1007229",
    "request_type": "Traffic Signals/Signs/Striping/Streetlights",
    "request_reason": "Street Light Outage/Malfunction",
    "date_created": "2023-06-08T21:06:28.000",
    "date_modified": "2023-06-08T21:06:28.000",
    "request_status": "Pending",
    "responsible_agency": "Department of Public Works",
    "final_address": "HAYNE BLVD & LACOMBE ST",
    "address_councildis": "E",
    "status": "Assigned to Contractor",
    "contractor": "Legacy Professional Services",
    "rowid": "1007229",
    "final_x": "3708844.2",
    "final_y": "566623.68",
    "longitude": "-89.98041923087547",
    "latitude": "30.051158823876495",
    "geocoded_column": {
      "latitude": "30.051158823876495",
      "longitude": "-89.98041923087547"
    }
  },
  {
    "service_request": "2023-1007228",
    "request_type": "Traffic Signals/Signs/Striping/Streetlights",
    "request_reason": "Street Light Outage/Malfunction",
    "date_created": "2023-06-08T21:02:43.000",
    "date_modified": "2023-06-08T21:02:44.000",
    "request_status": "Pending",
    "responsible_agency": "Department of Public Works",
    "final_address": "4801 Gawain Dr",
    "address_councildis": "E",
    "status": "Assigned to Contractor",
    "contractor": "Legacy Professional Services",
    "rowid": "1007228",
    "final_x": "3706994.57841",
    "final_y": "555937.361753",
    "longitude": "-89.9866621800297",
    "latitude": "30.02183558811575",
    "geocoded_column": {
      "latitude": "30.02183558811575",
      "longitude": "-89.9866621800297"
    }
  },
  {
    "service_request": "2023-1007227",
    "request_type": "Roads/Drainage",
    "request_reason": "Street Subsidence (Sinking)",
    "date_created": "2023-06-08T20:44:01.000",
    "date_modified": "2023-06-08T20:44:01.000",
    "request_status": "Pending",
    "responsible_agency": "Department of Public Works",
    "final_address": "5700 BLK Louis XIV St",
    "address_councildis": "A",
    "status": "Pending",
    "rowid": "1007227",
    "final_x": "3667914.69957",
    "final_y": "545547.283693",
    "longitude": "-90.11049525629562",
    "latitude": "29.994471494588122",
    "geocoded_column": {
      "latitude": "29.994471494588122",
      "longitude": "-90.11049525629562"
    }
  },
  {
    "service_request": "2023-1007226",
    "request_type": "Health Related Request",
    "request_reason": "Noise Ordinance Complaint",
    "date_created": "2023-06-08T20:37:50.000",
    "date_modified": "2023-06-08T20:37:50.000",
    "request_status": "Pending",
    "responsible_agency": "Health Department",
    "final_address": "711 Bourbon St, New Orleans, Louisiana, 70116",
    "address_councildis": "C",
    "status": "Pending",
    "rowid": "1007226",
    "final_x": "3682299.38447",
    "final_y": "532765.705988",
    "longitude": "-90.06550263299877",
    "latitude": "29.95889665479323",
    "geocoded_column": {
      "latitude": "29.95889665479323",
      "longitude": "-90.06550263299877"
    }
  },
  {
    "service_request": "2023-1007225",
    "request_type": "Trash/Recycling",
    "request_reason": "Repair Recycling Cart",
    "date_created": "2023-06-08T20:36:46.000",
    "date_modified": "2023-06-08T20:36:46.000",
    "request_status": "Pending",
    "responsible_agency": "Department of Sanitation",
    "final_address": "3830 Orleans Ave",
    "address_councildis": "A",
    "status": "Pending",
    "rowid": "1007225",
    "final_x": "3673259.39246",
    "final_y": "539562.431818",
    "longitude": "-90.09381652616787",
    "latitude": "29.977857294604593",
    "geocoded_column": {
      "latitude": "29.977857294604593",
      "longitude": "-90.09381652616787"
    }
  },
  {
    "service_request": "2023-1007224",
    "request_type": "Trash/Recycling",
    "request_reason": "Missed Trash Pick-Up",
    "date_created": "2023-06-08T20:21:30.000",
    "date_modified": "2023-06-08T20:21:30.000",
    "request_status": "Pending",
    "responsible_agency": "Department of Sanitation",
    "final_address": "3632 Fairmont Dr",
    "address_councildis": "D",
    "status": "Assigned to Contractor",
    "contractor": "IV Waste",
    "rowid": "1007224",
    "final_x": "3685456.27221",
    "final_y": "545781.081808",
    "longitude": "-90.05507550984282",
    "latitude": "29.994587950220556",
    "geocoded_column": {
      "latitude": "29.994587950220556",
      "longitude": "-90.05507550984282"
    }
  },
  {
    "service_request": "2023-1007223",
    "request_type": "Roads/Drainage",
    "request_reason": "Pothole",
    "date_created": "2023-06-08T20:08:40.000",
    "date_modified": "2023-06-08T20:08:40.000",
    "request_status": "Pending",
    "responsible_agency": "Department of Public Works",
    "final_address": "MORRISON RD & PARIS RD",
    "address_councildis": "E",
    "status": "Pending",
    "rowid": "1007223",
    "final_x": "3721463.0",
    "final_y": "572973.78",
    "longitude": "-89.94029190571797",
    "latitude": "30.068203230469766",
    "geocoded_column": {
      "latitude": "30.068203230469766",
      "longitude": "-89.94029190571797"
    }
  },
  {
    "service_request": "2023-1007222",
    "request_type": "Trash/Recycling",
    "request_reason": "Missed Trash Pick-Up",
    "date_created": "2023-06-08T20:04:55.000",
    "date_modified": "2023-06-08T20:04:56.000",
    "request_status": "Pending",
    "responsible_agency": "Department of Sanitation",
    "final_address": "1217 Fourth St",
    "address_councildis": "B",
    "status": "Assigned to Contractor",
    "contractor": "Richards Disposal",
    "rowid": "1007222",
    "final_x": "3677085.67662",
    "final_y": "521489.438521",
    "longitude": "-90.0823549655159",
    "latitude": "29.928048242804067",
    "geocoded_column": {
      "latitude": "29.928048242804067",
      "longitude": "-90.0823549655159"
    }
  },
  {
    "service_request": "2023-1007221",
    "request_type": "Trash/Recycling",
    "request_reason": "Order Recycling Cart",
    "date_created": "2023-06-08T19:58:05.000",
    "date_modified": "2023-06-08T19:58:05.000",
    "request_status": "Pending",
    "responsible_agency": "Department of Sanitation",
    "final_address": "15 Flamingo St",
    "address_councildis": "D",
    "status": "Pending",
    "rowid": "1007221",
    "final_x": "3674527.16923",
    "final_y": "554956.186712",
    "longitude": "-90.08928458198957",
    "latitude": "30.02014694988391",
    "geocoded_column": {
      "latitude": "30.02014694988391",
      "longitude": "-90.08928458198957"
    }
  },
  {
    "service_request": "2023-1007220",
    "request_type": "Trash/Recycling",
    "request_reason": "Missed Trash Pick-Up",
    "date_created": "2023-06-08T19:56:06.000",
    "date_modified": "2023-06-08T19:56:07.000",
    "request_status": "Pending",
    "responsible_agency": "Department of Sanitation",
    "final_address": "4900 Nottingham Dr",
    "address_councildis": "E",
    "status": "Assigned to Contractor",
    "contractor": "Waste Pro",
    "rowid": "1007220",
    "final_x": "3716252.18584",
    "final_y": "557544.817499",
    "longitude": "-89.9573498948114",
    "latitude": "30.02595303886343",
    "geocoded_column": {
      "latitude": "30.02595303886343",
      "longitude": "-89.9573498948114"
    }
  },
  {
    "service_request": "2023-1007219",
    "request_type": "Roads/Drainage",
    "request_reason": "Damaged Sidewalk",
    "date_created": "2023-06-08T18:32:14.000",
    "date_modified": "2023-06-08T18:32:14.000",
    "request_status": "Pending",
    "responsible_agency": "Department of Public Works",
    "final_address": "100 BLK Bourbon St",
    "address_councildis": "C",
    "status": "Pending",
    "rowid": "1007219",
    "final_x": "3681046.05782",
    "final_y": "531075.957977",
    "longitude": "-90.06951917153452",
    "latitude": "29.954288492495905",
    "geocoded_column": {
      "latitude": "29.954288492495905",
      "longitude": "-90.06951917153452"
    }
  },
  {
    "service_request": "2023-1007218",
    "request_type": "Traffic Signals/Signs/Striping/Streetlights",
    "request_reason": "Street Name Sign Damaged or Missing",
    "date_created": "2023-06-08T18:27:28.000",
    "date_modified": "2023-06-08T18:27:28.000",
    "request_status": "Pending",
    "responsible_agency": "Department of Public Works",
    "final_address": "GENERAL MEYER AVE & RIVERTREE CT",
    "address_councildis": "C",
    "status": "Pending",
    "rowid": "1007218",
    "final_x": "3701382.8",
    "final_y": "523583.78",
    "longitude": "-90.00557840853125",
    "latitude": "29.933055203290333",
    "geocoded_column": {
      "latitude": "29.933055203290333",
      "longitude": "-90.00557840853125"
    }
  },
  {
    "service_request": "2023-1007217",
    "request_type": "Abandoned Vehicles",
    "request_reason": "Abandoned/Junk Vehicles",
    "date_created": "2023-06-08T18:25:58.000",
    "date_modified": "2023-06-08T18:25:58.000",
    "request_status": "Pending",
    "responsible_agency": "Department of Public Works",
    "final_address": "1733 N Dorgenois St",
    "address_councildis": "D",
    "status": "Pending",
    "rowid": "1007217",
    "final_x": "3680129.62651",
    "final_y": "540628.119883",
    "longitude": "-90.0720808966511",
    "latitude": "29.980581426525486",
    "geocoded_column": {
      "latitude": "29.980581426525486",
      "longitude": "-90.0720808966511"
    }
  },
  {
    "service_request": "2023-1007216",
    "request_type": "Trash/Recycling",
    "request_reason": "Missed Trash Pick-Up",
    "date_created": "2023-06-08T18:18:48.000",
    "date_modified": "2023-06-08T18:18:48.000",
    "request_status": "Pending",
    "responsible_agency": "Department of Sanitation",
    "final_address": "2608 Magazine St",
    "address_councildis": "B",
    "status": "Assigned to Contractor",
    "contractor": "Richards Disposal",
    "rowid": "1007216",
    "final_x": "3677509.55906",
    "final_y": "521067.282617",
    "longitude": "-90.0810314294309",
    "latitude": "29.926874719772883",
    "geocoded_column": {
      "latitude": "29.926874719772883",
      "longitude": "-90.0810314294309"
    }
  },
  {
    "service_request": "2023-1007215",
    "request_type": "Abandoned Vehicles",
    "request_reason": "Abandoned/Junk Vehicles",
    "date_created": "2023-06-08T18:17:16.000",
    "date_modified": "2023-06-08T18:17:16.000",
    "request_status": "Pending",
    "responsible_agency": "Department of Public Works",
    "final_address": "305 S Rocheblave St",
    "address_councildis": "B",
    "status": "Pending",
    "rowid": "1007215",
    "final_x": "3675582.83701",
    "final_y": "533821.226501",
    "longitude": "-90.08667555393727",
    "latitude": "29.962001616478027",
    "geocoded_column": {
      "latitude": "29.962001616478027",
      "longitude": "-90.08667555393727"
    }
  },
  {
    "service_request": "2023-1007214",
    "request_type": "Property Maintenance",
    "request_reason": "Property Maintenance",
    "date_created": "2023-06-08T18:12:57.000",
    "date_modified": "2023-06-08T18:12:57.000",
    "request_status": "Pending",
    "responsible_agency": "Department of Code Enforcement",
    "final_address": "2742 Jasmine St",
    "address_councildis": "D",
    "status": "Pending",
    "rowid": "1007214",
    "final_x": "3688015.1807",
    "final_y": "548116.639634",
    "longitude": "-90.04690942462837",
    "latitude": "30.000931149664495",
    "geocoded_column": {
      "latitude": "30.000931149664495",
      "longitude": "-90.04690942462837"
    }
  },
  {
    "service_request": "2023-1007213",
    "request_type": "Traffic Signals/Signs/Striping/Streetlights",
    "request_reason": "Street Light Outage/Malfunction",
    "date_created": "2023-06-08T18:09:05.000",
    "date_modified": "2023-06-08T18:09:05.000",
    "request_status": "Pending",
    "responsible_agency": "Department of Public Works",
    "final_address": "1200 BLK Coliseum St",
    "address_councildis": "B",
    "status": "Assigned to Contractor",
    "contractor": "Legacy Professional Services",
    "rowid": "1007213",
    "final_x": "3680138.98549",
    "final_y": "525490.10596",
    "longitude": "-90.07257741176367",
    "latitude": "29.938956746607364",
    "geocoded_column": {
      "latitude": "29.938956746607364",
      "longitude": "-90.07257741176367"
    }
  },
  {
    "service_request": "2023-1007212",
    "request_type": "Property Maintenance",
    "request_reason": "Property Maintenance",
    "date_created": "2023-06-08T18:04:42.000",
    "date_modified": "2023-06-08T18:04:42.000",
    "request_status": "Pending",
    "responsible_agency": "Department of Code Enforcement",
    "final_address": "2742 Jasmine St",
    "address_councildis": "D",
    "status": "Pending",
    "rowid": "1007212",
    "final_x": "3688015.1807",
    "final_y": "548116.639634",
    "longitude": "-90.04690942462837",
    "latitude": "30.000931149664495",
    "geocoded_column": {
      "latitude": "30.000931149664495",
      "longitude": "-90.04690942462837"
    }
  },
  {
    "service_request": "2023-1007211",
    "request_type": "Trash/Recycling",
    "request_reason": "Request a Large Item Pick Up",
    "date_created": "2023-06-08T18:01:43.000",
    "date_modified": "2023-06-08T18:01:44.000",
    "request_status": "Pending",
    "responsible_agency": "Department of Sanitation",
    "final_address": "7031 Argonne Blvd",
    "address_councildis": "A",
    "status": "Assigned to Contractor",
    "contractor": "IV Waste",
    "rowid": "1007211",
    "final_x": "3670857.39713",
    "final_y": "554077.49372",
    "longitude": "-90.10090980369738",
    "latitude": "30.01783990062325",
    "geocoded_column": {
      "latitude": "30.01783990062325",
      "longitude": "-90.10090980369738"
    }
  },
  {
    "service_request": "2023-1007210",
    "request_type": "Trash/Recycling",
    "request_reason": "Request a Large Item Pick Up",
    "date_created": "2023-06-08T17:57:28.000",
    "date_modified": "2023-06-08T17:57:29.000",
    "request_status": "Pending",
    "responsible_agency": "Department of Sanitation",
    "final_address": "7817 Fig St",
    "address_councildis": "B",
    "status": "Assigned to Contractor",
    "contractor": "Richards Disposal",
    "rowid": "1007210",
    "final_x": "3667057.83853",
    "final_y": "532515.345412",
    "longitude": "-90.11364017777902",
    "latitude": "29.958663152889162",
    "geocoded_column": {
      "latitude": "29.958663152889162",
      "longitude": "-90.11364017777902"
    }
  },
  {
    "service_request": "2023-1007209",
    "request_type": "Property Maintenance",
    "request_reason": "Property Maintenance",
    "date_created": "2023-06-08T17:56:51.000",
    "date_modified": "2023-06-08T17:56:51.000",
    "request_status": "Pending",
    "responsible_agency": "Department of Code Enforcement",
    "final_address": "2742 Jasmine St",
    "address_councildis": "D",
    "status": "Pending",
    "rowid": "1007209",
    "final_x": "3688015.1807",
    "final_y": "548116.639634",
    "longitude": "-90.04690942462837",
    "latitude": "30.000931149664495",
    "geocoded_column": {
      "latitude": "30.000931149664495",
      "longitude": "-90.04690942462837"
    }
  },
  {
    "service_request": "2023-1007208",
    "request_type": "Trash/Recycling",
    "request_reason": "Request a Large Item Pick Up",
    "date_created": "2023-06-08T17:55:47.000",
    "date_modified": "2023-06-08T17:55:47.000",
    "request_status": "Pending",
    "responsible_agency": "Department of Sanitation",
    "final_address": "6928 Lamb Rd",
    "address_councildis": "D",
    "status": "Assigned to Contractor",
    "contractor": "Waste Pro",
    "rowid": "1007208",
    "final_x": "3697684.56426",
    "final_y": "556884.112666",
    "longitude": "-90.01604484846655",
    "latitude": "30.024736364694895",
    "geocoded_column": {
      "latitude": "30.024736364694895",
      "longitude": "-90.01604484846655"
    }
  },
  {
    "service_request": "2023-1007207",
    "request_type": "Property Maintenance",
    "request_reason": "Property Maintenance",
    "date_created": "2023-06-08T17:48:35.000",
    "date_modified": "2023-06-08T17:50:08.000",
    "request_status": "Pending",
    "responsible_agency": "Department of Code Enforcement",
    "final_address": "2705 Chestnut St",
    "address_councildis": "B",
    "status": "Pending",
    "rowid": "1007207",
    "final_x": "3676826.39893",
    "final_y": "521633.242745",
    "longitude": "-90.0831684936875",
    "latitude": "29.92845143857403",
    "geocoded_column": {
      "latitude": "29.92845143857403",
      "longitude": "-90.0831684936875"
    }
  },
  {
    "service_request": "2023-1007206",
    "request_type": "Traffic Signals/Signs/Striping/Streetlights",
    "request_reason": "Traffic Sign Missing/Damaged",
    "date_created": "2023-06-08T17:29:53.000",
    "date_modified": "2023-06-08T17:29:54.000",
    "request_status": "Pending",
    "responsible_agency": "Department of Public Works",
    "final_address": "KENTUCKY ST & N RAMPART ST",
    "address_councildis": "C",
    "status": "Pending",
    "rowid": "1007206",
    "final_x": "3693206.2",
    "final_y": "534493.78",
    "longitude": "-90.03099979073637",
    "latitude": "29.96331191577396",
    "geocoded_column": {
      "latitude": "29.96331191577396",
      "longitude": "-90.03099979073637"
    }
  },
  {
    "service_request": "2023-1007205",
    "request_type": "Trash/Recycling",
    "request_reason": "Replace Trash Cart",
    "date_created": "2023-06-08T17:27:06.000",
    "date_modified": "2023-06-08T17:28:32.000",
    "request_status": "Pending",
    "responsible_agency": "Department of Sanitation",
    "final_address": "2013 St Ann St",
    "address_councildis": "D",
    "status": "Assigned to Contractor",
    "contractor": "Richards Disposal",
    "rowid": "1007205",
    "final_x": "3679072.24706",
    "final_y": "535680.956615",
    "longitude": "-90.07559207215121",
    "latitude": "29.967010390791664",
    "geocoded_column": {
      "latitude": "29.967010390791664",
      "longitude": "-90.07559207215121"
    }
  },
  {
    "service_request": "2023-1007204",
    "request_type": "Trash/Recycling",
    "request_reason": "Missed Trash Pick-Up",
    "date_created": "2023-06-08T17:21:14.000",
    "date_modified": "2023-06-08T17:21:15.000",
    "request_status": "Pending",
    "responsible_agency": "Department of Sanitation",
    "final_address": "4866 Citrus Dr",
    "address_councildis": "E",
    "status": "Assigned to Contractor",
    "contractor": "Waste Pro",
    "rowid": "1007204",
    "final_x": "3710614.30424",
    "final_y": "556753.991898",
    "longitude": "-89.97519431523847",
    "latitude": "30.023963530761154",
    "geocoded_column": {
      "latitude": "30.023963530761154",
      "longitude": "-89.97519431523847"
    }
  },
  {
    "service_request": "2023-1007203",
    "request_type": "Trash/Recycling",
    "request_reason": "Missed Trash Pick-Up",
    "date_created": "2023-06-08T17:15:40.000",
    "date_modified": "2023-06-08T17:15:41.000",
    "request_status": "Pending",
    "responsible_agency": "Department of Sanitation",
    "final_address": "1472 Camp St",
    "address_councildis": "B",
    "status": "Assigned to Contractor",
    "contractor": "Richards Disposal",
    "rowid": "1007203",
    "final_x": "3679870.3028",
    "final_y": "524004.554876",
    "longitude": "-90.07347724156756",
    "latitude": "29.934880098544948",
    "geocoded_column": {
      "latitude": "29.934880098544948",
      "longitude": "-90.07347724156756"
    }
  },
  {
    "service_request": "2023-1007202",
    "request_type": "Property Maintenance",
    "request_reason": "Property Maintenance",
    "date_created": "2023-06-08T17:10:02.000",
    "date_modified": "2023-06-08T17:10:02.000",
    "request_status": "Pending",
    "responsible_agency": "Department of Code Enforcement",
    "final_address": "6594 Bellaire Dr",
    "address_councildis": "A",
    "status": "Pending",
    "rowid": "1007202",
    "final_x": "3664480.90983",
    "final_y": "551949.45743",
    "longitude": "-90.12112826140735",
    "latitude": "30.012175582048837",
    "geocoded_column": {
      "latitude": "30.012175582048837",
      "longitude": "-90.12112826140735"
    }
  },
  {
    "service_request": "2023-1007201",
    "request_type": "Abandoned Vehicles",
    "request_reason": "Abandoned/Junk Vehicles",
    "date_created": "2023-06-08T17:01:37.000",
    "date_modified": "2023-06-08T17:01:37.000",
    "request_status": "Pending",
    "responsible_agency": "Department of Public Works",
    "final_address": "7140 Bunker Hill Rd",
    "address_councildis": "E",
    "status": "Pending",
    "rowid": "1007201",
    "final_x": "3705677.6691",
    "final_y": "560813.586654",
    "longitude": "-89.99064269186913",
    "latitude": "30.03528579468438",
    "geocoded_column": {
      "latitude": "30.03528579468438",
      "longitude": "-89.99064269186913"
    }
  },
  {
    "service_request": "2023-1007200",
    "request_type": "Abandoned Vehicles",
    "request_reason": "Abandoned/Junk Vehicles",
    "date_created": "2023-06-08T17:01:22.000",
    "date_modified": "2023-06-08T17:01:22.000",
    "request_status": "Pending",
    "responsible_agency": "Department of Public Works",
    "final_address": "223 N Johnson St",
    "address_councildis": "B",
    "status": "Pending",
    "rowid": "1007200",
    "final_x": "3677610.03522",
    "final_y": "534179.542725",
    "longitude": "-90.08026159758988",
    "latitude": "29.962926063604463",
    "geocoded_column": {
      "latitude": "29.962926063604463",
      "longitude": "-90.08026159758988"
    }
  },
  {
    "service_request": "2023-1007199",
    "request_type": "Roads/Drainage",
    "request_reason": "Road Shoulder Repair",
    "date_created": "2023-06-08T16:57:23.000",
    "date_modified": "2023-06-08T16:57:23.000",
    "request_status": "Pending",
    "responsible_agency": "Department of Public Works",
    "final_address": "7600 BLK Birch St",
    "address_councildis": "A",
    "status": "Pending",
    "rowid": "1007199",
    "final_x": "3664119.43813",
    "final_y": "528306.820799",
    "longitude": "-90.12305929178387",
    "latitude": "29.947176749891195",
    "geocoded_column": {
      "latitude": "29.947176749891195",
      "longitude": "-90.12305929178387"
    }
  },
  {
    "service_request": "2023-1007197",
    "request_type": "Trash/Recycling",
    "request_reason": "Dead Animal Pick Up",
    "date_created": "2023-06-08T16:53:26.000",
    "date_modified": "2023-06-08T16:53:27.000",
    "request_status": "Pending",
    "responsible_agency": "Department of Sanitation",
    "final_address": "ESPLANADE AVE & LEDA CT",
    "address_councildis": "A",
    "status": "Assigned to Contractor",
    "contractor": "IV Waste",
    "rowid": "1007197",
    "final_x": "3675490.0",
    "final_y": "541053.92",
    "longitude": "-90.08672023508265",
    "latitude": "29.98189183769106",
    "geocoded_column": {
      "latitude": "29.98189183769106",
      "longitude": "-90.08672023508265"
    }
  },
  {
    "service_request": "2023-1007196",
    "request_type": "Roads/Drainage",
    "request_reason": "Debris in Roadway",
    "date_created": "2023-06-08T16:52:52.000",
    "date_modified": "2023-06-08T16:52:52.000",
    "request_status": "Pending",
    "responsible_agency": "Department of Public Works",
    "final_address": "7600 BLK Birch St",
    "address_councildis": "A",
    "status": "Pending",
    "rowid": "1007196",
    "final_x": "3664119.43813",
    "final_y": "528306.820799",
    "longitude": "-90.12305929178387",
    "latitude": "29.947176749891195",
    "geocoded_column": {
      "latitude": "29.947176749891195",
      "longitude": "-90.12305929178387"
    }
  },
  {
    "service_request": "2023-1007195",
    "request_type": "Trash/Recycling",
    "request_reason": "Order Recycling Cart",
    "date_created": "2023-06-08T16:50:07.000",
    "date_modified": "2023-06-08T16:50:07.000",
    "request_status": "Pending",
    "responsible_agency": "Department of Sanitation",
    "final_address": "936 Topaz St",
    "address_councildis": "D",
    "status": "Pending",
    "rowid": "1007195",
    "final_x": "3671128.97966",
    "final_y": "556894.045338",
    "longitude": "-90.09995591489493",
    "latitude": "30.02557637541578",
    "geocoded_column": {
      "latitude": "30.02557637541578",
      "longitude": "-90.09995591489493"
    }
  },
  {
    "service_request": "2023-1007194",
    "request_type": "Abandoned Vehicles",
    "request_reason": "Abandoned/Junk Vehicles",
    "date_created": "2023-06-08T16:49:53.000",
    "date_modified": "2023-06-08T16:49:53.000",
    "request_status": "Pending",
    "responsible_agency": "Department of Public Works",
    "final_address": "2327 General Pershing St",
    "address_councildis": "B",
    "status": "Pending",
    "rowid": "1007194",
    "final_x": "3671028.3282",
    "final_y": "523624.428475",
    "longitude": "-90.10140421774902",
    "latitude": "29.934099229338432",
    "geocoded_column": {
      "latitude": "29.934099229338432",
      "longitude": "-90.10140421774902"
    }
  },
  {
    "service_request": "2023-1007193",
    "request_type": "Trash/Recycling",
    "request_reason": "Replace Trash Cart",
    "date_created": "2023-06-08T16:48:52.000",
    "date_modified": "2023-06-08T16:48:53.000",
    "request_status": "Pending",
    "responsible_agency": "Department of Sanitation",
    "final_address": "2428 Jonquil St",
    "address_councildis": "D",
    "status": "Assigned to Contractor",
    "contractor": "IV Waste",
    "rowid": "1007193",
    "final_x": "3685967.52694",
    "final_y": "547049.540369",
    "longitude": "-90.05341576463712",
    "latitude": "29.998060063490975",
    "geocoded_column": {
      "latitude": "29.998060063490975",
      "longitude": "-90.05341576463712"
    }
  },
  {
    "service_request": "2023-1007192",
    "request_type": "Abandoned Vehicles",
    "request_reason": "Abandoned/Junk Vehicles",
    "date_created": "2023-06-08T16:47:18.000",
    "date_modified": "2023-06-08T16:47:18.000",
    "request_status": "Pending",
    "responsible_agency": "Department of Public Works",
    "final_address": "2327 General Pershing St",
    "address_councildis": "B",
    "status": "Pending",
    "rowid": "1007192",
    "final_x": "3671028.3282",
    "final_y": "523624.428475",
    "longitude": "-90.10140421774902",
    "latitude": "29.934099229338432",
    "geocoded_column": {
      "latitude": "29.934099229338432",
      "longitude": "-90.10140421774902"
    }
  },
  {
    "service_request": "2023-1007191",
    "request_type": "Abandoned Vehicles",
    "request_reason": "Abandoned/Junk Vehicles",
    "date_created": "2023-06-08T16:46:55.000",
    "date_modified": "2023-06-08T16:52:23.000",
    "request_status": "Pending",
    "responsible_agency": "Department of Public Works",
    "final_address": "2306 Somerset Dr",
    "address_councildis": "C",
    "status": "Pending",
    "rowid": "1007191",
    "final_x": "3702780.16702",
    "final_y": "522598.90425",
    "longitude": "-90.00120319763414",
    "latitude": "29.93030254124599",
    "geocoded_column": {
      "latitude": "29.93030254124599",
      "longitude": "-90.00120319763414"
    }
  },
  {
    "service_request": "2023-1007190",
    "request_type": "Property Maintenance",
    "request_reason": "Property Maintenance",
    "date_created": "2023-06-08T16:46:49.000",
    "date_modified": "2023-06-08T16:46:49.000",
    "request_status": "Pending",
    "responsible_agency": "Department of Code Enforcement",
    "final_address": "122 Huntlee Dr",
    "address_councildis": "C",
    "status": "Pending",
    "rowid": "1007190",
    "final_x": "3702491.19793",
    "final_y": "524060.124412",
    "longitude": "-90.0020618278109",
    "latitude": "29.934329621861657",
    "geocoded_column": {
      "latitude": "29.934329621861657",
      "longitude": "-90.0020618278109"
    }
  },
  {
    "service_request": "2023-1007189",
    "request_type": "Trash/Recycling",
    "request_reason": "Order Trash Cart",
    "date_created": "2023-06-08T16:45:13.000",
    "date_modified": "2023-06-08T16:45:13.000",
    "request_status": "Closed",
    "responsible_agency": "Department of Sanitation",
    "final_address": "3645 Tchoupitoulas St",
    "address_councildis": "B",
    "status": "Resolved",
    "rowid": "1007189",
    "final_x": "3674221.6555",
    "final_y": "517821.539062",
    "longitude": "-90.09152152509571",
    "latitude": "29.918048363434274",
    "geocoded_column": {
      "latitude": "29.918048363434274",
      "longitude": "-90.09152152509571"
    }
  },
  {
    "service_request": "2023-1007188",
    "request_type": "Trash/Recycling",
    "request_reason": "Repair Trash Cart",
    "date_created": "2023-06-08T16:44:01.000",
    "date_modified": "2023-06-08T16:44:01.000",
    "request_status": "Pending",
    "responsible_agency": "Department of Sanitation",
    "final_address": "816 Milan St",
    "address_councildis": "B",
    "status": "Assigned to Contractor",
    "contractor": "Richards Disposal",
    "rowid": "1007188",
    "final_x": "3671788.14529",
    "final_y": "518639.362423",
    "longitude": "-90.09917500483718",
    "latitude": "29.920369411699184",
    "geocoded_column": {
      "latitude": "29.920369411699184",
      "longitude": "-90.09917500483718"
    }
  },
  {
    "service_request": "2023-1007187",
    "request_type": "Trash/Recycling",
    "request_reason": "Illegal Dumping",
    "date_created": "2023-06-08T16:43:53.000",
    "date_modified": "2023-06-08T16:43:53.000",
    "request_status": "Pending",
    "responsible_agency": "Department of Sanitation",
    "final_address": "1403 St Roch Ave",
    "address_councildis": "C",
    "status": "Pending",
    "rowid": "1007187",
    "final_x": "3686470.8582",
    "final_y": "537577.645768",
    "longitude": "-90.05216030648705",
    "latitude": "29.972000246785218",
    "geocoded_column": {
      "latitude": "29.972000246785218",
      "longitude": "-90.05216030648705"
    }
  },
  {
    "service_request": "2023-1007186",
    "request_type": "Property Maintenance",
    "request_reason": "Property Maintenance",
    "date_created": "2023-06-08T16:42:20.000",
    "date_modified": "2023-06-08T16:42:20.000",
    "request_status": "Pending",
    "responsible_agency": "Department of Code Enforcement",
    "final_address": "1403 St Roch Ave",
    "address_councildis": "C",
    "status": "Pending",
    "rowid": "1007186",
    "final_x": "3686470.8582",
    "final_y": "537577.645768",
    "longitude": "-90.05216030648705",
    "latitude": "29.972000246785218",
    "geocoded_column": {
      "latitude": "29.972000246785218",
      "longitude": "-90.05216030648705"
    }
  },
  {
    "service_request": "2023-1007185",
    "request_type": "Property Maintenance",
    "request_reason": "Property Maintenance",
    "date_created": "2023-06-08T16:42:18.000",
    "date_modified": "2023-06-08T16:42:18.000",
    "request_status": "Pending",
    "responsible_agency": "Department of Code Enforcement",
    "final_address": "174 Huntlee Dr",
    "address_councildis": "C",
    "status": "Pending",
    "rowid": "1007185",
    "final_x": "3702401.80836",
    "final_y": "523329.206843",
    "longitude": "-90.00237082875383",
    "latitude": "29.93232270881407",
    "geocoded_column": {
      "latitude": "29.93232270881407",
      "longitude": "-90.00237082875383"
    }
  },
  {
    "service_request": "2023-1007184",
    "request_type": "Trash/Recycling",
    "request_reason": "Replace Trash Cart",
    "date_created": "2023-06-08T16:40:38.000",
    "date_modified": "2023-06-08T16:40:39.000",
    "request_status": "Pending",
    "responsible_agency": "Department of Sanitation",
    "final_address": "1332 Congress St",
    "address_councildis": "C",
    "status": "Assigned to Contractor",
    "contractor": "IV Waste",
    "rowid": "1007184",
    "final_x": "3690930.81622",
    "final_y": "536585.261959",
    "longitude": "-90.0381105132061",
    "latitude": "29.969133670449274",
    "geocoded_column": {
      "latitude": "29.969133670449274",
      "longitude": "-90.0381105132061"
    }
  },
  {
    "service_request": "2023-1007183",
    "request_type": "Roads/Drainage",
    "request_reason": "Street Subsidence (Sinking)",
    "date_created": "2023-06-08T16:24:40.000",
    "date_modified": "2023-06-08T16:24:40.000",
    "request_status": "Pending",
    "responsible_agency": "Department of Public Works",
    "final_address": "613 Dumaine St",
    "address_councildis": "C",
    "status": "Pending",
    "rowid": "1007183",
    "final_x": "3683207.70632",
    "final_y": "532926.743428",
    "longitude": "-90.06262874613483",
    "latitude": "29.95931178665952",
    "geocoded_column": {
      "latitude": "29.95931178665952",
      "longitude": "-90.06262874613483"
    }
  },
  {
    "service_request": "2023-1007182",
    "request_type": "Roads/Drainage",
    "request_reason": "Street Subsidence (Sinking)",
    "date_created": "2023-06-08T16:22:57.000",
    "date_modified": "2023-06-08T16:22:57.000",
    "request_status": "Pending",
    "responsible_agency": "Department of Public Works",
    "final_address": "613 Dumaine St",
    "address_councildis": "C",
    "status": "Pending",
    "rowid": "1007182",
    "final_x": "3683207.70632",
    "final_y": "532926.743428",
    "longitude": "-90.06262874613483",
    "latitude": "29.95931178665952",
    "geocoded_column": {
      "latitude": "29.95931178665952",
      "longitude": "-90.06262874613483"
    }
  },
  {
    "service_request": "2023-1007181",
    "request_type": "Trash/Recycling",
    "request_reason": "MIssed Recycling Pick-Up",
    "date_created": "2023-06-08T16:16:44.000",
    "date_modified": "2023-06-08T16:16:45.000",
    "request_status": "Pending",
    "responsible_agency": "Department of Sanitation",
    "final_address": "1525 Religious St",
    "address_councildis": "B",
    "status": "Assigned to Contractor",
    "contractor": "Richards Disposal",
    "rowid": "1007181",
    "final_x": "3681967.41928",
    "final_y": "523187.017531",
    "longitude": "-90.06688520226528",
    "latitude": "29.932568573565632",
    "geocoded_column": {
      "latitude": "29.932568573565632",
      "longitude": "-90.06688520226528"
    }
  },
  {
    "service_request": "2023-1007180",
    "request_type": "Roads/Drainage",
    "request_reason": "Street Subsidence (Sinking)",
    "date_created": "2023-06-08T16:15:42.000",
    "date_modified": "2023-06-08T16:15:42.000",
    "request_status": "Pending",
    "responsible_agency": "Department of Public Works",
    "final_address": "613 Dumaine St",
    "address_councildis": "C",
    "status": "Pending",
    "rowid": "1007180",
    "final_x": "3683207.70632",
    "final_y": "532926.743428",
    "longitude": "-90.06262874613483",
    "latitude": "29.95931178665952",
    "geocoded_column": {
      "latitude": "29.95931178665952",
      "longitude": "-90.06262874613483"
    }
  },
  {
    "service_request": "2023-1007179",
    "request_type": "Trash/Recycling",
    "request_reason": "Missed Trash Pick-Up",
    "date_created": "2023-06-08T16:14:47.000",
    "date_modified": "2023-06-08T16:14:48.000",
    "request_status": "Pending",
    "responsible_agency": "Department of Sanitation",
    "final_address": "2600 BLK Painters St",
    "address_councildis": "D",
    "status": "Assigned to Contractor",
    "contractor": "IV Waste",
    "rowid": "1007179",
    "final_x": "3687098.32098",
    "final_y": "542321.716325",
    "longitude": "-90.05001088016456",
    "latitude": "29.985025461191753",
    "geocoded_column": {
      "latitude": "29.985025461191753",
      "longitude": "-90.05001088016456"
    }
  },
  {
    "service_request": "2023-1007178",
    "request_type": "Roads/Drainage",
    "request_reason": "Street Subsidence (Sinking)",
    "date_created": "2023-06-08T16:12:31.000",
    "date_modified": "2023-06-08T16:12:31.000",
    "request_status": "Pending",
    "responsible_agency": "Department of Public Works",
    "final_address": "613 Dumaine St",
    "address_councildis": "C",
    "status": "Pending",
    "rowid": "1007178",
    "final_x": "3683207.70632",
    "final_y": "532926.743428",
    "longitude": "-90.06262874613483",
    "latitude": "29.95931178665952",
    "geocoded_column": {
      "latitude": "29.95931178665952",
      "longitude": "-90.06262874613483"
    }
  },
  {
    "service_request": "2023-1007177",
    "request_type": "Trash/Recycling",
    "request_reason": "Request a Large Item Pick Up",
    "date_created": "2023-06-08T16:06:40.000",
    "date_modified": "2023-06-08T16:06:41.000",
    "request_status": "Pending",
    "responsible_agency": "Department of Sanitation",
    "final_address": "6516 Bellaire Dr",
    "address_councildis": "A",
    "status": "Assigned to Contractor",
    "contractor": "IV Waste",
    "rowid": "1007177",
    "final_x": "3664431.94816",
    "final_y": "551450.278165",
    "longitude": "-90.12129963561242",
    "latitude": "30.010804436871908",
    "geocoded_column": {
      "latitude": "30.010804436871908",
      "longitude": "-90.12129963561242"
    }
  },
  {
    "service_request": "2023-1007176",
    "request_type": "Trash/Recycling",
    "request_reason": "Order Recycling Cart",
    "date_created": "2023-06-08T16:03:34.000",
    "date_modified": "2023-06-08T16:03:35.000",
    "request_status": "Pending",
    "responsible_agency": "Department of Sanitation",
    "final_address": "9327 Morrison Rd",
    "address_councildis": "E",
    "status": "Pending",
    "rowid": "1007176",
    "final_x": "3706795.53982",
    "final_y": "562572.916832",
    "longitude": "-89.98704474115846",
    "latitude": "30.04008719211917",
    "geocoded_column": {
      "latitude": "30.04008719211917",
      "longitude": "-89.98704474115846"
    }
  },
  {
    "service_request": "2023-1007175",
    "request_type": "Trash/Recycling",
    "request_reason": "Order Trash Cart",
    "date_created": "2023-06-08T16:03:04.000",
    "date_modified": "2023-06-08T16:03:05.000",
    "request_status": "Pending",
    "responsible_agency": "Department of Sanitation",
    "final_address": "9327 Morrison Rd",
    "address_councildis": "E",
    "status": "Assigned to Contractor",
    "contractor": "Waste Pro",
    "rowid": "1007175",
    "final_x": "3706795.53982",
    "final_y": "562572.916832",
    "longitude": "-89.98704474115846",
    "latitude": "30.04008719211917",
    "geocoded_column": {
      "latitude": "30.04008719211917",
      "longitude": "-89.98704474115846"
    }
  },
  {
    "service_request": "2023-1007174",
    "request_type": "Trash/Recycling",
    "request_reason": "Missed Trash Pick-Up",
    "date_created": "2023-06-08T16:01:21.000",
    "date_modified": "2023-06-08T16:01:22.000",
    "request_status": "Pending",
    "responsible_agency": "Department of Sanitation",
    "final_address": "4844 Wright Rd",
    "address_councildis": "E",
    "status": "Assigned to Contractor",
    "contractor": "Waste Pro",
    "rowid": "1007174",
    "final_x": "3716523.26674",
    "final_y": "557451.182107",
    "longitude": "-89.95649687953524",
    "latitude": "30.02568662530063",
    "geocoded_column": {
      "latitude": "30.02568662530063",
      "longitude": "-89.95649687953524"
    }
  },
  {
    "service_request": "2023-1007173",
    "request_type": "Trash/Recycling",
    "request_reason": "Repair Trash Cart",
    "date_created": "2023-06-08T15:59:56.000",
    "date_modified": "2023-06-08T15:59:56.000",
    "request_status": "Pending",
    "responsible_agency": "Department of Sanitation",
    "final_address": "2107 General Taylor St",
    "address_councildis": "B",
    "status": "Assigned to Contractor",
    "contractor": "Richards Disposal",
    "rowid": "1007173",
    "final_x": "3672247.10369",
    "final_y": "522913.613051",
    "longitude": "-90.09758078157529",
    "latitude": "29.93210863011943",
    "geocoded_column": {
      "latitude": "29.93210863011943",
      "longitude": "-90.09758078157529"
    }
  },
  {
    "service_request": "2023-1007172",
    "request_type": "Trash/Recycling",
    "request_reason": "Missed Trash Pick-Up",
    "date_created": "2023-06-08T15:59:42.000",
    "date_modified": "2023-06-08T16:00:08.000",
    "request_status": "Pending",
    "responsible_agency": "Department of Sanitation",
    "final_address": "2909 Josephine St",
    "address_councildis": "B",
    "status": "Assigned to Contractor",
    "contractor": "Richards Disposal",
    "rowid": "1007172",
    "final_x": "3675101.10875",
    "final_y": "527650.756991",
    "longitude": "-90.08840848301757",
    "latitude": "29.945049282822005",
    "geocoded_column": {
      "latitude": "29.945049282822005",
      "longitude": "-90.08840848301757"
    }
  },
  {
    "service_request": "2023-1007171",
    "request_type": "Traffic Signals/Signs/Striping/Streetlights",
    "request_reason": "Additional signage",
    "date_created": "2023-06-08T15:54:57.000",
    "date_modified": "2023-06-08T15:54:57.000",
    "request_status": "Pending",
    "responsible_agency": "Department of Public Works",
    "final_address": "3500 BLK Calhoun St",
    "address_councildis": "A",
    "status": "Pending",
    "rowid": "1007171",
    "final_x": "3667770.29008",
    "final_y": "529564.537771",
    "longitude": "-90.11148979269721",
    "latitude": "29.950528526204497",
    "geocoded_column": {
      "latitude": "29.950528526204497",
      "longitude": "-90.11148979269721"
    }
  },
  {
    "service_request": "2023-1007170",
    "request_type": "Trash/Recycling",
    "request_reason": "Missed Trash Pick-Up",
    "date_created": "2023-06-08T15:54:20.000",
    "date_modified": "2023-06-08T15:54:20.000",
    "request_status": "Pending",
    "responsible_agency": "Department of Sanitation",
    "final_address": "4818 Marais St",
    "address_councildis": "E",
    "status": "Assigned to Contractor",
    "contractor": "Waste Pro",
    "rowid": "1007170",
    "final_x": "3695285.89251",
    "final_y": "534755.517126",
    "longitude": "-90.02442294728269",
    "latitude": "29.963966442017295",
    "geocoded_column": {
      "latitude": "29.963966442017295",
      "longitude": "-90.02442294728269"
    }
  },
  {
    "service_request": "2023-1007168",
    "request_type": "Trash/Recycling",
    "request_reason": "Request a Large Item Pick Up",
    "date_created": "2023-06-08T15:45:35.000",
    "date_modified": "2023-06-08T15:45:35.000",
    "request_status": "Pending",
    "responsible_agency": "Department of Sanitation",
    "final_address": "4627 S Claiborne Ave",
    "address_councildis": "B",
    "status": "Assigned to Contractor",
    "contractor": "Richards Disposal",
    "rowid": "1007168",
    "final_x": "3669366.70708",
    "final_y": "525879.283709",
    "longitude": "-90.1065736974965",
    "latitude": "29.94034837190073",
    "geocoded_column": {
      "latitude": "29.94034837190073",
      "longitude": "-90.1065736974965"
    }
  },
  {
    "service_request": "2023-1007167",
    "request_type": "Trash/Recycling",
    "request_reason": "Repair Trash Cart",
    "date_created": "2023-06-08T15:45:13.000",
    "date_modified": "2023-06-08T15:45:14.000",
    "request_status": "Pending",
    "responsible_agency": "Department of Sanitation",
    "final_address": "933 Verret St",
    "address_councildis": "C",
    "status": "Assigned to Contractor",
    "contractor": "Richards Disposal",
    "rowid": "1007167",
    "final_x": "3687154.56642",
    "final_y": "528048.519871",
    "longitude": "-90.05033801774087",
    "latitude": "29.94577740205051",
    "geocoded_column": {
      "latitude": "29.94577740205051",
      "longitude": "-90.05033801774087"
    }
  },
  {
    "service_request": "2023-1007166",
    "request_type": "Trash/Recycling",
    "request_reason": "Request a Large Item Pick Up",
    "date_created": "2023-06-08T15:45:07.000",
    "date_modified": "2023-06-08T15:45:08.000",
    "request_status": "Pending",
    "responsible_agency": "Department of Sanitation",
    "final_address": "2122 Peniston St",
    "address_councildis": "B",
    "status": "Assigned to Contractor",
    "contractor": "Richards Disposal",
    "rowid": "1007166",
    "final_x": "3672368.67412",
    "final_y": "523033.786683",
    "longitude": "-90.09719290234992",
    "latitude": "29.932435463156107",
    "geocoded_column": {
      "latitude": "29.932435463156107",
      "longitude": "-90.09719290234992"
    }
  },
  {
    "service_request": "2023-1007165",
    "request_type": "Property Maintenance",
    "request_reason": "Property Maintenance",
    "date_created": "2023-06-08T15:44:48.000",
    "date_modified": "2023-06-08T15:44:49.000",
    "request_status": "Pending",
    "responsible_agency": "Department of Code Enforcement",
    "final_address": "6135 Charlotte Dr",
    "address_councildis": "D",
    "status": "Pending",
    "rowid": "1007165",
    "final_x": "3679917.93352",
    "final_y": "555240.526297",
    "longitude": "-90.07224157055042",
    "latitude": "30.020766747704645",
    "geocoded_column": {
      "latitude": "30.020766747704645",
      "longitude": "-90.07224157055042"
    }
  },
  {
    "service_request": "2023-1007164",
    "request_type": "Abandoned Vehicles",
    "request_reason": "Abandoned/Junk Vehicles",
    "date_created": "2023-06-08T15:44:01.000",
    "date_modified": "2023-06-08T15:44:34.000",
    "request_status": "Pending",
    "responsible_agency": "Department of Public Works",
    "final_address": "1700 BLK Bodenger Blvd",
    "address_councildis": "C",
    "status": "Pending",
    "rowid": "1007164",
    "final_x": "3688459.67258",
    "final_y": "525251.247514",
    "longitude": "-90.04631657605198",
    "latitude": "29.938045607589082",
    "geocoded_column": {
      "latitude": "29.938045607589082",
      "longitude": "-90.04631657605198"
    }
  },
  {
    "service_request": "2023-1007162",
    "request_type": "Trash/Recycling",
    "request_reason": "Request a Large Item Pick Up",
    "date_created": "2023-06-08T15:39:00.000",
    "date_modified": "2023-06-08T15:39:02.000",
    "request_status": "Pending",
    "responsible_agency": "Department of Sanitation",
    "final_address": "3726 Herald St",
    "address_councildis": "C",
    "status": "Assigned to Contractor",
    "contractor": "Richards Disposal",
    "rowid": "1007162",
    "final_x": "3702243.62826",
    "final_y": "517277.080629",
    "longitude": "-90.00309199189272",
    "latitude": "29.915686502308155",
    "geocoded_column": {
      "latitude": "29.915686502308155",
      "longitude": "-90.00309199189272"
    }
  },
  {
    "service_request": "2023-1007161",
    "request_type": "Traffic Signals/Signs/Striping/Streetlights",
    "request_reason": "Street Light Outage/Malfunction",
    "date_created": "2023-06-08T15:37:48.000",
    "date_modified": "2023-06-08T15:37:48.000",
    "request_status": "Pending",
    "responsible_agency": "Department of Public Works",
    "final_address": "18 Yosemite Dr",
    "address_councildis": "C",
    "status": "Assigned to Contractor",
    "contractor": "Legacy Professional Services",
    "rowid": "1007161",
    "final_x": "3699770.85604",
    "final_y": "517695.046518",
    "longitude": "-90.0108817268932",
    "latitude": "29.91691446995952",
    "geocoded_column": {
      "latitude": "29.91691446995952",
      "longitude": "-90.0108817268932"
    }
  },
  {
    "service_request": "2023-1007160",
    "request_type": "Trash/Recycling",
    "request_reason": "Return Trash Cart",
    "date_created": "2023-06-08T15:34:43.000",
    "date_modified": "2023-06-08T15:34:44.000",
    "request_status": "Pending",
    "responsible_agency": "Department of Sanitation",
    "final_address": "2623 Robert St",
    "address_councildis": "B",
    "status": "Assigned to Contractor",
    "contractor": "Richards Disposal",
    "rowid": "1007160",
    "final_x": "3668900.21665",
    "final_y": "525159.491837",
    "longitude": "-90.10807078743859",
    "latitude": "29.93838290103296",
    "geocoded_column": {
      "latitude": "29.93838290103296",
      "longitude": "-90.10807078743859"
    }
  },
  {
    "service_request": "2023-1007159",
    "request_type": "Trash/Recycling",
    "request_reason": "Missed Trash Pick-Up",
    "date_created": "2023-06-08T15:33:10.000",
    "date_modified": "2023-06-08T15:33:11.000",
    "request_status": "Pending",
    "responsible_agency": "Department of Sanitation",
    "final_address": "5011 Marais St",
    "address_councildis": "E",
    "status": "Assigned to Contractor",
    "contractor": "Waste Pro",
    "rowid": "1007159",
    "final_x": "3696188.65475",
    "final_y": "534671.766598",
    "longitude": "-90.02157514991411",
    "latitude": "29.963707771400877",
    "geocoded_column": {
      "latitude": "29.963707771400877",
      "longitude": "-90.02157514991411"
    }
  },
  {
    "service_request": "2023-1007158",
    "request_type": "Abandoned Vehicles",
    "request_reason": "Abandoned/Junk Vehicles",
    "date_created": "2023-06-08T15:32:27.000",
    "date_modified": "2023-06-08T15:32:27.000",
    "request_status": "Pending",
    "responsible_agency": "Department of Public Works",
    "final_address": "2327 General Pershing St",
    "address_councildis": "B",
    "status": "Pending",
    "rowid": "1007158",
    "final_x": "3671028.3282",
    "final_y": "523624.428475",
    "longitude": "-90.10140421774902",
    "latitude": "29.934099229338432",
    "geocoded_column": {
      "latitude": "29.934099229338432",
      "longitude": "-90.10140421774902"
    }
  },
  {
    "service_request": "2023-1007156",
    "request_type": "Abandoned Vehicles",
    "request_reason": "Abandoned/Junk Vehicles",
    "date_created": "2023-06-08T15:30:06.000",
    "date_modified": "2023-06-08T15:30:06.000",
    "request_status": "Pending",
    "responsible_agency": "Department of Public Works",
    "final_address": "2327 General Pershing St",
    "address_councildis": "B",
    "status": "Pending",
    "rowid": "1007156",
    "final_x": "3671028.3282",
    "final_y": "523624.428475",
    "longitude": "-90.10140421774902",
    "latitude": "29.934099229338432",
    "geocoded_column": {
      "latitude": "29.934099229338432",
      "longitude": "-90.10140421774902"
    }
  },
  {
    "service_request": "2023-1007155",
    "request_type": "Trash/Recycling",
    "request_reason": "Request a Large Item Pick Up",
    "date_created": "2023-06-08T15:29:48.000",
    "date_modified": "2023-06-08T15:29:49.000",
    "request_status": "Pending",
    "responsible_agency": "Department of Sanitation",
    "final_address": "929 Ursulines Ave",
    "address_councildis": "C",
    "status": "Assigned to Contractor",
    "contractor": "Empire Services",
    "rowid": "1007155",
    "final_x": "3682669.08495",
    "final_y": "534256.570565",
    "longitude": "-90.06428307357129",
    "latitude": "29.962984769324628",
    "geocoded_column": {
      "latitude": "29.962984769324628",
      "longitude": "-90.06428307357129"
    }
  },
  {
    "service_request": "2023-1007154",
    "request_type": "Trash/Recycling",
    "request_reason": "Request a Large Item Pick Up",
    "date_created": "2023-06-08T15:27:02.000",
    "date_modified": "2023-06-08T15:27:02.000",
    "request_status": "Pending",
    "responsible_agency": "Department of Sanitation",
    "final_address": "1128 Nashville Ave",
    "address_councildis": "A",
    "status": "Assigned to Contractor",
    "contractor": "Richards Disposal",
    "rowid": "1007154",
    "final_x": "3665732.63508",
    "final_y": "520218.262968",
    "longitude": "-90.11823662329108",
    "latitude": "29.924888844462647",
    "geocoded_column": {
      "latitude": "29.924888844462647",
      "longitude": "-90.11823662329108"
    }
  },
  {
    "service_request": "2023-1007153",
    "request_type": "Trash/Recycling",
    "request_reason": "Repair Recycling Cart",
    "date_created": "2023-06-08T15:23:30.000",
    "date_modified": "2023-06-08T15:23:30.000",
    "request_status": "Pending",
    "responsible_agency": "Department of Sanitation",
    "final_address": "10 Olympic Ct",
    "address_councildis": "C",
    "status": "Pending",
    "rowid": "1007153",
    "final_x": "3700007.67556",
    "final_y": "516377.521653",
    "longitude": "-90.01018225167297",
    "latitude": "29.913284207139174",
    "geocoded_column": {
      "latitude": "29.913284207139174",
      "longitude": "-90.01018225167297"
    }
  },
  {
    "service_request": "2023-1007152",
    "request_type": "Trash/Recycling",
    "request_reason": "Repair Trash Cart",
    "date_created": "2023-06-08T15:22:01.000",
    "date_modified": "2023-06-08T15:22:02.000",
    "request_status": "Pending",
    "responsible_agency": "Department of Sanitation",
    "final_address": "724 Harmony St",
    "address_councildis": "B",
    "status": "Assigned to Contractor",
    "contractor": "Richards Disposal",
    "rowid": "1007152",
    "final_x": "3676352.15246",
    "final_y": "518821.597303",
    "longitude": "-90.08476230404878",
    "latitude": "29.920734541776305",
    "geocoded_column": {
      "latitude": "29.920734541776305",
      "longitude": "-90.08476230404878"
    }
  },
  {
    "service_request": "2023-1007151",
    "request_type": "Trash/Recycling",
    "request_reason": "Request a Large Item Pick Up",
    "date_created": "2023-06-08T15:21:49.000",
    "date_modified": "2023-06-08T15:21:50.000",
    "request_status": "Pending",
    "responsible_agency": "Department of Sanitation",
    "final_address": "1921 S Rendon St",
    "address_councildis": "B",
    "status": "Assigned to Contractor",
    "contractor": "Richards Disposal",
    "rowid": "1007151",
    "final_x": "3669175.65722",
    "final_y": "530147.293185",
    "longitude": "-90.10703266443093",
    "latitude": "29.952089631925237",
    "geocoded_column": {
      "latitude": "29.952089631925237",
      "longitude": "-90.10703266443093"
    }
  },
  {
    "service_request": "2023-1007150",
    "request_type": "Roads/Drainage",
    "request_reason": "Pothole",
    "date_created": "2023-06-08T15:18:24.000",
    "date_modified": "2023-06-08T15:18:24.000",
    "request_status": "Pending",
    "responsible_agency": "Department of Public Works",
    "final_address": "1311 Holiday Pl",
    "address_councildis": "C",
    "status": "Pending",
    "rowid": "1007150",
    "final_x": "3698941.80586",
    "final_y": "526583.417406",
    "longitude": "-90.01317530652271",
    "latitude": "29.941380714218354",
    "geocoded_column": {
      "latitude": "29.941380714218354",
      "longitude": "-90.01317530652271"
    }
  },
  {
    "service_request": "2023-1007149",
    "request_type": "Roads/Drainage",
    "request_reason": "Damaged Sidewalk",
    "date_created": "2023-06-08T15:17:13.000",
    "date_modified": "2023-06-08T15:17:14.000",
    "request_status": "Pending",
    "responsible_agency": "Department of Public Works",
    "final_address": "4000 BLK America St",
    "address_councildis": "E",
    "status": "Pending",
    "rowid": "1007149",
    "final_x": "3700056.29539",
    "final_y": "551579.424516",
    "longitude": "-90.00874439136156",
    "latitude": "30.010075304980965",
    "geocoded_column": {
      "latitude": "30.010075304980965",
      "longitude": "-90.00874439136156"
    }
  },
  {
    "service_request": "2023-1007148",
    "request_type": "Roads/Drainage",
    "request_reason": "Road Shoulder Repair",
    "date_created": "2023-06-08T15:15:49.000",
    "date_modified": "2023-06-08T16:46:02.000",
    "case_close_date": "2023-06-08T11:46:02.000",
    "request_status": "Closed",
    "responsible_agency": "Department of Public Works",
    "final_address": "4000 BLK America St",
    "address_councildis": "E",
    "status": "Duplicate Request",
    "rowid": "1007148",
    "final_x": "3700056.29539",
    "final_y": "551579.424516",
    "longitude": "-90.00874439136156",
    "latitude": "30.010075304980965",
    "geocoded_column": {
      "latitude": "30.010075304980965",
      "longitude": "-90.00874439136156"
    }
  },
  {
    "service_request": "2023-1007147",
    "request_type": "Roads/Drainage",
    "request_reason": "Street Subsidence (Sinking)",
    "date_created": "2023-06-08T15:14:17.000",
    "date_modified": "2023-06-08T16:40:38.000",
    "request_status": "Pending",
    "responsible_agency": "Department of Public Works",
    "final_address": "4000 BLK America St",
    "address_councildis": "E",
    "status": "Inspected",
    "rowid": "1007147",
    "final_x": "3700056.29539",
    "final_y": "551579.424516",
    "longitude": "-90.00874439136156",
    "latitude": "30.010075304980965",
    "geocoded_column": {
      "latitude": "30.010075304980965",
      "longitude": "-90.00874439136156"
    }
  },
  {
    "service_request": "2023-1007146",
    "request_type": "Trash/Recycling",
    "request_reason": "Request a Large Item Pick Up",
    "date_created": "2023-06-08T15:13:18.000",
    "date_modified": "2023-06-08T15:13:18.000",
    "request_status": "Pending",
    "responsible_agency": "Department of Sanitation",
    "final_address": "4711 Francis Dr",
    "address_councildis": "D",
    "status": "Assigned to Contractor",
    "contractor": "Waste Pro",
    "rowid": "1007146",
    "final_x": "3698312.4456",
    "final_y": "554157.659352",
    "longitude": "-90.0141600438706",
    "latitude": "30.017219792552496",
    "geocoded_column": {
      "latitude": "30.017219792552496",
      "longitude": "-90.0141600438706"
    }
  },
  {
    "service_request": "2023-1007145",
    "request_type": "Trash/Recycling",
    "request_reason": "Return Trash Cart",
    "date_created": "2023-06-08T15:12:06.000",
    "date_modified": "2023-06-08T15:12:07.000",
    "request_status": "Pending",
    "responsible_agency": "Department of Sanitation",
    "final_address": "739 Weiblen Pl",
    "address_councildis": "A",
    "status": "Assigned to Contractor",
    "contractor": "IV Waste",
    "rowid": "1007145",
    "final_x": "3668423.57185",
    "final_y": "542625.540045",
    "longitude": "-90.10898640565051",
    "latitude": "29.98642275716612",
    "geocoded_column": {
      "latitude": "29.98642275716612",
      "longitude": "-90.10898640565051"
    }
  },
  {
    "service_request": "2023-1007144",
    "request_type": "Trash/Recycling",
    "request_reason": "Order Recycling Cart",
    "date_created": "2023-06-08T15:10:18.000",
    "date_modified": "2023-06-08T15:10:19.000",
    "request_status": "Pending",
    "responsible_agency": "Department of Sanitation",
    "final_address": "739 Weiblen Pl",
    "address_councildis": "A",
    "status": "Pending",
    "rowid": "1007144",
    "final_x": "3668423.57185",
    "final_y": "542625.540045",
    "longitude": "-90.10898640565051",
    "latitude": "29.98642275716612",
    "geocoded_column": {
      "latitude": "29.98642275716612",
      "longitude": "-90.10898640565051"
    }
  },
  {
    "service_request": "2023-1007143",
    "request_type": "Trash/Recycling",
    "request_reason": "Order Trash Cart",
    "date_created": "2023-06-08T15:10:02.000",
    "date_modified": "2023-06-08T15:10:03.000",
    "request_status": "Pending",
    "responsible_agency": "Department of Sanitation",
    "final_address": "739 Weiblen Pl",
    "address_councildis": "A",
    "status": "Assigned to Contractor",
    "contractor": "IV Waste",
    "rowid": "1007143",
    "final_x": "3668423.57185",
    "final_y": "542625.540045",
    "longitude": "-90.10898640565051",
    "latitude": "29.98642275716612",
    "geocoded_column": {
      "latitude": "29.98642275716612",
      "longitude": "-90.10898640565051"
    }
  },
  {
    "service_request": "2023-1007142",
    "request_type": "Roads/Drainage",
    "request_reason": "Pothole",
    "date_created": "2023-06-08T15:02:56.000",
    "date_modified": "2023-06-08T15:02:56.000",
    "request_status": "Pending",
    "responsible_agency": "Department of Public Works",
    "final_address": "CLIO ST & S CLAIBORNE AV OVERPASS",
    "address_councildis": "B",
    "status": "Pending",
    "rowid": "1007142",
    "final_x": "3675574.88",
    "final_y": "528970.41",
    "longitude": "-90.08686731443474",
    "latitude": "29.948663729815422",
    "geocoded_column": {
      "latitude": "29.948663729815422",
      "longitude": "-90.08686731443474"
    }
  },
  {
    "service_request": "2023-1007141",
    "request_type": "Trash/Recycling",
    "request_reason": "Request a Large Item Pick Up",
    "date_created": "2023-06-08T15:02:02.000",
    "date_modified": "2023-06-08T15:02:02.000",
    "request_status": "Pending",
    "responsible_agency": "Department of Sanitation",
    "final_address": "6563 Bellaire Dr",
    "address_councildis": "A",
    "status": "Assigned to Contractor",
    "contractor": "IV Waste",
    "rowid": "1007141",
    "final_x": "3664574.53018",
    "final_y": "551822.732374",
    "longitude": "-90.12083670948256",
    "latitude": "30.011824408618367",
    "geocoded_column": {
      "latitude": "30.011824408618367",
      "longitude": "-90.12083670948256"
    }
  },
  {
    "service_request": "2023-1007140",
    "request_type": "Trash/Recycling",
    "request_reason": "MIssed Recycling Pick-Up",
    "date_created": "2023-06-08T15:00:25.000",
    "date_modified": "2023-06-08T15:00:25.000",
    "request_status": "Pending",
    "responsible_agency": "Department of Sanitation",
    "final_address": "2618 Soniat St",
    "address_councildis": "B",
    "status": "Assigned to Contractor",
    "contractor": "Richards Disposal",
    "rowid": "1007140",
    "final_x": "3668515.33658",
    "final_y": "525081.772221",
    "longitude": "-90.10928851677042",
    "latitude": "29.93818050797677",
    "geocoded_column": {
      "latitude": "29.93818050797677",
      "longitude": "-90.10928851677042"
    }
  },
  {
    "service_request": "2023-1007139",
    "request_type": "Trash/Recycling",
    "request_reason": "Request a Large Item Pick Up",
    "date_created": "2023-06-08T14:59:00.000",
    "date_modified": "2023-06-08T14:59:01.000",
    "request_status": "Pending",
    "responsible_agency": "Department of Sanitation",
    "final_address": "6911 Manchester St",
    "address_councildis": "E",
    "status": "Assigned to Contractor",
    "contractor": "Waste Pro",
    "rowid": "1007139",
    "final_x": "3698700.83069",
    "final_y": "560109.602013",
    "longitude": "-90.01271617062565",
    "latitude": "30.03357305699327",
    "geocoded_column": {
      "latitude": "30.03357305699327",
      "longitude": "-90.01271617062565"
    }
  },
  {
    "service_request": "2023-1007138",
    "request_type": "Trash/Recycling",
    "request_reason": "Request a Large Item Pick Up",
    "date_created": "2023-06-08T14:55:14.000",
    "date_modified": "2023-06-08T14:55:15.000",
    "request_status": "Pending",
    "responsible_agency": "Department of Sanitation",
    "final_address": "3600 Octavia St",
    "address_councildis": "A",
    "status": "Assigned to Contractor",
    "contractor": "Richards Disposal",
    "rowid": "1007138",
    "final_x": "3668540.23687",
    "final_y": "528750.690368",
    "longitude": "-90.1090861467509",
    "latitude": "29.948268113533693",
    "geocoded_column": {
      "latitude": "29.948268113533693",
      "longitude": "-90.1090861467509"
    }
  },
  {
    "service_request": "2023-1007134",
    "request_type": "Property Maintenance",
    "request_reason": "Property Maintenance",
    "date_created": "2023-06-08T14:49:00.000",
    "date_modified": "2023-06-08T14:49:00.000",
    "request_status": "Pending",
    "responsible_agency": "Department of Code Enforcement",
    "final_address": "7673 Shorewood Blvd",
    "address_councildis": "E",
    "rowid": "1007134",
    "final_x": "3719607.0446",
    "final_y": "572967.815721",
    "longitude": "-89.94615912350183",
    "latitude": "30.06824874135706",
    "geocoded_column": {
      "latitude": "30.06824874135706",
      "longitude": "-89.94615912350183"
    }
  },
  {
    "service_request": "2023-1007133",
    "request_type": "Trash/Recycling",
    "request_reason": "Missed Trash Pick-Up",
    "date_created": "2023-06-08T14:48:38.000",
    "date_modified": "2023-06-08T14:48:39.000",
    "request_status": "Pending",
    "responsible_agency": "Department of Sanitation",
    "final_address": "1388 Camp St, New Orleans, Louisiana, 70130",
    "address_councildis": "B",
    "status": "Assigned to Contractor",
    "contractor": "Richards Disposal",
    "rowid": "1007133",
    "final_x": "3680028.4708",
    "final_y": "524661.761788",
    "longitude": "-90.07295508536109",
    "latitude": "29.936682417573795",
    "geocoded_column": {
      "latitude": "29.936682417573795",
      "longitude": "-90.07295508536109"
    }
  },
  {
    "service_request": "2023-1007132",
    "request_type": "Trash/Recycling",
    "request_reason": "Missed Trash Pick-Up",
    "date_created": "2023-06-08T14:45:46.000",
    "date_modified": "2023-06-08T14:45:55.000",
    "request_status": "Pending",
    "responsible_agency": "Department of Sanitation",
    "final_address": "7812 Spruce St",
    "address_councildis": "A",
    "status": "Assigned to Contractor",
    "contractor": "Richards Disposal",
    "rowid": "1007132",
    "final_x": "3664568.49575",
    "final_y": "529748.173249",
    "longitude": "-90.12159331525555",
    "latitude": "29.951126954282742",
    "geocoded_column": {
      "latitude": "29.951126954282742",
      "longitude": "-90.12159331525555"
    }
  },
  {
    "service_request": "2023-1007131",
    "request_type": "Traffic Signals/Signs/Striping/Streetlights",
    "request_reason": "Street Light Outage/Malfunction",
    "date_created": "2023-06-08T14:41:05.000",
    "date_modified": "2023-06-08T14:41:05.000",
    "request_status": "Pending",
    "responsible_agency": "Department of Public Works",
    "final_address": "7931 Wave Dr",
    "address_councildis": "E",
    "status": "Assigned to Contractor",
    "contractor": "Legacy Professional Services",
    "rowid": "1007131",
    "final_x": "3714286.42738",
    "final_y": "569822.703078",
    "longitude": "-89.96309742766941",
    "latitude": "30.059777019172074",
    "geocoded_column": {
      "latitude": "30.059777019172074",
      "longitude": "-89.96309742766941"
    }
  },
  {
    "service_request": "2023-1007130",
    "request_type": "Trash/Recycling",
    "request_reason": "Request a Large Item Pick Up",
    "date_created": "2023-06-08T14:38:40.000",
    "date_modified": "2023-06-08T14:39:24.000",
    "request_status": "Pending",
    "responsible_agency": "Department of Sanitation",
    "final_address": "7500 Alabama St",
    "address_councildis": "D",
    "status": "Assigned to Contractor",
    "contractor": "Waste Pro",
    "rowid": "1007130",
    "final_x": "3694987.46762",
    "final_y": "558102.792155",
    "longitude": "-90.02452319484017",
    "latitude": "30.02817225100528",
    "geocoded_column": {
      "latitude": "30.02817225100528",
      "longitude": "-90.02452319484017"
    }
  },
  {
    "service_request": "2023-1007129",
    "request_type": "Property Maintenance",
    "request_reason": "Property Maintenance",
    "date_created": "2023-06-08T14:36:39.000",
    "date_modified": "2023-06-08T14:36:40.000",
    "request_status": "Pending",
    "responsible_agency": "Department of Code Enforcement",
    "final_address": "7701 N Coronet Ct",
    "address_councildis": "E",
    "status": "Pending",
    "rowid": "1007129",
    "final_x": "3702427.66909",
    "final_y": "557592.182939",
    "longitude": "-90.00103152657313",
    "latitude": "30.02653250001217",
    "geocoded_column": {
      "latitude": "30.02653250001217",
      "longitude": "-90.00103152657313"
    }
  },
  {
    "service_request": "2023-1007128",
    "request_type": "Abandoned Vehicles",
    "request_reason": "Abandoned/Junk Vehicles",
    "date_created": "2023-06-08T14:36:20.000",
    "date_modified": "2023-06-08T14:42:06.000",
    "request_status": "Pending",
    "responsible_agency": "Department of Public Works",
    "final_address": "627 Cherokee St",
    "address_councildis": "A",
    "status": "Pending",
    "rowid": "1007128",
    "final_x": "3662353.74419",
    "final_y": "525534.291389",
    "longitude": "-90.12872630952431",
    "latitude": "29.939604340907113",
    "geocoded_column": {
      "latitude": "29.939604340907113",
      "longitude": "-90.12872630952431"
    }
  },
  {
    "service_request": "2023-1007127",
    "request_type": "Trash/Recycling",
    "request_reason": "Missed Trash Pick-Up",
    "date_created": "2023-06-08T14:34:33.000",
    "date_modified": "2023-06-08T14:34:34.000",
    "request_status": "Pending",
    "responsible_agency": "Department of Sanitation",
    "final_address": "4751 Citrus Dr",
    "address_councildis": "E",
    "status": "Assigned to Contractor",
    "contractor": "Waste Pro",
    "rowid": "1007127",
    "final_x": "3710848.8604",
    "final_y": "555854.039257",
    "longitude": "-89.97448689315709",
    "latitude": "30.021481367559613",
    "geocoded_column": {
      "latitude": "30.021481367559613",
      "longitude": "-89.97448689315709"
    }
  },
  {
    "service_request": "2023-1007126",
    "request_type": "Trash/Recycling",
    "request_reason": "Missed Trash Pick-Up",
    "date_created": "2023-06-08T14:25:58.000",
    "date_modified": "2023-06-08T14:26:19.000",
    "request_status": "Pending",
    "responsible_agency": "Department of Sanitation",
    "final_address": "4612 S Galvez St",
    "address_councildis": "B",
    "status": "Assigned to Contractor",
    "contractor": "Richards Disposal",
    "rowid": "1007126",
    "final_x": "3669335.34158",
    "final_y": "527351.298303",
    "longitude": "-90.10662296981504",
    "latitude": "29.944396858266355",
    "geocoded_column": {
      "latitude": "29.944396858266355",
      "longitude": "-90.10662296981504"
    }
  },
  {
    "service_request": "2023-1007124",
    "request_type": "Trash/Recycling",
    "request_reason": "Request a Large Item Pick Up",
    "date_created": "2023-06-08T14:18:53.000",
    "date_modified": "2023-06-08T14:18:54.000",
    "request_status": "Pending",
    "responsible_agency": "Department of Sanitation",
    "final_address": "7521 Maple St",
    "address_councildis": "A",
    "status": "Assigned to Contractor",
    "contractor": "Richards Disposal",
    "rowid": "1007124",
    "final_x": "3662491.60711",
    "final_y": "526045.179518",
    "longitude": "-90.12827409216214",
    "latitude": "29.94100513496806",
    "geocoded_column": {
      "latitude": "29.94100513496806",
      "longitude": "-90.12827409216214"
    }
  },
  {
    "service_request": "2023-1007121",
    "request_type": "Trash/Recycling",
    "request_reason": "Request a Large Item Pick Up",
    "date_created": "2023-06-08T14:15:27.000",
    "date_modified": "2023-06-08T14:15:28.000",
    "request_status": "Pending",
    "responsible_agency": "Department of Sanitation",
    "final_address": "3030 Palmyra St",
    "address_councildis": "B",
    "status": "Assigned to Contractor",
    "contractor": "Richards Disposal",
    "rowid": "1007121",
    "final_x": "3673605.54907",
    "final_y": "535317.30087",
    "longitude": "-90.09286838959667",
    "latitude": "29.966174322748483",
    "geocoded_column": {
      "latitude": "29.966174322748483",
      "longitude": "-90.09286838959667"
    }
  },
  {
    "service_request": "2023-1007119",
    "request_type": "Parks & Parkways",
    "request_reason": "Request Tree Service (Right of Way/Public Property)",
    "date_created": "2023-06-08T14:15:26.000",
    "date_modified": "2023-06-08T14:15:26.000",
    "request_status": "Pending",
    "responsible_agency": "Department of Parks & Parkway",
    "final_address": "7441 Seven Oaks Rd",
    "address_councildis": "E",
    "status": "Pending",
    "rowid": "1007119",
    "final_x": "3712528.86936",
    "final_y": "565523.746786",
    "longitude": "-89.96881473041455",
    "latitude": "30.048014315670635",
    "geocoded_column": {
      "latitude": "30.048014315670635",
      "longitude": "-89.96881473041455"
    }
  },
  {
    "service_request": "2023-1007118",
    "request_type": "Roads/Drainage",
    "request_reason": "Pothole",
    "date_created": "2023-06-08T14:14:29.000",
    "date_modified": "2023-06-08T14:14:29.000",
    "request_status": "Pending",
    "responsible_agency": "Department of Public Works",
    "final_address": "5330 Lacour Monique St",
    "address_councildis": "C",
    "status": "Pending",
    "rowid": "1007118",
    "final_x": "3703591.59722",
    "final_y": "517956.879542",
    "longitude": "-89.99881233067214",
    "latitude": "29.917512617247606",
    "geocoded_column": {
      "latitude": "29.917512617247606",
      "longitude": "-89.99881233067214"
    }
  },
  {
    "service_request": "2023-1007117",
    "request_type": "Roads/Drainage",
    "request_reason": "Pothole",
    "date_created": "2023-06-08T14:12:38.000",
    "date_modified": "2023-06-08T14:12:38.000",
    "request_status": "Pending",
    "responsible_agency": "Department of Public Works",
    "final_address": "5100 Pauline Dr",
    "address_councildis": "D",
    "status": "Pending",
    "rowid": "1007117",
    "final_x": "3692453.34525",
    "final_y": "552811.129494",
    "longitude": "-90.03272063910617",
    "latitude": "30.01370151032854",
    "geocoded_column": {
      "latitude": "30.01370151032854",
      "longitude": "-90.03272063910617"
    }
  },
  {
    "service_request": "2023-1007116",
    "request_type": "Trash/Recycling",
    "request_reason": "Missed Trash Pick-Up",
    "date_created": "2023-06-08T14:11:02.000",
    "date_modified": "2023-06-08T14:11:03.000",
    "request_status": "Pending",
    "responsible_agency": "Department of Sanitation",
    "final_address": "1012 Richard St",
    "address_councildis": "B",
    "status": "Assigned to Contractor",
    "contractor": "Richards Disposal",
    "rowid": "1007116",
    "final_x": "3680266.51432",
    "final_y": "523033.936699",
    "longitude": "-90.0722601309253",
    "latitude": "29.932199234201327",
    "geocoded_column": {
      "latitude": "29.932199234201327",
      "longitude": "-90.0722601309253"
    }
  },
  {
    "service_request": "2023-1007115",
    "request_type": "Trash/Recycling",
    "request_reason": "Missed Trash Pick-Up",
    "date_created": "2023-06-08T14:08:38.000",
    "date_modified": "2023-06-08T14:08:54.000",
    "request_status": "Pending",
    "responsible_agency": "Department of Sanitation",
    "final_address": "2065 Chippewa St",
    "address_councildis": "B",
    "status": "Assigned to Contractor",
    "contractor": "Richards Disposal",
    "rowid": "1007115",
    "final_x": "3680069.3604",
    "final_y": "521212.699385",
    "longitude": "-90.07294576886079",
    "latitude": "29.927197394257494",
    "geocoded_column": {
      "latitude": "29.927197394257494",
      "longitude": "-90.07294576886079"
    }
  },
  {
    "service_request": "2023-1007114",
    "request_type": "Trash/Recycling",
    "request_reason": "Replace Recycling Cart",
    "date_created": "2023-06-08T14:08:05.000",
    "date_modified": "2023-06-08T14:08:06.000",
    "request_status": "Pending",
    "responsible_agency": "Department of Sanitation",
    "final_address": "219 S Alexander St",
    "address_councildis": "A",
    "status": "Pending",
    "rowid": "1007114",
    "final_x": "3669593.17358",
    "final_y": "538724.885513",
    "longitude": "-90.10542410040286",
    "latitude": "29.97566286552893",
    "geocoded_column": {
      "latitude": "29.97566286552893",
      "longitude": "-90.10542410040286"
    }
  },
  {
    "service_request": "2023-1007113",
    "request_type": "Parks & Parkways",
    "request_reason": "Request Grass Cutting Service (City Owned Property)",
    "date_created": "2023-06-08T14:05:57.000",
    "date_modified": "2023-06-08T14:05:58.000",
    "request_status": "Pending",
    "responsible_agency": "Department of Parks & Parkway",
    "final_address": "PRESS DR & MENDEZ ST & CAMPUS BLVD",
    "address_councildis": "D",
    "status": "Pending",
    "rowid": "1007113",
    "final_x": "3689357.0",
    "final_y": "553947.38",
    "longitude": "-90.04246301436099",
    "latitude": "30.016922053266804",
    "geocoded_column": {
      "latitude": "30.016922053266804",
      "longitude": "-90.04246301436099"
    }
  },
  {
    "service_request": "2023-1007112",
    "request_type": "Trash/Recycling",
    "request_reason": "Missed Trash Pick-Up",
    "date_created": "2023-06-08T14:01:56.000",
    "date_modified": "2023-06-08T14:01:57.000",
    "request_status": "Pending",
    "responsible_agency": "Department of Sanitation",
    "final_address": "7928 Berg Rd",
    "address_councildis": "E",
    "status": "Assigned to Contractor",
    "contractor": "Waste Pro",
    "rowid": "1007112",
    "final_x": "3711268.54462",
    "final_y": "567677.127908",
    "longitude": "-89.97271721889696",
    "latitude": "30.053976448144912",
    "geocoded_column": {
      "latitude": "30.053976448144912",
      "longitude": "-89.97271721889696"
    }
  },
  {
    "service_request": "2023-1007111",
    "request_type": "Trash/Recycling",
    "request_reason": "MIssed Recycling Pick-Up",
    "date_created": "2023-06-08T14:00:20.000",
    "date_modified": "2023-06-08T14:00:21.000",
    "request_status": "Pending",
    "responsible_agency": "Department of Sanitation",
    "final_address": "4918 Marque Dr",
    "address_councildis": "E",
    "status": "Assigned to Contractor",
    "contractor": "Waste Pro",
    "rowid": "1007111",
    "final_x": "3709882.49873",
    "final_y": "556811.034138",
    "longitude": "-89.97750452494108",
    "latitude": "30.024144204311888",
    "geocoded_column": {
      "latitude": "30.024144204311888",
      "longitude": "-89.97750452494108"
    }
  },
  {
    "service_request": "2023-1007110",
    "request_type": "Trash/Recycling",
    "request_reason": "Order Trash Cart",
    "date_created": "2023-06-08T13:56:59.000",
    "date_modified": "2023-06-08T13:57:00.000",
    "request_status": "Pending",
    "responsible_agency": "Department of Sanitation",
    "final_address": "802 Eighth St",
    "address_councildis": "B",
    "status": "Assigned to Contractor",
    "contractor": "Richards Disposal",
    "rowid": "1007110",
    "final_x": "3676674.23144",
    "final_y": "519305.931959",
    "longitude": "-90.08372897528238",
    "latitude": "29.92205665183123",
    "geocoded_column": {
      "latitude": "29.92205665183123",
      "longitude": "-90.08372897528238"
    }
  },
  {
    "service_request": "2023-1007109",
    "request_type": "Property Maintenance",
    "request_reason": "Property Maintenance",
    "date_created": "2023-06-08T13:51:27.000",
    "date_modified": "2023-06-08T13:51:27.000",
    "request_status": "Pending",
    "responsible_agency": "Department of Code Enforcement",
    "final_address": "6901 Pritchard Pl",
    "address_councildis": "B",
    "status": "Pending",
    "rowid": "1007109",
    "final_x": "3668093.09537",
    "final_y": "531119.838786",
    "longitude": "-90.11041812550769",
    "latitude": "29.954795626696427",
    "geocoded_column": {
      "latitude": "29.954795626696427",
      "longitude": "-90.11041812550769"
    }
  },
  {
    "service_request": "2023-1007108",
    "request_type": "Abandoned Vehicles",
    "request_reason": "Abandoned/Junk Vehicles",
    "date_created": "2023-06-08T13:50:45.000",
    "date_modified": "2023-06-08T13:50:45.000",
    "request_status": "Pending",
    "responsible_agency": "Department of Public Works",
    "final_address": "6700 BLK General Haig St",
    "address_councildis": "A",
    "status": "Pending",
    "rowid": "1007108",
    "final_x": "3670990.62681",
    "final_y": "552158.131036",
    "longitude": "-90.10055409412767",
    "latitude": "30.012558393359505",
    "geocoded_column": {
      "latitude": "30.012558393359505",
      "longitude": "-90.10055409412767"
    }
  },
  {
    "service_request": "2023-1007107",
    "request_type": "Parks & Parkways",
    "request_reason": "Request Tree Service (Right of Way/Public Property)",
    "date_created": "2023-06-08T13:50:18.000",
    "date_modified": "2023-06-08T14:24:12.000",
    "case_close_date": "2023-06-08T09:24:12.000",
    "request_status": "Closed",
    "responsible_agency": "Department of Parks & Parkway",
    "final_address": "S NORMAN C FRANCIS PKWY & DHEMECOURT ST",
    "address_councildis": "B",
    "status": "Duplicate Request",
    "rowid": "1007107",
    "final_x": "3671940.5",
    "final_y": "535213.18",
    "longitude": "-90.09813013364315",
    "latitude": "29.965937484228466",
    "geocoded_column": {
      "latitude": "29.965937484228466",
      "longitude": "-90.09813013364315"
    }
  },
  {
    "service_request": "2023-1007106",
    "request_type": "Trash/Recycling",
    "request_reason": "Request a Large Item Pick Up",
    "date_created": "2023-06-08T13:50:05.000",
    "date_modified": "2023-06-08T13:50:06.000",
    "request_status": "Pending",
    "responsible_agency": "Department of Sanitation",
    "final_address": "923 Louisiana Ave",
    "address_councildis": "B",
    "status": "Assigned to Contractor",
    "contractor": "Richards Disposal",
    "rowid": "1007106",
    "final_x": "3675359.5236",
    "final_y": "519187.725623",
    "longitude": "-90.08788301911407",
    "latitude": "29.921770980818113",
    "geocoded_column": {
      "latitude": "29.921770980818113",
      "longitude": "-90.08788301911407"
    }
  },
  {
    "service_request": "2023-1007105",
    "request_type": "Health Related Request",
    "request_reason": "Smoke-Free Ordinance Complaint",
    "date_created": "2023-06-08T13:45:52.000",
    "date_modified": "2023-06-08T13:45:52.000",
    "request_status": "Pending",
    "responsible_agency": "Health Department",
    "final_address": "3402 Tulane Ave",
    "address_councildis": "B",
    "status": "Pending",
    "rowid": "1007105",
    "final_x": "3671558.63348",
    "final_y": "534909.761926",
    "longitude": "-90.09934637851441",
    "latitude": "29.96511449948904",
    "geocoded_column": {
      "latitude": "29.96511449948904",
      "longitude": "-90.09934637851441"
    }
  },
  {
    "service_request": "2023-1007104",
    "request_type": "Trash/Recycling",
    "request_reason": "MIssed Recycling Pick-Up",
    "date_created": "2023-06-08T13:43:55.000",
    "date_modified": "2023-06-08T13:43:56.000",
    "request_status": "Pending",
    "responsible_agency": "Department of Sanitation",
    "final_address": "2026 Egania St",
    "address_councildis": "E",
    "status": "Assigned to Contractor",
    "contractor": "Waste Pro",
    "rowid": "1007104",
    "final_x": "3697773.40803",
    "final_y": "537669.896584",
    "longitude": "-90.01646187714186",
    "latitude": "29.971901576179786",
    "geocoded_column": {
      "latitude": "29.971901576179786",
      "longitude": "-90.01646187714186"
    }
  },
  {
    "service_request": "2023-1007103",
    "request_type": "Roads/Drainage",
    "request_reason": "Catch Basin - Clogged",
    "date_created": "2023-06-08T13:43:22.000",
    "date_modified": "2023-06-08T13:43:22.000",
    "request_status": "Pending",
    "responsible_agency": "Department of Public Works",
    "final_address": "1236 Elysian Fields Ave",
    "address_councildis": "C",
    "status": "Pending",
    "rowid": "1007103",
    "final_x": "3684866.10633",
    "final_y": "536961.385992",
    "longitude": "-90.0572500391568",
    "latitude": "29.970354985948624",
    "geocoded_column": {
      "latitude": "29.970354985948624",
      "longitude": "-90.0572500391568"
    }
  },
  {
    "service_request": "2023-1007102",
    "request_type": "Trash/Recycling",
    "request_reason": "Order Recycling Cart",
    "date_created": "2023-06-08T13:43:02.000",
    "date_modified": "2023-06-08T13:43:03.000",
    "request_status": "Pending",
    "responsible_agency": "Department of Sanitation",
    "final_address": "2026 Egania St",
    "address_councildis": "E",
    "status": "Pending",
    "rowid": "1007102",
    "final_x": "3697773.40803",
    "final_y": "537669.896584",
    "longitude": "-90.01646187714186",
    "latitude": "29.971901576179786",
    "geocoded_column": {
      "latitude": "29.971901576179786",
      "longitude": "-90.01646187714186"
    }
  },
  {
    "service_request": "2023-1007101",
    "request_type": "Trash/Recycling",
    "request_reason": "Illegal Dumping",
    "date_created": "2023-06-08T13:42:02.000",
    "date_modified": "2023-06-08T13:42:02.000",
    "request_status": "Pending",
    "responsible_agency": "Department of Sanitation",
    "final_address": "3604 Baronne St",
    "address_councildis": "B",
    "status": "Pending",
    "rowid": "1007101",
    "final_x": "3673193.48705",
    "final_y": "521916.391802",
    "longitude": "-90.09462717119355",
    "latitude": "29.929338495441364",
    "geocoded_column": {
      "latitude": "29.929338495441364",
      "longitude": "-90.09462717119355"
    }
  },
  {
    "service_request": "2023-1007100",
    "request_type": "Parks & Parkways",
    "request_reason": "Request Tree Service (Right of Way/Public Property)",
    "date_created": "2023-06-08T13:40:57.000",
    "date_modified": "2023-06-08T13:40:58.000",
    "request_status": "Pending",
    "responsible_agency": "Department of Parks & Parkway",
    "final_address": "2659 Hudson Pl",
    "address_councildis": "C",
    "status": "Pending",
    "rowid": "1007100",
    "final_x": "3703335.87473",
    "final_y": "521026.488761",
    "longitude": "-89.99950671108506",
    "latitude": "29.925961169303296",
    "geocoded_column": {
      "latitude": "29.925961169303296",
      "longitude": "-89.99950671108506"
    }
  },
  {
    "service_request": "2023-1007099",
    "request_type": "Parks & Parkways",
    "request_reason": "Request Tree Service (Right of Way/Public Property)",
    "date_created": "2023-06-08T13:40:34.000",
    "date_modified": "2023-06-08T13:40:55.000",
    "request_status": "Pending",
    "responsible_agency": "Department of Parks & Parkway",
    "final_address": "1200 BLK Elysian Fields Ave",
    "address_councildis": "C",
    "status": "Pending",
    "rowid": "1007099",
    "final_x": "3684917.1006",
    "final_y": "536848.736786",
    "longitude": "-90.0570929563633",
    "latitude": "29.97004367815433",
    "geocoded_column": {
      "latitude": "29.97004367815433",
      "longitude": "-90.0570929563633"
    }
  },
  {
    "service_request": "2023-1007098",
    "request_type": "Trash/Recycling",
    "request_reason": "Request a Large Item Pick Up",
    "date_created": "2023-06-08T13:40:28.000",
    "date_modified": "2023-06-08T13:40:29.000",
    "request_status": "Pending",
    "responsible_agency": "Department of Sanitation",
    "final_address": "240 Bermuda St",
    "address_councildis": "C",
    "status": "Assigned to Contractor",
    "contractor": "Richards Disposal",
    "rowid": "1007098",
    "final_x": "3686289.29052",
    "final_y": "530833.28141",
    "longitude": "-90.05297172910686",
    "latitude": "29.953461158705522",
    "geocoded_column": {
      "latitude": "29.953461158705522",
      "longitude": "-90.05297172910686"
    }
  },
  {
    "service_request": "2023-1007097",
    "request_type": "Roads/Drainage",
    "request_reason": "Pothole",
    "date_created": "2023-06-08T13:36:26.000",
    "date_modified": "2023-06-08T13:36:27.000",
    "request_status": "Pending",
    "responsible_agency": "Department of Public Works",
    "final_address": "2400 BLK Governor Nicholls St",
    "address_councildis": "D",
    "status": "Pending",
    "rowid": "1007097",
    "final_x": "3678777.44785",
    "final_y": "537685.807618",
    "longitude": "-90.07645360068759",
    "latitude": "29.97253193894309",
    "geocoded_column": {
      "latitude": "29.97253193894309",
      "longitude": "-90.07645360068759"
    }
  },
  {
    "service_request": "2023-1007096",
    "request_type": "Traffic Signals/Signs/Striping/Streetlights",
    "request_reason": "Street Light Outage/Malfunction",
    "date_created": "2023-06-08T13:33:22.000",
    "date_modified": "2023-06-08T13:33:22.000",
    "request_status": "Pending",
    "responsible_agency": "Department of Public Works",
    "final_address": "1401 Elizardi Blvd",
    "address_councildis": "C",
    "status": "Assigned to Contractor",
    "contractor": "Legacy Professional Services",
    "rowid": "1007096",
    "final_x": "3694660.12886",
    "final_y": "526070.509566",
    "longitude": "-90.02671178999915",
    "latitude": "29.94010534230981",
    "geocoded_column": {
      "latitude": "29.94010534230981",
      "longitude": "-90.02671178999915"
    }
  },
  {
    "service_request": "2023-1007095",
    "request_type": "Abandoned Vehicles",
    "request_reason": "Abandoned/Junk Vehicles",
    "date_created": "2023-06-08T13:32:58.000",
    "date_modified": "2023-06-08T14:26:29.000",
    "request_status": "Pending",
    "responsible_agency": "Department of Public Works",
    "final_address": "800 BLK Vallette St",
    "address_councildis": "C",
    "status": "Inspected",
    "rowid": "1007095",
    "final_x": "3687473.48525",
    "final_y": "528553.786184",
    "longitude": "-90.04931321079663",
    "latitude": "29.947156889567186",
    "geocoded_column": {
      "latitude": "29.947156889567186",
      "longitude": "-90.04931321079663"
    }
  },
  {
    "service_request": "2023-1007094",
    "request_type": "Trash/Recycling",
    "request_reason": "Missed Trash Pick-Up",
    "date_created": "2023-06-08T13:31:04.000",
    "date_modified": "2023-06-08T13:31:05.000",
    "request_status": "Pending",
    "responsible_agency": "Department of Sanitation",
    "final_address": "6690 Fleur-De-Lis Dr",
    "address_councildis": "A",
    "status": "Assigned to Contractor",
    "contractor": "IV Waste",
    "rowid": "1007094",
    "final_x": "3665332.33197",
    "final_y": "552628.467862",
    "longitude": "-90.11841549173995",
    "latitude": "30.014017829099128",
    "geocoded_column": {
      "latitude": "30.014017829099128",
      "longitude": "-90.11841549173995"
    }
  },
  {
    "service_request": "2023-1007093",
    "request_type": "Trash/Recycling",
    "request_reason": "Illegal Dumping",
    "date_created": "2023-06-08T13:30:26.000",
    "date_modified": "2023-06-08T13:30:26.000",
    "request_status": "Pending",
    "responsible_agency": "Department of Sanitation",
    "final_address": "514 Josephine St",
    "address_councildis": "B",
    "status": "Pending",
    "rowid": "1007093",
    "final_x": "3680423.20194",
    "final_y": "520618.730808",
    "longitude": "-90.07184942425235",
    "latitude": "29.92555346826006",
    "geocoded_column": {
      "latitude": "29.92555346826006",
      "longitude": "-90.07184942425235"
    }
  },
  {
    "service_request": "2023-1007092",
    "request_type": "Abandoned Vehicles",
    "request_reason": "Abandoned/Junk Vehicles",
    "date_created": "2023-06-08T13:29:20.000",
    "date_modified": "2023-06-08T13:29:20.000",
    "request_status": "Pending",
    "responsible_agency": "Department of Public Works",
    "final_address": "6400 BLK Medlock St",
    "address_councildis": "C",
    "status": "Inspected",
    "rowid": "1007092",
    "final_x": "3707643.99905",
    "final_y": "514431.184508",
    "longitude": "-89.98615212771963",
    "latitude": "29.90768777780158",
    "geocoded_column": {
      "latitude": "29.90768777780158",
      "longitude": "-89.98615212771963"
    }
  },
  {
    "service_request": "2023-1007091",
    "request_type": "Trash/Recycling",
    "request_reason": "Missed Trash Pick-Up",
    "date_created": "2023-06-08T13:28:58.000",
    "date_modified": "2023-06-08T13:45:44.000",
    "case_close_date": "2023-06-08T08:45:44.000",
    "request_status": "Closed",
    "responsible_agency": "Department of Sanitation",
    "final_address": "6900 Edgefield Dr",
    "address_councildis": "E",
    "status": "Assigned to Contractor",
    "contractor": "Waste Pro",
    "contractor_action": "Trash Cart Not Curbside",
    "rowid": "1007091",
    "final_x": "3719216.80876",
    "final_y": "568413.605221",
    "longitude": "-89.94756683869356",
    "latitude": "30.055739549275785",
    "geocoded_column": {
      "latitude": "30.055739549275785",
      "longitude": "-89.94756683869356"
    }
  },
  {
    "service_request": "2023-1007090",
    "request_type": "Trash/Recycling",
    "request_reason": "Repair Recycling Cart",
    "date_created": "2023-06-08T13:27:52.000",
    "date_modified": "2023-06-08T13:27:53.000",
    "request_status": "Pending",
    "responsible_agency": "Department of Sanitation",
    "final_address": "5710 Laurel St",
    "address_councildis": "A",
    "status": "Pending",
    "rowid": "1007090",
    "final_x": "3665485.07034",
    "final_y": "517925.522294",
    "longitude": "-90.1190948017094",
    "latitude": "29.918591742739753",
    "geocoded_column": {
      "latitude": "29.918591742739753",
      "longitude": "-90.1190948017094"
    }
  },
  {
    "service_request": "2023-1007089",
    "request_type": "Trash/Recycling",
    "request_reason": "Repair Trash Cart",
    "date_created": "2023-06-08T13:27:47.000",
    "date_modified": "2023-06-08T13:27:48.000",
    "request_status": "Pending",
    "responsible_agency": "Department of Sanitation",
    "final_address": "2558 Clover St",
    "address_councildis": "D",
    "status": "Assigned to Contractor",
    "contractor": "IV Waste",
    "rowid": "1007089",
    "final_x": "3686875.5615",
    "final_y": "546540.724113",
    "longitude": "-90.05056529594631",
    "latitude": "29.99663308166528",
    "geocoded_column": {
      "latitude": "29.99663308166528",
      "longitude": "-90.05056529594631"
    }
  },