[
  {
    "service_request": "2025-1172707",
    "request_type": "Trash/Recycling",
    "request_reason": "Request a Large Item Pick Up",
    "date_created": "2025-03-03T23:38:30.000",
    "date_modified": "2025-03-03T23:38:32.000",
    "request_status": "Pending",
    "responsible_agency": "Department of Sanitation",
    "final_address": "725 Jourdan Ave",
    "address_councildis": "E",
    "status": "Assigned to Contractor",
    "contractor": "Waste Pro",
    "rowid": "1172707",
    "final_x": "3694717.26006",
    "final_y": "533234.935876",
    "longitude": "-90.02627340230015",
    "latitude": "29.9598032283643",
    "geocoded_column": {
      "latitude": "29.9598032283643",
      "longitude": "-90.02627340230015"
    }
  },
  {
    "service_request": "2025-1172706",
    "request_type": "Drainage",
    "request_reason": "Catch Basin Clogged",
    "date_created": "2025-03-03T23:09:48.000",
    "date_modified": "2025-03-03T23:09:51.000",
    "request_status": "Pending",
    "responsible_agency": "Sewerage & Water Board ",
    "final_address": "242 Roselyn Park Pl",
    "address_councildis": "C",
    "status": "Pending",
    "rowid": "1172706",
    "final_x": "3702687.22359",
    "final_y": "523230.760507",
    "longitude": "-90.00147341843538",
    "latitude": "29.932042896740132",
    "geocoded_column": {
      "latitude": "29.932042896740132",
      "longitude": "-90.00147341843538"
    }
  },
  {
    "service_request": "2025-1172705",
    "request_type": "Healthy Homes",
    "request_reason": "Healthy Homes",
    "date_created": "2025-03-03T23:05:30.000",
    "date_modified": "2025-03-03T23:05:32.000",
    "request_status": "Pending",
    "responsible_agency": "Department of Code Enforcement",
    "final_address": "1522 Leonidas St",
    "address_councildis": "A",
    "status": "Pending",
    "rowid": "1172705",
    "final_x": "3661436.67578",
    "final_y": "530501.628098",
    "longitude": "-90.13145714019625",
    "latitude": "29.95328940861233",
    "geocoded_column": {
      "latitude": "29.95328940861233",
      "longitude": "-90.13145714019625"
    }
  },
  {
    "service_request": "2025-1172704",
    "request_type": "Roads and Streets",
    "request_reason": "Road Shoulder Damage",
    "date_created": "2025-03-03T23:03:26.000",
    "date_modified": "2025-03-03T23:03:27.000",
    "request_status": "Pending",
    "responsible_agency": "Department of Public Works",
    "final_address": "242 Roselyn Park Pl",
    "address_councildis": "C",
    "status": "Pending",
    "rowid": "1172704",
    "final_x": "3702687.22359",
    "final_y": "523230.760507",
    "longitude": "-90.00147341843538",
    "latitude": "29.932042896740132",
    "geocoded_column": {
      "latitude": "29.932042896740132",
      "longitude": "-90.00147341843538"
    }
  },
  {
    "service_request": "2025-1172703",
    "request_type": "Trash/Recycling",
    "request_reason": "Illegal Dumping",
    "date_created": "2025-03-03T22:46:27.000",
    "date_modified": "2025-03-03T22:46:29.000",
    "request_status": "Pending",
    "responsible_agency": "Department of Sanitation",
    "final_address": "2500 BLK Bienville Ave",
    "address_councildis": "B",
    "status": "Pending",
    "rowid": "1172703",
    "final_x": "3676431.2324",
    "final_y": "535250.455205",
    "longitude": "-90.08394723856497",
    "latitude": "29.965906104348658",
    "geocoded_column": {
      "latitude": "29.965906104348658",
      "longitude": "-90.08394723856497"
    }
  },
  {
    "service_request": "2025-1172702",
    "request_type": "General Services",
    "request_reason": "General Service Request",
    "date_created": "2025-03-03T22:08:59.000",
    "date_modified": "2025-03-03T22:09:01.000",
    "request_status": "Pending",
    "responsible_agency": "Orleans Parish Communication District",
    "final_address": "4200 General Ogden St",
    "address_councildis": "A",
    "status": "Pending",
    "rowid": "1172702",
    "final_x": "538205.776585",
    "final_y": "538205.776585",
    "longitude": "-99.97976230355724",
    "latitude": "29.695288080917436",
    "geocoded_column": {
      "latitude": "29.695288080917436",
      "longitude": "-99.97976230355724"
    }
  },
  {
    "service_request": "2025-1172701",
    "request_type": "Streetlights",
    "request_reason": "Streetlight Outage/Malfunction",
    "date_created": "2025-03-03T21:47:46.000",
    "date_modified": "2025-03-03T21:47:46.000",
    "request_status": "Pending",
    "responsible_agency": "Department of Public Works",
    "final_address": "3914 Howard Ave",
    "address_councildis": "B",
    "status": "Pending",
    "contractor": "Legacy Professional Services",
    "rowid": "1172701",
    "final_x": "3672861.61441",
    "final_y": "532289.956611",
    "longitude": "-90.09532101650899",
    "latitude": "29.957872262503507",
    "geocoded_column": {
      "latitude": "29.957872262503507",
      "longitude": "-90.09532101650899"
    }
  },
  {
    "service_request": "2025-1172700",
    "request_type": "Abandoned Vehicles",
    "request_reason": "Abandoned/Junk Vehicles",
    "date_created": "2025-03-03T21:32:31.000",
    "date_modified": "2025-03-03T21:32:33.000",
    "request_status": "Pending",
    "responsible_agency": "Department of Public Works",
    "final_address": "5517 Constance St",
    "address_councildis": "A",
    "status": "Pending",
    "rowid": "1172700",
    "final_x": "3666219.75962",
    "final_y": "518592.199415",
    "longitude": "-90.11675342348964",
    "latitude": "29.92040346802632",
    "geocoded_column": {
      "latitude": "29.92040346802632",
      "longitude": "-90.11675342348964"
    }
  },
  {
    "service_request": "2025-1172699",
    "request_type": "Trash/Recycling",
    "request_reason": "Request a Large Item Pick Up",
    "date_created": "2025-03-03T21:23:35.000",
    "date_modified": "2025-03-03T21:23:36.000",
    "request_status": "Pending",
    "responsible_agency": "Department of Sanitation",
    "final_address": "38 Honeysuckle Ln",
    "address_councildis": "E",
    "status": "Assigned to Contractor",
    "contractor": "Waste Pro",
    "rowid": "1172699",
    "final_x": "3713141.84459",
    "final_y": "568258.695781",
    "longitude": "-89.96677430987765",
    "latitude": "30.055514225760845",
    "geocoded_column": {
      "latitude": "30.055514225760845",
      "longitude": "-89.96677430987765"
    }
  },
  {
    "service_request": "2025-1172698",
    "request_type": "Trash/Recycling",
    "request_reason": "Request a Large Item Pick Up",
    "date_created": "2025-03-03T20:29:12.000",
    "date_modified": "2025-03-03T20:29:15.000",
    "request_status": "Pending",
    "responsible_agency": "Department of Sanitation",
    "final_address": "1619 Piety St",
    "address_councildis": "D",
    "status": "Assigned to Contractor",
    "contractor": "IV Waste",
    "rowid": "1172698",
    "final_x": "3690397.28937",
    "final_y": "537857.294153",
    "longitude": "-90.03975007203499",
    "latitude": "29.972647882339114",
    "geocoded_column": {
      "latitude": "29.972647882339114",
      "longitude": "-90.03975007203499"
    }
  },
  {
    "service_request": "2025-1172697",
    "request_type": "Abandoned Vehicles",
    "request_reason": "Abandoned/Junk Vehicles",
    "date_created": "2025-03-03T19:23:04.000",
    "date_modified": "2025-03-03T19:23:06.000",
    "request_status": "Pending",
    "responsible_agency": "Department of Public Works",
    "final_address": "925 Fats Domino Ave",
    "address_councildis": "E",
    "status": "Pending",
    "rowid": "1172697",
    "final_x": "3697923.77552",
    "final_y": "533171.86842",
    "longitude": "-90.01615029209783",
    "latitude": "29.95952885228087",
    "geocoded_column": {
      "latitude": "29.95952885228087",
      "longitude": "-90.01615029209783"
    }
  },
  {
    "service_request": "2025-1172696",
    "request_type": "Abandoned Vehicles",
    "request_reason": "Abandoned/Junk Vehicles",
    "date_created": "2025-03-03T19:23:03.000",
    "date_modified": "2025-03-03T19:23:04.000",
    "request_status": "Pending",
    "responsible_agency": "Department of Public Works",
    "final_address": "925 Fats Domino Ave",
    "address_councildis": "E",
    "status": "Pending",
    "rowid": "1172696",
    "final_x": "3697923.77552",
    "final_y": "533171.86842",
    "longitude": "-90.01615029209783",
    "latitude": "29.95952885228087",
    "geocoded_column": {
      "latitude": "29.95952885228087",
      "longitude": "-90.01615029209783"
    }
  },
  {
    "service_request": "2025-1172695",
    "request_type": "Abandoned Vehicles",
    "request_reason": "Abandoned/Junk Vehicles",
    "date_created": "2025-03-03T19:22:50.000",
    "date_modified": "2025-03-03T19:22:51.000",
    "request_status": "Pending",
    "responsible_agency": "Department of Public Works",
    "final_address": "925 Fats Domino Ave",
    "address_councildis": "E",
    "status": "Pending",
    "rowid": "1172695",
    "final_x": "3697923.77552",
    "final_y": "533171.86842",
    "longitude": "-90.01615029209783",
    "latitude": "29.95952885228087",
    "geocoded_column": {
      "latitude": "29.95952885228087",
      "longitude": "-90.01615029209783"
    }
  },
  {
    "service_request": "2025-1172694",
    "request_type": "Abandoned Vehicles",
    "request_reason": "Abandoned/Junk Vehicles",
    "date_created": "2025-03-03T19:22:42.000",
    "date_modified": "2025-03-03T19:22:43.000",
    "request_status": "Pending",
    "responsible_agency": "Department of Public Works",
    "final_address": "925 Fats Domino Ave",
    "address_councildis": "E",
    "status": "Pending",
    "rowid": "1172694",
    "final_x": "3697923.77552",
    "final_y": "533171.86842",
    "longitude": "-90.01615029209783",
    "latitude": "29.95952885228087",
    "geocoded_column": {
      "latitude": "29.95952885228087",
      "longitude": "-90.01615029209783"
    }
  },
  {
    "service_request": "2025-1172693",
    "request_type": "Trash/Recycling",
    "request_reason": "Repair Trash Cart",
    "date_created": "2025-03-03T19:10:10.000",
    "date_modified": "2025-03-03T19:10:12.000",
    "request_status": "Pending",
    "responsible_agency": "Department of Sanitation",
    "final_address": "230 28Th St",
    "address_councildis": "A",
    "status": "Assigned to Contractor",
    "contractor": "IV Waste",
    "rowid": "1172693",
    "final_x": "3665571.68903",
    "final_y": "550166.90306",
    "longitude": "-90.11774174915442",
    "latitude": "30.007242403132036",
    "geocoded_column": {
      "latitude": "30.007242403132036",
      "longitude": "-90.11774174915442"
    }
  },
  {
    "service_request": "2025-1172692",
    "request_type": "Abandoned Vehicles",
    "request_reason": "Abandoned/Junk Vehicles",
    "date_created": "2025-03-03T18:53:51.000",
    "date_modified": "2025-03-03T18:53:53.000",
    "request_status": "Pending",
    "responsible_agency": "Department of Public Works",
    "final_address": "8400 Lomond Rd",
    "address_councildis": "E",
    "status": "Pending",
    "rowid": "1172692",
    "final_x": "3703563.94839",
    "final_y": "561914.763231",
    "longitude": "-89.99728177498447",
    "latitude": "30.03838153312315",
    "geocoded_column": {
      "latitude": "30.03838153312315",
      "longitude": "-89.99728177498447"
    }
  },
  {
    "service_request": "2025-1172691",
    "request_type": "Trash/Recycling",
    "request_reason": "Replace Recycling Cart",
    "date_created": "2025-03-03T18:40:13.000",
    "date_modified": "2025-03-03T18:40:15.000",
    "request_status": "Pending",
    "responsible_agency": "Department of Sanitation",
    "final_address": "7717 Woodbine Dr",
    "address_councildis": "E",
    "status": "Pending",
    "rowid": "1172691",
    "final_x": "3701930.11927",
    "final_y": "561693.984927",
    "longitude": "-90.00245317479602",
    "latitude": "30.037826759519366",
    "geocoded_column": {
      "latitude": "30.037826759519366",
      "longitude": "-90.00245317479602"
    }
  },
  {
    "service_request": "2025-1172690",
    "request_type": "Abandoned Vehicles",
    "request_reason": "Abandoned/Junk Vehicles",
    "date_created": "2025-03-03T18:38:35.000",
    "date_modified": "2025-03-03T18:38:37.000",
    "request_status": "Pending",
    "responsible_agency": "Department of Public Works",
    "final_address": "8400 Lomond Rd",
    "address_councildis": "E",
    "status": "Pending",
    "rowid": "1172690",
    "final_x": "3703563.94839",
    "final_y": "561914.763231",
    "longitude": "-89.99728177498447",
    "latitude": "30.03838153312315",
    "geocoded_column": {
      "latitude": "30.03838153312315",
      "longitude": "-89.99728177498447"
    }
  },
  {
    "service_request": "2025-1172689",
    "request_type": "Trash/Recycling",
    "request_reason": "Request a Large Item Pick Up",
    "date_created": "2025-03-03T18:38:10.000",
    "date_modified": "2025-03-03T18:38:12.000",
    "request_status": "Pending",
    "responsible_agency": "Department of Sanitation",
    "final_address": "7717 Woodbine Dr",
    "address_councildis": "E",
    "status": "Assigned to Contractor",
    "contractor": "Waste Pro",
    "rowid": "1172689",
    "final_x": "3701930.11927",
    "final_y": "561693.984927",
    "longitude": "-90.00245317479602",
    "latitude": "30.037826759519366",
    "geocoded_column": {
      "latitude": "30.037826759519366",
      "longitude": "-90.00245317479602"
    }
  },
  {
    "service_request": "2025-1172688",
    "request_type": "Trash/Recycling",
    "request_reason": "Illegal Dumping",
    "date_created": "2025-03-03T18:35:36.000",
    "date_modified": "2025-03-03T18:35:38.000",
    "request_status": "Pending",
    "responsible_agency": "Department of Sanitation",
    "final_address": "13000 BLK Interstate 10 Service Rd S",
    "address_councildis": "E",
    "status": "Pending",
    "rowid": "1172688",
    "final_x": "3719239.50833",
    "final_y": "567922.685136",
    "longitude": "-89.94751385728263",
    "latitude": "30.054388967691914",
    "geocoded_column": {
      "latitude": "30.054388967691914",
      "longitude": "-89.94751385728263"
    }
  },
  {
    "service_request": "2025-1172687",
    "request_type": "General Services",
    "request_reason": "General Service Request",
    "date_created": "2025-03-03T18:34:10.000",
    "date_modified": "2025-03-03T18:34:12.000",
    "request_status": "Pending",
    "responsible_agency": "Orleans Parish Communication District",
    "final_address": "3928 Prytania St",
    "address_councildis": "B",
    "status": "Pending",
    "rowid": "1172687",
    "final_x": "3672529.325",
    "final_y": "520417.033336",
    "longitude": "-90.09677488975852",
    "latitude": "29.925235466909825",
    "geocoded_column": {
      "latitude": "29.925235466909825",
      "longitude": "-90.09677488975852"
    }
  },
  {
    "service_request": "2025-1172686",
    "request_type": "Property Maintenance",
    "request_reason": "Property Maintenance",
    "date_created": "2025-03-03T18:02:35.000",
    "date_modified": "2025-03-03T18:02:38.000",
    "request_status": "Pending",
    "responsible_agency": "Department of Code Enforcement",
    "final_address": "107 Kingston Ct",
    "address_councildis": "C",
    "status": "Pending",
    "rowid": "1172686",
    "final_x": "3705824.1715",
    "final_y": "517703.543862",
    "longitude": "-89.99177476798187",
    "latitude": "29.916744346023812",
    "geocoded_column": {
      "latitude": "29.916744346023812",
      "longitude": "-89.99177476798187"
    }
  },
  {
    "service_request": "2025-1172685",
    "request_type": "Healthy Homes",
    "request_reason": "Healthy Homes",
    "date_created": "2025-03-03T17:43:09.000",
    "date_modified": "2025-03-03T17:43:11.000",
    "request_status": "Pending",
    "responsible_agency": "Department of Code Enforcement",
    "final_address": "3314 Cleveland Ave",
    "address_councildis": "B",
    "status": "Pending",
    "rowid": "1172685",
    "final_x": "3673184.28948",
    "final_y": "536173.984199",
    "longitude": "-90.09416946314145",
    "latitude": "29.96854244640561",
    "geocoded_column": {
      "latitude": "29.96854244640561",
      "longitude": "-90.09416946314145"
    }
  },
  {
    "service_request": "2025-1172684",
    "request_type": "Trash/Recycling",
    "request_reason": "Request a Large Item Pick Up",
    "date_created": "2025-03-03T17:34:47.000",
    "date_modified": "2025-03-03T17:34:48.000",
    "request_status": "Pending",
    "responsible_agency": "Department of Sanitation",
    "final_address": "7006 Northgate Dr",
    "address_councildis": "E",
    "status": "Assigned to Contractor",
    "contractor": "Waste Pro",
    "rowid": "1172684",
    "final_x": "3713808.80363",
    "final_y": "564792.330914",
    "longitude": "-89.96479706240268",
    "latitude": "30.04596124701696",
    "geocoded_column": {
      "latitude": "30.04596124701696",
      "longitude": "-89.96479706240268"
    }
  },
  {
    "service_request": "2025-1172683",
    "request_type": "Abandoned Vehicles",
    "request_reason": "Vehicle Blocking Your Driveway",
    "date_created": "2025-03-03T17:18:48.000",
    "date_modified": "2025-03-03T17:18:50.000",
    "request_status": "Pending",
    "responsible_agency": "Department of Public Works",
    "final_address": "1011 Treme St",
    "address_councildis": "C",
    "status": "Pending",
    "rowid": "1172683",
    "final_x": "3681507.71624",
    "final_y": "534791.690438",
    "longitude": "-90.06793186874009",
    "latitude": "29.96449148215058",
    "geocoded_column": {
      "latitude": "29.96449148215058",
      "longitude": "-90.06793186874009"
    }
  },
  {
    "service_request": "2025-1172682",
    "request_type": "Trash/Recycling",
    "request_reason": "Order Trash Cart",
    "date_created": "2025-03-03T16:53:10.000",
    "date_modified": "2025-03-03T16:53:12.000",
    "request_status": "Pending",
    "responsible_agency": "Department of Sanitation",
    "final_address": "3237 Fern St",
    "address_councildis": "B",
    "status": "Assigned to Contractor",
    "contractor": "IV Waste",
    "rowid": "1172682",
    "final_x": "3667557.54612",
    "final_y": "533318.866116",
    "longitude": "-90.11203518155821",
    "latitude": "29.96085793491555",
    "geocoded_column": {
      "latitude": "29.96085793491555",
      "longitude": "-90.11203518155821"
    }
  },
  {
    "service_request": "2025-1172681",
    "request_type": "Trash/Recycling",
    "request_reason": "Request a Large Item Pick Up",
    "date_created": "2025-03-03T16:49:46.000",
    "date_modified": "2025-03-03T16:49:47.000",
    "request_status": "Pending",
    "responsible_agency": "Department of Sanitation",
    "final_address": "568 Joseph St",
    "address_councildis": "A",
    "status": "Assigned to Contractor",
    "contractor": "IV Waste",
    "rowid": "1172681",
    "final_x": "3665969.30957",
    "final_y": "518428.982774",
    "longitude": "-90.117549446154",
    "latitude": "29.919961982751595",
    "geocoded_column": {
      "latitude": "29.919961982751595",
      "longitude": "-90.117549446154"
    }
  },
  {
    "service_request": "2025-1172680",
    "request_type": "Trash/Recycling",
    "request_reason": "Request a Large Item Pick Up",
    "date_created": "2025-03-03T16:47:05.000",
    "date_modified": "2025-03-03T16:47:07.000",
    "request_status": "Pending",
    "responsible_agency": "Department of Sanitation",
    "final_address": "3410 Livingston St",
    "address_councildis": "A",
    "status": "Assigned to Contractor",
    "contractor": "IV Waste",
    "rowid": "1172680",
    "final_x": "3663634.95719",
    "final_y": "537601.45844",
    "longitude": "-90.12427933052054",
    "latitude": "29.972748033244194",
    "geocoded_column": {
      "latitude": "29.972748033244194",
      "longitude": "-90.12427933052054"
    }
  },
  {
    "service_request": "2025-1172679",
    "request_type": "Abandoned Vehicles",
    "request_reason": "Abandoned/Junk Vehicles",
    "date_created": "2025-03-03T16:38:41.000",
    "date_modified": "2025-03-03T16:38:43.000",
    "request_status": "Pending",
    "responsible_agency": "Department of Public Works",
    "final_address": "MANDEVILLE ST & GENTILLY BLVD",
    "address_councildis": "D",
    "status": "Pending",
    "rowid": "1172679",
    "final_x": "3684873.32",
    "final_y": "548325.19",
    "longitude": "-90.05682745153017",
    "latitude": "30.0016012030017",
    "geocoded_column": {
      "latitude": "30.0016012030017",
      "longitude": "-90.05682745153017"
    }
  },
  {
    "service_request": "2025-1172678",
    "request_type": "Trash/Recycling",
    "request_reason": "Repair Trash Cart",
    "date_created": "2025-03-03T16:20:28.000",
    "date_modified": "2025-03-03T16:20:33.000",
    "request_status": "Pending",
    "responsible_agency": "Department of Sanitation",
    "final_address": "1612 S Rampart St",
    "address_councildis": "B",
    "status": "Assigned to Contractor",
    "contractor": "IV Waste",
    "rowid": "1172678",
    "final_x": "3677564.94082",
    "final_y": "526046.188286",
    "longitude": "-90.08068478248961",
    "latitude": "29.940563414522526",
    "geocoded_column": {
      "latitude": "29.940563414522526",
      "longitude": "-90.08068478248961"
    }
  },
  {
    "service_request": "2025-1172677",
    "request_type": "Trash/Recycling",
    "request_reason": "Request a Large Item Pick Up",
    "date_created": "2025-03-03T16:20:25.000",
    "date_modified": "2025-03-03T16:20:27.000",
    "request_status": "Pending",
    "responsible_agency": "Department of Sanitation",
    "final_address": "10940 Harrow Rd",
    "address_councildis": "E",
    "status": "Assigned to Contractor",
    "contractor": "Waste Pro",
    "rowid": "1172677",
    "final_x": "3711778.88235",
    "final_y": "563817.623201",
    "longitude": "-89.97124919197346",
    "latitude": "30.043347700071017",
    "geocoded_column": {
      "latitude": "30.043347700071017",
      "longitude": "-89.97124919197346"
    }
  },
  {
    "service_request": "2025-1172676",
    "request_type": "Trash/Recycling",
    "request_reason": "Request a Large Item Pick Up",
    "date_created": "2025-03-03T16:15:06.000",
    "date_modified": "2025-03-03T16:15:16.000",
    "request_status": "Pending",
    "responsible_agency": "Department of Sanitation",
    "final_address": "4900 America St",
    "address_councildis": "E",
    "status": "Assigned to Contractor",
    "contractor": "Waste Pro",
    "rowid": "1172676",
    "final_x": "3699631.99927",
    "final_y": "555293.773785",
    "longitude": "-90.00994935775002",
    "latitude": "30.020301837469788",
    "geocoded_column": {
      "latitude": "30.020301837469788",
      "longitude": "-90.00994935775002"
    }
  },
  {
    "service_request": "2025-1172675",
    "request_type": "Trash/Recycling",
    "request_reason": "Repair Trash Cart",
    "date_created": "2025-03-03T16:13:25.000",
    "date_modified": "2025-03-03T16:17:45.000",
    "request_status": "Pending",
    "responsible_agency": "Department of Sanitation",
    "final_address": "1907 N Tonti St",
    "address_councildis": "D",
    "status": "Pending",
    "rowid": "1172675",
    "final_x": "3682095.22095",
    "final_y": "540562.098699",
    "longitude": "-90.06587500865477",
    "latitude": "29.98034025415357",
    "geocoded_column": {
      "latitude": "29.98034025415357",
      "longitude": "-90.06587500865477"
    }
  },
  {
    "service_request": "2025-1172674",
    "request_type": "Trash/Recycling",
    "request_reason": "Illegal Dumping",
    "date_created": "2025-03-03T16:10:31.000",
    "date_modified": "2025-03-03T16:10:33.000",
    "request_status": "Pending",
    "responsible_agency": "Department of Sanitation",
    "final_address": "BARONNE ST & LOUISIANA AVE",
    "address_councildis": "B",
    "status": "Pending",
    "rowid": "1172674",
    "final_x": "3673886.0",
    "final_y": "522217.48",
    "longitude": "-90.09243074084232",
    "latitude": "29.930145787402324",
    "geocoded_column": {
      "latitude": "29.930145787402324",
      "longitude": "-90.09243074084232"
    }
  },
  {
    "service_request": "2025-1172673",
    "request_type": "Trash/Recycling",
    "request_reason": "Repair Recycling Cart",
    "date_created": "2025-03-03T16:07:59.000",
    "date_modified": "2025-03-03T16:08:01.000",
    "request_status": "Pending",
    "responsible_agency": "Department of Sanitation",
    "final_address": "3563 Desaix Blvd",
    "address_councildis": "D",
    "status": "Pending",
    "rowid": "1172673",
    "final_x": "3675818.70792",
    "final_y": "543748.548878",
    "longitude": "-90.08558933990307",
    "latitude": "29.989291296715077",
    "geocoded_column": {
      "latitude": "29.989291296715077",
      "longitude": "-90.08558933990307"
    }
  },
  {
    "service_request": "2025-1172672",
    "request_type": "Trash/Recycling",
    "request_reason": "Replace Trash Cart",
    "date_created": "2025-03-03T16:07:12.000",
    "date_modified": "2025-03-03T16:07:14.000",
    "request_status": "Pending",
    "responsible_agency": "Department of Sanitation",
    "final_address": "113 S Salcedo St",
    "address_councildis": "B",
    "status": "Assigned to Contractor",
    "contractor": "IV Waste",
    "rowid": "1172672",
    "final_x": "3673937.68628",
    "final_y": "535958.575047",
    "longitude": "-90.0917975633921",
    "latitude": "29.967927719430836",
    "geocoded_column": {
      "latitude": "29.967927719430836",
      "longitude": "-90.0917975633921"
    }
  },
  {
    "service_request": "2025-1172671",
    "request_type": "Roads and Streets",
    "request_reason": "Pothole",
    "date_created": "2025-03-03T15:47:45.000",
    "date_modified": "2025-03-03T15:47:47.000",
    "request_status": "Pending",
    "responsible_agency": "Department of Public Works",
    "final_address": "6216 Clara St",
    "address_councildis": "A",
    "status": "Pending",
    "rowid": "1172671",
    "final_x": "3666168.56801",
    "final_y": "525597.401021",
    "longitude": "-90.11668022514435",
    "latitude": "29.939667045970275",
    "geocoded_column": {
      "latitude": "29.939667045970275",
      "longitude": "-90.11668022514435"
    }
  },
  {
    "service_request": "2025-1172670",
    "request_type": "Trash/Recycling",
    "request_reason": "Damaged Caused By Contractor",
    "date_created": "2025-03-03T15:41:19.000",
    "date_modified": "2025-03-03T15:41:21.000",
    "request_status": "Pending",
    "responsible_agency": "Department of Sanitation",
    "final_address": "2662 Selma St",
    "address_councildis": "D",
    "status": "Assigned to Contractor",
    "contractor": "IV Waste",
    "rowid": "1172670",
    "final_x": "3687247.92822",
    "final_y": "551585.879701",
    "longitude": "-90.04921040702366",
    "latitude": "30.01049395893993",
    "geocoded_column": {
      "latitude": "30.01049395893993",
      "longitude": "-90.04921040702366"
    }
  },
  {
    "service_request": "2025-1172669",
    "request_type": "Roads and Streets",
    "request_reason": "Sidewalk Damaged or Missing",
    "date_created": "2025-03-03T15:41:02.000",
    "date_modified": "2025-03-03T15:41:04.000",
    "request_status": "Pending",
    "responsible_agency": "Department of Public Works",
    "final_address": "1924 St Charles Ave",
    "address_councildis": "B",
    "status": "Pending",
    "rowid": "1172669",
    "final_x": "3678280.90798",
    "final_y": "524130.272316",
    "longitude": "-90.07849059648449",
    "latitude": "29.93527373623806",
    "geocoded_column": {
      "latitude": "29.93527373623806",
      "longitude": "-90.07849059648449"
    }
  },
  {
    "service_request": "2025-1172668",
    "request_type": "Trash/Recycling",
    "request_reason": "Request a Large Item Pick Up",
    "date_created": "2025-03-03T15:31:28.000",
    "date_modified": "2025-03-03T15:38:54.000",
    "request_status": "Pending",
    "responsible_agency": "Department of Sanitation",
    "final_address": "3702 N Claiborne Ave, New Orleans, Louisiana, 70117",
    "address_councildis": "D",
    "status": "Assigned to Contractor",
    "contractor": "IV Waste",
    "rowid": "1172668",
    "final_x": "3691443.32182",
    "final_y": "537324.837",
    "longitude": "-90.03646555522785",
    "latitude": "29.9711513013234",
    "geocoded_column": {
      "latitude": "29.9711513013234",
      "longitude": "-90.03646555522785"
    }
  },
  {
    "service_request": "2025-1172667",
    "request_type": "Trash/Recycling",
    "request_reason": "Request a Large Item Pick Up",
    "date_created": "2025-03-03T15:30:32.000",
    "date_modified": "2025-03-03T15:30:33.000",
    "request_status": "Pending",
    "responsible_agency": "Department of Sanitation",
    "final_address": "14010 Kingswood Dr",
    "address_councildis": "E",
    "status": "Assigned to Contractor",
    "contractor": "Waste Pro",
    "rowid": "1172667",
    "final_x": "3719355.32268",
    "final_y": "568422.321189",
    "longitude": "-89.94712869413846",
    "latitude": "30.05575890777665",
    "geocoded_column": {
      "latitude": "30.05575890777665",
      "longitude": "-89.94712869413846"
    }
  },
  {
    "service_request": "2025-1172666",
    "request_type": "Trash/Recycling",
    "request_reason": "Request a Large Item Pick Up",
    "date_created": "2025-03-03T15:28:27.000",
    "date_modified": "2025-03-03T15:28:29.000",
    "request_status": "Pending",
    "responsible_agency": "Department of Sanitation",
    "final_address": "3657 Piedmont Dr",
    "address_councildis": "D",
    "status": "Assigned to Contractor",
    "contractor": "IV Waste",
    "rowid": "1172666",
    "final_x": "3686016.97398",
    "final_y": "546233.707408",
    "longitude": "-90.05328835293862",
    "latitude": "29.995815297330473",
    "geocoded_column": {
      "latitude": "29.995815297330473",
      "longitude": "-90.05328835293862"
    }
  },
  {
    "service_request": "2025-1172665",
    "request_type": "Trash/Recycling",
    "request_reason": "Request a Large Item Pick Up",
    "date_created": "2025-03-03T15:23:50.000",
    "date_modified": "2025-03-03T15:23:52.000",
    "request_status": "Pending",
    "responsible_agency": "Department of Sanitation",
    "final_address": "7211 Boston Dr",
    "address_councildis": "E",
    "status": "Assigned to Contractor",
    "contractor": "Waste Pro",
    "rowid": "1172665",
    "final_x": "3706126.78993",
    "final_y": "561409.344286",
    "longitude": "-89.98920132226719",
    "latitude": "30.036909415160466",
    "geocoded_column": {
      "latitude": "30.036909415160466",
      "longitude": "-89.98920132226719"
    }
  },
  {
    "service_request": "2025-1172664",
    "request_type": "Trash/Recycling",
    "request_reason": "Order Trash Cart",
    "date_created": "2025-03-03T15:18:45.000",
    "date_modified": "2025-03-03T15:18:46.000",
    "request_status": "Pending",
    "responsible_agency": "Department of Sanitation",
    "final_address": "4811 Brittany Ct",
    "address_councildis": "E",
    "status": "Assigned to Contractor",
    "contractor": "Waste Pro",
    "rowid": "1172664",
    "final_x": "3726960.11001",
    "final_y": "561428.230366",
    "longitude": "-89.92336376019024",
    "latitude": "30.03627291912662",
    "geocoded_column": {
      "latitude": "30.03627291912662",
      "longitude": "-89.92336376019024"
    }
  },
  {
    "service_request": "2025-1172663",
    "request_type": "Property Maintenance",
    "request_reason": "Property Maintenance",
    "date_created": "2025-03-03T15:17:49.000",
    "date_modified": "2025-03-03T15:26:52.000",
    "request_status": "Pending",
    "responsible_agency": "Department of Code Enforcement",
    "final_address": "4774 Werner Dr",
    "address_councildis": "E",
    "status": "Pending",
    "rowid": "1172663",
    "final_x": "3704703.37866",
    "final_y": "555568.298777",
    "longitude": "-89.99391535015586",
    "latitude": "30.020894649780413",
    "geocoded_column": {
      "latitude": "30.020894649780413",
      "longitude": "-89.99391535015586"
    }
  },
  {
    "service_request": "2025-1172662",
    "request_type": "Street and Traffic Signs",
    "request_reason": "Stop Sign Missing or Damaged",
    "date_created": "2025-03-03T15:16:49.000",
    "date_modified": "2025-03-03T15:16:51.000",
    "request_status": "Pending",
    "responsible_agency": "Department of Public Works",
    "final_address": "DEVINE AVE & DINKINS ST",
    "address_councildis": "E",
    "status": "Pending",
    "rowid": "1172662",
    "final_x": "3705278.6",
    "final_y": "563748.78",
    "longitude": "-89.9917952077556",
    "latitude": "30.043369269829164",
    "geocoded_column": {
      "latitude": "30.043369269829164",
      "longitude": "-89.9917952077556"
    }
  },
  {
    "service_request": "2025-1172661",
    "request_type": "Abandoned Vehicles",
    "request_reason": "Abandoned/Junk Vehicles",
    "date_created": "2025-03-03T15:14:53.000",
    "date_modified": "2025-03-03T15:14:55.000",
    "request_status": "Pending",
    "responsible_agency": "Department of Public Works",
    "final_address": "409 S Cortez St",
    "address_councildis": "B",
    "status": "Pending",
    "rowid": "1172661",
    "final_x": "3671237.48052",
    "final_y": "536555.424967",
    "longitude": "-90.10030464053091",
    "latitude": "29.96964902722082",
    "geocoded_column": {
      "latitude": "29.96964902722082",
      "longitude": "-90.10030464053091"
    }
  },
  {
    "service_request": "2025-1172660",
    "request_type": "Trash/Recycling",
    "request_reason": "Request a Large Item Pick Up",
    "date_created": "2025-03-03T14:56:09.000",
    "date_modified": "2025-03-03T14:56:12.000",
    "request_status": "Pending",
    "responsible_agency": "Department of Sanitation",
    "final_address": "620 Opelousas Ave",
    "address_councildis": "C",
    "status": "Assigned to Contractor",
    "contractor": "Richards Disposal",
    "rowid": "1172660",
    "final_x": "3687434.51382",
    "final_y": "529211.46336",
    "longitude": "-90.04941299029124",
    "latitude": "29.948966478114226",
    "geocoded_column": {
      "latitude": "29.948966478114226",
      "longitude": "-90.04941299029124"
    }
  },
  {
    "service_request": "2025-1172659",
    "request_type": "Trash/Recycling",
    "request_reason": "Illegal Dumping",
    "date_created": "2025-03-03T14:54:19.000",
    "date_modified": "2025-03-03T14:54:21.000",
    "request_status": "Pending",
    "responsible_agency": "Department of Sanitation",
    "final_address": "2316 Lamanche St",
    "address_councildis": "E",
    "status": "Pending",
    "rowid": "1172659",
    "final_x": "3699531.01111",
    "final_y": "538349.727945",
    "longitude": "-90.01088634276921",
    "latitude": "29.973715208267798",
    "geocoded_column": {
      "latitude": "29.973715208267798",
      "longitude": "-90.01088634276921"
    }
  },
  {
    "service_request": "2025-1172658",
    "request_type": "Trash/Recycling",
    "request_reason": "Illegal Dumping",
    "date_created": "2025-03-03T14:52:30.000",
    "date_modified": "2025-03-03T14:52:32.000",
    "request_status": "Pending",
    "responsible_agency": "Department of Sanitation",
    "final_address": "2327 Lamanche St",
    "address_councildis": "E",
    "status": "Pending",
    "rowid": "1172658",
    "final_x": "3699672.4712",
    "final_y": "538422.163849",
    "longitude": "-90.01043694284766",
    "latitude": "29.973909890874502",
    "geocoded_column": {
      "latitude": "29.973909890874502",
      "longitude": "-90.01043694284766"
    }
  },
  {
    "service_request": "2025-1172657",
    "request_type": "Trash/Recycling",
    "request_reason": "Request a Large Item Pick Up",
    "date_created": "2025-03-03T14:40:27.000",
    "date_modified": "2025-03-03T14:40:29.000",
    "request_status": "Pending",
    "responsible_agency": "Department of Sanitation",
    "final_address": "8523 Curran Rd",
    "address_councildis": "E",
    "status": "Assigned to Contractor",
    "contractor": "Waste Pro",
    "rowid": "1172657",
    "final_x": "3703855.62462",
    "final_y": "562473.227871",
    "longitude": "-89.99633941481731",
    "latitude": "30.039907736667878",
    "geocoded_column": {
      "latitude": "30.039907736667878",
      "longitude": "-89.99633941481731"
    }
  },
  {
    "service_request": "2025-1172656",
    "request_type": "Trash/Recycling",
    "request_reason": "Request a Large Item Pick Up",
    "date_created": "2025-03-03T14:32:06.000",
    "date_modified": "2025-03-03T14:47:59.000",
    "request_status": "Pending",
    "responsible_agency": "Department of Sanitation",
    "final_address": "1508 Sumner St",
    "address_councildis": "C",
    "status": "Assigned to Contractor",
    "contractor": "Richards Disposal",
    "rowid": "1172656",
    "final_x": "3691062.72054",
    "final_y": "525861.953533",
    "longitude": "-90.03807676021074",
    "latitude": "29.939644190545785",
    "geocoded_column": {
      "latitude": "29.939644190545785",
      "longitude": "-90.03807676021074"
    }
  },
  {
    "service_request": "2025-1172655",
    "request_type": "Trash/Recycling",
    "request_reason": "Request a Large Item Pick Up",
    "date_created": "2025-03-03T14:29:57.000",
    "date_modified": "2025-03-03T14:30:00.000",
    "request_status": "Pending",
    "responsible_agency": "Department of Sanitation",
    "final_address": "7805 Berg Rd",
    "address_councildis": "E",
    "status": "Assigned to Contractor",
    "contractor": "Waste Pro",
    "rowid": "1172655",
    "final_x": "3711607.73368",
    "final_y": "567309.582564",
    "longitude": "-89.97165894039824",
    "latitude": "30.052954769109483",
    "geocoded_column": {
      "latitude": "30.052954769109483",
      "longitude": "-89.97165894039824"
    }
  },
  {
    "service_request": "2025-1172654",
    "request_type": "Trash/Recycling",
    "request_reason": "Request a Large Item Pick Up",
    "date_created": "2025-03-03T14:25:48.000",
    "date_modified": "2025-03-03T14:25:50.000",
    "request_status": "Pending",
    "responsible_agency": "Department of Sanitation",
    "final_address": "3457 Vespasian St",
    "address_councildis": "C",
    "status": "Assigned to Contractor",
    "contractor": "Richards Disposal",
    "rowid": "1172654",
    "final_x": "3695983.00554",
    "final_y": "522572.417018",
    "longitude": "-90.0226616144267",
    "latitude": "29.930445245616593",
    "geocoded_column": {
      "latitude": "29.930445245616593",
      "longitude": "-90.0226616144267"
    }
  },
  {
    "service_request": "2025-1172653",
    "request_type": "Trash/Recycling",
    "request_reason": "Request a Large Item Pick Up",
    "date_created": "2025-03-03T14:24:34.000",
    "date_modified": "2025-03-03T15:20:48.000",
    "request_status": "Pending",
    "responsible_agency": "Department of Sanitation",
    "final_address": "83 Flamingo St",
    "address_councildis": "D",
    "status": "Assigned to Contractor",
    "contractor": "IV Waste",
    "rowid": "1172653",
    "final_x": "3674377.46312",
    "final_y": "555896.071641",
    "longitude": "-90.08972537577131",
    "latitude": "30.022735763159798",
    "geocoded_column": {
      "latitude": "30.022735763159798",
      "longitude": "-90.08972537577131"
    }
  },
  {
    "service_request": "2025-1172652",
    "request_type": "Trash/Recycling",
    "request_reason": "Request a Large Item Pick Up",
    "date_created": "2025-03-03T14:21:58.000",
    "date_modified": "2025-03-03T14:22:00.000",
    "request_status": "Pending",
    "responsible_agency": "Department of Sanitation",
    "final_address": "14071 Wales St",
    "address_councildis": "E",
    "status": "Assigned to Contractor",
    "contractor": "Waste Pro",
    "rowid": "1172652",
    "final_x": "3718397.39609",
    "final_y": "572869.087337",
    "longitude": "-89.94998679863039",
    "latitude": "30.068017490036276",
    "geocoded_column": {
      "latitude": "30.068017490036276",
      "longitude": "-89.94998679863039"
    }
  },
  {
    "service_request": "2025-1172651",
    "request_type": "Trash/Recycling",
    "request_reason": "Request a Large Item Pick Up",
    "date_created": "2025-03-03T14:17:17.000",
    "date_modified": "2025-03-03T14:17:20.000",
    "request_status": "Pending",
    "responsible_agency": "Department of Sanitation",
    "final_address": "100 Pinehurst Ct",
    "address_councildis": "E",
    "status": "Assigned to Contractor",
    "contractor": "Waste Pro",
    "rowid": "1172651",
    "final_x": "3720011.82521",
    "final_y": "564647.877857",
    "longitude": "-89.94519816762362",
    "latitude": "30.04535889381705",
    "geocoded_column": {
      "latitude": "30.04535889381705",
      "longitude": "-89.94519816762362"
    }
  },
  {
    "service_request": "2025-1172650",
    "request_type": "Drainage",
    "request_reason": "Drainage Manhole Cover Missing or Damaged",
    "date_created": "2025-03-03T14:13:08.000",
    "date_modified": "2025-03-03T14:13:10.000",
    "request_status": "Pending",
    "responsible_agency": "Sewerage & Water Board ",
    "final_address": "1102 General Pershing St",
    "address_councildis": "B",
    "status": "Pending",
    "rowid": "1172650",
    "final_x": "3671324.0859",
    "final_y": "519601.272568",
    "longitude": "-90.1006071598157",
    "latitude": "29.923028094001545",
    "geocoded_column": {
      "latitude": "29.923028094001545",
      "longitude": "-90.1006071598157"
    }
  },
  {
    "service_request": "2025-1172649",
    "request_type": "Trash/Recycling",
    "request_reason": "Order Trash Cart",
    "date_created": "2025-03-03T14:12:41.000",
    "date_modified": "2025-03-03T14:12:43.000",
    "request_status": "Pending",
    "responsible_agency": "Department of Sanitation",
    "final_address": "4402 Dale St",
    "address_councildis": "E",
    "status": "Assigned to Contractor",
    "contractor": "Waste Pro",
    "rowid": "1172649",
    "final_x": "3699576.28682",
    "final_y": "553130.997335",
    "longitude": "-90.0102043010726",
    "latitude": "30.01435679294634",
    "geocoded_column": {
      "latitude": "30.01435679294634",
      "longitude": "-90.0102043010726"
    }
  },
  {
    "service_request": "2025-1172648",
    "request_type": "Trash/Recycling",
    "request_reason": "Request a Large Item Pick Up",
    "date_created": "2025-03-03T14:11:08.000",
    "date_modified": "2025-03-03T14:11:09.000",
    "request_status": "Pending",
    "responsible_agency": "Department of Sanitation",
    "final_address": "7340 Shaw Ave",
    "address_councildis": "E",
    "status": "Assigned to Contractor",
    "contractor": "Waste Pro",
    "rowid": "1172648",
    "final_x": "3707634.98321",
    "final_y": "563363.44144",
    "longitude": "-89.98436244422516",
    "latitude": "30.042233674475032",
    "geocoded_column": {
      "latitude": "30.042233674475032",
      "longitude": "-89.98436244422516"
    }
  },
  {
    "service_request": "2025-1172647",
    "request_type": "Trash/Recycling",
    "request_reason": "Request a Large Item Pick Up",
    "date_created": "2025-03-03T14:04:26.000",
    "date_modified": "2025-03-03T14:04:28.000",
    "request_status": "Pending",
    "responsible_agency": "Department of Sanitation",
    "final_address": "7558 Lafourche St",
    "address_councildis": "E",
    "status": "Assigned to Contractor",
    "contractor": "Waste Pro",
    "rowid": "1172647",
    "final_x": "3710383.48549",
    "final_y": "565170.788514",
    "longitude": "-89.9756085180776",
    "latitude": "30.047113895845946",
    "geocoded_column": {
      "latitude": "30.047113895845946",
      "longitude": "-89.9756085180776"
    }
  },
  {
    "service_request": "2025-1172646",
    "request_type": "Abandoned Vehicles",
    "request_reason": "Abandoned/Junk Vehicles",
    "date_created": "2025-03-03T14:02:28.000",
    "date_modified": "2025-03-03T14:03:43.000",
    "request_status": "Pending",
    "responsible_agency": "Department of Public Works",
    "status": "Inspected",
    "rowid": "1172646",
    "longitude": "0.0",
    "latitude": "0.0",
    "geocoded_column": {
      "latitude": "0.0",
      "longitude": "0.0"
    }
  },
  {
    "service_request": "2025-1172645",
    "request_type": "Trash/Recycling",
    "request_reason": "Illegal Dumping",
    "date_created": "2025-03-03T13:58:30.000",
    "date_modified": "2025-03-03T14:01:49.000",
    "request_status": "Pending",
    "responsible_agency": "Department of Sanitation",
    "final_address": "4714 Rosalia Dr",
    "address_councildis": "E",
    "status": "Pending",
    "rowid": "1172645",
    "final_x": "3711155.76145",
    "final_y": "555615.360281",
    "longitude": "-89.97352612857524",
    "latitude": "30.02081508299181",
    "geocoded_column": {
      "latitude": "30.02081508299181",
      "longitude": "-89.97352612857524"
    }
  },
  {
    "service_request": "2025-1172644",
    "request_type": "Abandoned Vehicles",
    "request_reason": "Abandoned/Junk Vehicles",
    "date_created": "2025-03-03T13:57:32.000",
    "date_modified": "2025-03-03T13:57:34.000",
    "request_status": "Pending",
    "responsible_agency": "Department of Public Works",
    "final_address": "2104 Benefit St",
    "address_councildis": "D",
    "status": "Pending",
    "rowid": "1172644",
    "final_x": "3683644.60079",
    "final_y": "544316.841551",
    "longitude": "-90.06084971555408",
    "latitude": "29.9906172572289",
    "geocoded_column": {
      "latitude": "29.9906172572289",
      "longitude": "-90.06084971555408"
    }
  },
  {
    "service_request": "2025-1172643",
    "request_type": "Roads and Streets",
    "request_reason": "Road Shoulder Damage",
    "date_created": "2025-03-03T13:56:05.000",
    "date_modified": "2025-03-03T13:56:06.000",
    "request_status": "Pending",
    "responsible_agency": "Department of Public Works",
    "final_address": "2623 Palmer Ave",
    "address_councildis": "A",
    "status": "Pending",
    "rowid": "1172643",
    "final_x": "3666716.05383",
    "final_y": "526384.427774",
    "longitude": "-90.11492530861898",
    "latitude": "29.941815120851725",
    "geocoded_column": {
      "latitude": "29.941815120851725",
      "longitude": "-90.11492530861898"
    }
  },
  {
    "service_request": "2025-1172642",
    "request_type": "Trash/Recycling",
    "request_reason": "Request a Large Item Pick Up",
    "date_created": "2025-03-03T13:54:49.000",
    "date_modified": "2025-03-03T13:54:51.000",
    "request_status": "Pending",
    "responsible_agency": "Department of Sanitation",
    "final_address": "5400 Canal Blvd",
    "address_councildis": "A",
    "status": "Assigned to Contractor",
    "contractor": "IV Waste",
    "rowid": "1172642",
    "final_x": "3667970.89319",
    "final_y": "543061.395213",
    "longitude": "-90.11040155650362",
    "latitude": "29.987634502624253",
    "geocoded_column": {
      "latitude": "29.987634502624253",
      "longitude": "-90.11040155650362"
    }
  },
  {
    "service_request": "2025-1172641",
    "request_type": "Trash/Recycling",
    "request_reason": "Request a Large Item Pick Up",
    "date_created": "2025-03-03T13:52:21.000",
    "date_modified": "2025-03-03T13:52:29.000",
    "request_status": "Pending",
    "responsible_agency": "Department of Sanitation",
    "final_address": "1016 Peniston St",
    "address_councildis": "B",
    "status": "Assigned to Contractor",
    "contractor": "IV Waste",
    "rowid": "1172641",
    "final_x": "3673223.40136",
    "final_y": "519553.843255",
    "longitude": "-90.09461336383293",
    "latitude": "29.922841356843385",
    "geocoded_column": {
      "latitude": "29.922841356843385",
      "longitude": "-90.09461336383293"
    }
  },
  {
    "service_request": "2025-1172640",
    "request_type": "Trash/Recycling",
    "request_reason": "Request a Large Item Pick Up",
    "date_created": "2025-03-03T13:49:15.000",
    "date_modified": "2025-03-03T13:49:29.000",
    "request_status": "Pending",
    "responsible_agency": "Department of Sanitation",
    "final_address": "7064 Dreux Ave",
    "address_councildis": "E",
    "status": "Assigned to Contractor",
    "contractor": "Waste Pro",
    "rowid": "1172640",
    "final_x": "3701254.537",
    "final_y": "554360.47516",
    "longitude": "-90.00485686339911",
    "latitude": "30.01768399650114",
    "geocoded_column": {
      "latitude": "30.01768399650114",
      "longitude": "-90.00485686339911"
    }
  },
  {
    "service_request": "2025-1172639",
    "request_type": "Trash/Recycling",
    "request_reason": "Replace Trash Cart",
    "date_created": "2025-03-03T13:48:15.000",
    "date_modified": "2025-03-03T13:48:17.000",
    "request_status": "Pending",
    "responsible_agency": "Department of Sanitation",
    "final_address": "3803 Palmyra St",
    "address_councildis": "A",
    "status": "Assigned to Contractor",
    "contractor": "IV Waste",
    "rowid": "1172639",
    "final_x": "3671568.51719",
    "final_y": "537024.281544",
    "longitude": "-90.09924324796944",
    "latitude": "29.970928425832355",
    "geocoded_column": {
      "latitude": "29.970928425832355",
      "longitude": "-90.09924324796944"
    }
  },
  {
    "service_request": "2025-1172638",
    "request_type": "Trash/Recycling",
    "request_reason": "Repair Trash Cart",
    "date_created": "2025-03-03T13:47:50.000",
    "date_modified": "2025-03-03T13:47:52.000",
    "request_status": "Pending",
    "responsible_agency": "Department of Sanitation",
    "final_address": "9653 Irby St Apt A",
    "address_councildis": "E",
    "status": "Assigned to Contractor",
    "contractor": "Waste Pro",
    "rowid": "1172638",
    "final_x": "3706916.93508",
    "final_y": "564729.234466",
    "longitude": "-89.98658100167414",
    "latitude": "30.046012285350482",
    "geocoded_column": {
      "latitude": "30.046012285350482",
      "longitude": "-89.98658100167414"
    }
  },
  {
    "service_request": "2025-1172637",
    "request_type": "Trash/Recycling",
    "request_reason": "Request a Large Item Pick Up",
    "date_created": "2025-03-03T13:47:25.000",
    "date_modified": "2025-03-03T13:47:28.000",
    "request_status": "Pending",
    "responsible_agency": "Department of Sanitation",
    "final_address": "8021 Mercier St",
    "address_councildis": "E",
    "status": "Assigned to Contractor",
    "contractor": "Waste Pro",
    "rowid": "1172637",
    "final_x": "3710769.03294",
    "final_y": "567557.457636",
    "longitude": "-89.97430052548572",
    "latitude": "30.05366370309794",
    "geocoded_column": {
      "latitude": "30.05366370309794",
      "longitude": "-89.97430052548572"
    }
  },
  {
    "service_request": "2025-1172636",
    "request_type": "Trash/Recycling",
    "request_reason": "Request a Large Item Pick Up",
    "date_created": "2025-03-03T13:39:00.000",
    "date_modified": "2025-03-03T13:39:02.000",
    "request_status": "Pending",
    "responsible_agency": "Department of Sanitation",
    "final_address": "7420 Camberley Dr",
    "address_councildis": "E",
    "status": "Assigned to Contractor",
    "contractor": "Waste Pro",
    "rowid": "1172636",
    "final_x": "3712731.11678",
    "final_y": "565502.363042",
    "longitude": "-89.9681763252542",
    "latitude": "30.047948895172297",
    "geocoded_column": {
      "latitude": "30.047948895172297",
      "longitude": "-89.9681763252542"
    }
  },
  {
    "service_request": "2025-1172635",
    "request_type": "Trash/Recycling",
    "request_reason": "Repair Trash Cart",
    "date_created": "2025-03-03T13:35:57.000",
    "date_modified": "2025-03-03T13:35:59.000",
    "request_status": "Pending",
    "responsible_agency": "Department of Sanitation",
    "final_address": "2408 Lapeyrouse St",
    "address_councildis": "D",
    "status": "Assigned to Contractor",
    "contractor": "IV Waste",
    "rowid": "1172635",
    "final_x": "3679835.11791",
    "final_y": "539544.291594",
    "longitude": "-90.07304873342409",
    "latitude": "29.97761018511273",
    "geocoded_column": {
      "latitude": "29.97761018511273",
      "longitude": "-90.07304873342409"
    }
  },
  {
    "service_request": "2025-1172634",
    "request_type": "Roads and Streets",
    "request_reason": "Debris in Driving Lanes",
    "date_created": "2025-03-03T13:29:49.000",
    "date_modified": "2025-03-03T13:29:54.000",
    "request_status": "Pending",
    "responsible_agency": "Department of Public Works",
    "final_address": "3400 BLK Tulane Ave",
    "address_councildis": "B",
    "status": "Pending",
    "rowid": "1172634",
    "final_x": "3671654.9165",
    "final_y": "535120.879349",
    "longitude": "-90.09903513975463",
    "latitude": "29.965692150254295",
    "geocoded_column": {
      "latitude": "29.965692150254295",
      "longitude": "-90.09903513975463"
    }
  },
  {
    "service_request": "2025-1172633",
    "request_type": "Trash/Recycling",
    "request_reason": "Illegal Dumping",
    "date_created": "2025-03-03T13:23:50.000",
    "date_modified": "2025-03-03T13:23:52.000",
    "request_status": "Pending",
    "responsible_agency": "Department of Sanitation",
    "final_address": "1722 Martin Luther King, Jr. Blvd",
    "address_councildis": "B",
    "status": "Pending",
    "rowid": "1172633",
    "final_x": "3678616.85429",
    "final_y": "525855.741309",
    "longitude": "-90.07737030546924",
    "latitude": "29.94000808618316",
    "geocoded_column": {
      "latitude": "29.94000808618316",
      "longitude": "-90.07737030546924"
    }
  },
  {
    "service_request": "2025-1172632",
    "request_type": "Trash/Recycling",
    "request_reason": "Request a Large Item Pick Up",
    "date_created": "2025-03-03T13:21:42.000",
    "date_modified": "2025-03-03T13:21:44.000",
    "request_status": "Pending",
    "responsible_agency": "Department of Sanitation",
    "final_address": "7721 Swift St",
    "address_councildis": "E",
    "status": "Assigned to Contractor",
    "contractor": "Waste Pro",
    "rowid": "1172632",
    "final_x": "3695387.79056",
    "final_y": "559094.954588",
    "longitude": "-90.02322235788438",
    "latitude": "30.030887740068625",
    "geocoded_column": {
      "latitude": "30.030887740068625",
      "longitude": "-90.02322235788438"
    }
  },
  {
    "service_request": "2025-1172631",
    "request_type": "Safety & Permits",
    "request_reason": "Licenses & Permits",
    "date_created": "2025-03-03T13:20:20.000",
    "date_modified": "2025-03-03T13:20:22.000",
    "request_status": "Pending",
    "responsible_agency": "Safety and Permits",
    "final_address": "4729 Bienville Ave",
    "address_councildis": "A",
    "status": "Pending",
    "rowid": "1172631",
    "final_x": "3669461.75994",
    "final_y": "540643.884811",
    "longitude": "-90.1057742126643",
    "latitude": "29.980943336329478",
    "geocoded_column": {
      "latitude": "29.980943336329478",
      "longitude": "-90.1057742126643"
    }
  },
  {
    "service_request": "2025-1172630",
    "request_type": "Trash/Recycling",
    "request_reason": "Request a Large Item Pick Up",
    "date_created": "2025-03-03T13:19:33.000",
    "date_modified": "2025-03-03T13:19:35.000",
    "request_status": "Pending",
    "responsible_agency": "Department of Sanitation",
    "final_address": "546 Octavia St",
    "address_councildis": "A",
    "status": "Assigned to Contractor",
    "contractor": "IV Waste",
    "rowid": "1172630",
    "final_x": "3666263.11105",
    "final_y": "518261.97887",
    "longitude": "-90.11662765104879",
    "latitude": "29.91949419936165",
    "geocoded_column": {
      "latitude": "29.91949419936165",
      "longitude": "-90.11662765104879"
    }
  },
  {
    "service_request": "2025-1172629",
    "request_type": "Trash/Recycling",
    "request_reason": "Request a Large Item Pick Up",
    "date_created": "2025-03-03T13:16:17.000",
    "date_modified": "2025-03-03T13:16:20.000",
    "request_status": "Pending",
    "responsible_agency": "Department of Sanitation",
    "final_address": "7201 Claridge Ct",
    "address_councildis": "E",
    "status": "Assigned to Contractor",
    "contractor": "Waste Pro",
    "rowid": "1172629",
    "final_x": "3705049.05086",
    "final_y": "560585.790366",
    "longitude": "-89.99263763706125",
    "latitude": "30.03467968337205",
    "geocoded_column": {
      "latitude": "30.03467968337205",
      "longitude": "-89.99263763706125"
    }
  },
  {
    "service_request": "2025-1172628",
    "request_type": "Trash/Recycling",
    "request_reason": "Request a Large Item Pick Up",
    "date_created": "2025-03-03T13:02:47.000",
    "date_modified": "2025-03-03T13:02:49.000",
    "request_status": "Pending",
    "responsible_agency": "Department of Sanitation",
    "final_address": "7621 Branch Dr",
    "address_councildis": "E",
    "status": "Assigned to Contractor",
    "contractor": "Waste Pro",
    "rowid": "1172628",
    "final_x": "3714835.61624",
    "final_y": "568618.914405",
    "longitude": "-89.96140705135957",
    "latitude": "30.056449027031057",
    "geocoded_column": {
      "latitude": "30.056449027031057",
      "longitude": "-89.96140705135957"
    }
  },
  {
    "service_request": "2025-1172627",
    "request_type": "Trash/Recycling",
    "request_reason": "Request a Large Item Pick Up",
    "date_created": "2025-03-03T13:02:46.000",
    "date_modified": "2025-03-03T13:02:47.000",
    "request_status": "Pending",
    "responsible_agency": "Department of Sanitation",
    "final_address": "7437 Hampson St",
    "address_councildis": "A",
    "status": "Assigned to Contractor",
    "contractor": "IV Waste",
    "rowid": "1172627",
    "final_x": "3662488.01555",
    "final_y": "525610.377597",
    "longitude": "-90.12829986808276",
    "latitude": "29.93980967175446",
    "geocoded_column": {
      "latitude": "29.93980967175446",
      "longitude": "-90.12829986808276"
    }
  },
  {
    "service_request": "2025-1172626",
    "request_type": "Alley Ways",
    "request_reason": "Alley Way Regrading",
    "date_created": "2025-03-03T13:02:42.000",
    "date_modified": "2025-03-03T13:02:44.000",
    "request_status": "Pending",
    "responsible_agency": "Department of Public Works",
    "final_address": "6377 Canal Blvd",
    "address_councildis": "A",
    "status": "Pending",
    "rowid": "1172626",
    "final_x": "3668855.84935",
    "final_y": "549963.257492",
    "longitude": "-90.10737302491621",
    "latitude": "30.00658624034994",
    "geocoded_column": {
      "latitude": "30.00658624034994",
      "longitude": "-90.10737302491621"
    }
  },
  {
    "service_request": "2025-1172625",
    "request_type": "Trash/Recycling",
    "request_reason": "Request a Large Item Pick Up",
    "date_created": "2025-03-03T12:51:22.000",
    "date_modified": "2025-03-03T12:51:35.000",
    "request_status": "Pending",
    "responsible_agency": "Department of Sanitation",
    "final_address": "2711 Marais St",
    "address_councildis": "C",
    "status": "Assigned to Contractor",
    "contractor": "IV Waste",
    "rowid": "1172625",
    "final_x": "3687618.53494",
    "final_y": "536744.582215",
    "longitude": "-90.0485652658649",
    "latitude": "29.96967427957072",
    "geocoded_column": {
      "latitude": "29.96967427957072",
      "longitude": "-90.0485652658649"
    }
  },
  {
    "service_request": "2025-1172624",
    "request_type": "Abandoned Vehicles",
    "request_reason": "Abandoned/Junk Vehicles",
    "date_created": "2025-03-03T12:47:39.000",
    "date_modified": "2025-03-03T12:47:40.000",
    "request_status": "Pending",
    "responsible_agency": "Department of Public Works",
    "final_address": "4866 Gallier Dr",
    "address_councildis": "D",
    "status": "Pending",
    "rowid": "1172624",
    "final_x": "3691907.08854",
    "final_y": "551903.204822",
    "longitude": "-90.03447903731028",
    "latitude": "30.011222091988564",
    "geocoded_column": {
      "latitude": "30.011222091988564",
      "longitude": "-90.03447903731028"
    }
  },
  {
    "service_request": "2025-1172623",
    "request_type": "Trash/Recycling",
    "request_reason": "Request a Large Item Pick Up",
    "date_created": "2025-03-03T12:43:41.000",
    "date_modified": "2025-03-03T12:43:44.000",
    "request_status": "Pending",
    "responsible_agency": "Department of Sanitation",
    "final_address": "4443 Wilson Ave",
    "address_councildis": "E",
    "status": "Assigned to Contractor",
    "contractor": "Waste Pro",
    "rowid": "1172623",
    "final_x": "3703234.64132",
    "final_y": "553145.246167",
    "longitude": "-89.99864527971475",
    "latitude": "30.01427930928578",
    "geocoded_column": {
      "latitude": "30.01427930928578",
      "longitude": "-89.99864527971475"
    }
  },
  {
    "service_request": "2025-1172622",
    "request_type": "Parks & Parkways",
    "request_reason": "Request Tree Service (Right of Way/Public Property)",
    "date_created": "2025-03-03T12:42:48.000",
    "date_modified": "2025-03-03T12:42:49.000",
    "request_status": "Pending",
    "responsible_agency": "Department of Parks & Parkway",
    "final_address": "4858 Piety Dr",
    "address_councildis": "D",
    "status": "Pending",
    "rowid": "1172622",
    "final_x": "3691463.19587",
    "final_y": "551672.712725",
    "longitude": "-90.03588971401547",
    "latitude": "30.010602151881237",
    "geocoded_column": {
      "latitude": "30.010602151881237",
      "longitude": "-90.03588971401547"
    }
  },
  {
    "service_request": "2025-1172621",
    "request_type": "Roads and Streets",
    "request_reason": "Abandoned Service Cut",
    "date_created": "2025-03-03T12:42:28.000",
    "date_modified": "2025-03-03T12:43:11.000",
    "request_status": "Pending",
    "responsible_agency": "Department of Public Works",
    "final_address": "ST CHARLES AVE & BORDEAUX ST",
    "address_councildis": "B",
    "status": "Pending",
    "rowid": "1172621",
    "final_x": "3669381.8",
    "final_y": "520750.28",
    "longitude": "-90.1066993954228",
    "latitude": "29.92624481279154",
    "geocoded_column": {
      "latitude": "29.92624481279154",
      "longitude": "-90.1066993954228"
    }
  },
  {
    "service_request": "2025-1172620",
    "request_type": "Property Maintenance",
    "request_reason": "Property Maintenance",
    "date_created": "2025-03-03T12:40:54.000",
    "date_modified": "2025-03-03T12:55:10.000",
    "case_close_date": "2025-03-03T06:55:08.000",
    "request_status": "Closed",
    "responsible_agency": "Department of Code Enforcement",
    "final_address": "4816 Wilson Ave",
    "address_councildis": "E",
    "status": "Referred to External Agency",
    "rowid": "1172620",
    "final_x": "3702893.97668",
    "final_y": "555307.174489",
    "longitude": "-89.99964209785406",
    "latitude": "30.02023469108428",
    "geocoded_column": {
      "latitude": "30.02023469108428",
      "longitude": "-89.99964209785406"
    }
  },
  {
    "service_request": "2025-1172619",
    "request_type": "Trash/Recycling",
    "request_reason": "Request a Large Item Pick Up",
    "date_created": "2025-03-03T12:39:14.000",
    "date_modified": "2025-03-03T12:39:15.000",
    "request_status": "Pending",
    "responsible_agency": "Department of Sanitation",
    "final_address": "5000 Congress Dr",
    "address_councildis": "D",
    "status": "Assigned to Contractor",
    "contractor": "IV Waste",
    "rowid": "1172619",
    "final_x": "3691933.85149",
    "final_y": "552713.046102",
    "longitude": "-90.03436547727122",
    "latitude": "30.013448020813893",
    "geocoded_column": {
      "latitude": "30.013448020813893",
      "longitude": "-90.03436547727122"
    }
  },
  {
    "service_request": "2025-1172618",
    "request_type": "Trash/Recycling",
    "request_reason": "Request a Large Item Pick Up",
    "date_created": "2025-03-03T12:39:12.000",
    "date_modified": "2025-03-03T12:52:55.000",
    "case_close_date": "2025-03-03T06:52:52.000",
    "request_status": "Closed",
    "responsible_agency": "Department of Sanitation",
    "final_address": "4707 Wilson Ave",
    "address_councildis": "E",
    "status": "Assigned to Contractor",
    "contractor": "Waste Pro",
    "contractor_action": "Completed",
    "rowid": "1172618",
    "final_x": "3703125.0065",
    "final_y": "554699.7814",
    "longitude": "-89.99893447062479",
    "latitude": "30.018557197344457",
    "geocoded_column": {
      "latitude": "30.018557197344457",
      "longitude": "-89.99893447062479"
    }
  },
  {
    "service_request": "2025-1172617",
    "request_type": "Trash/Recycling",
    "request_reason": "Request a Large Item Pick Up",
    "date_created": "2025-03-03T12:36:25.000",
    "date_modified": "2025-03-03T12:36:26.000",
    "request_status": "Pending",
    "responsible_agency": "Department of Sanitation",
    "final_address": "4710 Wilson Ave",
    "address_councildis": "E",
    "status": "Assigned to Contractor",
    "contractor": "Waste Pro",
    "rowid": "1172617",
    "final_x": "3702969.74033",
    "final_y": "554709.038232",
    "longitude": "-89.99942471115979",
    "latitude": "30.018587620958037",
    "geocoded_column": {
      "latitude": "30.018587620958037",
      "longitude": "-89.99942471115979"
    }
  },
  {
    "service_request": "2025-1172616",
    "request_type": "Trash/Recycling",
    "request_reason": "Request a Large Item Pick Up",
    "date_created": "2025-03-03T12:33:37.000",
    "date_modified": "2025-03-03T13:15:07.000",
    "request_status": "Pending",
    "responsible_agency": "Department of Sanitation",
    "final_address": "920 Turquoise St",
    "address_councildis": "D",
    "status": "Assigned to Contractor",
    "contractor": "IV Waste",
    "rowid": "1172616",
    "final_x": "3670862.72199",
    "final_y": "555044.702361",
    "longitude": "-90.10086010853499",
    "latitude": "30.020499222197433",
    "geocoded_column": {
      "latitude": "30.020499222197433",
      "longitude": "-90.10086010853499"
    }
  },
  {
    "service_request": "2025-1172615",
    "request_type": "Abandoned Vehicles",
    "request_reason": "Abandoned/Junk Vehicles",
    "date_created": "2025-03-03T12:30:30.000",
    "date_modified": "2025-03-03T12:36:30.000",
    "request_status": "Pending",
    "responsible_agency": "Department of Public Works",
    "final_address": "1631 N Galvez St",
    "address_councildis": "D",
    "status": "Inspected",
    "rowid": "1172615",
    "final_x": "3680902.29679",
    "final_y": "539102.232138",
    "longitude": "-90.06969361872679",
    "latitude": "29.97636235733319",
    "geocoded_column": {
      "latitude": "29.97636235733319",
      "longitude": "-90.06969361872679"
    }
  },
  {
    "service_request": "2025-1172614",
    "request_type": "Trash/Recycling",
    "request_reason": "Request a Large Item Pick Up",
    "date_created": "2025-03-03T12:28:23.000",
    "date_modified": "2025-03-03T12:28:25.000",
    "request_status": "Pending",
    "responsible_agency": "Department of Sanitation",
    "final_address": "7331 Symmes Ave",
    "address_councildis": "E",
    "status": "Assigned to Contractor",
    "contractor": "Waste Pro",
    "rowid": "1172614",
    "final_x": "3708388.74513",
    "final_y": "563724.769057",
    "longitude": "-89.9819668192895",
    "latitude": "30.04320275997768",
    "geocoded_column": {
      "latitude": "30.04320275997768",
      "longitude": "-89.9819668192895"
    }
  },
  {
    "service_request": "2025-1172613",
    "request_type": "Trash/Recycling",
    "request_reason": "Dead Animal Pick Up",
    "date_created": "2025-03-03T12:24:59.000",
    "date_modified": "2025-03-03T12:25:01.000",
    "request_status": "Pending",
    "responsible_agency": "Department of Sanitation",
    "final_address": "N CLAIBORNE AVE & ANDRY ST",
    "address_councildis": "E",
    "status": "Assigned to Contractor",
    "contractor": "Waste Pro",
    "rowid": "1172613",
    "final_x": "3697642.9",
    "final_y": "535711.38",
    "longitude": "-90.01694509910548",
    "latitude": "29.966520480620296",
    "geocoded_column": {
      "latitude": "29.966520480620296",
      "longitude": "-90.01694509910548"
    }
  },
  {
    "service_request": "2025-1172612",
    "request_type": "Streetlights",
    "request_reason": "Streetlight Knocked Down/Leaning",
    "date_created": "2025-03-03T12:24:08.000",
    "date_modified": "2025-03-03T12:24:09.000",
    "request_status": "Pending",
    "responsible_agency": "Department of Public Works",
    "final_address": "900 Camp St",
    "address_councildis": "B",
    "status": "Pending",
    "contractor": "Legacy Professional Services",
    "rowid": "1172612",
    "final_x": "3680659.98952",
    "final_y": "527238.234815",
    "longitude": "-90.07087173436338",
    "latitude": "29.9437477458609",
    "geocoded_column": {
      "latitude": "29.9437477458609",
      "longitude": "-90.07087173436338"
    }
  },
  {
    "service_request": "2025-1172610",
    "request_type": "Roads and Streets",
    "request_reason": "Curb Damage",
    "date_created": "2025-03-03T12:23:22.000",
    "date_modified": "2025-03-03T12:23:24.000",
    "request_status": "Pending",
    "responsible_agency": "Department of Public Works",
    "final_address": "2439 General Ogden St",
    "address_councildis": "A",
    "status": "Pending",
    "rowid": "1172610",
    "final_x": "3663023.95527",
    "final_y": "533686.251013",
    "longitude": "-90.12633924636512",
    "latitude": "29.962000212507782",
    "geocoded_column": {
      "latitude": "29.962000212507782",
      "longitude": "-90.12633924636512"
    }
  },
  {
    "service_request": "2025-1172609",
    "request_type": "Trash/Recycling",
    "request_reason": "Request a Large Item Pick Up",
    "date_created": "2025-03-03T12:09:33.000",
    "date_modified": "2025-03-03T13:13:33.000",
    "request_status": "Pending",
    "responsible_agency": "Department of Sanitation",
    "final_address": "400 Emerald St",
    "address_councildis": "D",
    "status": "Assigned to Contractor",
    "contractor": "IV Waste",
    "rowid": "1172609",
    "final_x": "3667876.37709",
    "final_y": "555027.236441",
    "longitude": "-90.11029667763833",
    "latitude": "30.020539181023988",
    "geocoded_column": {
      "latitude": "30.020539181023988",
      "longitude": "-90.11029667763833"
    }
  },
  {
    "service_request": "2025-1172608",
    "request_type": "Trash/Recycling",
    "request_reason": "Order Trash Cart",
    "date_created": "2025-03-03T12:03:57.000",
    "date_modified": "2025-03-03T12:04:00.000",
    "request_status": "Pending",
    "responsible_agency": "Department of Sanitation",
    "final_address": "3119 Toulouse St",
    "address_councildis": "A",
    "status": "Assigned to Contractor",
    "contractor": "IV Waste",
    "rowid": "1172608",
    "final_x": "3675067.84801",
    "final_y": "537647.952712",
    "longitude": "-90.0881704949205",
    "latitude": "29.972539215224007",
    "geocoded_column": {
      "latitude": "29.972539215224007",
      "longitude": "-90.0881704949205"
    }
  },
  {
    "service_request": "2025-1172607",
    "request_type": "Trash/Recycling",
    "request_reason": "Order Trash Cart",
    "date_created": "2025-03-03T11:57:54.000",
    "date_modified": "2025-03-03T11:57:56.000",
    "request_status": "Pending",
    "responsible_agency": "Department of Sanitation",
    "final_address": "2666 Clover St",
    "address_councildis": "D",
    "status": "Assigned to Contractor",
    "contractor": "IV Waste",
    "rowid": "1172607",
    "final_x": "3687679.00163",
    "final_y": "546632.413201",
    "longitude": "-90.04802403275175",
    "latitude": "29.996860437406767",
    "geocoded_column": {
      "latitude": "29.996860437406767",
      "longitude": "-90.04802403275175"
    }
  },
  {
    "service_request": "2025-1172606",
    "request_type": "Trash/Recycling",
    "request_reason": "Repair Trash Cart",
    "date_created": "2025-03-03T11:52:47.000",
    "date_modified": "2025-03-03T11:52:48.000",
    "request_status": "Pending",
    "responsible_agency": "Department of Sanitation",
    "final_address": "1825 Governor Nicholls St",
    "address_councildis": "D",
    "status": "Assigned to Contractor",
    "contractor": "IV Waste",
    "rowid": "1172606",
    "final_x": "3680438.53186",
    "final_y": "536455.132487",
    "longitude": "-90.0712504117858",
    "latitude": "29.969097801109942",
    "geocoded_column": {
      "latitude": "29.969097801109942",
      "longitude": "-90.0712504117858"
    }
  },
  {
    "service_request": "2025-1172605",
    "request_type": "Property Maintenance",
    "request_reason": "Property Maintenance",
    "date_created": "2025-03-03T11:47:38.000",
    "date_modified": "2025-03-03T13:10:27.000",
    "case_close_date": "2025-03-03T07:10:26.000",
    "request_status": "Closed",
    "responsible_agency": "Department of Code Enforcement",
    "final_address": "933 Belleville St",
    "address_councildis": "C",
    "status": "Referred to External Agency",
    "rowid": "1172605",
    "final_x": "3687726.35292",
    "final_y": "528068.172927",
    "longitude": "-90.04853200661871",
    "latitude": "29.945813824748225",
    "geocoded_column": {
      "latitude": "29.945813824748225",
      "longitude": "-90.04853200661871"
    }
  },
  {
    "service_request": "2025-1172604",
    "request_type": "Trash/Recycling",
    "request_reason": "Illegal Dumping",
    "date_created": "2025-03-03T11:45:56.000",
    "date_modified": "2025-03-03T11:46:04.000",
    "request_status": "Pending",
    "responsible_agency": "Department of Sanitation",
    "final_address": "5619 N Tonti St",
    "address_councildis": "E",
    "status": "Pending",
    "rowid": "1172604",
    "final_x": "3699427.96503",
    "final_y": "538249.412233",
    "longitude": "-90.01121543813349",
    "latitude": "29.973442646035657",
    "geocoded_column": {
      "latitude": "29.973442646035657",
      "longitude": "-90.01121543813349"
    }
  },
  {
    "service_request": "2025-1172603",
    "request_type": "Trash/Recycling",
    "request_reason": "Order Second Trash Cart",
    "date_created": "2025-03-03T11:45:33.000",
    "date_modified": "2025-03-03T11:45:40.000",
    "request_status": "Pending",
    "responsible_agency": "Department of Sanitation",
    "final_address": "3616 Toledano St",
    "address_councildis": "B",
    "status": "Assigned to Contractor",
    "contractor": "IV Waste",
    "rowid": "1172603",
    "final_x": "3671549.72231",
    "final_y": "528645.650816",
    "longitude": "-90.09958751278363",
    "latitude": "29.94789053282873",
    "geocoded_column": {
      "latitude": "29.94789053282873",
      "longitude": "-90.09958751278363"
    }
  },
  {
    "service_request": "2025-1172602",
    "request_type": "Trash/Recycling",
    "request_reason": "Request a Large Item Pick Up",
    "date_created": "2025-03-03T11:44:23.000",
    "date_modified": "2025-03-03T11:44:25.000",
    "request_status": "Pending",
    "responsible_agency": "Department of Sanitation",
    "final_address": "5616 N Tonti St",
    "address_councildis": "E",
    "status": "Assigned to Contractor",
    "contractor": "Waste Pro",
    "rowid": "1172602",
    "final_x": "3699395.14199",
    "final_y": "538170.997705",
    "longitude": "-90.0113219567114",
    "latitude": "29.9732280757425",
    "geocoded_column": {
      "latitude": "29.9732280757425",
      "longitude": "-90.0113219567114"
    }
  },
  {
    "service_request": "2025-1172601",
    "request_type": "Trash/Recycling",
    "request_reason": "Order Trash Cart",
    "date_created": "2025-03-03T11:43:49.000",
    "date_modified": "2025-03-03T11:43:51.000",
    "request_status": "Pending",
    "responsible_agency": "Department of Sanitation",
    "final_address": "3616 Toledano St",
    "address_councildis": "B",
    "status": "Assigned to Contractor",
    "contractor": "IV Waste",
    "rowid": "1172601",
    "final_x": "3671549.72231",
    "final_y": "528645.650816",
    "longitude": "-90.09958751278363",
    "latitude": "29.94789053282873",
    "geocoded_column": {
      "latitude": "29.94789053282873",
      "longitude": "-90.09958751278363"
    }
  },
  {
    "service_request": "2025-1172600",
    "request_type": "Trash/Recycling",
    "request_reason": "Request a Large Item Pick Up",
    "date_created": "2025-03-03T11:40:20.000",
    "date_modified": "2025-03-03T11:40:21.000",
    "request_status": "Pending",
    "responsible_agency": "Department of Sanitation",
    "final_address": "806 Opelousas Ave",
    "address_councildis": "C",
    "status": "Assigned to Contractor",
    "contractor": "Richards Disposal",
    "rowid": "1172600",
    "final_x": "3687901.85539",
    "final_y": "529190.67392",
    "longitude": "-90.0479381307274",
    "latitude": "29.94889490713998",
    "geocoded_column": {
      "latitude": "29.94889490713998",
      "longitude": "-90.0479381307274"
    }
  },
  {
    "service_request": "2025-1172599",
    "request_type": "Trash/Recycling",
    "request_reason": "Replace Trash Cart",
    "date_created": "2025-03-03T11:36:46.000",
    "date_modified": "2025-03-03T11:36:48.000",
    "request_status": "Pending",
    "responsible_agency": "Department of Sanitation",
    "final_address": "6316 General Pershing St",
    "address_councildis": "B",
    "status": "Assigned to Contractor",
    "contractor": "IV Waste",
    "rowid": "1172599",
    "final_x": "3667976.36749",
    "final_y": "530369.551682",
    "longitude": "-90.11081198543661",
    "latitude": "29.952736007731776",
    "geocoded_column": {
      "latitude": "29.952736007731776",
      "longitude": "-90.11081198543661"
    }
  },
  {
    "service_request": "2025-1172598",
    "request_type": "Trash/Recycling",
    "request_reason": "Replace Trash Cart",
    "date_created": "2025-03-03T11:35:44.000",
    "date_modified": "2025-03-03T11:35:46.000",
    "request_status": "Pending",
    "responsible_agency": "Department of Sanitation",
    "final_address": "6314 General Pershing St",
    "address_councildis": "B",
    "status": "Assigned to Contractor",
    "contractor": "IV Waste",
    "rowid": "1172598",
    "final_x": "3667985.74247",
    "final_y": "530366.166274",
    "longitude": "-90.11078249739774",
    "latitude": "29.952726423931473",
    "geocoded_column": {
      "latitude": "29.952726423931473",
      "longitude": "-90.11078249739774"
    }
  },
  {
    "service_request": "2025-1172597",
    "request_type": "Trash/Recycling",
    "request_reason": "Replace Trash Cart",
    "date_created": "2025-03-03T11:31:40.000",
    "date_modified": "2025-03-03T11:31:42.000",
    "request_status": "Pending",
    "responsible_agency": "Department of Sanitation",
    "final_address": "6314 General Pershing St",
    "address_councildis": "B",
    "status": "Assigned to Contractor",
    "contractor": "IV Waste",
    "rowid": "1172597",
    "final_x": "3667985.74247",
    "final_y": "530366.166274",
    "longitude": "-90.11078249739774",
    "latitude": "29.952726423931473",
    "geocoded_column": {
      "latitude": "29.952726423931473",
      "longitude": "-90.11078249739774"
    }
  },
  {
    "service_request": "2025-1172596",
    "request_type": "Trash/Recycling",
    "request_reason": "Request a Large Item Pick Up",
    "date_created": "2025-03-03T11:30:17.000",
    "date_modified": "2025-03-03T11:30:20.000",
    "request_status": "Pending",
    "responsible_agency": "Department of Sanitation",
    "final_address": "7211 Bunker Hill Rd",
    "address_councildis": "E",
    "status": "Assigned to Contractor",
    "contractor": "Waste Pro",
    "rowid": "1172596",
    "final_x": "3705580.0659",
    "final_y": "561179.30851",
    "longitude": "-89.99093759177174",
    "latitude": "30.036294530338235",
    "geocoded_column": {
      "latitude": "30.036294530338235",
      "longitude": "-89.99093759177174"
    }
  },
  {
    "service_request": "2025-1172595",
    "request_type": "Trash/Recycling",
    "request_reason": "Request a Large Item Pick Up",
    "date_created": "2025-03-03T11:25:16.000",
    "date_modified": "2025-03-03T11:25:27.000",
    "request_status": "Pending",
    "responsible_agency": "Department of Sanitation",
    "final_address": "7821 Sun St",
    "address_councildis": "E",
    "status": "Assigned to Contractor",
    "contractor": "Waste Pro",
    "rowid": "1172595",
    "final_x": "3720514.40626",
    "final_y": "574381.521899",
    "longitude": "-89.94323658257936",
    "latitude": "30.0721056008035",
    "geocoded_column": {
      "latitude": "30.0721056008035",
      "longitude": "-89.94323658257936"
    }
  },
  {
    "service_request": "2025-1172594",
    "request_type": "Trash/Recycling",
    "request_reason": "Request a Large Item Pick Up",
    "date_created": "2025-03-03T11:23:48.000",
    "date_modified": "2025-03-03T11:23:50.000",
    "request_status": "Pending",
    "responsible_agency": "Department of Sanitation",
    "final_address": "1659 Dufossat St",
    "address_councildis": "B",
    "status": "Assigned to Contractor",
    "contractor": "IV Waste",
    "rowid": "1172594",
    "final_x": "3668209.90004",
    "final_y": "521717.652858",
    "longitude": "-90.11036616860868",
    "latitude": "29.928939224251952",
    "geocoded_column": {
      "latitude": "29.928939224251952",
      "longitude": "-90.11036616860868"
    }
  },
  {
    "service_request": "2025-1172593",
    "request_type": "Trash/Recycling",
    "request_reason": "Request a Large Item Pick Up",
    "date_created": "2025-03-03T11:22:41.000",
    "date_modified": "2025-03-03T11:22:43.000",
    "request_status": "Pending",
    "responsible_agency": "Department of Sanitation",
    "final_address": "1402 Tennessee St",
    "address_councildis": "E",
    "status": "Assigned to Contractor",
    "contractor": "Waste Pro",
    "rowid": "1172593",
    "final_x": "3695917.17194",
    "final_y": "535504.987526",
    "longitude": "-90.02240235773263",
    "latitude": "29.96600737612355",
    "geocoded_column": {
      "latitude": "29.96600737612355",
      "longitude": "-90.02240235773263"
    }
  },
  {
    "service_request": "2025-1172592",
    "request_type": "Trash/Recycling",
    "request_reason": "Request a Large Item Pick Up",
    "date_created": "2025-03-03T11:16:47.000",
    "date_modified": "2025-03-03T11:16:49.000",
    "request_status": "Pending",
    "responsible_agency": "Department of Sanitation",
    "final_address": "4555 Marque Dr",
    "address_councildis": "E",
    "status": "Assigned to Contractor",
    "contractor": "Waste Pro",
    "rowid": "1172592",
    "final_x": "3710252.63557",
    "final_y": "554569.865496",
    "longitude": "-89.97641883452756",
    "latitude": "30.017969819083895",
    "geocoded_column": {
      "latitude": "30.017969819083895",
      "longitude": "-89.97641883452756"
    }
  },
  {
    "service_request": "2025-1172591",
    "request_type": "General Services",
    "request_reason": "General Service Request",
    "date_created": "2025-03-03T11:13:09.000",
    "date_modified": "2025-03-03T11:16:01.000",
    "case_close_date": "2025-03-03T05:16:00.000",
    "request_status": "Closed",
    "responsible_agency": "Orleans Parish Communication District",
    "final_address": "ST CHARLES AVE & AUDUBON PL",
    "address_councildis": "A",
    "status": "Referred to Risk Management",
    "rowid": "1172591",
    "final_x": "3663649.8",
    "final_y": "524097.58",
    "longitude": "-90.12468231009116",
    "latitude": "29.935616312456432",
    "geocoded_column": {
      "latitude": "29.935616312456432",
      "longitude": "-90.12468231009116"
    }
  },
  {
    "service_request": "2025-1172590",
    "request_type": "Trash/Recycling",
    "request_reason": "Request a Large Item Pick Up",
    "date_created": "2025-03-03T11:09:55.000",
    "date_modified": "2025-03-03T11:09:57.000",
    "request_status": "Pending",
    "responsible_agency": "Department of Sanitation",
    "final_address": "14050 Wales St",
    "address_councildis": "E",
    "status": "Assigned to Contractor",
    "contractor": "Waste Pro",
    "rowid": "1172590",
    "final_x": "3718386.21989",
    "final_y": "572731.251497",
    "longitude": "-89.950027388699",
    "latitude": "30.06763887033282",
    "geocoded_column": {
      "latitude": "30.06763887033282",
      "longitude": "-89.950027388699"
    }
  },
  {
    "service_request": "2025-1172589",
    "request_type": "Drainage",
    "request_reason": "Street Flooding",
    "date_created": "2025-03-03T11:07:09.000",
    "date_modified": "2025-03-03T11:07:11.000",
    "request_status": "Pending",
    "responsible_agency": "Sewerage & Water Board ",
    "final_address": "8130 Zimple St",
    "address_councildis": "A",
    "status": "Pending",
    "rowid": "1172589",
    "final_x": "3661530.64749",
    "final_y": "528243.660992",
    "longitude": "-90.13123521388941",
    "latitude": "29.947078012743596",
    "geocoded_column": {
      "latitude": "29.947078012743596",
      "longitude": "-90.13123521388941"
    }
  },
  {
    "service_request": "2025-1172588",
    "request_type": "Trash/Recycling",
    "request_reason": "Request a Large Item Pick Up",
    "date_created": "2025-03-03T11:06:42.000",
    "date_modified": "2025-03-03T11:06:44.000",
    "request_status": "Pending",
    "responsible_agency": "Department of Sanitation",
    "final_address": "2341 Odin St",
    "address_councildis": "D",
    "status": "Assigned to Contractor",
    "contractor": "IV Waste",
    "rowid": "1172588",
    "final_x": "3684833.60489",
    "final_y": "553167.163095",
    "longitude": "-90.05678250360289",
    "latitude": "30.014916086492324",
    "geocoded_column": {
      "latitude": "30.014916086492324",
      "longitude": "-90.05678250360289"
    }
  },
  {
    "service_request": "2025-1172587",
    "request_type": "Trash/Recycling",
    "request_reason": "Request a Large Item Pick Up",
    "date_created": "2025-03-03T11:06:01.000",
    "date_modified": "2025-03-03T11:06:03.000",
    "request_status": "Pending",
    "responsible_agency": "Department of Sanitation",
    "final_address": "2511 Jonquil St",
    "address_councildis": "D",
    "status": "Assigned to Contractor",
    "contractor": "IV Waste",
    "rowid": "1172587",
    "final_x": "3686433.04591",
    "final_y": "547209.886353",
    "longitude": "-90.05193953485518",
    "latitude": "29.998486651063548",
    "geocoded_column": {
      "latitude": "29.998486651063548",
      "longitude": "-90.05193953485518"
    }
  },
  {
    "service_request": "2025-1172586",
    "request_type": "Trash/Recycling",
    "request_reason": "Request a Large Item Pick Up",
    "date_created": "2025-03-03T10:59:42.000",
    "date_modified": "2025-03-03T10:59:44.000",
    "request_status": "Pending",
    "responsible_agency": "Department of Sanitation",
    "final_address": "4872 Gilbert St",
    "address_councildis": "E",
    "status": "Assigned to Contractor",
    "contractor": "Waste Pro",
    "rowid": "1172586",
    "final_x": "3729418.14829",
    "final_y": "562422.336223",
    "longitude": "-89.91555712732848",
    "latitude": "30.03892290161391",
    "geocoded_column": {
      "latitude": "30.03892290161391",
      "longitude": "-89.91555712732848"
    }
  },
  {
    "service_request": "2025-1172585",
    "request_type": "Streetlights",
    "request_reason": "Streetlight Knocked Down/Leaning",
    "date_created": "2025-03-03T10:57:15.000",
    "date_modified": "2025-03-03T10:57:17.000",
    "request_status": "Pending",
    "responsible_agency": "Department of Public Works",
    "final_address": "900 Camp St",
    "address_councildis": "B",
    "status": "Pending",
    "contractor": "Legacy Professional Services",
    "rowid": "1172585",
    "final_x": "3680659.98952",
    "final_y": "527238.234815",
    "longitude": "-90.07087173436338",
    "latitude": "29.9437477458609",
    "geocoded_column": {
      "latitude": "29.9437477458609",
      "longitude": "-90.07087173436338"
    }
  },
  {
    "service_request": "2025-1172584",
    "request_type": "Abandoned Vehicles",
    "request_reason": "Abandoned/Junk Vehicles",
    "date_created": "2025-03-03T10:56:56.000",
    "date_modified": "2025-03-03T10:56:59.000",
    "request_status": "Pending",
    "responsible_agency": "Department of Public Works",
    "final_address": "3120 Royal St",
    "address_councildis": "C",
    "status": "Pending",
    "rowid": "1172584",
    "final_x": "3688803.43478",
    "final_y": "534425.728901",
    "longitude": "-90.04490560237896",
    "latitude": "29.963261659293746",
    "geocoded_column": {
      "latitude": "29.963261659293746",
      "longitude": "-90.04490560237896"
    }
  },
  {
    "service_request": "2025-1172583",
    "request_type": "Abandoned Vehicles",
    "request_reason": "Abandoned/Junk Vehicles",
    "date_created": "2025-03-03T10:56:45.000",
    "date_modified": "2025-03-03T10:56:46.000",
    "request_status": "Pending",
    "responsible_agency": "Department of Public Works",
    "final_address": "3120 Royal St",
    "address_councildis": "C",
    "status": "Pending",
    "rowid": "1172583",
    "final_x": "3688803.43478",
    "final_y": "534425.728901",
    "longitude": "-90.04490560237896",
    "latitude": "29.963261659293746",
    "geocoded_column": {
      "latitude": "29.963261659293746",
      "longitude": "-90.04490560237896"
    }
  },
  {
    "service_request": "2025-1172582",
    "request_type": "Abandoned Vehicles",
    "request_reason": "Abandoned/Junk Vehicles",
    "date_created": "2025-03-03T10:56:40.000",
    "date_modified": "2025-03-03T10:56:42.000",
    "request_status": "Pending",
    "responsible_agency": "Department of Public Works",
    "final_address": "3120 Royal St",
    "address_councildis": "C",
    "status": "Pending",
    "rowid": "1172582",
    "final_x": "3688803.43478",
    "final_y": "534425.728901",
    "longitude": "-90.04490560237896",
    "latitude": "29.963261659293746",
    "geocoded_column": {
      "latitude": "29.963261659293746",
      "longitude": "-90.04490560237896"
    }
  },
  {
    "service_request": "2025-1172581",
    "request_type": "Streetlights",
    "request_reason": "Streetlight Outage/Malfunction",
    "date_created": "2025-03-03T10:56:07.000",
    "date_modified": "2025-03-03T10:56:08.000",
    "request_status": "Pending",
    "responsible_agency": "Department of Public Works",
    "final_address": "3623 Cherry St",
    "address_councildis": "A",
    "status": "Pending",
    "contractor": "Legacy Professional Services",
    "rowid": "1172581",
    "final_x": "3664791.40538",
    "final_y": "537640.508168",
    "longitude": "-90.12062573129614",
    "latitude": "29.97282180370449",
    "geocoded_column": {
      "latitude": "29.97282180370449",
      "longitude": "-90.12062573129614"
    }
  },
  {
    "service_request": "2025-1172580",
    "request_type": "Trash/Recycling",
    "request_reason": "Order Trash Cart",
    "date_created": "2025-03-03T10:54:34.000",
    "date_modified": "2025-03-03T10:54:36.000",
    "request_status": "Pending",
    "responsible_agency": "Department of Sanitation",
    "final_address": "2622 Clover St",
    "address_councildis": "D",
    "status": "Assigned to Contractor",
    "contractor": "IV Waste",
    "rowid": "1172580",
    "final_x": "3687320.76489",
    "final_y": "546620.725009",
    "longitude": "-90.04915609543234",
    "latitude": "29.99683934341001",
    "geocoded_column": {
      "latitude": "29.99683934341001",
      "longitude": "-90.04915609543234"
    }
  },
  {
    "service_request": "2025-1172579",
    "request_type": "Trash/Recycling",
    "request_reason": "Illegal Dumping",
    "date_created": "2025-03-03T10:54:22.000",
    "date_modified": "2025-03-03T10:54:24.000",
    "request_status": "Pending",
    "responsible_agency": "Department of Sanitation",
    "final_address": "5845 Lafaye St",
    "address_councildis": "D",
    "status": "Pending",
    "rowid": "1172579",
    "final_x": "3687202.94198",
    "final_y": "554840.8694",
    "longitude": "-90.04923728967222",
    "latitude": "30.0194453683588",
    "geocoded_column": {
      "latitude": "30.0194453683588",
      "longitude": "-90.04923728967222"
    }
  },
  {
    "service_request": "2025-1172578",
    "request_type": "Road Striping",
    "request_reason": "Crosswalks",
    "date_created": "2025-03-03T10:54:15.000",
    "date_modified": "2025-03-03T10:54:17.000",
    "request_status": "Pending",
    "responsible_agency": "Department of Public Works",
    "final_address": "1100 Girod St",
    "address_councildis": "B",
    "status": "Pending",
    "rowid": "1172578",
    "final_x": "3678998.2909",
    "final_y": "528655.492416",
    "longitude": "-90.07606906505033",
    "latitude": "29.94769496881821",
    "geocoded_column": {
      "latitude": "29.94769496881821",
      "longitude": "-90.07606906505033"
    }
  },
  {
    "service_request": "2025-1172577",
    "request_type": "Streetlights",
    "request_reason": "Streetlight Knocked Down/Leaning",
    "date_created": "2025-03-03T10:52:52.000",
    "date_modified": "2025-03-03T10:52:53.000",
    "request_status": "Pending",
    "responsible_agency": "Department of Public Works",
    "final_address": "1000 Girod St",
    "address_councildis": "B",
    "status": "Pending",
    "contractor": "Legacy Professional Services",
    "rowid": "1172577",
    "final_x": "3679255.69909",
    "final_y": "528782.515456",
    "longitude": "-90.07525192274366",
    "latitude": "29.948036471072694",
    "geocoded_column": {
      "latitude": "29.948036471072694",
      "longitude": "-90.07525192274366"
    }
  },
  {
    "service_request": "2025-1172576",
    "request_type": "Trash/Recycling",
    "request_reason": "Return Trash Cart",
    "date_created": "2025-03-03T10:51:17.000",
    "date_modified": "2025-03-03T10:53:22.000",
    "request_status": "Pending",
    "responsible_agency": "Department of Sanitation",
    "final_address": "1000 Girod St",
    "address_councildis": "B",
    "status": "Pending",
    "rowid": "1172576",
    "final_x": "3679255.69909",
    "final_y": "528782.515456",
    "longitude": "-90.07525192274366",
    "latitude": "29.948036471072694",
    "geocoded_column": {
      "latitude": "29.948036471072694",
      "longitude": "-90.07525192274366"
    }
  },
  {
    "service_request": "2025-1172575",
    "request_type": "Streetlights",
    "request_reason": "Streetlight Outage/Malfunction",
    "date_created": "2025-03-03T10:48:47.000",
    "date_modified": "2025-03-03T10:48:48.000",
    "request_status": "Pending",
    "responsible_agency": "Department of Public Works",
    "final_address": "1100 Girod St",
    "address_councildis": "B",
    "status": "Pending",
    "contractor": "Legacy Professional Services",
    "rowid": "1172575",
    "final_x": "3678998.2909",
    "final_y": "528655.492416",
    "longitude": "-90.07606906505033",
    "latitude": "29.94769496881821",
    "geocoded_column": {
      "latitude": "29.94769496881821",
      "longitude": "-90.07606906505033"
    }
  },
  {
    "service_request": "2025-1172574",
    "request_type": "Streetlights",
    "request_reason": "Streetlight Outage/Malfunction",
    "date_created": "2025-03-03T10:47:41.000",
    "date_modified": "2025-03-03T10:47:42.000",
    "request_status": "Pending",
    "responsible_agency": "Department of Public Works",
    "final_address": "1100 Girod St",
    "address_councildis": "B",
    "status": "Pending",
    "contractor": "Legacy Professional Services",
    "rowid": "1172574",
    "final_x": "3678998.2909",
    "final_y": "528655.492416",
    "longitude": "-90.07606906505033",
    "latitude": "29.94769496881821",
    "geocoded_column": {
      "latitude": "29.94769496881821",
      "longitude": "-90.07606906505033"
    }
  },
  {
    "service_request": "2025-1172573",
    "request_type": "Trash/Recycling",
    "request_reason": "Replace Trash Cart",
    "date_created": "2025-03-03T10:46:32.000",
    "date_modified": "2025-03-03T10:53:53.000",
    "request_status": "Pending",
    "responsible_agency": "Department of Sanitation",
    "final_address": "438 Canal St",
    "address_councildis": "B",
    "status": "Assigned to Contractor",
    "contractor": "IV Waste",
    "rowid": "1172573",
    "final_x": "3681837.2132",
    "final_y": "530067.648897",
    "longitude": "-90.06705620477982",
    "latitude": "29.951491966119004",
    "geocoded_column": {
      "latitude": "29.951491966119004",
      "longitude": "-90.06705620477982"
    }
  },
  {
    "service_request": "2025-1172572",
    "request_type": "Streetlights",
    "request_reason": "Streetlight Outage/Malfunction",
    "date_created": "2025-03-03T10:46:01.000",
    "date_modified": "2025-03-03T10:46:02.000",
    "request_status": "Pending",
    "responsible_agency": "Department of Public Works",
    "final_address": "1100 BLK Julia St",
    "address_councildis": "B",
    "status": "Pending",
    "contractor": "Legacy Professional Services",
    "rowid": "1172572",
    "final_x": "3678914.16379",
    "final_y": "528396.880002",
    "longitude": "-90.07634364490508",
    "latitude": "29.946986408899626",
    "geocoded_column": {
      "latitude": "29.946986408899626",
      "longitude": "-90.07634364490508"
    }
  },
  {
    "service_request": "2025-1172571",
    "request_type": "Trash/Recycling",
    "request_reason": "Request a Large Item Pick Up",
    "date_created": "2025-03-03T10:45:41.000",
    "date_modified": "2025-03-03T10:45:43.000",
    "request_status": "Pending",
    "responsible_agency": "Department of Sanitation",
    "final_address": "1232 Elysian Fields Ave",
    "address_councildis": "C",
    "status": "Assigned to Contractor",
    "contractor": "IV Waste",
    "rowid": "1172571",
    "final_x": "3684820.78505",
    "final_y": "536924.85428",
    "longitude": "-90.0573944532087",
    "latitude": "29.97025592418966",
    "geocoded_column": {
      "latitude": "29.97025592418966",
      "longitude": "-90.0573944532087"
    }
  },
  {
    "service_request": "2025-1172570",
    "request_type": "Abandoned Vehicles",
    "request_reason": "Abandoned/Junk Vehicles",
    "date_created": "2025-03-03T10:45:28.000",
    "date_modified": "2025-03-03T10:45:30.000",
    "request_status": "Pending",
    "responsible_agency": "Department of Public Works",
    "final_address": "PALM ST & CHERRY ST",
    "address_councildis": "A",
    "status": "Pending",
    "rowid": "1172570",
    "final_x": "3664592.2",
    "final_y": "537540.78",
    "longitude": "-90.12125819378063",
    "latitude": "29.97255337995892",
    "geocoded_column": {
      "latitude": "29.97255337995892",
      "longitude": "-90.12125819378063"
    }
  },
  {
    "service_request": "2025-1172569",
    "request_type": "Trash/Recycling",
    "request_reason": "Missed Trash Pick-Up",
    "date_created": "2025-03-03T10:44:20.000",
    "date_modified": "2025-03-03T12:53:59.000",
    "case_close_date": "2025-03-03T06:53:57.000",
    "request_status": "Closed",
    "responsible_agency": "Department of Sanitation",
    "final_address": "2517 Conti St",
    "address_councildis": "B",
    "status": "Invalid Request",
    "contractor": "IV Waste",
    "contractor_action": "Invalid Pick-Up",
    "rowid": "1172569",
    "final_x": "3676742.78318",
    "final_y": "535554.884422",
    "longitude": "-90.08295287913514",
    "latitude": "29.966733837000522",
    "geocoded_column": {
      "latitude": "29.966733837000522",
      "longitude": "-90.08295287913514"
    }
  },