[
  {
    "service_request": "2023-1038659",
    "request_type": "Roads/Drainage",
    "request_reason": "Street Flooding / Drainage",
    "date_created": "2023-09-27T00:50:12.000",
    "date_modified": "2023-09-27T00:50:12.000",
    "request_status": "Pending",
    "responsible_agency": "Department of Public Works",
    "final_address": "3300 BLK Lowerline St",
    "address_councildis": "B",
    "status": "Pending",
    "rowid": "1038659",
    "final_x": "3667995.12657",
    "final_y": "533255.525796",
    "longitude": "-90.11065551549572",
    "latitude": "29.96067093834164",
    "geocoded_column": {
      "latitude": "29.96067093834164",
      "longitude": "-90.11065551549572"
    }
  },
  {
    "service_request": "2023-1038658",
    "request_type": "Roads/Drainage",
    "request_reason": "Street Flooding / Drainage",
    "date_created": "2023-09-27T00:49:31.000",
    "date_modified": "2023-09-27T00:49:31.000",
    "request_status": "Pending",
    "responsible_agency": "Department of Public Works",
    "final_address": "3300 BLK Lowerline St",
    "address_councildis": "B",
    "status": "Pending",
    "rowid": "1038658",
    "final_x": "3667995.12657",
    "final_y": "533255.525796",
    "longitude": "-90.11065551549572",
    "latitude": "29.96067093834164",
    "geocoded_column": {
      "latitude": "29.96067093834164",
      "longitude": "-90.11065551549572"
    }
  },
  {
    "service_request": "2023-1038657",
    "request_type": "Traffic Signals/Signs/Striping/Streetlights",
    "request_reason": "Request for Stop Sign",
    "date_created": "2023-09-27T00:34:08.000",
    "date_modified": "2023-09-27T00:34:08.000",
    "request_status": "Pending",
    "responsible_agency": "Department of Public Works",
    "final_address": "600 BLK Frenchmen St",
    "address_councildis": "C",
    "status": "Pending",
    "rowid": "1038657",
    "final_x": "3684720.04883",
    "final_y": "534655.774636",
    "longitude": "-90.0577923597253",
    "latitude": "29.964019824977242",
    "geocoded_column": {
      "latitude": "29.964019824977242",
      "longitude": "-90.0577923597253"
    }
  },
  {
    "service_request": "2023-1038656",
    "request_type": "Health Related Request",
    "request_reason": "Noise Ordinance Complaint",
    "date_created": "2023-09-27T00:03:16.000",
    "date_modified": "2023-09-27T00:03:16.000",
    "request_status": "Pending",
    "responsible_agency": "Health Department",
    "final_address": "728 Desire St Apt A",
    "address_councildis": "C",
    "status": "Pending",
    "rowid": "1038656",
    "final_x": "3689833.0527",
    "final_y": "534456.595141",
    "longitude": "-90.04165309854704",
    "latitude": "29.963314656560573",
    "geocoded_column": {
      "latitude": "29.963314656560573",
      "longitude": "-90.04165309854704"
    }
  },
  {
    "service_request": "2023-1038654",
    "request_type": "Roads/Drainage",
    "request_reason": "Pothole",
    "date_created": "2023-09-26T23:04:04.000",
    "date_modified": "2023-09-26T23:04:04.000",
    "request_status": "Pending",
    "responsible_agency": "Department of Public Works",
    "final_address": "4000 Prytania St",
    "address_councildis": "B",
    "status": "Pending",
    "rowid": "1038654",
    "final_x": "3672337.46235",
    "final_y": "520424.18028",
    "longitude": "-90.09738029716965",
    "latitude": "29.925260810600854",
    "geocoded_column": {
      "latitude": "29.925260810600854",
      "longitude": "-90.09738029716965"
    }
  },
  {
    "service_request": "2023-1038653",
    "request_type": "Roads/Drainage",
    "request_reason": "Pothole",
    "date_created": "2023-09-26T23:00:00.000",
    "date_modified": "2023-09-26T23:00:00.000",
    "request_status": "Pending",
    "responsible_agency": "Department of Public Works",
    "final_address": "1421 Constantinople St",
    "address_councildis": "B",
    "status": "Pending",
    "rowid": "1038653",
    "final_x": "3672433.24257",
    "final_y": "520667.657465",
    "longitude": "-90.09706965638372",
    "latitude": "29.925927453713577",
    "geocoded_column": {
      "latitude": "29.925927453713577",
      "longitude": "-90.09706965638372"
    }
  },
  {
    "service_request": "2023-1038652",
    "request_type": "Roads/Drainage",
    "request_reason": "Man hole cover issue",
    "date_created": "2023-09-26T22:56:03.000",
    "date_modified": "2023-09-26T22:56:03.000",
    "request_status": "Pending",
    "responsible_agency": "Department of Public Works",
    "final_address": "1511 Constantinople St",
    "address_councildis": "B",
    "status": "Pending",
    "rowid": "1038652",
    "final_x": "3672368.66427",
    "final_y": "520802.881913",
    "longitude": "-90.09726890666504",
    "latitude": "29.92630119325129",
    "geocoded_column": {
      "latitude": "29.92630119325129",
      "longitude": "-90.09726890666504"
    }
  },
  {
    "service_request": "2023-1038651",
    "request_type": "Trash/Recycling",
    "request_reason": "Order Recycling Cart",
    "date_created": "2023-09-26T22:48:07.000",
    "date_modified": "2023-09-26T22:48:07.000",
    "request_status": "Pending",
    "responsible_agency": "Department of Sanitation",
    "final_address": "2628 Republic St",
    "address_councildis": "D",
    "status": "Pending",
    "rowid": "1038651",
    "final_x": "3680731.4429",
    "final_y": "541757.354316",
    "longitude": "-90.07014078139557",
    "latitude": "29.983668198854023",
    "geocoded_column": {
      "latitude": "29.983668198854023",
      "longitude": "-90.07014078139557"
    }
  },
  {
    "service_request": "2023-1038650",
    "request_type": "Roads/Drainage",
    "request_reason": "Catch Basin - Broken/Damage",
    "date_created": "2023-09-26T22:42:28.000",
    "date_modified": "2023-09-26T22:42:28.000",
    "request_status": "Pending",
    "responsible_agency": "Department of Public Works",
    "final_address": "1900 Feliciana St",
    "address_councildis": "D",
    "status": "Pending",
    "rowid": "1038650",
    "final_x": "3689455.74057",
    "final_y": "539115.847498",
    "longitude": "-90.04267887507964",
    "latitude": "29.976137653370355",
    "geocoded_column": {
      "latitude": "29.976137653370355",
      "longitude": "-90.04267887507964"
    }
  },
  {
    "service_request": "2023-1038649",
    "request_type": "Traffic Signals/Signs/Striping/Streetlights",
    "request_reason": "Street Light Outage/Malfunction",
    "date_created": "2023-09-26T22:36:31.000",
    "date_modified": "2023-09-26T22:36:32.000",
    "request_status": "Pending",
    "responsible_agency": "Department of Public Works",
    "final_address": "858 Mouton St",
    "address_councildis": "A",
    "status": "Assigned to Contractor",
    "contractor": "Legacy Professional Services",
    "rowid": "1038649",
    "final_x": "3670139.15713",
    "final_y": "553178.097239",
    "longitude": "-90.10320967862253",
    "latitude": "30.015388101064374",
    "geocoded_column": {
      "latitude": "30.015388101064374",
      "longitude": "-90.10320967862253"
    }
  },
  {
    "service_request": "2023-1038648",
    "request_type": "Roads/Drainage",
    "request_reason": "Catch Basin - Clogged",
    "date_created": "2023-09-26T22:34:41.000",
    "date_modified": "2023-09-26T22:34:41.000",
    "request_status": "Pending",
    "responsible_agency": "Department of Public Works",
    "final_address": "1846 Feliciana St",
    "address_councildis": "D",
    "status": "Pending",
    "rowid": "1038648",
    "final_x": "3689351.08758",
    "final_y": "539053.133322",
    "longitude": "-90.04301162932072",
    "latitude": "29.975968452427878",
    "geocoded_column": {
      "latitude": "29.975968452427878",
      "longitude": "-90.04301162932072"
    }
  },
  {
    "service_request": "2023-1038647",
    "request_type": "Roads/Drainage",
    "request_reason": "Street Subsidence (Sinking)",
    "date_created": "2023-09-26T22:34:30.000",
    "date_modified": "2023-09-26T22:34:30.000",
    "request_status": "Pending",
    "responsible_agency": "Department of Public Works",
    "final_address": "7033 Coliseum St",
    "address_councildis": "A",
    "status": "Pending",
    "rowid": "1038647",
    "final_x": "3661659.39437",
    "final_y": "522005.169082",
    "longitude": "-90.13103538779097",
    "latitude": "29.929920420002638",
    "geocoded_column": {
      "latitude": "29.929920420002638",
      "longitude": "-90.13103538779097"
    }
  },
  {
    "service_request": "2023-1038646",
    "request_type": "Trash/Recycling",
    "request_reason": "Dead Animal Pick Up",
    "date_created": "2023-09-26T22:13:09.000",
    "date_modified": "2023-09-26T22:13:10.000",
    "request_status": "Pending",
    "responsible_agency": "Department of Sanitation",
    "final_address": "TULLIS DR & WOODLAND BRIDGE",
    "address_councildis": "C",
    "status": "Assigned to Contractor",
    "contractor": "Richards Disposal",
    "rowid": "1038646",
    "final_x": "3707113.59",
    "final_y": "514426.51",
    "longitude": "-89.98782632516296",
    "latitude": "29.907692061076325",
    "geocoded_column": {
      "latitude": "29.907692061076325",
      "longitude": "-89.98782632516296"
    }
  },
  {
    "service_request": "2023-1038645",
    "request_type": "Roads/Drainage",
    "request_reason": "Pothole",
    "date_created": "2023-09-26T21:31:37.000",
    "date_modified": "2023-09-26T21:31:37.000",
    "request_status": "Pending",
    "responsible_agency": "Department of Public Works",
    "final_address": "4200 BLK Perrier St",
    "address_councildis": "B",
    "status": "Pending",
    "rowid": "1038645",
    "final_x": "3671500.64253",
    "final_y": "520125.882108",
    "longitude": "-90.1000320136845",
    "latitude": "29.924465378806524",
    "geocoded_column": {
      "latitude": "29.924465378806524",
      "longitude": "-90.1000320136845"
    }
  },
  {
    "service_request": "2023-1038644",
    "request_type": "Roads/Drainage",
    "request_reason": "Pothole",
    "date_created": "2023-09-26T21:21:40.000",
    "date_modified": "2023-09-26T21:21:40.000",
    "request_status": "Pending",
    "responsible_agency": "Department of Public Works",
    "final_address": "1200 BLK Amelia St",
    "address_councildis": "B",
    "status": "Pending",
    "rowid": "1038644",
    "final_x": "3673521.46558",
    "final_y": "519660.816109",
    "longitude": "-90.09366883741032",
    "latitude": "29.923126634409968",
    "geocoded_column": {
      "latitude": "29.923126634409968",
      "longitude": "-90.09366883741032"
    }
  },
  {
    "service_request": "2023-1038643",
    "request_type": "Roads/Drainage",
    "request_reason": "Road Shoulder Repair",
    "date_created": "2023-09-26T21:12:32.000",
    "date_modified": "2023-09-26T21:12:32.000",
    "request_status": "Pending",
    "responsible_agency": "Department of Public Works",
    "final_address": "3000 BLK Saint Philip St",
    "address_councildis": "A",
    "status": "Pending",
    "rowid": "1038643",
    "final_x": "3676057.41032",
    "final_y": "538889.23008",
    "longitude": "-90.08500256859188",
    "latitude": "29.97592269839444",
    "geocoded_column": {
      "latitude": "29.97592269839444",
      "longitude": "-90.08500256859188"
    }
  },
  {
    "service_request": "2023-1038642",
    "request_type": "Trash/Recycling",
    "request_reason": "Replace Trash Cart",
    "date_created": "2023-09-26T20:39:07.000",
    "date_modified": "2023-09-26T20:39:07.000",
    "request_status": "Pending",
    "responsible_agency": "Department of Sanitation",
    "final_address": "11425 S Easterlyn Cir",
    "address_councildis": "E",
    "status": "Assigned to Contractor",
    "contractor": "Waste Pro",
    "rowid": "1038642",
    "final_x": "3718816.48229",
    "final_y": "560551.971102",
    "longitude": "-89.94913236298581",
    "latitude": "30.034136580822537",
    "geocoded_column": {
      "latitude": "30.034136580822537",
      "longitude": "-89.94913236298581"
    }
  },
  {
    "service_request": "2023-1038641",
    "request_type": "Traffic Signals/Signs/Striping/Streetlights",
    "request_reason": "Street Light Outage/Malfunction",
    "date_created": "2023-09-26T20:35:02.000",
    "date_modified": "2023-09-26T20:35:03.000",
    "request_status": "Pending",
    "responsible_agency": "Department of Public Works",
    "final_address": "100 BLK Finland Pl",
    "address_councildis": "C",
    "status": "Assigned to Contractor",
    "contractor": "Legacy Professional Services",
    "rowid": "1038641",
    "final_x": "3705818.192",
    "final_y": "520760.179724",
    "longitude": "-89.9916806743897",
    "latitude": "29.925149225580853",
    "geocoded_column": {
      "latitude": "29.925149225580853",
      "longitude": "-89.9916806743897"
    }
  },
  {
    "service_request": "2023-1038640",
    "request_type": "Traffic Signals/Signs/Striping/Streetlights",
    "request_reason": "Street Light Outage/Malfunction",
    "date_created": "2023-09-26T20:30:36.000",
    "date_modified": "2023-09-26T20:30:36.000",
    "request_status": "Pending",
    "responsible_agency": "Department of Public Works",
    "final_address": "5841 Pembrook Dr",
    "address_councildis": "C",
    "status": "Assigned to Contractor",
    "contractor": "Legacy Professional Services",
    "rowid": "1038640",
    "final_x": "3705339.097",
    "final_y": "520586.66636",
    "longitude": "-89.99319941764247",
    "latitude": "29.924687540299722",
    "geocoded_column": {
      "latitude": "29.924687540299722",
      "longitude": "-89.99319941764247"
    }
  },
  {
    "service_request": "2023-1038639",
    "request_type": "Property Maintenance",
    "request_reason": "Property Maintenance",
    "date_created": "2023-09-26T20:25:09.000",
    "date_modified": "2023-09-26T20:25:09.000",
    "request_status": "Pending",
    "responsible_agency": "Department of Code Enforcement",
    "final_address": "1015 N Broad St",
    "address_councildis": "A",
    "status": "Pending",
    "rowid": "1038639",
    "final_x": "3677412.77058",
    "final_y": "538027.154697",
    "longitude": "-90.08075171356579",
    "latitude": "29.973511616164796",
    "geocoded_column": {
      "latitude": "29.973511616164796",
      "longitude": "-90.08075171356579"
    }
  },
  {
    "service_request": "2023-1038638",
    "request_type": "Trash/Recycling",
    "request_reason": "Request a Large Item Pick Up",
    "date_created": "2023-09-26T20:19:43.000",
    "date_modified": "2023-09-26T20:19:44.000",
    "request_status": "Pending",
    "responsible_agency": "Department of Sanitation",
    "final_address": "1520 Sixth St",
    "address_councildis": "B",
    "status": "Assigned to Contractor",
    "contractor": "Richards Disposal",
    "rowid": "1038638",
    "final_x": "3675645.86613",
    "final_y": "521943.643258",
    "longitude": "-90.08688452620085",
    "latitude": "29.929340302755303",
    "geocoded_column": {
      "latitude": "29.929340302755303",
      "longitude": "-90.08688452620085"
    }
  },
  {
    "service_request": "2023-1038637",
    "request_type": "Roads/Drainage",
    "request_reason": "Street Flooding / Drainage",
    "date_created": "2023-09-26T20:04:18.000",
    "date_modified": "2023-09-26T20:04:18.000",
    "request_status": "Pending",
    "responsible_agency": "Department of Public Works",
    "final_address": "4516 Jeanne Marie Pl",
    "address_councildis": "D",
    "status": "Pending",
    "rowid": "1038637",
    "final_x": "3678409.59253",
    "final_y": "549205.417811",
    "longitude": "-90.07721653066625",
    "latitude": "30.00421792957059",
    "geocoded_column": {
      "latitude": "30.00421792957059",
      "longitude": "-90.07721653066625"
    }
  },
  {
    "service_request": "2023-1038636",
    "request_type": "Trash/Recycling",
    "request_reason": "Request a Large Item Pick Up",
    "date_created": "2023-09-26T20:00:21.000",
    "date_modified": "2023-09-26T20:00:22.000",
    "request_status": "Pending",
    "responsible_agency": "Department of Sanitation",
    "final_address": "4508 Jeanne Marie Pl",
    "address_councildis": "D",
    "status": "Assigned to Contractor",
    "contractor": "IV Waste",
    "rowid": "1038636",
    "final_x": "3678416.06197",
    "final_y": "549126.097043",
    "longitude": "-90.07719883961582",
    "latitude": "30.0039996306993",
    "geocoded_column": {
      "latitude": "30.0039996306993",
      "longitude": "-90.07719883961582"
    }
  },
  {
    "service_request": "2023-1038635",
    "request_type": "Health Related Request",
    "request_reason": "Noise Ordinance Complaint",
    "date_created": "2023-09-26T19:57:22.000",
    "date_modified": "2023-09-26T19:57:22.000",
    "request_status": "Pending",
    "responsible_agency": "Health Department",
    "final_address": "1912 Magazine St",
    "address_councildis": "B",
    "status": "Pending",
    "rowid": "1038635",
    "final_x": "3679697.8749",
    "final_y": "522701.621562",
    "longitude": "-90.07406679947167",
    "latitude": "29.931302672702483",
    "geocoded_column": {
      "latitude": "29.931302672702483",
      "longitude": "-90.07406679947167"
    }
  },
  {
    "service_request": "2023-1038634",
    "request_type": "Trash/Recycling",
    "request_reason": "Start Trash Service",
    "date_created": "2023-09-26T19:44:16.000",
    "date_modified": "2023-09-26T19:44:17.000",
    "request_status": "Pending",
    "responsible_agency": "Department of Sanitation",
    "final_address": "1121 Patterson St",
    "address_councildis": "C",
    "status": "Assigned to Contractor",
    "contractor": "Richards Disposal",
    "rowid": "1038634",
    "final_x": "3689198.57046",
    "final_y": "531258.924674",
    "longitude": "-90.04377036032216",
    "latitude": "29.954541823415163",
    "geocoded_column": {
      "latitude": "29.954541823415163",
      "longitude": "-90.04377036032216"
    }
  },
  {
    "service_request": "2023-1038633",
    "request_type": "Trash/Recycling",
    "request_reason": "Request a Large Item Pick Up",
    "date_created": "2023-09-26T19:18:32.000",
    "date_modified": "2023-09-26T19:18:32.000",
    "request_status": "Pending",
    "responsible_agency": "Department of Sanitation",
    "final_address": "1413 Baronne St",
    "address_councildis": "B",
    "status": "Assigned to Contractor",
    "contractor": "Richards Disposal",
    "rowid": "1038633",
    "final_x": "3678478.61474",
    "final_y": "526209.513982",
    "longitude": "-90.07779451012631",
    "latitude": "29.94098500968541",
    "geocoded_column": {
      "latitude": "29.94098500968541",
      "longitude": "-90.07779451012631"
    }
  },
  {
    "service_request": "2023-1038632",
    "request_type": "Abandoned Vehicles",
    "request_reason": "Abandoned/Junk Vehicles",
    "date_created": "2023-09-26T19:03:55.000",
    "date_modified": "2023-09-26T19:03:55.000",
    "request_status": "Pending",
    "responsible_agency": "Department of Public Works",
    "final_address": "6209 Pasteur Blvd",
    "address_councildis": "D",
    "status": "Pending",
    "rowid": "1038632",
    "final_x": "3682812.54012",
    "final_y": "555861.180761",
    "longitude": "-90.063073733012",
    "latitude": "30.022385405255775",
    "geocoded_column": {
      "latitude": "30.022385405255775",
      "longitude": "-90.063073733012"
    }
  },
  {
    "service_request": "2023-1038631",
    "request_type": "Property Maintenance",
    "request_reason": "Property Maintenance",
    "date_created": "2023-09-26T18:56:50.000",
    "date_modified": "2023-09-26T18:56:50.000",
    "request_status": "Pending",
    "responsible_agency": "Department of Code Enforcement",
    "final_address": "3139 Lamarque St",
    "address_councildis": "C",
    "status": "Pending",
    "rowid": "1038631",
    "final_x": "3695717.72515",
    "final_y": "526610.711102",
    "longitude": "-90.02335331566697",
    "latitude": "29.941557506626324",
    "geocoded_column": {
      "latitude": "29.941557506626324",
      "longitude": "-90.02335331566697"
    }
  },
  {
    "service_request": "2023-1038630",
    "request_type": "Roads/Drainage",
    "request_reason": "Pothole",
    "date_created": "2023-09-26T18:55:17.000",
    "date_modified": "2023-09-26T18:55:17.000",
    "request_status": "Pending",
    "responsible_agency": "Department of Public Works",
    "final_address": "1425 State St",
    "address_councildis": "A",
    "status": "Pending",
    "rowid": "1038630",
    "final_x": "3665502.46938",
    "final_y": "521366.298169",
    "longitude": "-90.11892477544446",
    "latitude": "29.928052288733504",
    "geocoded_column": {
      "latitude": "29.928052288733504",
      "longitude": "-90.11892477544446"
    }
  },
  {
    "service_request": "2023-1038629",
    "request_type": "Roads/Drainage",
    "request_reason": "Pothole",
    "date_created": "2023-09-26T18:53:20.000",
    "date_modified": "2023-09-26T18:53:20.000",
    "request_status": "Pending",
    "responsible_agency": "Department of Public Works",
    "final_address": "1234 Henry Clay Ave",
    "address_councildis": "A",
    "status": "Pending",
    "rowid": "1038629",
    "final_x": "3664327.06445",
    "final_y": "521120.367609",
    "longitude": "-90.12264347982506",
    "latitude": "29.92741025864685",
    "geocoded_column": {
      "latitude": "29.92741025864685",
      "longitude": "-90.12264347982506"
    }
  },
  {
    "service_request": "2023-1038628",
    "request_type": "Trash/Recycling",
    "request_reason": "MIssed Recycling Pick-Up",
    "date_created": "2023-09-26T18:49:01.000",
    "date_modified": "2023-09-26T18:49:02.000",
    "request_status": "Pending",
    "responsible_agency": "Department of Sanitation",
    "final_address": "4825 Virgilian St",
    "address_councildis": "D",
    "status": "Assigned to Contractor",
    "contractor": "Waste Pro",
    "rowid": "1038628",
    "final_x": "3697515.57591",
    "final_y": "554228.126296",
    "longitude": "-90.01667525600568",
    "latitude": "30.01743875142518",
    "geocoded_column": {
      "latitude": "30.01743875142518",
      "longitude": "-90.01667525600568"
    }
  },
  {
    "service_request": "2023-1038627",
    "request_type": "Trash/Recycling",
    "request_reason": "Replace Trash Cart",
    "date_created": "2023-09-26T18:48:31.000",
    "date_modified": "2023-09-26T18:48:31.000",
    "request_status": "Pending",
    "responsible_agency": "Department of Sanitation",
    "final_address": "7901 Edward St",
    "address_councildis": "E",
    "status": "Assigned to Contractor",
    "contractor": "Waste Pro",
    "rowid": "1038627",
    "final_x": "3700760.34922",
    "final_y": "561697.403551",
    "longitude": "-90.00614978728349",
    "latitude": "30.03787346592275",
    "geocoded_column": {
      "latitude": "30.03787346592275",
      "longitude": "-90.00614978728349"
    }
  },
  {
    "service_request": "2023-1038626",
    "request_type": "Abandoned Vehicles",
    "request_reason": "Abandoned/Junk Vehicles",
    "date_created": "2023-09-26T18:45:52.000",
    "date_modified": "2023-09-26T18:45:52.000",
    "request_status": "Pending",
    "responsible_agency": "Department of Public Works",
    "final_address": "1128 N Broad St",
    "address_councildis": "D",
    "status": "Pending",
    "rowid": "1038626",
    "final_x": "3677820.78837",
    "final_y": "538292.196489",
    "longitude": "-90.07945394732103",
    "latitude": "29.974228119618264",
    "geocoded_column": {
      "latitude": "29.974228119618264",
      "longitude": "-90.07945394732103"
    }
  },
  {
    "service_request": "2023-1038625",
    "request_type": "Abandoned Vehicles",
    "request_reason": "Abandoned/Junk Vehicles",
    "date_created": "2023-09-26T18:44:20.000",
    "date_modified": "2023-09-26T18:44:20.000",
    "request_status": "Pending",
    "responsible_agency": "Department of Public Works",
    "final_address": "1128 N Broad St",
    "address_councildis": "D",
    "status": "Pending",
    "rowid": "1038625",
    "final_x": "3677820.78837",
    "final_y": "538292.196489",
    "longitude": "-90.07945394732103",
    "latitude": "29.974228119618264",
    "geocoded_column": {
      "latitude": "29.974228119618264",
      "longitude": "-90.07945394732103"
    }
  },
  {
    "service_request": "2023-1038624",
    "request_type": "Trash/Recycling",
    "request_reason": "MIssed Recycling Pick-Up",
    "date_created": "2023-09-26T18:43:44.000",
    "date_modified": "2023-09-26T18:43:45.000",
    "request_status": "Pending",
    "responsible_agency": "Department of Sanitation",
    "final_address": "2107 Bienville Ave",
    "address_councildis": "B",
    "status": "Assigned to Contractor",
    "contractor": "Richards Disposal",
    "rowid": "1038624",
    "final_x": "3677708.28872",
    "final_y": "534377.525957",
    "longitude": "-90.07994448629448",
    "latitude": "29.963467495565293",
    "geocoded_column": {
      "latitude": "29.963467495565293",
      "longitude": "-90.07994448629448"
    }
  },
  {
    "service_request": "2023-1038623",
    "request_type": "Trash/Recycling",
    "request_reason": "Replace Trash Cart",
    "date_created": "2023-09-26T18:42:04.000",
    "date_modified": "2023-09-26T18:42:05.000",
    "request_status": "Pending",
    "responsible_agency": "Department of Sanitation",
    "final_address": "6568 Milne Blvd",
    "address_councildis": "A",
    "status": "Assigned to Contractor",
    "contractor": "IV Waste",
    "rowid": "1038623",
    "final_x": "3667309.58113",
    "final_y": "551399.942613",
    "longitude": "-90.11220973066722",
    "latitude": "30.010582022245945",
    "geocoded_column": {
      "latitude": "30.010582022245945",
      "longitude": "-90.11220973066722"
    }
  },
  {
    "service_request": "2023-1038621",
    "request_type": "Trash/Recycling",
    "request_reason": "Missed Trash Pick-Up",
    "date_created": "2023-09-26T18:27:47.000",
    "date_modified": "2023-09-26T18:27:48.000",
    "request_status": "Pending",
    "responsible_agency": "Department of Sanitation",
    "final_address": "1477 N Derbigny St",
    "address_councildis": "D",
    "status": "Assigned to Contractor",
    "contractor": "IV Waste",
    "rowid": "1038621",
    "final_x": "3681364.01743",
    "final_y": "537375.93972",
    "longitude": "-90.06829556038933",
    "latitude": "29.971601641820467",
    "geocoded_column": {
      "latitude": "29.971601641820467",
      "longitude": "-90.06829556038933"
    }
  },
  {
    "service_request": "2023-1038619",
    "request_type": "Trash/Recycling",
    "request_reason": "Request a Large Item Pick Up",
    "date_created": "2023-09-26T18:21:13.000",
    "date_modified": "2023-09-26T18:21:14.000",
    "request_status": "Pending",
    "responsible_agency": "Department of Sanitation",
    "final_address": "2706 Castiglione St",
    "address_councildis": "D",
    "status": "Assigned to Contractor",
    "contractor": "IV Waste",
    "rowid": "1038619",
    "final_x": "3679843.25307",
    "final_y": "541864.194508",
    "longitude": "-90.07294244452576",
    "latitude": "29.98398886554335",
    "geocoded_column": {
      "latitude": "29.98398886554335",
      "longitude": "-90.07294244452576"
    }
  },
  {
    "service_request": "2023-1038617",
    "request_type": "Trash/Recycling",
    "request_reason": "MIssed Recycling Pick-Up",
    "date_created": "2023-09-26T18:13:39.000",
    "date_modified": "2023-09-26T18:13:39.000",
    "request_status": "Pending",
    "responsible_agency": "Department of Sanitation",
    "status": "Assigned to Contractor",
    "rowid": "1038617",
    "longitude": "0.0",
    "latitude": "0.0",
    "geocoded_column": {
      "latitude": "0.0",
      "longitude": "0.0"
    }
  },
  {
    "service_request": "2023-1038616",
    "request_type": "Trash/Recycling",
    "request_reason": "MIssed Recycling Pick-Up",
    "date_created": "2023-09-26T18:13:36.000",
    "date_modified": "2023-09-26T18:13:37.000",
    "request_status": "Pending",
    "responsible_agency": "Department of Sanitation",
    "status": "Assigned to Contractor",
    "rowid": "1038616",
    "longitude": "0.0",
    "latitude": "0.0",
    "geocoded_column": {
      "latitude": "0.0",
      "longitude": "0.0"
    }
  },
  {
    "service_request": "2023-1038615",
    "request_type": "Traffic Signals/Signs/Striping/Streetlights",
    "request_reason": "Request for Traffic Calming due to Speeding",
    "date_created": "2023-09-26T17:54:36.000",
    "date_modified": "2023-09-26T17:54:36.000",
    "request_status": "Pending",
    "responsible_agency": "Department of Public Works",
    "final_address": "2060 Mirabeau Ave",
    "address_councildis": "D",
    "status": "Pending",
    "rowid": "1038615",
    "final_x": "3682928.00898",
    "final_y": "550549.8253",
    "longitude": "-90.06289495497816",
    "latitude": "30.00777759411963",
    "geocoded_column": {
      "latitude": "30.00777759411963",
      "longitude": "-90.06289495497816"
    }
  },
  {
    "service_request": "2023-1038614",
    "request_type": "Trash/Recycling",
    "request_reason": "Replace Recycling Cart",
    "date_created": "2023-09-26T17:53:50.000",
    "date_modified": "2023-09-26T17:53:50.000",
    "request_status": "Pending",
    "responsible_agency": "Department of Sanitation",
    "final_address": "903 Walker St",
    "address_councildis": "A",
    "status": "Pending",
    "rowid": "1038614",
    "final_x": "3670498.69095",
    "final_y": "553909.152983",
    "longitude": "-90.10204889519325",
    "latitude": "30.01738762696542",
    "geocoded_column": {
      "latitude": "30.01738762696542",
      "longitude": "-90.10204889519325"
    }
  },
  {
    "service_request": "2023-1038612",
    "request_type": "Trash/Recycling",
    "request_reason": "Order Recycling Cart",
    "date_created": "2023-09-26T17:46:42.000",
    "date_modified": "2023-09-26T17:46:42.000",
    "request_status": "Pending",
    "responsible_agency": "Department of Sanitation",
    "final_address": "953 Taft Pl",
    "address_councildis": "A",
    "status": "Pending",
    "rowid": "1038612",
    "final_x": "3673847.03156",
    "final_y": "540490.984331",
    "longitude": "-90.09192878181403",
    "latitude": "29.98039300431574",
    "geocoded_column": {
      "latitude": "29.98039300431574",
      "longitude": "-90.09192878181403"
    }
  },
  {
    "service_request": "2023-1038611",
    "request_type": "Trash/Recycling",
    "request_reason": "Order Trash Cart",
    "date_created": "2023-09-26T17:46:12.000",
    "date_modified": "2023-09-26T17:46:13.000",
    "request_status": "Pending",
    "responsible_agency": "Department of Sanitation",
    "final_address": "953 Taft Pl",
    "address_councildis": "A",
    "status": "Assigned to Contractor",
    "contractor": "Richards Disposal",
    "rowid": "1038611",
    "final_x": "3673847.03156",
    "final_y": "540490.984331",
    "longitude": "-90.09192878181403",
    "latitude": "29.98039300431574",
    "geocoded_column": {
      "latitude": "29.98039300431574",
      "longitude": "-90.09192878181403"
    }
  },
  {
    "service_request": "2023-1038610",
    "request_type": "Roads/Drainage",
    "request_reason": "Street Flooding / Drainage",
    "date_created": "2023-09-26T17:42:32.000",
    "date_modified": "2023-09-26T17:42:32.000",
    "request_status": "Pending",
    "responsible_agency": "Department of Public Works",
    "final_address": "6000 Bullard Ave",
    "address_councildis": "E",
    "status": "Pending",
    "rowid": "1038610",
    "final_x": "3714876.25311",
    "final_y": "563881.658913",
    "longitude": "-89.96145788051206",
    "latitude": "30.043422170200817",
    "geocoded_column": {
      "latitude": "30.043422170200817",
      "longitude": "-89.96145788051206"
    }
  },
  {
    "service_request": "2023-1038609",
    "request_type": "Abandoned Vehicles",
    "request_reason": "Abandoned/Junk Vehicles",
    "date_created": "2023-09-26T17:42:30.000",
    "date_modified": "2023-09-26T17:42:30.000",
    "request_status": "Pending",
    "responsible_agency": "Department of Public Works",
    "final_address": "2303 Mandeville St",
    "address_councildis": "D",
    "status": "Pending",
    "rowid": "1038609",
    "final_x": "3685462.50735",
    "final_y": "540844.463179",
    "longitude": "-90.05522975564155",
    "latitude": "29.98101381142595",
    "geocoded_column": {
      "latitude": "29.98101381142595",
      "longitude": "-90.05522975564155"
    }
  },
  {
    "service_request": "2023-1038608",
    "request_type": "Roads/Drainage",
    "request_reason": "Unpermitted work in ROW",
    "date_created": "2023-09-26T17:10:18.000",
    "date_modified": "2023-09-26T17:10:18.000",
    "request_status": "Pending",
    "responsible_agency": "Department of Public Works",
    "final_address": "1607 N Villere St",
    "address_councildis": "C",
    "status": "Pending",
    "rowid": "1038608",
    "final_x": "3682592.50415",
    "final_y": "537323.870856",
    "longitude": "-90.06441764058462",
    "latitude": "29.97142112021534",
    "geocoded_column": {
      "latitude": "29.97142112021534",
      "longitude": "-90.06441764058462"
    }
  },
  {
    "service_request": "2023-1038607",
    "request_type": "Trash/Recycling",
    "request_reason": "MIssed Recycling Pick-Up",
    "date_created": "2023-09-26T17:05:37.000",
    "date_modified": "2023-09-26T17:05:38.000",
    "request_status": "Pending",
    "responsible_agency": "Department of Sanitation",
    "final_address": "7020 Wayside Dr",
    "address_councildis": "E",
    "status": "Assigned to Contractor",
    "contractor": "Waste Pro",
    "rowid": "1038607",
    "final_x": "3717596.48389",
    "final_y": "567743.523748",
    "longitude": "-89.95271384293704",
    "latitude": "30.053950883776757",
    "geocoded_column": {
      "latitude": "30.053950883776757",
      "longitude": "-89.95271384293704"
    }
  },
  {
    "service_request": "2023-1038606",
    "request_type": "Trash/Recycling",
    "request_reason": "Missed Trash Pick-Up",
    "date_created": "2023-09-26T17:04:51.000",
    "date_modified": "2023-09-26T17:04:52.000",
    "request_status": "Pending",
    "responsible_agency": "Department of Sanitation",
    "final_address": "8011 Mackenzie St",
    "address_councildis": "E",
    "status": "Assigned to Contractor",
    "contractor": "Waste Pro",
    "rowid": "1038606",
    "final_x": "3710279.87102",
    "final_y": "567248.320164",
    "longitude": "-89.9758582041857",
    "latitude": "30.052829643892828",
    "geocoded_column": {
      "latitude": "30.052829643892828",
      "longitude": "-89.9758582041857"
    }
  },
  {
    "service_request": "2023-1038605",
    "request_type": "Trash/Recycling",
    "request_reason": "Missed Trash Pick-Up",
    "date_created": "2023-09-26T16:59:48.000",
    "date_modified": "2023-09-26T16:59:49.000",
    "request_status": "Pending",
    "responsible_agency": "Department of Sanitation",
    "final_address": "6207 Memphis St",
    "address_councildis": "A",
    "status": "Assigned to Contractor",
    "contractor": "IV Waste",
    "rowid": "1038605",
    "final_x": "3669379.9842",
    "final_y": "548664.520723",
    "longitude": "-90.10576110033749",
    "latitude": "30.00299973751752",
    "geocoded_column": {
      "latitude": "30.00299973751752",
      "longitude": "-90.10576110033749"
    }
  },
  {
    "service_request": "2023-1038604",
    "request_type": "Trash/Recycling",
    "request_reason": "Request a Large Item Pick Up",
    "date_created": "2023-09-26T16:54:08.000",
    "date_modified": "2023-09-26T16:54:09.000",
    "request_status": "Pending",
    "responsible_agency": "Department of Sanitation",
    "final_address": "8720 Stroelitz St",
    "address_councildis": "A",
    "status": "Assigned to Contractor",
    "contractor": "Richards Disposal",
    "rowid": "1038604",
    "final_x": "3666233.59207",
    "final_y": "536454.044807",
    "longitude": "-90.11611082177843",
    "latitude": "29.96951737595733",
    "geocoded_column": {
      "latitude": "29.96951737595733",
      "longitude": "-90.11611082177843"
    }
  },
  {
    "service_request": "2023-1038603",
    "request_type": "Trash/Recycling",
    "request_reason": "Request a Large Item Pick Up",
    "date_created": "2023-09-26T16:53:22.000",
    "date_modified": "2023-09-26T16:53:22.000",
    "request_status": "Pending",
    "responsible_agency": "Department of Sanitation",
    "final_address": "4443 Arts St",
    "address_councildis": "D",
    "status": "Assigned to Contractor",
    "contractor": "IV Waste",
    "rowid": "1038603",
    "final_x": "3686074.66492",
    "final_y": "549250.176979",
    "longitude": "-90.05299964038981",
    "latitude": "30.00410772806479",
    "geocoded_column": {
      "latitude": "30.00410772806479",
      "longitude": "-90.05299964038981"
    }
  },
  {
    "service_request": "2023-1038602",
    "request_type": "Trash/Recycling",
    "request_reason": "Request a Large Item Pick Up",
    "date_created": "2023-09-26T16:49:08.000",
    "date_modified": "2023-09-26T16:49:09.000",
    "request_status": "Pending",
    "responsible_agency": "Department of Sanitation",
    "final_address": "1111 Erato St",
    "address_councildis": "B",
    "status": "Assigned to Contractor",
    "contractor": "Richards Disposal",
    "rowid": "1038602",
    "final_x": "3680552.30274",
    "final_y": "525692.492349",
    "longitude": "-90.07126548381918",
    "latitude": "29.939500730852806",
    "geocoded_column": {
      "latitude": "29.939500730852806",
      "longitude": "-90.07126548381918"
    }
  },
  {
    "service_request": "2023-1038601",
    "request_type": "Trash/Recycling",
    "request_reason": "Start Trash Service",
    "date_created": "2023-09-26T16:45:14.000",
    "date_modified": "2023-09-26T16:45:15.000",
    "request_status": "Pending",
    "responsible_agency": "Department of Sanitation",
    "final_address": "4215 S Robertson St",
    "address_councildis": "B",
    "status": "Assigned to Contractor",
    "contractor": "Richards Disposal",
    "rowid": "1038601",
    "final_x": "3671089.7659",
    "final_y": "524487.051836",
    "longitude": "-90.10118097666863",
    "latitude": "29.936469348627956",
    "geocoded_column": {
      "latitude": "29.936469348627956",
      "longitude": "-90.10118097666863"
    }
  },
  {
    "service_request": "2023-1038600",
    "request_type": "Traffic Signals/Signs/Striping/Streetlights",
    "request_reason": "Street Light Outage/Malfunction",
    "date_created": "2023-09-26T16:43:43.000",
    "date_modified": "2023-09-26T16:43:44.000",
    "request_status": "Pending",
    "responsible_agency": "Department of Public Works",
    "final_address": "1 Earhart Blvd",
    "address_councildis": "B",
    "status": "Assigned to Contractor",
    "contractor": "Legacy Professional Services",
    "rowid": "1038600",
    "final_x": "3669172.05185",
    "final_y": "532017.478019",
    "longitude": "-90.10698084754388",
    "latitude": "29.957232131761604",
    "geocoded_column": {
      "latitude": "29.957232131761604",
      "longitude": "-90.10698084754388"
    }
  },
  {
    "service_request": "2023-1038599",
    "request_type": "Trash/Recycling",
    "request_reason": "Repair Trash Cart",
    "date_created": "2023-09-26T16:41:50.000",
    "date_modified": "2023-09-26T16:41:51.000",
    "request_status": "Pending",
    "responsible_agency": "Department of Sanitation",
    "final_address": "1506 Jena St",
    "address_councildis": "B",
    "status": "Assigned to Contractor",
    "contractor": "Richards Disposal",
    "rowid": "1038599",
    "final_x": "3670392.77991",
    "final_y": "520606.86316",
    "longitude": "-90.10351287099624",
    "latitude": "29.925820664753314",
    "geocoded_column": {
      "latitude": "29.925820664753314",
      "longitude": "-90.10351287099624"
    }
  },
  {
    "service_request": "2023-1038598",
    "request_type": "Trash/Recycling",
    "request_reason": "Missed Trash Pick-Up",
    "date_created": "2023-09-26T16:37:54.000",
    "date_modified": "2023-09-26T16:37:54.000",
    "request_status": "Pending",
    "responsible_agency": "Department of Sanitation",
    "final_address": "0 BLK Garden Ln",
    "address_councildis": "A",
    "status": "Assigned to Contractor",
    "contractor": "Richards Disposal",
    "rowid": "1038598",
    "final_x": "3663968.53259",
    "final_y": "539688.646132",
    "longitude": "-90.12315621414811",
    "latitude": "29.97847742276966",
    "geocoded_column": {
      "latitude": "29.97847742276966",
      "longitude": "-90.12315621414811"
    }
  },
  {
    "service_request": "2023-1038597",
    "request_type": "Trash/Recycling",
    "request_reason": "Request a Large Item Pick Up",
    "date_created": "2023-09-26T16:33:41.000",
    "date_modified": "2023-09-26T16:33:41.000",
    "request_status": "Pending",
    "responsible_agency": "Department of Sanitation",
    "final_address": "5517 N Robertson St",
    "address_councildis": "E",
    "status": "Assigned to Contractor",
    "contractor": "Waste Pro",
    "rowid": "1038597",
    "final_x": "3698273.78224",
    "final_y": "535358.126726",
    "longitude": "-90.01496562721007",
    "latitude": "29.965529216295362",
    "geocoded_column": {
      "latitude": "29.965529216295362",
      "longitude": "-90.01496562721007"
    }
  },
  {
    "service_request": "2023-1038596",
    "request_type": "Parks & Parkways",
    "request_reason": "Request Tree Service (Right of Way/Public Property)",
    "date_created": "2023-09-26T16:26:30.000",
    "date_modified": "2023-09-26T16:26:30.000",
    "request_status": "Pending",
    "responsible_agency": "Department of Parks & Parkway",
    "final_address": "1712 Bayou Rd",
    "address_councildis": "D",
    "status": "Pending",
    "rowid": "1038596",
    "final_x": "3680801.22939",
    "final_y": "536302.336647",
    "longitude": "-90.0701103077498",
    "latitude": "29.968666675414664",
    "geocoded_column": {
      "latitude": "29.968666675414664",
      "longitude": "-90.0701103077498"
    }
  },
  {
    "service_request": "2023-1038594",
    "request_type": "Roads/Drainage",
    "request_reason": "Pothole",
    "date_created": "2023-09-26T16:24:12.000",
    "date_modified": "2023-09-26T16:24:12.000",
    "request_status": "Pending",
    "responsible_agency": "Department of Public Works",
    "final_address": "4740 Chef Menteur Hwy",
    "address_councildis": "D",
    "status": "Pending",
    "rowid": "1038594",
    "final_x": "3692205.37737",
    "final_y": "549998.86434",
    "longitude": "-90.03360487218897",
    "latitude": "30.005976559212918",
    "geocoded_column": {
      "latitude": "30.005976559212918",
      "longitude": "-90.03360487218897"
    }
  },
  {
    "service_request": "2023-1038593",
    "request_type": "Property Maintenance",
    "request_reason": "Property Maintenance",
    "date_created": "2023-09-26T16:22:49.000",
    "date_modified": "2023-09-26T16:22:49.000",
    "request_status": "Pending",
    "responsible_agency": "Department of Code Enforcement",
    "final_address": "1406 Elysian Fields Ave",
    "address_councildis": "C",
    "status": "Pending",
    "rowid": "1038593",
    "final_x": "3684824.13743",
    "final_y": "537480.123464",
    "longitude": "-90.05736433857518",
    "latitude": "29.9717826186078",
    "geocoded_column": {
      "latitude": "29.9717826186078",
      "longitude": "-90.05736433857518"
    }
  },
  {
    "service_request": "2023-1038592",
    "request_type": "Trash/Recycling",
    "request_reason": "MIssed Recycling Pick-Up",
    "date_created": "2023-09-26T16:22:11.000",
    "date_modified": "2023-09-26T16:22:12.000",
    "request_status": "Pending",
    "responsible_agency": "Department of Sanitation",
    "final_address": "7180 Wayside Dr",
    "address_councildis": "E",
    "status": "Assigned to Contractor",
    "contractor": "Waste Pro",
    "rowid": "1038592",
    "final_x": "3717227.99954",
    "final_y": "568235.241509",
    "longitude": "-89.9538598079111",
    "latitude": "30.055315107507138",
    "geocoded_column": {
      "latitude": "30.055315107507138",
      "longitude": "-89.9538598079111"
    }
  },
  {
    "service_request": "2023-1038591",
    "request_type": "Traffic Signals/Signs/Striping/Streetlights",
    "request_reason": "Street Light Outage/Malfunction",
    "date_created": "2023-09-26T16:15:56.000",
    "date_modified": "2023-09-26T16:15:57.000",
    "request_status": "Pending",
    "responsible_agency": "Department of Public Works",
    "final_address": "1457 Constance St",
    "address_councildis": "B",
    "status": "Assigned to Contractor",
    "contractor": "Legacy Professional Services",
    "rowid": "1038591",
    "final_x": "3680576.53826",
    "final_y": "523964.156348",
    "longitude": "-90.07124907056824",
    "latitude": "29.934747645626786",
    "geocoded_column": {
      "latitude": "29.934747645626786",
      "longitude": "-90.07124907056824"
    }
  },
  {
    "service_request": "2023-1038590",
    "request_type": "Trash/Recycling",
    "request_reason": "Request a Large Item Pick Up",
    "date_created": "2023-09-26T16:13:48.000",
    "date_modified": "2023-09-26T16:13:49.000",
    "request_status": "Pending",
    "responsible_agency": "Department of Sanitation",
    "final_address": "7831 Windward Ct",
    "address_councildis": "E",
    "status": "Assigned to Contractor",
    "contractor": "Waste Pro",
    "rowid": "1038590",
    "final_x": "3715341.82795",
    "final_y": "570192.656423",
    "longitude": "-89.95974738664127",
    "latitude": "30.060759493294945",
    "geocoded_column": {
      "latitude": "30.060759493294945",
      "longitude": "-89.95974738664127"
    }
  },
  {
    "service_request": "2023-1038589",
    "request_type": "Property Maintenance",
    "request_reason": "Property Maintenance",
    "date_created": "2023-09-26T16:12:30.000",
    "date_modified": "2023-09-26T16:12:30.000",
    "request_status": "Pending",
    "responsible_agency": "Department of Code Enforcement",
    "final_address": "2115 Urquhart St",
    "address_councildis": "C",
    "status": "Pending",
    "rowid": "1038589",
    "final_x": "3684660.4525",
    "final_y": "537045.42804",
    "longitude": "-90.05789656119593",
    "latitude": "29.970592368293126",
    "geocoded_column": {
      "latitude": "29.970592368293126",
      "longitude": "-90.05789656119593"
    }
  },
  {
    "service_request": "2023-1038588",
    "request_type": "Property Maintenance",
    "request_reason": "Property Maintenance",
    "date_created": "2023-09-26T16:12:23.000",
    "date_modified": "2023-09-26T16:12:23.000",
    "request_status": "Pending",
    "responsible_agency": "Department of Code Enforcement",
    "final_address": "JOSEPH ST & MAGAZINE ST",
    "address_councildis": "A",
    "status": "Pending",
    "rowid": "1038588",
    "final_x": "3666118.6",
    "final_y": "518878.78",
    "longitude": "-90.11706313606935",
    "latitude": "29.921194427641364",
    "geocoded_column": {
      "latitude": "29.921194427641364",
      "longitude": "-90.11706313606935"
    }
  },
  {
    "service_request": "2023-1038587",
    "request_type": "Trash/Recycling",
    "request_reason": "Replace Trash Cart",
    "date_created": "2023-09-26T16:06:03.000",
    "date_modified": "2023-09-26T16:06:53.000",
    "request_status": "Pending",
    "responsible_agency": "Department of Sanitation",
    "final_address": "3324 Danneel St",
    "address_councildis": "B",
    "status": "Assigned to Contractor",
    "contractor": "Richards Disposal",
    "rowid": "1038587",
    "final_x": "3673846.82689",
    "final_y": "522855.918715",
    "longitude": "-90.09253257943608",
    "latitude": "29.931902453696505",
    "geocoded_column": {
      "latitude": "29.931902453696505",
      "longitude": "-90.09253257943608"
    }
  },
  {
    "service_request": "2023-1038586",
    "request_type": "Property Maintenance",
    "request_reason": "Property Maintenance",
    "date_created": "2023-09-26T16:05:19.000",
    "date_modified": "2023-09-26T16:05:19.000",
    "request_status": "Pending",
    "responsible_agency": "Department of Code Enforcement",
    "final_address": "JOSEPH ST & MAGAZINE ST",
    "address_councildis": "A",
    "status": "Pending",
    "rowid": "1038586",
    "final_x": "3666118.6",
    "final_y": "518878.78",
    "longitude": "-90.11706313606935",
    "latitude": "29.921194427641364",
    "geocoded_column": {
      "latitude": "29.921194427641364",
      "longitude": "-90.11706313606935"
    }
  },
  {
    "service_request": "2023-1038585",
    "request_type": "Trash/Recycling",
    "request_reason": "Request a Large Item Pick Up",
    "date_created": "2023-09-26T16:04:51.000",
    "date_modified": "2023-09-26T16:04:52.000",
    "request_status": "Pending",
    "responsible_agency": "Department of Sanitation",
    "final_address": "1205 Elysian Fields Ave",
    "address_councildis": "C",
    "status": "Assigned to Contractor",
    "contractor": "IV Waste",
    "rowid": "1038585",
    "final_x": "3685092.35637",
    "final_y": "536725.209799",
    "longitude": "-90.0565438289897",
    "latitude": "29.96969865338815",
    "geocoded_column": {
      "latitude": "29.96969865338815",
      "longitude": "-90.0565438289897"
    }
  },
  {
    "service_request": "2023-1038584",
    "request_type": "Abandoned Vehicles",
    "request_reason": "Abandoned/Junk Vehicles",
    "date_created": "2023-09-26T16:00:19.000",
    "date_modified": "2023-09-26T16:00:19.000",
    "request_status": "Pending",
    "responsible_agency": "Department of Public Works",
    "final_address": "4625 America St",
    "address_councildis": "E",
    "status": "Pending",
    "rowid": "1038584",
    "final_x": "3699818.92855",
    "final_y": "554393.919256",
    "longitude": "-90.00939157454913",
    "latitude": "30.017821642625375",
    "geocoded_column": {
      "latitude": "30.017821642625375",
      "longitude": "-90.00939157454913"
    }
  },
  {
    "service_request": "2023-1038583",
    "request_type": "Trash/Recycling",
    "request_reason": "Request a Large Item Pick Up",
    "date_created": "2023-09-26T15:59:23.000",
    "date_modified": "2023-09-26T15:59:23.000",
    "request_status": "Pending",
    "responsible_agency": "Department of Sanitation",
    "final_address": "9568 Palm St",
    "address_councildis": "A",
    "status": "Assigned to Contractor",
    "contractor": "Richards Disposal",
    "rowid": "1038583",
    "final_x": "3663636.93562",
    "final_y": "538350.905353",
    "longitude": "-90.12424810686834",
    "latitude": "29.974808706329984",
    "geocoded_column": {
      "latitude": "29.974808706329984",
      "longitude": "-90.12424810686834"
    }
  },
  {
    "service_request": "2023-1038582",
    "request_type": "Trash/Recycling",
    "request_reason": "Request a Large Item Pick Up",
    "date_created": "2023-09-26T15:54:38.000",
    "date_modified": "2023-09-26T15:54:39.000",
    "request_status": "Pending",
    "responsible_agency": "Department of Sanitation",
    "final_address": "7725 Marquis St",
    "address_councildis": "E",
    "status": "Assigned to Contractor",
    "contractor": "Waste Pro",
    "rowid": "1038582",
    "final_x": "3710980.90475",
    "final_y": "566729.233571",
    "longitude": "-89.97366192175868",
    "latitude": "30.051379511793392",
    "geocoded_column": {
      "latitude": "30.051379511793392",
      "longitude": "-89.97366192175868"
    }
  },
  {
    "service_request": "2023-1038581",
    "request_type": "Roads/Drainage",
    "request_reason": "Pothole",
    "date_created": "2023-09-26T15:54:13.000",
    "date_modified": "2023-09-26T15:54:13.000",
    "request_status": "Pending",
    "responsible_agency": "Department of Public Works",
    "final_address": "4216 Chestnut St",
    "address_councildis": "B",
    "status": "Pending",
    "rowid": "1038581",
    "final_x": "3671574.31393",
    "final_y": "519539.203703",
    "longitude": "-90.09981939416457",
    "latitude": "29.922850019854593",
    "geocoded_column": {
      "latitude": "29.922850019854593",
      "longitude": "-90.09981939416457"
    }
  },
  {
    "service_request": "2023-1038580",
    "request_type": "Trash/Recycling",
    "request_reason": "Request a Large Item Pick Up",
    "date_created": "2023-09-26T15:53:15.000",
    "date_modified": "2023-09-26T15:53:16.000",
    "request_status": "Pending",
    "responsible_agency": "Department of Sanitation",
    "final_address": "3027 Baudin St",
    "address_councildis": "B",
    "status": "Assigned to Contractor",
    "contractor": "Richards Disposal",
    "rowid": "1038580",
    "final_x": "3673217.2898",
    "final_y": "534757.281734",
    "longitude": "-90.09411363250554",
    "latitude": "29.96464601004351",
    "geocoded_column": {
      "latitude": "29.96464601004351",
      "longitude": "-90.09411363250554"
    }
  },
  {
    "service_request": "2023-1038579",
    "request_type": "Property Maintenance",
    "request_reason": "Property Maintenance",
    "date_created": "2023-09-26T15:52:00.000",
    "date_modified": "2023-09-26T15:52:00.000",
    "request_status": "Pending",
    "responsible_agency": "Department of Code Enforcement",
    "status": "Pending",
    "rowid": "1038579",
    "longitude": "0.0",
    "latitude": "0.0",
    "geocoded_column": {
      "latitude": "0.0",
      "longitude": "0.0"
    }
  },
  {
    "service_request": "2023-1038578",
    "request_type": "Trash/Recycling",
    "request_reason": "Replace Trash Cart",
    "date_created": "2023-09-26T15:50:41.000",
    "date_modified": "2023-09-26T15:50:41.000",
    "request_status": "Pending",
    "responsible_agency": "Department of Sanitation",
    "final_address": "1936 Valence St",
    "address_councildis": "B",
    "status": "Assigned to Contractor",
    "contractor": "Richards Disposal",
    "rowid": "1038578",
    "final_x": "3669551.74625",
    "final_y": "522132.023226",
    "longitude": "-90.10611620663462",
    "latitude": "29.93003916223354",
    "geocoded_column": {
      "latitude": "29.93003916223354",
      "longitude": "-90.10611620663462"
    }
  },
  {
    "service_request": "2023-1038577",
    "request_type": "Property Maintenance",
    "request_reason": "Property Maintenance",
    "date_created": "2023-09-26T15:46:13.000",
    "date_modified": "2023-09-26T15:46:13.000",
    "request_status": "Pending",
    "responsible_agency": "Department of Code Enforcement",
    "status": "Pending",
    "rowid": "1038577",
    "longitude": "0.0",
    "latitude": "0.0",
    "geocoded_column": {
      "latitude": "0.0",
      "longitude": "0.0"
    }
  },
  {
    "service_request": "2023-1038576",
    "request_type": "Health Related Request",
    "request_reason": "Request Health Records (Immunization, Lead and Health)",
    "date_created": "2023-09-26T15:44:43.000",
    "date_modified": "2023-09-26T15:44:47.000",
    "request_status": "Pending",
    "responsible_agency": "Health Department",
    "status": "Pending",
    "rowid": "1038576",
    "longitude": "0.0",
    "latitude": "0.0",
    "geocoded_column": {
      "latitude": "0.0",
      "longitude": "0.0"
    }
  },
  {
    "service_request": "2023-1038575",
    "request_type": "Roads/Drainage",
    "request_reason": "Pothole",
    "date_created": "2023-09-26T15:44:09.000",
    "date_modified": "2023-09-26T15:44:09.000",
    "request_status": "Pending",
    "responsible_agency": "Department of Public Works",
    "final_address": "1315 Peniston St",
    "address_councildis": "B",
    "status": "Pending",
    "rowid": "1038575",
    "final_x": "3673101.31451",
    "final_y": "520423.11276",
    "longitude": "-90.09496908964098",
    "latitude": "29.925235197927364",
    "geocoded_column": {
      "latitude": "29.925235197927364",
      "longitude": "-90.09496908964098"
    }
  },
  {
    "service_request": "2023-1038573",
    "request_type": "Trash/Recycling",
    "request_reason": "Start Trash Service",
    "date_created": "2023-09-26T15:42:11.000",
    "date_modified": "2023-09-26T15:42:13.000",
    "request_status": "Pending",
    "responsible_agency": "Department of Sanitation",
    "final_address": "4488 Lafaye St",
    "address_councildis": "D",
    "status": "Assigned to Contractor",
    "contractor": "IV Waste",
    "rowid": "1038573",
    "final_x": "3687462.42921",
    "final_y": "549651.456468",
    "longitude": "-90.04860124218591",
    "latitude": "30.005168390208176",
    "geocoded_column": {
      "latitude": "30.005168390208176",
      "longitude": "-90.04860124218591"
    }
  },
  {
    "service_request": "2023-1038572",
    "request_type": "Property Maintenance",
    "request_reason": "Property Maintenance",
    "date_created": "2023-09-26T15:41:59.000",
    "date_modified": "2023-09-26T15:41:59.000",
    "request_status": "Pending",
    "responsible_agency": "Department of Code Enforcement",
    "status": "Pending",
    "rowid": "1038572",
    "longitude": "0.0",
    "latitude": "0.0",
    "geocoded_column": {
      "latitude": "0.0",
      "longitude": "0.0"
    }
  },
  {
    "service_request": "2023-1038571",
    "request_type": "Property Maintenance",
    "request_reason": "Property Maintenance",
    "date_created": "2023-09-26T15:41:58.000",
    "date_modified": "2023-09-26T15:41:58.000",
    "request_status": "Pending",
    "responsible_agency": "Department of Code Enforcement",
    "status": "Pending",
    "rowid": "1038571",
    "longitude": "0.0",
    "latitude": "0.0",
    "geocoded_column": {
      "latitude": "0.0",
      "longitude": "0.0"
    }
  },
  {
    "service_request": "2023-1038570",
    "request_type": "Trash/Recycling",
    "request_reason": "Request a Large Item Pick Up",
    "date_created": "2023-09-26T15:40:03.000",
    "date_modified": "2023-09-26T15:40:04.000",
    "request_status": "Pending",
    "responsible_agency": "Department of Sanitation",
    "final_address": "856 City Park Ave",
    "address_councildis": "A",
    "status": "Assigned to Contractor",
    "contractor": "Richards Disposal",
    "rowid": "1038570",
    "final_x": "3671466.85134",
    "final_y": "541574.489804",
    "longitude": "-90.09940957432603",
    "latitude": "29.983442965015648",
    "geocoded_column": {
      "latitude": "29.983442965015648",
      "longitude": "-90.09940957432603"
    }
  },
  {
    "service_request": "2023-1038569",
    "request_type": "Parks & Parkways",
    "request_reason": "Request Tree Service (Right of Way/Public Property)",
    "date_created": "2023-09-26T15:39:23.000",
    "date_modified": "2023-09-26T15:39:23.000",
    "request_status": "Pending",
    "responsible_agency": "Department of Parks & Parkway",
    "final_address": "836 S Carrollton Ave",
    "address_councildis": "A",
    "status": "Pending",
    "rowid": "1038569",
    "final_x": "3661194.65818",
    "final_y": "527565.728063",
    "longitude": "-90.13231849891115",
    "latitude": "29.94522360135031",
    "geocoded_column": {
      "latitude": "29.94522360135031",
      "longitude": "-90.13231849891115"
    }
  },
  {
    "service_request": "2023-1038568",
    "request_type": "Property Maintenance",
    "request_reason": "Property Maintenance",
    "date_created": "2023-09-26T15:37:09.000",
    "date_modified": "2023-09-26T15:37:09.000",
    "request_status": "Pending",
    "responsible_agency": "Department of Code Enforcement",
    "status": "Pending",
    "rowid": "1038568",
    "longitude": "0.0",
    "latitude": "0.0",
    "geocoded_column": {
      "latitude": "0.0",
      "longitude": "0.0"
    }
  },
  {
    "service_request": "2023-1038567",
    "request_type": "Roads/Drainage",
    "request_reason": "Catch Basin - Clogged",
    "date_created": "2023-09-26T15:34:38.000",
    "date_modified": "2023-09-26T15:34:39.000",
    "request_status": "Pending",
    "responsible_agency": "Department of Public Works",
    "final_address": "2226 Pauline St",
    "address_councildis": "D",
    "status": "Pending",
    "rowid": "1038567",
    "final_x": "3692253.58998",
    "final_y": "539824.73473",
    "longitude": "-90.0338170904808",
    "latitude": "29.977999889956138",
    "geocoded_column": {
      "latitude": "29.977999889956138",
      "longitude": "-90.0338170904808"
    }
  },
  {
    "service_request": "2023-1038566",
    "request_type": "Trash/Recycling",
    "request_reason": "Order Trash Cart",
    "date_created": "2023-09-26T15:33:50.000",
    "date_modified": "2023-09-26T15:33:51.000",
    "request_status": "Pending",
    "responsible_agency": "Department of Sanitation",
    "final_address": "1623 Desire St",
    "address_councildis": "D",
    "status": "Assigned to Contractor",
    "contractor": "IV Waste",
    "rowid": "1038566",
    "final_x": "3690739.87779",
    "final_y": "537778.3106",
    "longitude": "-90.03867093746261",
    "latitude": "29.972420066454873",
    "geocoded_column": {
      "latitude": "29.972420066454873",
      "longitude": "-90.03867093746261"
    }
  },
  {
    "service_request": "2023-1038565",
    "request_type": "Property Maintenance",
    "request_reason": "Property Maintenance",
    "date_created": "2023-09-26T15:32:37.000",
    "date_modified": "2023-09-26T15:32:37.000",
    "request_status": "Pending",
    "responsible_agency": "Department of Code Enforcement",
    "status": "Pending",
    "rowid": "1038565",
    "longitude": "0.0",
    "latitude": "0.0",
    "geocoded_column": {
      "latitude": "0.0",
      "longitude": "0.0"
    }
  },
  {
    "service_request": "2023-1038564",
    "request_type": "Trash/Recycling",
    "request_reason": "Request a Large Item Pick Up",
    "date_created": "2023-09-26T15:31:56.000",
    "date_modified": "2023-09-26T15:31:56.000",
    "request_status": "Pending",
    "responsible_agency": "Department of Sanitation",
    "final_address": "11200 N Parkwood Ct",
    "address_councildis": "E",
    "status": "Assigned to Contractor",
    "contractor": "Waste Pro",
    "rowid": "1038564",
    "final_x": "3716493.97829",
    "final_y": "559085.056796",
    "longitude": "-89.95652739133823",
    "latitude": "30.030180095344775",
    "geocoded_column": {
      "latitude": "30.030180095344775",
      "longitude": "-89.95652739133823"
    }
  },
  {
    "service_request": "2023-1038563",
    "request_type": "Roads/Drainage",
    "request_reason": "Road Shoulder Repair",
    "date_created": "2023-09-26T15:31:48.000",
    "date_modified": "2023-09-26T15:31:48.000",
    "request_status": "Pending",
    "responsible_agency": "Department of Public Works",
    "final_address": "2111 Rousseau St",
    "address_councildis": "B",
    "status": "Pending",
    "rowid": "1038563",
    "final_x": "3680426.81647",
    "final_y": "520491.253688",
    "longitude": "-90.07184244450727",
    "latitude": "29.925202838449255",
    "geocoded_column": {
      "latitude": "29.925202838449255",
      "longitude": "-90.07184244450727"
    }
  },
  {
    "service_request": "2023-1038562",
    "request_type": "Trash/Recycling",
    "request_reason": "Request a Large Item Pick Up",
    "date_created": "2023-09-26T15:31:03.000",
    "date_modified": "2023-09-26T15:31:03.000",
    "request_status": "Pending",
    "responsible_agency": "Department of Sanitation",
    "final_address": "4934 Sandalwood St",
    "address_councildis": "E",
    "status": "Assigned to Contractor",
    "contractor": "Waste Pro",
    "rowid": "1038562",
    "final_x": "3712035.66539",
    "final_y": "557324.259419",
    "longitude": "-89.9706817048853",
    "latitude": "30.025485141915752",
    "geocoded_column": {
      "latitude": "30.025485141915752",
      "longitude": "-89.9706817048853"
    }
  },
  {
    "service_request": "2023-1038561",
    "request_type": "Property Maintenance",
    "request_reason": "Property Maintenance",
    "date_created": "2023-09-26T15:28:20.000",
    "date_modified": "2023-09-26T15:28:20.000",
    "request_status": "Pending",
    "responsible_agency": "Department of Code Enforcement",
    "status": "Pending",
    "rowid": "1038561",
    "longitude": "0.0",
    "latitude": "0.0",
    "geocoded_column": {
      "latitude": "0.0",
      "longitude": "0.0"
    }
  },
  {
    "service_request": "2023-1038560",
    "request_type": "Property Maintenance",
    "request_reason": "Property Maintenance",
    "date_created": "2023-09-26T15:28:06.000",
    "date_modified": "2023-09-26T15:45:30.000",
    "request_status": "Pending",
    "responsible_agency": "Department of Code Enforcement",
    "final_address": "1102 Valence St",
    "address_councildis": "B",
    "status": "Pending",
    "rowid": "1038560",
    "final_x": "3669814.65114",
    "final_y": "519454.991735",
    "longitude": "-90.10537682290095",
    "latitude": "29.922670433598512",
    "geocoded_column": {
      "latitude": "29.922670433598512",
      "longitude": "-90.10537682290095"
    }
  },
  {
    "service_request": "2023-1038559",
    "request_type": "Trash/Recycling",
    "request_reason": "Repair Trash Cart",
    "date_created": "2023-09-26T15:28:01.000",
    "date_modified": "2023-09-26T15:28:02.000",
    "request_status": "Pending",
    "responsible_agency": "Department of Sanitation",
    "final_address": "2618 St Charles Ave",
    "address_councildis": "B",
    "status": "Assigned to Contractor",
    "contractor": "Richards Disposal",
    "rowid": "1038559",
    "final_x": "3676369.97845",
    "final_y": "522667.828538",
    "longitude": "-90.08457372284147",
    "latitude": "29.93130989779299",
    "geocoded_column": {
      "latitude": "29.93130989779299",
      "longitude": "-90.08457372284147"
    }
  },
  {
    "service_request": "2023-1038558",
    "request_type": "Trash/Recycling",
    "request_reason": "Request a Large Item Pick Up",
    "date_created": "2023-09-26T15:27:44.000",
    "date_modified": "2023-09-26T15:27:45.000",
    "request_status": "Pending",
    "responsible_agency": "Department of Sanitation",
    "final_address": "3122 Octavia St",
    "address_councildis": "A",
    "status": "Assigned to Contractor",
    "contractor": "Richards Disposal",
    "rowid": "1038558",
    "final_x": "3668217.85812",
    "final_y": "527201.091583",
    "longitude": "-90.11015626190157",
    "latitude": "29.94401668685989",
    "geocoded_column": {
      "latitude": "29.94401668685989",
      "longitude": "-90.11015626190157"
    }
  },
  {
    "service_request": "2023-1038557",
    "request_type": "Trash/Recycling",
    "request_reason": "Missed Trash Pick-Up",
    "date_created": "2023-09-26T15:27:17.000",
    "date_modified": "2023-09-26T15:27:18.000",
    "request_status": "Pending",
    "responsible_agency": "Department of Sanitation",
    "final_address": "7531 Wave Dr",
    "address_councildis": "E",
    "status": "Assigned to Contractor",
    "contractor": "Waste Pro",
    "rowid": "1038557",
    "final_x": "3715340.99339",
    "final_y": "568386.047461",
    "longitude": "-89.95981847766456",
    "latitude": "30.055792091368904",
    "geocoded_column": {
      "latitude": "30.055792091368904",
      "longitude": "-89.95981847766456"
    }
  },
  {
    "service_request": "2023-1038556",
    "request_type": "Roads/Drainage",
    "request_reason": "Pothole",
    "date_created": "2023-09-26T15:27:17.000",
    "date_modified": "2023-09-26T15:27:17.000",
    "request_status": "Pending",
    "responsible_agency": "Department of Public Works",
    "final_address": "1423 General Pershing St",
    "address_councildis": "B",
    "status": "Pending",
    "rowid": "1038556",
    "final_x": "3671330.69185",
    "final_y": "520571.244024",
    "longitude": "-90.1005533659415",
    "latitude": "29.925695010510914",
    "geocoded_column": {
      "latitude": "29.925695010510914",
      "longitude": "-90.1005533659415"
    }
  },
  {
    "service_request": "2023-1038555",
    "request_type": "Trash/Recycling",
    "request_reason": "Request a Large Item Pick Up",
    "date_created": "2023-09-26T15:23:30.000",
    "date_modified": "2023-09-26T15:23:31.000",
    "request_status": "Pending",
    "responsible_agency": "Department of Sanitation",
    "final_address": "3527 Piedmont Dr",
    "address_councildis": "D",
    "status": "Assigned to Contractor",
    "contractor": "IV Waste",
    "rowid": "1038555",
    "final_x": "3686277.30402",
    "final_y": "545782.82376",
    "longitude": "-90.05248191517894",
    "latitude": "29.99456753005101",
    "geocoded_column": {
      "latitude": "29.99456753005101",
      "longitude": "-90.05248191517894"
    }
  },
  {
    "service_request": "2023-1038554",
    "request_type": "Property Maintenance",
    "request_reason": "Property Maintenance",
    "date_created": "2023-09-26T15:22:30.000",
    "date_modified": "2023-09-26T15:22:30.000",
    "request_status": "Pending",
    "responsible_agency": "Department of Code Enforcement",
    "status": "Pending",
    "rowid": "1038554",
    "longitude": "0.0",
    "latitude": "0.0",
    "geocoded_column": {
      "latitude": "0.0",
      "longitude": "0.0"
    }
  },
  {
    "service_request": "2023-1038553",
    "request_type": "Trash/Recycling",
    "request_reason": "Request a Large Item Pick Up",
    "date_created": "2023-09-26T15:20:21.000",
    "date_modified": "2023-09-26T15:20:22.000",
    "request_status": "Pending",
    "responsible_agency": "Department of Sanitation",
    "final_address": "6000 Craigie Rd",
    "address_councildis": "E",
    "status": "Assigned to Contractor",
    "contractor": "Waste Pro",
    "rowid": "1038553",
    "final_x": "3695252.96317",
    "final_y": "558519.590812",
    "longitude": "-90.02366919508705",
    "latitude": "30.02930994736514",
    "geocoded_column": {
      "latitude": "30.02930994736514",
      "longitude": "-90.02366919508705"
    }
  },
  {
    "service_request": "2023-1038552",
    "request_type": "Roads/Drainage",
    "request_reason": "Pothole",
    "date_created": "2023-09-26T15:19:22.000",
    "date_modified": "2023-09-26T15:19:22.000",
    "request_status": "Pending",
    "responsible_agency": "Department of Public Works",
    "final_address": "1421 Constantinople St",
    "address_councildis": "B",
    "status": "Pending",
    "rowid": "1038552",
    "final_x": "3672433.24257",
    "final_y": "520667.657465",
    "longitude": "-90.09706965638372",
    "latitude": "29.925927453713577",
    "geocoded_column": {
      "latitude": "29.925927453713577",
      "longitude": "-90.09706965638372"
    }
  },
  {
    "service_request": "2023-1038551",
    "request_type": "Traffic Signals/Signs/Striping/Streetlights",
    "request_reason": "Additional signage",
    "date_created": "2023-09-26T15:18:06.000",
    "date_modified": "2023-09-26T15:18:06.000",
    "request_status": "Pending",
    "responsible_agency": "Department of Public Works",
    "final_address": "EARHART BLVD & DANTE ST",
    "address_councildis": "A",
    "status": "Pending",
    "rowid": "1038551",
    "final_x": "3665969.6",
    "final_y": "533853.58",
    "longitude": "-90.11703170917464",
    "latitude": "29.962374665354524",
    "geocoded_column": {
      "latitude": "29.962374665354524",
      "longitude": "-90.11703170917464"
    }
  },
  {
    "service_request": "2023-1038550",
    "request_type": "Trash/Recycling",
    "request_reason": "Request a Large Item Pick Up",
    "date_created": "2023-09-26T15:17:04.000",
    "date_modified": "2023-09-26T15:17:05.000",
    "request_status": "Pending",
    "responsible_agency": "Department of Sanitation",
    "final_address": "6332 General Haig St",
    "address_councildis": "A",
    "status": "Assigned to Contractor",
    "contractor": "IV Waste",
    "rowid": "1038550",
    "final_x": "3670671.99892",
    "final_y": "549377.968723",
    "longitude": "-90.10165520243415",
    "latitude": "30.004923346897353",
    "geocoded_column": {
      "latitude": "30.004923346897353",
      "longitude": "-90.10165520243415"
    }
  },
  {
    "service_request": "2023-1038549",
    "request_type": "Property Maintenance",
    "request_reason": "Property Maintenance",
    "date_created": "2023-09-26T15:16:14.000",
    "date_modified": "2023-09-26T15:16:14.000",
    "request_status": "Pending",
    "responsible_agency": "Department of Code Enforcement",
    "status": "Pending",
    "rowid": "1038549",
    "longitude": "0.0",
    "latitude": "0.0",
    "geocoded_column": {
      "latitude": "0.0",
      "longitude": "0.0"
    }
  },
  {
    "service_request": "2023-1038548",
    "request_type": "Trash/Recycling",
    "request_reason": "Request a Large Item Pick Up",
    "date_created": "2023-09-26T15:15:13.000",
    "date_modified": "2023-09-26T15:15:13.000",
    "request_status": "Pending",
    "responsible_agency": "Department of Sanitation",
    "final_address": "3025 George Nick Connor Dr",
    "address_councildis": "D",
    "status": "Assigned to Contractor",
    "contractor": "IV Waste",
    "rowid": "1038548",
    "final_x": "3681058.50255",
    "final_y": "543567.267982",
    "longitude": "-90.06904467761713",
    "latitude": "29.988634908340398",
    "geocoded_column": {
      "latitude": "29.988634908340398",
      "longitude": "-90.06904467761713"
    }
  },
  {
    "service_request": "2023-1038547",
    "request_type": "Roads/Drainage",
    "request_reason": "Pothole",
    "date_created": "2023-09-26T15:13:22.000",
    "date_modified": "2023-09-26T15:13:23.000",
    "request_status": "Pending",
    "responsible_agency": "Department of Public Works",
    "final_address": "6112 Magazine St",
    "address_councildis": "A",
    "status": "Pending",
    "rowid": "1038547",
    "final_x": "3663995.42183",
    "final_y": "519433.872375",
    "longitude": "-90.12374659824103",
    "latitude": "29.92278255651143",
    "geocoded_column": {
      "latitude": "29.92278255651143",
      "longitude": "-90.12374659824103"
    }
  },
  {
    "service_request": "2023-1038546",
    "request_type": "Roads/Drainage",
    "request_reason": "Pothole",
    "date_created": "2023-09-26T15:13:16.000",
    "date_modified": "2023-09-26T15:13:16.000",
    "request_status": "Pending",
    "responsible_agency": "Department of Public Works",
    "final_address": "1312 Milan St",
    "address_councildis": "B",
    "status": "Pending",
    "rowid": "1038546",
    "final_x": "3671625.82823",
    "final_y": "520286.919608",
    "longitude": "-90.09963137110304",
    "latitude": "29.92490447494246",
    "geocoded_column": {
      "latitude": "29.92490447494246",
      "longitude": "-90.09963137110304"
    }
  },
  {
    "service_request": "2023-1038545",
    "request_type": "Trash/Recycling",
    "request_reason": "Request a Large Item Pick Up",
    "date_created": "2023-09-26T15:11:08.000",
    "date_modified": "2023-09-26T15:11:09.000",
    "request_status": "Pending",
    "responsible_agency": "Department of Sanitation",
    "final_address": "1016 Merrill St",
    "address_councildis": "C",
    "status": "Assigned to Contractor",
    "contractor": "Richards Disposal",
    "rowid": "1038545",
    "final_x": "3695043.29123",
    "final_y": "528224.957376",
    "longitude": "-90.02542445392221",
    "latitude": "29.946017308984523",
    "geocoded_column": {
      "latitude": "29.946017308984523",
      "longitude": "-90.02542445392221"
    }
  },
  {
    "service_request": "2023-1038544",
    "request_type": "Property Maintenance",
    "request_reason": "Property Maintenance",
    "date_created": "2023-09-26T15:10:15.000",
    "date_modified": "2023-09-26T15:10:15.000",
    "request_status": "Pending",
    "responsible_agency": "Department of Code Enforcement",
    "status": "Pending",
    "rowid": "1038544",
    "longitude": "0.0",
    "latitude": "0.0",
    "geocoded_column": {
      "latitude": "0.0",
      "longitude": "0.0"
    }
  },
  {
    "service_request": "2023-1038543",
    "request_type": "Trash/Recycling",
    "request_reason": "Order Recycling Cart",
    "date_created": "2023-09-26T15:09:45.000",
    "date_modified": "2023-09-26T15:09:45.000",
    "request_status": "Pending",
    "responsible_agency": "Department of Sanitation",
    "final_address": "1728 Eagle St",
    "address_councildis": "A",
    "status": "Pending",
    "rowid": "1038543",
    "final_x": "3661464.49766",
    "final_y": "531581.475843",
    "longitude": "-90.13133352204527",
    "latitude": "29.95625783925377",
    "geocoded_column": {
      "latitude": "29.95625783925377",
      "longitude": "-90.13133352204527"
    }
  },
  {
    "service_request": "2023-1038542",
    "request_type": "Trash/Recycling",
    "request_reason": "Missed Trash Pick-Up",
    "date_created": "2023-09-26T15:09:42.000",
    "date_modified": "2023-09-26T15:09:45.000",
    "request_status": "Pending",
    "responsible_agency": "Department of Sanitation",
    "final_address": "1614 Opelousas Ave",
    "address_councildis": "C",
    "status": "Assigned to Contractor",
    "contractor": "Richards Disposal",
    "rowid": "1038542",
    "final_x": "3690405.86364",
    "final_y": "529085.611392",
    "longitude": "-90.04003566863395",
    "latitude": "29.94852854639118",
    "geocoded_column": {
      "latitude": "29.94852854639118",
      "longitude": "-90.04003566863395"
    }
  },
  {
    "service_request": "2023-1038541",
    "request_type": "Roads/Drainage",
    "request_reason": "Catch Basin - Broken/Damage",
    "date_created": "2023-09-26T15:08:15.000",
    "date_modified": "2023-09-26T15:09:12.000",
    "request_status": "Pending",
    "responsible_agency": "Department of Public Works",
    "final_address": "4957 Chantilly Dr",
    "address_councildis": "E",
    "status": "Pending",
    "rowid": "1038541",
    "final_x": "3700838.95633",
    "final_y": "555471.063897",
    "longitude": "-90.00612928265917",
    "latitude": "30.020750933229035",
    "geocoded_column": {
      "latitude": "30.020750933229035",
      "longitude": "-90.00612928265917"
    }
  },
  {
    "service_request": "2023-1038540",
    "request_type": "Trash/Recycling",
    "request_reason": "MIssed Recycling Pick-Up",
    "date_created": "2023-09-26T15:06:16.000",
    "date_modified": "2023-09-26T15:06:17.000",
    "request_status": "Pending",
    "responsible_agency": "Department of Sanitation",
    "final_address": "12401 Carmel Pl",
    "address_councildis": "E",
    "status": "Assigned to Contractor",
    "contractor": "Waste Pro",
    "rowid": "1038540",
    "final_x": "3715994.5518",
    "final_y": "566705.794019",
    "longitude": "-89.9578164784723",
    "latitude": "30.051150527563955",
    "geocoded_column": {
      "latitude": "30.051150527563955",
      "longitude": "-89.9578164784723"
    }
  },
  {
    "service_request": "2023-1038539",
    "request_type": "Roads/Drainage",
    "request_reason": "Pothole",
    "date_created": "2023-09-26T15:05:42.000",
    "date_modified": "2023-09-26T15:05:42.000",
    "request_status": "Pending",
    "responsible_agency": "Department of Public Works",
    "final_address": "CONSTANCE ST & BORDEAUX ST",
    "address_councildis": "B",
    "status": "Pending",
    "rowid": "1038539",
    "final_x": "3669627.7",
    "final_y": "518275.98",
    "longitude": "-90.10600681825592",
    "latitude": "29.919434032228303",
    "geocoded_column": {
      "latitude": "29.919434032228303",
      "longitude": "-90.10600681825592"
    }
  },
  {
    "service_request": "2023-1038538",
    "request_type": "Trash/Recycling",
    "request_reason": "MIssed Recycling Pick-Up",
    "date_created": "2023-09-26T15:05:39.000",
    "date_modified": "2023-09-26T15:05:39.000",
    "request_status": "Pending",
    "responsible_agency": "Department of Sanitation",
    "final_address": "3539 Audubon Ct",
    "address_councildis": "B",
    "status": "Assigned to Contractor",
    "contractor": "Richards Disposal",
    "rowid": "1038538",
    "final_x": "3669188.28916",
    "final_y": "533353.494916",
    "longitude": "-90.10688441971249",
    "latitude": "29.960905259073453",
    "geocoded_column": {
      "latitude": "29.960905259073453",
      "longitude": "-90.10688441971249"
    }
  },
  {
    "service_request": "2023-1038537",
    "request_type": "Traffic Signals/Signs/Striping/Streetlights",
    "request_reason": "Street Light Outage/Malfunction",
    "date_created": "2023-09-26T15:02:46.000",
    "date_modified": "2023-09-26T15:02:47.000",
    "request_status": "Pending",
    "responsible_agency": "Department of Public Works",
    "final_address": "5901 Oxford Pl",
    "address_councildis": "C",
    "status": "Assigned to Contractor",
    "contractor": "Legacy Professional Services",
    "rowid": "1038537",
    "final_x": "3705625.83243",
    "final_y": "519685.61708",
    "longitude": "-89.99232758489102",
    "latitude": "29.922200744083344",
    "geocoded_column": {
      "latitude": "29.922200744083344",
      "longitude": "-89.99232758489102"
    }
  },
  {
    "service_request": "2023-1038536",
    "request_type": "Trash/Recycling",
    "request_reason": "Order Recycling Cart",
    "date_created": "2023-09-26T14:59:57.000",
    "date_modified": "2023-09-26T14:59:57.000",
    "request_status": "Pending",
    "responsible_agency": "Department of Sanitation",
    "final_address": "3539 Audubon Ct",
    "address_councildis": "B",
    "status": "Pending",
    "rowid": "1038536",
    "final_x": "3669188.28916",
    "final_y": "533353.494916",
    "longitude": "-90.10688441971249",
    "latitude": "29.960905259073453",
    "geocoded_column": {
      "latitude": "29.960905259073453",
      "longitude": "-90.10688441971249"
    }
  },
  {
    "service_request": "2023-1038535",
    "request_type": "Roads/Drainage",
    "request_reason": "Street Flooding / Drainage",
    "date_created": "2023-09-26T14:59:40.000",
    "date_modified": "2023-09-26T14:59:40.000",
    "request_status": "Pending",
    "responsible_agency": "Department of Public Works",
    "final_address": "2711 N Rocheblave St",
    "address_councildis": "D",
    "status": "Pending",
    "rowid": "1038535",
    "final_x": "3687279.3693",
    "final_y": "541338.181068",
    "longitude": "-90.04947383455972",
    "latitude": "29.98231551173775",
    "geocoded_column": {
      "latitude": "29.98231551173775",
      "longitude": "-90.04947383455972"
    }
  },
  {
    "service_request": "2023-1038534",
    "request_type": "Mosquito, Termite & Rodent Control",
    "request_reason": "Rodent Complaint (Rats)",
    "date_created": "2023-09-26T14:59:11.000",
    "date_modified": "2023-09-26T14:59:11.000",
    "request_status": "Pending",
    "responsible_agency": "Mosquito, Termite & Rodent Control Board",
    "final_address": "5734 Pratt Dr",
    "address_councildis": "D",
    "status": "Pending",
    "rowid": "1038534",
    "final_x": "3680169.2589",
    "final_y": "553887.551191",
    "longitude": "-90.07149453414924",
    "latitude": "30.017038950585974",
    "geocoded_column": {
      "latitude": "30.017038950585974",
      "longitude": "-90.07149453414924"
    }
  },
  {
    "service_request": "2023-1038533",
    "request_type": "Parks & Parkways",
    "request_reason": "Request Tree Service (Right of Way/Public Property)",
    "date_created": "2023-09-26T14:58:59.000",
    "date_modified": "2023-09-26T16:06:32.000",
    "case_close_date": "2023-09-26T11:06:32.000",
    "request_status": "Closed",
    "responsible_agency": "Department of Parks & Parkway",
    "final_address": "9609 Palm St",
    "address_councildis": "A",
    "status": "Referred to Property Owner",
    "rowid": "1038533",
    "final_x": "3663547.40711",
    "final_y": "538546.976457",
    "longitude": "-90.12452432897143",
    "latitude": "29.97535043406002",
    "geocoded_column": {
      "latitude": "29.97535043406002",
      "longitude": "-90.12452432897143"
    }
  },
  {
    "service_request": "2023-1038532",
    "request_type": "Parks & Parkways",
    "request_reason": "Request Tree Service (Right of Way/Public Property)",
    "date_created": "2023-09-26T14:58:37.000",
    "date_modified": "2023-09-26T14:58:37.000",
    "request_status": "Pending",
    "responsible_agency": "Department of Parks & Parkway",
    "final_address": "2100 BLK Napoleon Ave",
    "address_councildis": "B",
    "status": "Pending",
    "rowid": "1038532",
    "final_x": "3670615.30211",
    "final_y": "522818.083089",
    "longitude": "-90.10273546822552",
    "latitude": "29.931894242586544",
    "geocoded_column": {
      "latitude": "29.931894242586544",
      "longitude": "-90.10273546822552"
    }
  },
  {
    "service_request": "2023-1038531",
    "request_type": "Roads/Drainage",
    "request_reason": "Road Shoulder Repair",
    "date_created": "2023-09-26T14:56:58.000",
    "date_modified": "2023-09-26T14:56:58.000",
    "request_status": "Pending",
    "responsible_agency": "Department of Public Works",
    "final_address": "4000 BLK Dumaine St",
    "address_councildis": "A",
    "status": "Pending",
    "rowid": "1038531",
    "final_x": "3673272.79712",
    "final_y": "540470.131118",
    "longitude": "-90.09374317563295",
    "latitude": "29.980352758935776",
    "geocoded_column": {
      "latitude": "29.980352758935776",
      "longitude": "-90.09374317563295"
    }
  },
  {
    "service_request": "2023-1038530",
    "request_type": "Property Maintenance",
    "request_reason": "Property Maintenance",
    "date_created": "2023-09-26T14:56:55.000",
    "date_modified": "2023-09-26T15:00:26.000",
    "request_status": "Pending",
    "responsible_agency": "Department of Code Enforcement",
    "final_address": "8012 Lehigh St",
    "address_councildis": "E",
    "status": "Pending",
    "rowid": "1038530",
    "final_x": "3709732.92888",
    "final_y": "566917.751524",
    "longitude": "-89.97759928224093",
    "latitude": "30.05193851898946",
    "geocoded_column": {
      "latitude": "30.05193851898946",
      "longitude": "-89.97759928224093"
    }
  },
  {
    "service_request": "2023-1038528",
    "request_type": "Trash/Recycling",
    "request_reason": "Request a Large Item Pick Up",
    "date_created": "2023-09-26T14:53:37.000",
    "date_modified": "2023-09-26T14:53:38.000",
    "request_status": "Pending",
    "responsible_agency": "Department of Sanitation",
    "final_address": "2 Stilt St",
    "address_councildis": "D",
    "status": "Assigned to Contractor",
    "contractor": "IV Waste",
    "rowid": "1038528",
    "final_x": "3672453.96385",
    "final_y": "557367.958043",
    "longitude": "-90.09575296938816",
    "latitude": "30.02684018231564",
    "geocoded_column": {
      "latitude": "30.02684018231564",
      "longitude": "-90.09575296938816"
    }
  },
  {
    "service_request": "2023-1038527",
    "request_type": "Traffic Signals/Signs/Striping/Streetlights",
    "request_reason": "Traffic Sign Missing/Damaged",
    "date_created": "2023-09-26T14:53:09.000",
    "date_modified": "2023-09-26T14:53:09.000",
    "request_status": "Pending",
    "responsible_agency": "Department of Public Works",
    "final_address": "762 Harrison Ave",
    "address_councildis": "A",
    "status": "Pending",
    "rowid": "1038527",
    "final_x": "3669171.1387",
    "final_y": "549112.960595",
    "longitude": "-90.10640570584738",
    "latitude": "30.00423894142722",
    "geocoded_column": {
      "latitude": "30.00423894142722",
      "longitude": "-90.10640570584738"
    }
  },
  {
    "service_request": "2023-1038526",
    "request_type": "Trash/Recycling",
    "request_reason": "Repair Recycling Cart",
    "date_created": "2023-09-26T14:51:11.000",
    "date_modified": "2023-09-26T14:51:11.000",
    "request_status": "Pending",
    "responsible_agency": "Department of Sanitation",
    "final_address": "2200 BLK Marengo St",
    "address_councildis": "B",
    "status": "Pending",
    "rowid": "1038526",
    "final_x": "3671724.46393",
    "final_y": "523281.153029",
    "longitude": "-90.09921821001812",
    "latitude": "29.933134734739983",
    "geocoded_column": {
      "latitude": "29.933134734739983",
      "longitude": "-90.09921821001812"
    }
  },
  {
    "service_request": "2023-1038525",
    "request_type": "Property Maintenance",
    "request_reason": "Property Maintenance",
    "date_created": "2023-09-26T14:49:40.000",
    "date_modified": "2023-09-26T14:49:40.000",
    "request_status": "Pending",
    "responsible_agency": "Department of Code Enforcement",
    "status": "Pending",
    "rowid": "1038525",
    "longitude": "0.0",
    "latitude": "0.0",
    "geocoded_column": {
      "latitude": "0.0",
      "longitude": "0.0"
    }
  },
  {
    "service_request": "2023-1038524",
    "request_type": "Abandoned Vehicles",
    "request_reason": "Abandoned/Junk Vehicles",
    "date_created": "2023-09-26T14:45:25.000",
    "date_modified": "2023-09-26T14:45:26.000",
    "request_status": "Pending",
    "responsible_agency": "Department of Public Works",
    "final_address": "5128 Cunningham Ct",
    "address_councildis": "D",
    "status": "Pending",
    "rowid": "1038524",
    "final_x": "3690770.16617",
    "final_y": "552757.329942",
    "longitude": "-90.03804051684914",
    "latitude": "30.013606006754927",
    "geocoded_column": {
      "latitude": "30.013606006754927",
      "longitude": "-90.03804051684914"
    }
  },
  {
    "service_request": "2023-1038523",
    "request_type": "Property Maintenance",
    "request_reason": "Property Maintenance",
    "date_created": "2023-09-26T14:44:49.000",
    "date_modified": "2023-09-26T14:44:49.000",
    "request_status": "Pending",
    "responsible_agency": "Department of Code Enforcement",
    "status": "Pending",
    "rowid": "1038523",
    "longitude": "0.0",
    "latitude": "0.0",
    "geocoded_column": {
      "latitude": "0.0",
      "longitude": "0.0"
    }
  },
  {
    "service_request": "2023-1038520",
    "request_type": "Parks & Parkways",
    "request_reason": "Request Tree Service (Right of Way/Public Property)",
    "date_created": "2023-09-26T14:43:19.000",
    "date_modified": "2023-09-26T14:43:20.000",
    "request_status": "Pending",
    "responsible_agency": "Department of Parks & Parkway",
    "final_address": "5860 Louisville St",
    "address_councildis": "A",
    "status": "Pending",
    "rowid": "1038520",
    "final_x": "3667621.34509",
    "final_y": "546563.000081",
    "longitude": "-90.11138771293326",
    "latitude": "29.99727297042056",
    "geocoded_column": {
      "latitude": "29.99727297042056",
      "longitude": "-90.11138771293326"
    }
  },
  {
    "service_request": "2023-1038519",
    "request_type": "Property Maintenance",
    "request_reason": "Property Maintenance",
    "date_created": "2023-09-26T14:41:51.000",
    "date_modified": "2023-09-26T14:41:51.000",
    "request_status": "Pending",
    "responsible_agency": "Department of Code Enforcement",
    "final_address": "909 Semmes St",
    "address_councildis": "C",
    "status": "Pending",
    "rowid": "1038519",
    "final_x": "3688528.59747",
    "final_y": "524025.1831",
    "longitude": "-90.04614245762163",
    "latitude": "29.934672215766103",
    "geocoded_column": {
      "latitude": "29.934672215766103",
      "longitude": "-90.04614245762163"
    }
  },
  {
    "service_request": "2023-1038518",
    "request_type": "Roads/Drainage",
    "request_reason": "Pothole",
    "date_created": "2023-09-26T14:40:55.000",
    "date_modified": "2023-09-26T14:40:56.000",
    "request_status": "Pending",
    "responsible_agency": "Department of Public Works",
    "final_address": "GORDON ST & N CLAIBORNE AVE",
    "address_councildis": "E",
    "status": "Pending",
    "rowid": "1038518",
    "final_x": "3699871.2",
    "final_y": "535208.78",
    "longitude": "-90.00992652949054",
    "latitude": "29.965067932738656",
    "geocoded_column": {
      "latitude": "29.965067932738656",
      "longitude": "-90.00992652949054"
    }
  },
  {
    "service_request": "2023-1038517",
    "request_type": "Trash/Recycling",
    "request_reason": "Request a Large Item Pick Up",
    "date_created": "2023-09-26T14:39:27.000",
    "date_modified": "2023-09-26T14:39:28.000",
    "request_status": "Pending",
    "responsible_agency": "Department of Sanitation",
    "status": "Assigned to Contractor",
    "rowid": "1038517",
    "longitude": "0.0",
    "latitude": "0.0",
    "geocoded_column": {
      "latitude": "0.0",
      "longitude": "0.0"
    }
  },
  {
    "service_request": "2023-1038516",
    "request_type": "Property Maintenance",
    "request_reason": "Property Maintenance",
    "date_created": "2023-09-26T14:38:55.000",
    "date_modified": "2023-09-26T14:38:55.000",
    "request_status": "Pending",
    "responsible_agency": "Department of Code Enforcement",
    "final_address": "2200 Thayer St",
    "address_councildis": "C",
    "status": "Pending",
    "rowid": "1038516",
    "final_x": "3689048.83759",
    "final_y": "523607.307451",
    "longitude": "-90.04451491268051",
    "latitude": "29.93350711896876",
    "geocoded_column": {
      "latitude": "29.93350711896876",
      "longitude": "-90.04451491268051"
    }
  },
  {
    "service_request": "2023-1038515",
    "request_type": "Property Maintenance",
    "request_reason": "Property Maintenance",
    "date_created": "2023-09-26T14:38:54.000",
    "date_modified": "2023-09-26T14:38:54.000",
    "request_status": "Pending",
    "responsible_agency": "Department of Code Enforcement",
    "status": "Pending",
    "rowid": "1038515",
    "longitude": "0.0",
    "latitude": "0.0",
    "geocoded_column": {
      "latitude": "0.0",
      "longitude": "0.0"
    }
  },
  {
    "service_request": "2023-1038514",
    "request_type": "Traffic Signals/Signs/Striping/Streetlights",
    "request_reason": "Traffic Sign Missing/Damaged",
    "date_created": "2023-09-26T14:33:03.000",
    "date_modified": "2023-09-26T14:33:03.000",
    "request_status": "Pending",
    "responsible_agency": "Department of Public Works",
    "final_address": "N ROBERTSON ST & CONGRESS ST",
    "address_councildis": "D",
    "status": "Pending",
    "rowid": "1038514",
    "final_x": "3691088.7",
    "final_y": "537067.68",
    "longitude": "-90.03759467863037",
    "latitude": "29.97045524171115",
    "geocoded_column": {
      "latitude": "29.97045524171115",
      "longitude": "-90.03759467863037"
    }
  },
  {
    "service_request": "2023-1038513",
    "request_type": "Property Maintenance",
    "request_reason": "Property Maintenance",
    "date_created": "2023-09-26T14:32:24.000",
    "date_modified": "2023-09-26T14:32:24.000",
    "request_status": "Pending",
    "responsible_agency": "Department of Code Enforcement",
    "status": "Pending",
    "rowid": "1038513",
    "longitude": "0.0",
    "latitude": "0.0",
    "geocoded_column": {
      "latitude": "0.0",
      "longitude": "0.0"
    }
  },
  {
    "service_request": "2023-1038512",
    "request_type": "Property Maintenance",
    "request_reason": "Property Maintenance",
    "date_created": "2023-09-26T14:32:11.000",
    "date_modified": "2023-09-26T14:32:11.000",
    "request_status": "Pending",
    "responsible_agency": "Department of Code Enforcement",
    "final_address": "1335 Atlantic Ave",
    "address_councildis": "C",
    "status": "Pending",
    "rowid": "1038512",
    "final_x": "3688596.60015",
    "final_y": "526442.147198",
    "longitude": "-90.04584203931907",
    "latitude": "29.94131594822395",
    "geocoded_column": {
      "latitude": "29.94131594822395",
      "longitude": "-90.04584203931907"
    }
  },
  {
    "service_request": "2023-1038511",
    "request_type": "Trash/Recycling",
    "request_reason": "Missed Trash Pick-Up",
    "date_created": "2023-09-26T14:32:06.000",
    "date_modified": "2023-09-26T15:01:46.000",
    "case_close_date": "2023-09-26T10:01:46.000",
    "request_status": "Closed",
    "responsible_agency": "Department of Sanitation",
    "final_address": "7321 Devine Ave",
    "address_councildis": "E",
    "status": "Invalid Request",
    "contractor": "Waste Pro",
    "contractor_action": "Invalid Pick-Up",
    "rowid": "1038511",
    "final_x": "3706127.67767",
    "final_y": "562366.162847",
    "longitude": "-89.98916304566346",
    "latitude": "30.03954025968023",
    "geocoded_column": {
      "latitude": "30.03954025968023",
      "longitude": "-89.98916304566346"
    }
  },
  {
    "service_request": "2023-1038510",
    "request_type": "Traffic Signals/Signs/Striping/Streetlights",
    "request_reason": "Traffic Signal Malfunctioning/Damaged",
    "date_created": "2023-09-26T14:30:11.000",
    "date_modified": "2023-09-26T14:30:12.000",
    "request_status": "Pending",
    "responsible_agency": "Department of Public Works",
    "final_address": "GENERAL DE GAULLE DR & GARDEN OAKS DR & WESTBEND PKWY",
    "address_councildis": "C",
    "status": "Pending",
    "rowid": "1038510",
    "final_x": "3696351.7",
    "final_y": "520532.68",
    "longitude": "-90.02157142374539",
    "latitude": "29.924825063772325",
    "geocoded_column": {
      "latitude": "29.924825063772325",
      "longitude": "-90.02157142374539"
    }
  },
  {
    "service_request": "2023-1038509",
    "request_type": "Abandoned Vehicles",
    "request_reason": "Abandoned/Junk Vehicles",
    "date_created": "2023-09-26T14:28:06.000",
    "date_modified": "2023-09-26T14:28:06.000",
    "request_status": "Pending",
    "responsible_agency": "Department of Public Works",
    "final_address": "1335 Atlantic Ave",
    "address_councildis": "C",
    "status": "Pending",
    "rowid": "1038509",
    "final_x": "3688596.60015",
    "final_y": "526442.147198",
    "longitude": "-90.04584203931907",
    "latitude": "29.94131594822395",
    "geocoded_column": {
      "latitude": "29.94131594822395",
      "longitude": "-90.04584203931907"
    }
  },
  {
    "service_request": "2023-1038508",
    "request_type": "Property Maintenance",
    "request_reason": "Property Maintenance",
    "date_created": "2023-09-26T14:26:46.000",
    "date_modified": "2023-09-26T14:26:46.000",
    "request_status": "Pending",
    "responsible_agency": "Department of Code Enforcement",
    "status": "Pending",
    "rowid": "1038508",
    "longitude": "0.0",
    "latitude": "0.0",
    "geocoded_column": {
      "latitude": "0.0",
      "longitude": "0.0"
    }
  },
  {
    "service_request": "2023-1038507",
    "request_type": "Traffic Signals/Signs/Striping/Streetlights",
    "request_reason": "Striping/Road Surface Markings",
    "date_created": "2023-09-26T14:25:55.000",
    "date_modified": "2023-09-26T14:25:55.000",
    "request_status": "Pending",
    "responsible_agency": "Department of Public Works",
    "final_address": "DUMAINE ST & N CARROLLTON AVE",
    "address_councildis": "A",
    "status": "Pending",
    "rowid": "1038507",
    "final_x": "3673129.6",
    "final_y": "540583.68",
    "longitude": "-90.09419157566818",
    "latitude": "29.980669238327135",
    "geocoded_column": {
      "latitude": "29.980669238327135",
      "longitude": "-90.09419157566818"
    }
  },
  {
    "service_request": "2023-1038506",
    "request_type": "Traffic Signals/Signs/Striping/Streetlights",
    "request_reason": "Traffic Signal Malfunctioning/Damaged",
    "date_created": "2023-09-26T14:24:25.000",
    "date_modified": "2023-09-26T14:24:25.000",
    "request_status": "Pending",
    "responsible_agency": "Department of Public Works",
    "final_address": "BUNDY RD & LAKE FOREST BLVD",
    "address_councildis": "E",
    "status": "Pending",
    "rowid": "1038506",
    "final_x": "3708214.2",
    "final_y": "558529.28",
    "longitude": "-89.9827119934669",
    "latitude": "30.028922880634006",
    "geocoded_column": {
      "latitude": "30.028922880634006",
      "longitude": "-89.9827119934669"
    }
  },