[
  {
    "service_request": "2023-1004534",
    "request_type": "Property Maintenance",
    "request_reason": "Property Maintenance",
    "date_created": "2023-06-01T00:15:29.000",
    "date_modified": "2023-06-01T00:15:29.000",
    "request_status": "Pending",
    "responsible_agency": "Department of Code Enforcement",
    "final_address": "9701 Lake Forest Blvd Ste 120",
    "address_councildis": "E",
    "status": "Pending",
    "rowid": "1004534",
    "final_x": "3708819.69976",
    "final_y": "559118.255132",
    "longitude": "-89.98077668431979",
    "latitude": "30.030522692157774",
    "geocoded_column": {
      "latitude": "30.030522692157774",
      "longitude": "-89.98077668431979"
    }
  },
  {
    "service_request": "2023-1004533",
    "request_type": "Property Maintenance",
    "request_reason": "Property Maintenance",
    "date_created": "2023-06-01T00:12:08.000",
    "date_modified": "2023-06-01T00:12:08.000",
    "request_status": "Pending",
    "responsible_agency": "Department of Code Enforcement",
    "final_address": "9701 Lake Forest Blvd Ste 120",
    "address_councildis": "E",
    "status": "Pending",
    "rowid": "1004533",
    "final_x": "3708819.69976",
    "final_y": "559118.255132",
    "longitude": "-89.98077668431979",
    "latitude": "30.030522692157774",
    "geocoded_column": {
      "latitude": "30.030522692157774",
      "longitude": "-89.98077668431979"
    }
  },
  {
    "service_request": "2023-1004532",
    "request_type": "Trash/Recycling",
    "request_reason": "Order Recycling Cart",
    "date_created": "2023-06-01T00:08:43.000",
    "date_modified": "2023-06-01T00:08:43.000",
    "request_status": "Pending",
    "responsible_agency": "Department of Sanitation",
    "final_address": "8109 Freret St",
    "address_councildis": "A",
    "status": "Pending",
    "rowid": "1004532",
    "final_x": "3661479.77427",
    "final_y": "528063.854975",
    "longitude": "-90.13140179555761",
    "latitude": "29.94658507106554",
    "geocoded_column": {
      "latitude": "29.94658507106554",
      "longitude": "-90.13140179555761"
    }
  },
  {
    "service_request": "2023-1004531",
    "request_type": "Property Maintenance",
    "request_reason": "Property Maintenance",
    "date_created": "2023-05-31T23:54:59.000",
    "date_modified": "2023-05-31T23:54:59.000",
    "request_status": "Pending",
    "responsible_agency": "Department of Code Enforcement",
    "final_address": "9701 Lake Forest Blvd Ste 119",
    "address_councildis": "E",
    "status": "Pending",
    "rowid": "1004531",
    "final_x": "3708828.03313",
    "final_y": "559104.92182",
    "longitude": "-89.98075084833938",
    "latitude": "30.030485760325057",
    "geocoded_column": {
      "latitude": "30.030485760325057",
      "longitude": "-89.98075084833938"
    }
  },
  {
    "service_request": "2023-1004530",
    "request_type": "Trash/Recycling",
    "request_reason": "Repair Recycling Cart",
    "date_created": "2023-05-31T23:45:14.000",
    "date_modified": "2023-05-31T23:45:14.000",
    "request_status": "Pending",
    "responsible_agency": "Department of Sanitation",
    "final_address": "8111 Freret St",
    "address_councildis": "A",
    "status": "Pending",
    "rowid": "1004530",
    "final_x": "3661403.0809",
    "final_y": "527992.966335",
    "longitude": "-90.13164629255597",
    "latitude": "29.94639236176137",
    "geocoded_column": {
      "latitude": "29.94639236176137",
      "longitude": "-90.13164629255597"
    }
  },
  {
    "service_request": "2023-1004529",
    "request_type": "Trash/Recycling",
    "request_reason": "Repair Recycling Cart",
    "date_created": "2023-05-31T23:43:55.000",
    "date_modified": "2023-05-31T23:43:55.000",
    "request_status": "Pending",
    "responsible_agency": "Department of Sanitation",
    "final_address": "8111 Freret St",
    "address_councildis": "A",
    "status": "Pending",
    "rowid": "1004529",
    "final_x": "3661403.0809",
    "final_y": "527992.966335",
    "longitude": "-90.13164629255597",
    "latitude": "29.94639236176137",
    "geocoded_column": {
      "latitude": "29.94639236176137",
      "longitude": "-90.13164629255597"
    }
  },
  {
    "service_request": "2023-1004528",
    "request_type": "Trash/Recycling",
    "request_reason": "Replace Trash Cart",
    "date_created": "2023-05-31T23:42:40.000",
    "date_modified": "2023-05-31T23:42:41.000",
    "request_status": "Pending",
    "responsible_agency": "Department of Sanitation",
    "final_address": "1503 Valmont St",
    "address_councildis": "B",
    "status": "Assigned to Contractor",
    "contractor": "Richards Disposal",
    "rowid": "1004528",
    "final_x": "3667809.31847",
    "final_y": "520474.710392",
    "longitude": "-90.11167256232912",
    "latitude": "29.925533276917353",
    "geocoded_column": {
      "latitude": "29.925533276917353",
      "longitude": "-90.11167256232912"
    }
  },
  {
    "service_request": "2023-1004527",
    "request_type": "Traffic Signals/Signs/Striping/Streetlights",
    "request_reason": "Traffic Sign Missing/Damaged",
    "date_created": "2023-05-31T23:08:08.000",
    "date_modified": "2023-05-31T23:08:08.000",
    "request_status": "Pending",
    "responsible_agency": "Department of Public Works",
    "final_address": "ROSEDALE DR & CANAL BLVD",
    "address_councildis": "A",
    "status": "Pending",
    "rowid": "1004527",
    "final_x": "3668030.1",
    "final_y": "542000.48",
    "longitude": "-90.11025031157764",
    "latitude": "29.98471560901069",
    "geocoded_column": {
      "latitude": "29.98471560901069",
      "longitude": "-90.11025031157764"
    }
  },
  {
    "service_request": "2023-1004526",
    "request_type": "Trash/Recycling",
    "request_reason": "Missed Trash Pick-Up",
    "date_created": "2023-05-31T22:49:48.000",
    "date_modified": "2023-05-31T22:49:49.000",
    "request_status": "Pending",
    "responsible_agency": "Department of Sanitation",
    "final_address": "5411 Mckenna St",
    "address_councildis": "A",
    "status": "Assigned to Contractor",
    "contractor": "Richards Disposal",
    "rowid": "1004526",
    "final_x": "3668863.69914",
    "final_y": "529055.638528",
    "longitude": "-90.10805454419828",
    "latitude": "29.949097114830185",
    "geocoded_column": {
      "latitude": "29.949097114830185",
      "longitude": "-90.10805454419828"
    }
  },
  {
    "service_request": "2023-1004525",
    "request_type": "Trash/Recycling",
    "request_reason": "Replace Trash Cart",
    "date_created": "2023-05-31T22:35:20.000",
    "date_modified": "2023-05-31T22:35:21.000",
    "request_status": "Pending",
    "responsible_agency": "Department of Sanitation",
    "final_address": "2641 Gravier St",
    "address_councildis": "B",
    "status": "Assigned to Contractor",
    "contractor": "Richards Disposal",
    "rowid": "1004525",
    "final_x": "3674250.80289",
    "final_y": "533262.792708",
    "longitude": "-90.09090103955914",
    "latitude": "29.960505892584525",
    "geocoded_column": {
      "latitude": "29.960505892584525",
      "longitude": "-90.09090103955914"
    }
  },
  {
    "service_request": "2023-1004522",
    "request_type": "Parks & Parkways",
    "request_reason": "Request Tree Service (Right of Way/Public Property)",
    "date_created": "2023-05-31T21:46:40.000",
    "date_modified": "2023-05-31T21:46:40.000",
    "request_status": "Pending",
    "responsible_agency": "Department of Parks & Parkway",
    "final_address": "1500 BLK Kabel Dr",
    "address_councildis": "C",
    "status": "Pending",
    "rowid": "1004522",
    "final_x": "3700761.49345",
    "final_y": "522002.892462",
    "longitude": "-90.00759755949983",
    "latitude": "29.928728091663462",
    "geocoded_column": {
      "latitude": "29.928728091663462",
      "longitude": "-90.00759755949983"
    }
  },
  {
    "service_request": "2023-1004521",
    "request_type": "Traffic Signals/Signs/Striping/Streetlights",
    "request_reason": "Street Light Outage/Malfunction",
    "date_created": "2023-05-31T21:12:43.000",
    "date_modified": "2023-05-31T21:12:43.000",
    "request_status": "Pending",
    "responsible_agency": "Department of Public Works",
    "final_address": "ARGONNE BLVD & BRAGG ST",
    "address_councildis": "A",
    "status": "Assigned to Contractor",
    "contractor": "Legacy Professional Services",
    "rowid": "1004521",
    "final_x": "3670431.1",
    "final_y": "549881.38",
    "longitude": "-90.10239916854282",
    "latitude": "30.006314669487303",
    "geocoded_column": {
      "latitude": "30.006314669487303",
      "longitude": "-90.10239916854282"
    }
  },
  {
    "service_request": "2023-1004520",
    "request_type": "Trash/Recycling",
    "request_reason": "Request a Large Item Pick Up",
    "date_created": "2023-05-31T20:49:18.000",
    "date_modified": "2023-05-31T20:49:19.000",
    "request_status": "Pending",
    "responsible_agency": "Department of Sanitation",
    "final_address": "2733 Pine St",
    "address_councildis": "B",
    "status": "Assigned to Contractor",
    "contractor": "Richards Disposal",
    "rowid": "1004520",
    "final_x": "3667097.84724",
    "final_y": "531407.145859",
    "longitude": "-90.1135510925084",
    "latitude": "29.955614796400695",
    "geocoded_column": {
      "latitude": "29.955614796400695",
      "longitude": "-90.1135510925084"
    }
  },
  {
    "service_request": "2023-1004519",
    "request_type": "Traffic Signals/Signs/Striping/Streetlights",
    "request_reason": "Street Light Outage/Malfunction",
    "date_created": "2023-05-31T20:42:52.000",
    "date_modified": "2023-05-31T20:42:53.000",
    "request_status": "Pending",
    "responsible_agency": "Department of Public Works",
    "final_address": "CROWDER BLVD & MORRISON RD",
    "address_councildis": "E",
    "status": "Assigned to Contractor",
    "contractor": "Legacy Professional Services",
    "rowid": "1004519",
    "final_x": "3703739.9",
    "final_y": "560831.58",
    "longitude": "-89.99676565482832",
    "latitude": "30.035397561791353",
    "geocoded_column": {
      "latitude": "30.035397561791353",
      "longitude": "-89.99676565482832"
    }
  },
  {
    "service_request": "2023-1004518",
    "request_type": "Roads/Drainage",
    "request_reason": "Street Subsidence (Sinking)",
    "date_created": "2023-05-31T20:17:35.000",
    "date_modified": "2023-05-31T20:17:35.000",
    "request_status": "Pending",
    "responsible_agency": "Department of Public Works",
    "final_address": "6511 Dorchester St",
    "address_councildis": "E",
    "status": "Pending",
    "rowid": "1004518",
    "final_x": "3697500.5144",
    "final_y": "558871.87606",
    "longitude": "-90.01655423188532",
    "latitude": "30.03020777027829",
    "geocoded_column": {
      "latitude": "30.03020777027829",
      "longitude": "-90.01655423188532"
    }
  },
  {
    "service_request": "2023-1004517",
    "request_type": "Roads/Drainage",
    "request_reason": "Pothole",
    "date_created": "2023-05-31T20:16:39.000",
    "date_modified": "2023-05-31T20:16:39.000",
    "request_status": "Pending",
    "responsible_agency": "Department of Public Works",
    "final_address": "NEWCASTLE ST & DORCHESTER ST",
    "address_councildis": "E",
    "status": "Pending",
    "rowid": "1004517",
    "final_x": "3697420.5",
    "final_y": "558755.38",
    "longitude": "-90.0168113060437",
    "latitude": "30.029889978870468",
    "geocoded_column": {
      "latitude": "30.029889978870468",
      "longitude": "-90.0168113060437"
    }
  },
  {
    "service_request": "2023-1004516",
    "request_type": "Safety & Permits",
    "request_reason": "Licenses & Permits",
    "date_created": "2023-05-31T20:14:54.000",
    "date_modified": "2023-05-31T20:14:54.000",
    "request_status": "Pending",
    "responsible_agency": "Safety and Permits",
    "final_address": "112 Lavergne St",
    "address_councildis": "C",
    "status": "Pending",
    "rowid": "1004516",
    "final_x": "3686458.73001",
    "final_y": "531209.51789",
    "longitude": "-90.05242343197877",
    "latitude": "29.95449047303297",
    "geocoded_column": {
      "latitude": "29.95449047303297",
      "longitude": "-90.05242343197877"
    }
  },
  {
    "service_request": "2023-1004515",
    "request_type": "Trash/Recycling",
    "request_reason": "Request a Large Item Pick Up",
    "date_created": "2023-05-31T19:40:38.000",
    "date_modified": "2023-05-31T19:40:39.000",
    "request_status": "Pending",
    "responsible_agency": "Department of Sanitation",
    "final_address": "746 Louisiana Ave",
    "address_councildis": "B",
    "status": "Assigned to Contractor",
    "contractor": "Richards Disposal",
    "rowid": "1004515",
    "final_x": "3675431.54689",
    "final_y": "518493.384375",
    "longitude": "-90.08767949867654",
    "latitude": "29.919859612686352",
    "geocoded_column": {
      "latitude": "29.919859612686352",
      "longitude": "-90.08767949867654"
    }
  },
  {
    "service_request": "2023-1004514",
    "request_type": "Trash/Recycling",
    "request_reason": "Request a Large Item Pick Up",
    "date_created": "2023-05-31T19:26:24.000",
    "date_modified": "2023-05-31T19:26:25.000",
    "request_status": "Pending",
    "responsible_agency": "Department of Sanitation",
    "final_address": "1621 Charlton Dr",
    "address_councildis": "D",
    "status": "Assigned to Contractor",
    "contractor": "IV Waste",
    "rowid": "1004514",
    "final_x": "3680269.13525",
    "final_y": "550871.181781",
    "longitude": "-90.07128393657713",
    "latitude": "30.008742000303467",
    "geocoded_column": {
      "latitude": "30.008742000303467",
      "longitude": "-90.07128393657713"
    }
  },
  {
    "service_request": "2023-1004513",
    "request_type": "Roads/Drainage",
    "request_reason": "Man hole cover issue",
    "date_created": "2023-05-31T19:19:21.000",
    "date_modified": "2023-05-31T19:19:21.000",
    "request_status": "Pending",
    "responsible_agency": "Department of Public Works",
    "final_address": "WASHINGTON AVE & S BROAD ST",
    "address_councildis": "B",
    "status": "Pending",
    "rowid": "1004513",
    "final_x": "3671208.9",
    "final_y": "529760.38",
    "longitude": "-90.10062576272175",
    "latitude": "29.950965758180185",
    "geocoded_column": {
      "latitude": "29.950965758180185",
      "longitude": "-90.10062576272175"
    }
  },
  {
    "service_request": "2023-1004512",
    "request_type": "Trash/Recycling",
    "request_reason": "Request a Large Item Pick Up",
    "date_created": "2023-05-31T19:09:51.000",
    "date_modified": "2023-05-31T19:09:51.000",
    "request_status": "Pending",
    "responsible_agency": "Department of Sanitation",
    "final_address": "3512 Nashville Ave",
    "address_councildis": "A",
    "status": "Assigned to Contractor",
    "contractor": "Richards Disposal",
    "rowid": "1004512",
    "final_x": "3668105.81396",
    "final_y": "528569.547392",
    "longitude": "-90.11046390699097",
    "latitude": "29.94778278467895",
    "geocoded_column": {
      "latitude": "29.94778278467895",
      "longitude": "-90.11046390699097"
    }
  },
  {
    "service_request": "2023-1004511",
    "request_type": "Roads/Drainage",
    "request_reason": "Service Cut",
    "date_created": "2023-05-31T19:01:35.000",
    "date_modified": "2023-05-31T19:01:35.000",
    "request_status": "Pending",
    "responsible_agency": "Department of Public Works",
    "final_address": "900 BLK Dufossat St",
    "address_councildis": "B",
    "status": "Pending",
    "rowid": "1004511",
    "final_x": "3668048.06347",
    "final_y": "518791.076051",
    "longitude": "-90.11097561164198",
    "latitude": "29.92089681339325",
    "geocoded_column": {
      "latitude": "29.92089681339325",
      "longitude": "-90.11097561164198"
    }
  },
  {
    "service_request": "2023-1004510",
    "request_type": "Trash/Recycling",
    "request_reason": "Replace Trash Cart",
    "date_created": "2023-05-31T19:00:00.000",
    "date_modified": "2023-05-31T19:00:01.000",
    "request_status": "Pending",
    "responsible_agency": "Department of Sanitation",
    "final_address": "2647 Dumaine St",
    "address_councildis": "D",
    "status": "Assigned to Contractor",
    "contractor": "Richards Disposal",
    "rowid": "1004510",
    "final_x": "3677314.73314",
    "final_y": "537448.349448",
    "longitude": "-90.08108131407158",
    "latitude": "29.971923046314323",
    "geocoded_column": {
      "latitude": "29.971923046314323",
      "longitude": "-90.08108131407158"
    }
  },
  {
    "service_request": "2023-1004509",
    "request_type": "Trash/Recycling",
    "request_reason": "Request a Large Item Pick Up",
    "date_created": "2023-05-31T18:53:25.000",
    "date_modified": "2023-05-31T18:59:40.000",
    "request_status": "Pending",
    "responsible_agency": "Department of Sanitation",
    "final_address": "2522 Joseph St",
    "address_councildis": "A",
    "status": "Assigned to Contractor",
    "contractor": "Richards Disposal",
    "rowid": "1004509",
    "final_x": "3667429.82445",
    "final_y": "525331.159421",
    "longitude": "-90.11270720332563",
    "latitude": "29.938898083224938",
    "geocoded_column": {
      "latitude": "29.938898083224938",
      "longitude": "-90.11270720332563"
    }
  },
  {
    "service_request": "2023-1004508",
    "request_type": "Trash/Recycling",
    "request_reason": "Repair Recycling Cart",
    "date_created": "2023-05-31T18:48:29.000",
    "date_modified": "2023-05-31T18:48:29.000",
    "request_status": "Pending",
    "responsible_agency": "Department of Sanitation",
    "final_address": "2562 St Nick Dr",
    "address_councildis": "C",
    "status": "Pending",
    "rowid": "1004508",
    "final_x": "3699405.23216",
    "final_y": "521612.623993",
    "longitude": "-90.01189317704053",
    "latitude": "29.92769806561524",
    "geocoded_column": {
      "latitude": "29.92769806561524",
      "longitude": "-90.01189317704053"
    }
  },
  {
    "service_request": "2023-1004507",
    "request_type": "Roads/Drainage",
    "request_reason": "Man hole cover issue",
    "date_created": "2023-05-31T18:45:38.000",
    "date_modified": "2023-05-31T18:45:38.000",
    "request_status": "Pending",
    "responsible_agency": "Department of Public Works",
    "final_address": "1641 N Galvez St",
    "address_councildis": "D",
    "status": "Pending",
    "rowid": "1004507",
    "final_x": "3680943.52885",
    "final_y": "539152.846026",
    "longitude": "-90.0695616325069",
    "latitude": "29.97650027761246",
    "geocoded_column": {
      "latitude": "29.97650027761246",
      "longitude": "-90.0695616325069"
    }
  },
  {
    "service_request": "2023-1004506",
    "request_type": "Roads/Drainage",
    "request_reason": "Pothole",
    "date_created": "2023-05-31T18:44:43.000",
    "date_modified": "2023-05-31T18:44:43.000",
    "request_status": "Pending",
    "responsible_agency": "Department of Public Works",
    "final_address": "2341 Odin St",
    "address_councildis": "D",
    "status": "Pending",
    "rowid": "1004506",
    "final_x": "3684833.60489",
    "final_y": "553167.163095",
    "longitude": "-90.05678250360289",
    "latitude": "30.014916086492324",
    "geocoded_column": {
      "latitude": "30.014916086492324",
      "longitude": "-90.05678250360289"
    }
  },
  {
    "service_request": "2023-1004505",
    "request_type": "Trash/Recycling",
    "request_reason": "Repair Trash Cart",
    "date_created": "2023-05-31T18:37:21.000",
    "date_modified": "2023-05-31T18:37:22.000",
    "request_status": "Pending",
    "responsible_agency": "Department of Sanitation",
    "final_address": "2562 St Nick Dr",
    "address_councildis": "C",
    "status": "Assigned to Contractor",
    "contractor": "Richards Disposal",
    "rowid": "1004505",
    "final_x": "3699405.23216",
    "final_y": "521612.623993",
    "longitude": "-90.01189317704053",
    "latitude": "29.92769806561524",
    "geocoded_column": {
      "latitude": "29.92769806561524",
      "longitude": "-90.01189317704053"
    }
  },
  {
    "service_request": "2023-1004504",
    "request_type": "Trash/Recycling",
    "request_reason": "Order Recycling Cart",
    "date_created": "2023-05-31T18:34:59.000",
    "date_modified": "2023-05-31T18:34:59.000",
    "request_status": "Pending",
    "responsible_agency": "Department of Sanitation",
    "final_address": "1216 Short St",
    "address_councildis": "A",
    "status": "Pending",
    "rowid": "1004504",
    "final_x": "3662387.34931",
    "final_y": "528227.16576",
    "longitude": "-90.1285308203422",
    "latitude": "29.947007915296023",
    "geocoded_column": {
      "latitude": "29.947007915296023",
      "longitude": "-90.1285308203422"
    }
  },
  {
    "service_request": "2023-1004503",
    "request_type": "Trash/Recycling",
    "request_reason": "Missed Trash Pick-Up",
    "date_created": "2023-05-31T18:30:40.000",
    "date_modified": "2023-05-31T18:30:40.000",
    "request_status": "Pending",
    "responsible_agency": "Department of Sanitation",
    "final_address": "604 N Bernadotte St",
    "address_councildis": "A",
    "status": "Assigned to Contractor",
    "contractor": "Richards Disposal",
    "rowid": "1004503",
    "final_x": "3669967.81524",
    "final_y": "541529.642892",
    "longitude": "-90.10414584910123",
    "latitude": "29.98336395297401",
    "geocoded_column": {
      "latitude": "29.98336395297401",
      "longitude": "-90.10414584910123"
    }
  },
  {
    "service_request": "2023-1004502",
    "request_type": "Trash/Recycling",
    "request_reason": "Order Recycling Cart",
    "date_created": "2023-05-31T18:26:39.000",
    "date_modified": "2023-05-31T18:26:39.000",
    "request_status": "Pending",
    "responsible_agency": "Department of Sanitation",
    "final_address": "606 N Bernadotte St",
    "address_councildis": "A",
    "status": "Pending",
    "rowid": "1004502",
    "final_x": "3669974.76378",
    "final_y": "541536.938636",
    "longitude": "-90.1041236547205",
    "latitude": "29.983383808825003",
    "geocoded_column": {
      "latitude": "29.983383808825003",
      "longitude": "-90.1041236547205"
    }
  },
  {
    "service_request": "2023-1004501",
    "request_type": "Trash/Recycling",
    "request_reason": "Request a Large Item Pick Up",
    "date_created": "2023-05-31T18:23:40.000",
    "date_modified": "2023-05-31T18:23:40.000",
    "request_status": "Pending",
    "responsible_agency": "Department of Sanitation",
    "final_address": "2132 Lizardi St",
    "address_councildis": "E",
    "status": "Assigned to Contractor",
    "contractor": "Waste Pro",
    "rowid": "1004501",
    "final_x": "3697623.52394",
    "final_y": "538114.795657",
    "longitude": "-90.01691909002827",
    "latitude": "29.973129624283953",
    "geocoded_column": {
      "latitude": "29.973129624283953",
      "longitude": "-90.01691909002827"
    }
  },
  {
    "service_request": "2023-1004500",
    "request_type": "Trash/Recycling",
    "request_reason": "Replace Trash Cart",
    "date_created": "2023-05-31T18:12:15.000",
    "date_modified": "2023-05-31T18:12:18.000",
    "request_status": "Pending",
    "responsible_agency": "Department of Sanitation",
    "final_address": "604 N Bernadotte St",
    "address_councildis": "A",
    "status": "Assigned to Contractor",
    "contractor": "Richards Disposal",
    "rowid": "1004500",
    "final_x": "3669967.81524",
    "final_y": "541529.642892",
    "longitude": "-90.10414584910123",
    "latitude": "29.98336395297401",
    "geocoded_column": {
      "latitude": "29.98336395297401",
      "longitude": "-90.10414584910123"
    }
  },
  {
    "service_request": "2023-1004499",
    "request_type": "Trash/Recycling",
    "request_reason": "Order Trash Cart",
    "date_created": "2023-05-31T18:09:01.000",
    "date_modified": "2023-05-31T18:09:02.000",
    "request_status": "Pending",
    "responsible_agency": "Department of Sanitation",
    "final_address": "6056 Canal Blvd",
    "address_councildis": "A",
    "status": "Assigned to Contractor",
    "contractor": "IV Waste",
    "rowid": "1004499",
    "final_x": "3668399.07687",
    "final_y": "547827.029906",
    "longitude": "-90.10888821012253",
    "latitude": "30.00072578721952",
    "geocoded_column": {
      "latitude": "30.00072578721952",
      "longitude": "-90.10888821012253"
    }
  },
  {
    "service_request": "2023-1004498",
    "request_type": "Trash/Recycling",
    "request_reason": "Order Trash Cart",
    "date_created": "2023-05-31T17:51:00.000",
    "date_modified": "2023-05-31T17:51:01.000",
    "request_status": "Pending",
    "responsible_agency": "Department of Sanitation",
    "final_address": "2227 Eads St",
    "address_councildis": "D",
    "status": "Assigned to Contractor",
    "contractor": "IV Waste",
    "rowid": "1004498",
    "final_x": "3688018.97167",
    "final_y": "540853.732555",
    "longitude": "-90.04715499037134",
    "latitude": "29.98096064347085",
    "geocoded_column": {
      "latitude": "29.98096064347085",
      "longitude": "-90.04715499037134"
    }
  },
  {
    "service_request": "2023-1004497",
    "request_type": "Trash/Recycling",
    "request_reason": "Request a Large Item Pick Up",
    "date_created": "2023-05-31T17:50:01.000",
    "date_modified": "2023-05-31T17:50:02.000",
    "request_status": "Pending",
    "responsible_agency": "Department of Sanitation",
    "final_address": "2503 Octavia St",
    "address_councildis": "A",
    "status": "Assigned to Contractor",
    "contractor": "Richards Disposal",
    "rowid": "1004497",
    "final_x": "3667796.42682",
    "final_y": "524796.552572",
    "longitude": "-90.11156779015383",
    "latitude": "29.93741734278597",
    "geocoded_column": {
      "latitude": "29.93741734278597",
      "longitude": "-90.11156779015383"
    }
  },
  {
    "service_request": "2023-1004496",
    "request_type": "Abandoned Vehicles",
    "request_reason": "Abandoned/Junk Vehicles",
    "date_created": "2023-05-31T17:47:27.000",
    "date_modified": "2023-05-31T17:47:27.000",
    "request_status": "Pending",
    "responsible_agency": "Department of Public Works",
    "final_address": "3800 Napoleon Ave",
    "address_councildis": "B",
    "status": "Pending",
    "rowid": "1004496",
    "final_x": "3669990.05146",
    "final_y": "528514.456832",
    "longitude": "-90.10451647227175",
    "latitude": "29.947575875905905",
    "geocoded_column": {
      "latitude": "29.947575875905905",
      "longitude": "-90.10451647227175"
    }
  },
  {
    "service_request": "2023-1004495",
    "request_type": "Trash/Recycling",
    "request_reason": "Request a Large Item Pick Up",
    "date_created": "2023-05-31T17:39:17.000",
    "date_modified": "2023-05-31T17:39:17.000",
    "request_status": "Pending",
    "responsible_agency": "Department of Sanitation",
    "final_address": "1703 N Dorgenois St",
    "address_councildis": "D",
    "status": "Assigned to Contractor",
    "contractor": "IV Waste",
    "rowid": "1004495",
    "final_x": "3679996.1789",
    "final_y": "540450.520459",
    "longitude": "-90.07250855425346",
    "latitude": "29.980097128101047",
    "geocoded_column": {
      "latitude": "29.980097128101047",
      "longitude": "-90.07250855425346"
    }
  },
  {
    "service_request": "2023-1004494",
    "request_type": "Trash/Recycling",
    "request_reason": "Missed Trash Pick-Up",
    "date_created": "2023-05-31T17:36:48.000",
    "date_modified": "2023-05-31T17:36:48.000",
    "request_status": "Pending",
    "responsible_agency": "Department of Sanitation",
    "final_address": "4929 Papania Dr",
    "address_councildis": "E",
    "status": "Assigned to Contractor",
    "contractor": "Waste Pro",
    "rowid": "1004494",
    "final_x": "3715585.55122",
    "final_y": "557672.046619",
    "longitude": "-89.95945152946472",
    "latitude": "30.02632486297655",
    "geocoded_column": {
      "latitude": "30.02632486297655",
      "longitude": "-89.95945152946472"
    }
  },
  {
    "service_request": "2023-1004493",
    "request_type": "Trash/Recycling",
    "request_reason": "MIssed Recycling Pick-Up",
    "date_created": "2023-05-31T17:33:30.000",
    "date_modified": "2023-05-31T17:33:31.000",
    "request_status": "Pending",
    "responsible_agency": "Department of Sanitation",
    "final_address": "1528 St Philip St",
    "address_councildis": "C",
    "status": "Assigned to Contractor",
    "contractor": "Richards Disposal",
    "rowid": "1004493",
    "final_x": "3680772.24552",
    "final_y": "535182.214022",
    "longitude": "-90.07024083428946",
    "latitude": "29.96558760095176",
    "geocoded_column": {
      "latitude": "29.96558760095176",
      "longitude": "-90.07024083428946"
    }
  },
  {
    "service_request": "2023-1004492",
    "request_type": "Trash/Recycling",
    "request_reason": "Missed Trash Pick-Up",
    "date_created": "2023-05-31T17:31:11.000",
    "date_modified": "2023-05-31T17:31:12.000",
    "request_status": "Pending",
    "responsible_agency": "Department of Sanitation",
    "final_address": "908 Fern St",
    "address_councildis": "A",
    "status": "Assigned to Contractor",
    "contractor": "Richards Disposal",
    "rowid": "1004492",
    "final_x": "3661854.66298",
    "final_y": "527171.849215",
    "longitude": "-90.13024770251916",
    "latitude": "29.944121521820318",
    "geocoded_column": {
      "latitude": "29.944121521820318",
      "longitude": "-90.13024770251916"
    }
  },
  {
    "service_request": "2023-1004491",
    "request_type": "Trash/Recycling",
    "request_reason": "Missed Trash Pick-Up",
    "date_created": "2023-05-31T17:26:12.000",
    "date_modified": "2023-05-31T17:26:13.000",
    "request_status": "Pending",
    "responsible_agency": "Department of Sanitation",
    "final_address": "908 Fern St",
    "address_councildis": "A",
    "status": "Assigned to Contractor",
    "contractor": "Richards Disposal",
    "rowid": "1004491",
    "final_x": "3661854.66298",
    "final_y": "527171.849215",
    "longitude": "-90.13024770251916",
    "latitude": "29.944121521820318",
    "geocoded_column": {
      "latitude": "29.944121521820318",
      "longitude": "-90.13024770251916"
    }
  },
  {
    "service_request": "2023-1004490",
    "request_type": "Abandoned Vehicles",
    "request_reason": "Abandoned/Junk Vehicles",
    "date_created": "2023-05-31T17:18:56.000",
    "date_modified": "2023-05-31T17:18:57.000",
    "request_status": "Pending",
    "responsible_agency": "Department of Public Works",
    "final_address": "1326 Kentucky St",
    "address_councildis": "D",
    "status": "Pending",
    "rowid": "1004490",
    "final_x": "3693521.14134",
    "final_y": "535895.477127",
    "longitude": "-90.02995489623046",
    "latitude": "29.967156241711578",
    "geocoded_column": {
      "latitude": "29.967156241711578",
      "longitude": "-90.02995489623046"
    }
  },
  {
    "service_request": "2023-1004488",
    "request_type": "Traffic Signals/Signs/Striping/Streetlights",
    "request_reason": "Traffic Signal Malfunctioning/Damaged",
    "date_created": "2023-05-31T17:17:00.000",
    "date_modified": "2023-05-31T17:17:00.000",
    "request_status": "Pending",
    "responsible_agency": "Department of Public Works",
    "final_address": "1100 BLK Elysian Fields Ave",
    "address_councildis": "C",
    "status": "Pending",
    "rowid": "1004488",
    "final_x": "3684946.53263",
    "final_y": "536481.558386",
    "longitude": "-90.05701292353032",
    "latitude": "29.969033163717345",
    "geocoded_column": {
      "latitude": "29.969033163717345",
      "longitude": "-90.05701292353032"
    }
  },
  {
    "service_request": "2023-1004487",
    "request_type": "Trash/Recycling",
    "request_reason": "Replace Trash Cart",
    "date_created": "2023-05-31T16:59:59.000",
    "date_modified": "2023-05-31T17:08:49.000",
    "request_status": "Pending",
    "responsible_agency": "Department of Sanitation",
    "final_address": "1524 Harmony",
    "address_councildis": "B",
    "status": "Assigned to Contractor",
    "contractor": "Richards Disposal",
    "rowid": "1004487",
    "final_x": "3674985.64104",
    "final_y": "521528.944249",
    "longitude": "-90.08898295244416",
    "latitude": "29.92821974624113",
    "geocoded_column": {
      "latitude": "29.92821974624113",
      "longitude": "-90.08898295244416"
    }
  },
  {
    "service_request": "2023-1004486",
    "request_type": "Trash/Recycling",
    "request_reason": "Request a Large Item Pick Up",
    "date_created": "2023-05-31T16:58:08.000",
    "date_modified": "2023-05-31T17:02:02.000",
    "request_status": "Pending",
    "responsible_agency": "Department of Sanitation",
    "final_address": "5179 Basinview Dr",
    "address_councildis": "E",
    "status": "Assigned to Contractor",
    "contractor": "Waste Pro",
    "rowid": "1004486",
    "final_x": "3698753.44714",
    "final_y": "556598.676314",
    "longitude": "-90.01267777364443",
    "latitude": "30.023917692628",
    "geocoded_column": {
      "latitude": "30.023917692628",
      "longitude": "-90.01267777364443"
    }
  },
  {
    "service_request": "2023-1004485",
    "request_type": "Trash/Recycling",
    "request_reason": "Repair Recycling Cart",
    "date_created": "2023-05-31T16:56:59.000",
    "date_modified": "2023-05-31T16:57:00.000",
    "request_status": "Pending",
    "responsible_agency": "Department of Sanitation",
    "final_address": "207 Neil Ave",
    "address_councildis": "C",
    "status": "Pending",
    "rowid": "1004485",
    "final_x": "3706348.37156",
    "final_y": "518679.157047",
    "longitude": "-89.99008408985331",
    "latitude": "29.919410057836267",
    "geocoded_column": {
      "latitude": "29.919410057836267",
      "longitude": "-89.99008408985331"
    }
  },
  {
    "service_request": "2023-1004484",
    "request_type": "Trash/Recycling",
    "request_reason": "Repair Trash Cart",
    "date_created": "2023-05-31T16:56:35.000",
    "date_modified": "2023-05-31T16:56:35.000",
    "request_status": "Pending",
    "responsible_agency": "Department of Sanitation",
    "final_address": "207 Neil Ave",
    "address_councildis": "C",
    "status": "Assigned to Contractor",
    "contractor": "Richards Disposal",
    "rowid": "1004484",
    "final_x": "3706348.37156",
    "final_y": "518679.157047",
    "longitude": "-89.99008408985331",
    "latitude": "29.919410057836267",
    "geocoded_column": {
      "latitude": "29.919410057836267",
      "longitude": "-89.99008408985331"
    }
  },
  {
    "service_request": "2023-1004483",
    "request_type": "Trash/Recycling",
    "request_reason": "Repair Recycling Cart",
    "date_created": "2023-05-31T16:54:35.000",
    "date_modified": "2023-05-31T16:54:35.000",
    "request_status": "Pending",
    "responsible_agency": "Department of Sanitation",
    "final_address": "237 18Th St",
    "address_councildis": "A",
    "status": "Pending",
    "rowid": "1004483",
    "final_x": "3665401.19847",
    "final_y": "548773.497939",
    "longitude": "-90.11832705731821",
    "latitude": "30.003415993336905",
    "geocoded_column": {
      "latitude": "30.003415993336905",
      "longitude": "-90.11832705731821"
    }
  },
  {
    "service_request": "2023-1004482",
    "request_type": "Trash/Recycling",
    "request_reason": "Request a Large Item Pick Up",
    "date_created": "2023-05-31T16:44:06.000",
    "date_modified": "2023-05-31T16:44:07.000",
    "request_status": "Pending",
    "responsible_agency": "Department of Sanitation",
    "final_address": "1565 De Battista Pl",
    "address_councildis": "C",
    "status": "Assigned to Contractor",
    "contractor": "Richards Disposal",
    "rowid": "1004482",
    "final_x": "3699701.48727",
    "final_y": "525242.143037",
    "longitude": "-90.01082573624375",
    "latitude": "29.937668588974045",
    "geocoded_column": {
      "latitude": "29.937668588974045",
      "longitude": "-90.01082573624375"
    }
  },
  {
    "service_request": "2023-1004481",
    "request_type": "Trash/Recycling",
    "request_reason": "Order Trash Cart",
    "date_created": "2023-05-31T16:43:32.000",
    "date_modified": "2023-05-31T16:43:33.000",
    "request_status": "Pending",
    "responsible_agency": "Department of Sanitation",
    "final_address": "3514 Elysian Fields Ave",
    "address_councildis": "D",
    "status": "Assigned to Contractor",
    "contractor": "IV Waste",
    "rowid": "1004481",
    "final_x": "3684104.42165",
    "final_y": "545644.79048",
    "longitude": "-90.05935062027868",
    "latitude": "29.99425459516148",
    "geocoded_column": {
      "latitude": "29.99425459516148",
      "longitude": "-90.05935062027868"
    }
  },
  {
    "service_request": "2023-1004480",
    "request_type": "Trash/Recycling",
    "request_reason": "Request a Large Item Pick Up",
    "date_created": "2023-05-31T16:42:38.000",
    "date_modified": "2023-05-31T16:42:39.000",
    "request_status": "Pending",
    "responsible_agency": "Department of Sanitation",
    "final_address": "2506 Upperline St",
    "address_councildis": "B",
    "status": "Assigned to Contractor",
    "contractor": "Richards Disposal",
    "rowid": "1004480",
    "final_x": "3669124.47617",
    "final_y": "523984.191548",
    "longitude": "-90.10740247487317",
    "latitude": "29.93514460779688",
    "geocoded_column": {
      "latitude": "29.93514460779688",
      "longitude": "-90.10740247487317"
    }
  },
  {
    "service_request": "2023-1004479",
    "request_type": "Trash/Recycling",
    "request_reason": "Request a Large Item Pick Up",
    "date_created": "2023-05-31T16:42:04.000",
    "date_modified": "2023-05-31T16:42:05.000",
    "request_status": "Pending",
    "responsible_agency": "Department of Sanitation",
    "final_address": "5303 Warrington Dr",
    "address_councildis": "D",
    "status": "Assigned to Contractor",
    "contractor": "IV Waste",
    "rowid": "1004479",
    "final_x": "3681010.68687",
    "final_y": "552183.85135",
    "longitude": "-90.06889537096086",
    "latitude": "30.012328888930643",
    "geocoded_column": {
      "latitude": "30.012328888930643",
      "longitude": "-90.06889537096086"
    }
  },
  {
    "service_request": "2023-1004478",
    "request_type": "Trash/Recycling",
    "request_reason": "Missed Trash Pick-Up",
    "date_created": "2023-05-31T16:33:16.000",
    "date_modified": "2023-05-31T16:33:17.000",
    "request_status": "Pending",
    "responsible_agency": "Department of Sanitation",
    "final_address": "4844 Nottingham Dr",
    "address_councildis": "E",
    "status": "Assigned to Contractor",
    "contractor": "Waste Pro",
    "rowid": "1004478",
    "final_x": "3716264.91628",
    "final_y": "557425.021979",
    "longitude": "-89.95731421451936",
    "latitude": "30.02562322857043",
    "geocoded_column": {
      "latitude": "30.02562322857043",
      "longitude": "-89.95731421451936"
    }
  },
  {
    "service_request": "2023-1004477",
    "request_type": "Trash/Recycling",
    "request_reason": "Request a Large Item Pick Up",
    "date_created": "2023-05-31T16:33:11.000",
    "date_modified": "2023-05-31T16:33:12.000",
    "request_status": "Pending",
    "responsible_agency": "Department of Sanitation",
    "final_address": "1231 Seville Dr",
    "address_councildis": "D",
    "status": "Assigned to Contractor",
    "contractor": "IV Waste",
    "rowid": "1004477",
    "final_x": "3677036.87752",
    "final_y": "551182.821973",
    "longitude": "-90.08148494118241",
    "latitude": "30.009696392567847",
    "geocoded_column": {
      "latitude": "30.009696392567847",
      "longitude": "-90.08148494118241"
    }
  },
  {
    "service_request": "2023-1004476",
    "request_type": "Trash/Recycling",
    "request_reason": "Repair Trash Cart",
    "date_created": "2023-05-31T16:33:06.000",
    "date_modified": "2023-05-31T16:33:07.000",
    "request_status": "Pending",
    "responsible_agency": "Department of Sanitation",
    "final_address": "13110 Dwyer Blvd",
    "address_councildis": "E",
    "status": "Assigned to Contractor",
    "contractor": "Waste Pro",
    "rowid": "1004476",
    "final_x": "3724142.07654",
    "final_y": "561217.970014",
    "longitude": "-89.93227730002732",
    "latitude": "30.035789834605033",
    "geocoded_column": {
      "latitude": "30.035789834605033",
      "longitude": "-89.93227730002732"
    }
  },
  {
    "service_request": "2023-1004475",
    "request_type": "Trash/Recycling",
    "request_reason": "Order Recycling Cart",
    "date_created": "2023-05-31T16:32:25.000",
    "date_modified": "2023-05-31T16:32:26.000",
    "request_status": "Pending",
    "responsible_agency": "Department of Sanitation",
    "final_address": "13110 Dwyer Blvd",
    "address_councildis": "E",
    "status": "Pending",
    "rowid": "1004475",
    "final_x": "3724142.07654",
    "final_y": "561217.970014",
    "longitude": "-89.93227730002732",
    "latitude": "30.035789834605033",
    "geocoded_column": {
      "latitude": "30.035789834605033",
      "longitude": "-89.93227730002732"
    }
  },
  {
    "service_request": "2023-1004474",
    "request_type": "Trash/Recycling",
    "request_reason": "Request a Large Item Pick Up",
    "date_created": "2023-05-31T16:30:44.000",
    "date_modified": "2023-05-31T16:30:45.000",
    "request_status": "Pending",
    "responsible_agency": "Department of Sanitation",
    "final_address": "8526 Pritchard Pl",
    "address_councildis": "A",
    "status": "Assigned to Contractor",
    "contractor": "Richards Disposal",
    "rowid": "1004474",
    "final_x": "3664772.02183",
    "final_y": "534006.593605",
    "longitude": "-90.12080839352379",
    "latitude": "29.962830302520548",
    "geocoded_column": {
      "latitude": "29.962830302520548",
      "longitude": "-90.12080839352379"
    }
  },
  {
    "service_request": "2023-1004473",
    "request_type": "Trash/Recycling",
    "request_reason": "Replace Trash Cart",
    "date_created": "2023-05-31T16:30:21.000",
    "date_modified": "2023-05-31T16:30:22.000",
    "request_status": "Pending",
    "responsible_agency": "Department of Sanitation",
    "final_address": "2604 Iberville St",
    "address_councildis": "B",
    "status": "Assigned to Contractor",
    "contractor": "Richards Disposal",
    "rowid": "1004473",
    "final_x": "3675972.39477",
    "final_y": "535135.791238",
    "longitude": "-90.0854001788266",
    "latitude": "29.96560456585204",
    "geocoded_column": {
      "latitude": "29.96560456585204",
      "longitude": "-90.0854001788266"
    }
  },
  {
    "service_request": "2023-1004472",
    "request_type": "Traffic Signals/Signs/Striping/Streetlights",
    "request_reason": "Street Light Outage/Malfunction",
    "date_created": "2023-05-31T16:22:57.000",
    "date_modified": "2023-05-31T16:22:57.000",
    "request_status": "Pending",
    "responsible_agency": "Department of Public Works",
    "final_address": "4888 Savoie Ct",
    "address_councildis": "E",
    "status": "Assigned to Contractor",
    "contractor": "Legacy Professional Services",
    "rowid": "1004472",
    "final_x": "3725175.74617",
    "final_y": "561478.792991",
    "longitude": "-89.929000661561",
    "latitude": "30.036472197569157",
    "geocoded_column": {
      "latitude": "30.036472197569157",
      "longitude": "-89.929000661561"
    }
  },
  {
    "service_request": "2023-1004471",
    "request_type": "Trash/Recycling",
    "request_reason": "Repair Trash Cart",
    "date_created": "2023-05-31T16:14:36.000",
    "date_modified": "2023-05-31T16:14:37.000",
    "request_status": "Pending",
    "responsible_agency": "Department of Sanitation",
    "final_address": "4231 General Pershing St",
    "address_councildis": "B",
    "status": "Assigned to Contractor",
    "contractor": "Richards Disposal",
    "rowid": "1004471",
    "final_x": "3669793.725",
    "final_y": "529588.524929",
    "longitude": "-90.1051000020237",
    "latitude": "29.95053499976086",
    "geocoded_column": {
      "latitude": "29.95053499976086",
      "longitude": "-90.1051000020237"
    }
  },
  {
    "service_request": "2023-1004470",
    "request_type": "Property Maintenance",
    "request_reason": "Property Maintenance",
    "date_created": "2023-05-31T16:13:02.000",
    "date_modified": "2023-05-31T16:13:03.000",
    "request_status": "Pending",
    "responsible_agency": "Department of Code Enforcement",
    "final_address": "7536 Surf St",
    "address_councildis": "E",
    "status": "Pending",
    "rowid": "1004470",
    "final_x": "3715704.94655",
    "final_y": "568854.787941",
    "longitude": "-89.95865032683218",
    "latitude": "30.057068933861675",
    "geocoded_column": {
      "latitude": "30.057068933861675",
      "longitude": "-89.95865032683218"
    }
  },
  {
    "service_request": "2023-1004469",
    "request_type": "Property Maintenance",
    "request_reason": "Property Maintenance",
    "date_created": "2023-05-31T16:12:53.000",
    "date_modified": "2023-05-31T16:12:53.000",
    "request_status": "Pending",
    "responsible_agency": "Department of Code Enforcement",
    "final_address": "7522 Endeavors Ct",
    "address_councildis": "E",
    "status": "Pending",
    "rowid": "1004469",
    "final_x": "3726079.90976",
    "final_y": "570816.079143",
    "longitude": "-89.92578089140814",
    "latitude": "30.062115329169323",
    "geocoded_column": {
      "latitude": "30.062115329169323",
      "longitude": "-89.92578089140814"
    }
  },
  {
    "service_request": "2023-1004468",
    "request_type": "Trash/Recycling",
    "request_reason": "Missed Trash Pick-Up",
    "date_created": "2023-05-31T16:10:57.000",
    "date_modified": "2023-05-31T16:10:59.000",
    "request_status": "Pending",
    "responsible_agency": "Department of Sanitation",
    "final_address": "4948 Chrysler St",
    "address_councildis": "E",
    "status": "Assigned to Contractor",
    "contractor": "Waste Pro",
    "rowid": "1004468",
    "final_x": "3715130.14245",
    "final_y": "557801.687899",
    "longitude": "-89.96088564470875",
    "latitude": "30.026696331180947",
    "geocoded_column": {
      "latitude": "30.026696331180947",
      "longitude": "-89.96088564470875"
    }
  },
  {
    "service_request": "2023-1004467",
    "request_type": "Property Maintenance",
    "request_reason": "Property Maintenance",
    "date_created": "2023-05-31T15:55:14.000",
    "date_modified": "2023-05-31T15:55:14.000",
    "request_status": "Pending",
    "responsible_agency": "Department of Code Enforcement",
    "final_address": "2800 BLK Cupid St",
    "address_councildis": "C",
    "status": "Pending",
    "rowid": "1004467",
    "final_x": "3700309.39331",
    "final_y": "520473.104511",
    "longitude": "-90.00908054822304",
    "latitude": "29.924536076961452",
    "geocoded_column": {
      "latitude": "29.924536076961452",
      "longitude": "-90.00908054822304"
    }
  },
  {
    "service_request": "2023-1004466",
    "request_type": "Trash/Recycling",
    "request_reason": "Replace Trash Cart",
    "date_created": "2023-05-31T15:54:19.000",
    "date_modified": "2023-05-31T15:54:21.000",
    "request_status": "Pending",
    "responsible_agency": "Department of Sanitation",
    "final_address": "410 Cherokee St",
    "address_councildis": "A",
    "status": "Assigned to Contractor",
    "contractor": "Richards Disposal",
    "rowid": "1004466",
    "final_x": "3661723.00928",
    "final_y": "525011.256829",
    "longitude": "-90.130734967347",
    "latitude": "29.93818437906963",
    "geocoded_column": {
      "latitude": "29.93818437906963",
      "longitude": "-90.130734967347"
    }
  },
  {
    "service_request": "2023-1004464",
    "request_type": "Trash/Recycling",
    "request_reason": "Missed Trash Pick-Up",
    "date_created": "2023-05-31T15:49:59.000",
    "date_modified": "2023-05-31T16:01:05.000",
    "request_status": "Pending",
    "responsible_agency": "Department of Sanitation",
    "final_address": "6900 Edgefield Dr",
    "address_councildis": "E",
    "status": "Assigned to Contractor",
    "contractor": "Waste Pro",
    "rowid": "1004464",
    "final_x": "3719216.80876",
    "final_y": "568413.605221",
    "longitude": "-89.94756683869356",
    "latitude": "30.055739549275785",
    "geocoded_column": {
      "latitude": "30.055739549275785",
      "longitude": "-89.94756683869356"
    }
  },
  {
    "service_request": "2023-1004463",
    "request_type": "Roads/Drainage",
    "request_reason": "Damaged Sidewalk",
    "date_created": "2023-05-31T15:48:46.000",
    "date_modified": "2023-05-31T15:48:46.000",
    "request_status": "Pending",
    "responsible_agency": "Department of Public Works",
    "final_address": "4850 Magazine St Unit B",
    "address_councildis": "B",
    "status": "Pending",
    "rowid": "1004463",
    "final_x": "3669142.72737",
    "final_y": "518536.332023",
    "longitude": "-90.10752884709018",
    "latitude": "29.920164192689956",
    "geocoded_column": {
      "latitude": "29.920164192689956",
      "longitude": "-90.10752884709018"
    }
  },
  {
    "service_request": "2023-1004462",
    "request_type": "Abandoned Vehicles",
    "request_reason": "Abandoned/Junk Vehicles",
    "date_created": "2023-05-31T15:48:10.000",
    "date_modified": "2023-05-31T15:51:06.000",
    "request_status": "Pending",
    "responsible_agency": "Department of Public Works",
    "final_address": "6242 St Anthony Ave",
    "address_councildis": "D",
    "status": "Pending",
    "rowid": "1004462",
    "final_x": "3681806.59036",
    "final_y": "556210.741274",
    "longitude": "-90.06624007401969",
    "latitude": "30.023377193335445",
    "geocoded_column": {
      "latitude": "30.023377193335445",
      "longitude": "-90.06624007401969"
    }
  },
  {
    "service_request": "2023-1004461",
    "request_type": "Parks & Parkways",
    "request_reason": "Tree Stump (removal, grind)",
    "date_created": "2023-05-31T15:47:22.000",
    "date_modified": "2023-05-31T15:47:22.000",
    "request_status": "Pending",
    "responsible_agency": "Department of Parks & Parkway",
    "final_address": "4850 Magazine St Unit B",
    "address_councildis": "B",
    "status": "Pending",
    "rowid": "1004461",
    "final_x": "3669142.72737",
    "final_y": "518536.332023",
    "longitude": "-90.10752884709018",
    "latitude": "29.920164192689956",
    "geocoded_column": {
      "latitude": "29.920164192689956",
      "longitude": "-90.10752884709018"
    }
  },
  {
    "service_request": "2023-1004460",
    "request_type": "Trash/Recycling",
    "request_reason": "Repair Trash Cart",
    "date_created": "2023-05-31T15:47:11.000",
    "date_modified": "2023-05-31T15:47:12.000",
    "request_status": "Pending",
    "responsible_agency": "Department of Sanitation",
    "final_address": "4659 Dart St",
    "address_councildis": "B",
    "status": "Assigned to Contractor",
    "contractor": "Richards Disposal",
    "rowid": "1004460",
    "final_x": "3668882.22356",
    "final_y": "531852.242115",
    "longitude": "-90.10790161973773",
    "latitude": "29.956786313517576",
    "geocoded_column": {
      "latitude": "29.956786313517576",
      "longitude": "-90.10790161973773"
    }
  },
  {
    "service_request": "2023-1004459",
    "request_type": "Parks & Parkways",
    "request_reason": "Request Tree Service (Right of Way/Public Property)",
    "date_created": "2023-05-31T15:46:41.000",
    "date_modified": "2023-05-31T15:46:41.000",
    "request_status": "Pending",
    "responsible_agency": "Department of Parks & Parkway",
    "final_address": "6101 Duplessis St",
    "address_councildis": "D",
    "status": "Pending",
    "rowid": "1004459",
    "final_x": "3678064.38613",
    "final_y": "554926.71004",
    "longitude": "-90.07810910057908",
    "latitude": "30.019959828689228",
    "geocoded_column": {
      "latitude": "30.019959828689228",
      "longitude": "-90.07810910057908"
    }
  },
  {
    "service_request": "2023-1004458",
    "request_type": "Roads/Drainage",
    "request_reason": "Pothole",
    "date_created": "2023-05-31T15:43:50.000",
    "date_modified": "2023-05-31T15:43:50.000",
    "request_status": "Pending",
    "responsible_agency": "Department of Public Works",
    "final_address": "2412 George Nick Connor Dr",
    "address_councildis": "D",
    "status": "Pending",
    "rowid": "1004458",
    "final_x": "3681166.49032",
    "final_y": "540937.375755",
    "longitude": "-90.06879525338462",
    "latitude": "29.98140034978296",
    "geocoded_column": {
      "latitude": "29.98140034978296",
      "longitude": "-90.06879525338462"
    }
  },
  {
    "service_request": "2023-1004457",
    "request_type": "Trash/Recycling",
    "request_reason": "Repair Trash Cart",
    "date_created": "2023-05-31T15:42:26.000",
    "date_modified": "2023-05-31T15:42:27.000",
    "request_status": "Pending",
    "responsible_agency": "Department of Sanitation",
    "final_address": "3228 Palmyra St",
    "address_councildis": "B",
    "status": "Assigned to Contractor",
    "contractor": "Richards Disposal",
    "rowid": "1004457",
    "final_x": "3673146.69915",
    "final_y": "535692.351815",
    "longitude": "-90.09430462282502",
    "latitude": "29.967219237382114",
    "geocoded_column": {
      "latitude": "29.967219237382114",
      "longitude": "-90.09430462282502"
    }
  },
  {
    "service_request": "2023-1004456",
    "request_type": "Trash/Recycling",
    "request_reason": "Repair Trash Cart",
    "date_created": "2023-05-31T15:41:35.000",
    "date_modified": "2023-05-31T15:41:36.000",
    "request_status": "Pending",
    "responsible_agency": "Department of Sanitation",
    "final_address": "3230 Palmyra St",
    "address_councildis": "B",
    "status": "Assigned to Contractor",
    "contractor": "Richards Disposal",
    "rowid": "1004456",
    "final_x": "3673133.7259",
    "final_y": "535700.204039",
    "longitude": "-90.094345324432",
    "latitude": "29.96724121407924",
    "geocoded_column": {
      "latitude": "29.96724121407924",
      "longitude": "-90.094345324432"
    }
  },
  {
    "service_request": "2023-1004455",
    "request_type": "Traffic Signals/Signs/Striping/Streetlights",
    "request_reason": "Traffic Sign Missing/Damaged",
    "date_created": "2023-05-31T15:40:04.000",
    "date_modified": "2023-05-31T15:40:04.000",
    "request_status": "Pending",
    "responsible_agency": "Department of Public Works",
    "final_address": "WALMSLEY AVE & STATE STREET DR",
    "address_councildis": "B",
    "status": "Pending",
    "rowid": "1004455",
    "final_x": "3668296.1",
    "final_y": "530546.58",
    "longitude": "-90.10979644114148",
    "latitude": "29.953213393879754",
    "geocoded_column": {
      "latitude": "29.953213393879754",
      "longitude": "-90.10979644114148"
    }
  },
  {
    "service_request": "2023-1004454",
    "request_type": "Trash/Recycling",
    "request_reason": "MIssed Recycling Pick-Up",
    "date_created": "2023-05-31T15:37:03.000",
    "date_modified": "2023-05-31T15:37:04.000",
    "request_status": "Pending",
    "responsible_agency": "Department of Sanitation",
    "final_address": "4919 Painters St",
    "address_councildis": "D",
    "status": "Assigned to Contractor",
    "contractor": "IV Waste",
    "rowid": "1004454",
    "final_x": "3686218.61519",
    "final_y": "551101.268181",
    "longitude": "-90.05247950692889",
    "latitude": "30.0091931320259",
    "geocoded_column": {
      "latitude": "30.0091931320259",
      "longitude": "-90.05247950692889"
    }
  },
  {
    "service_request": "2023-1004453",
    "request_type": "Trash/Recycling",
    "request_reason": "Request a Large Item Pick Up",
    "date_created": "2023-05-31T15:35:45.000",
    "date_modified": "2023-05-31T15:35:46.000",
    "request_status": "Pending",
    "responsible_agency": "Department of Sanitation",
    "final_address": "4920 Cucullu St",
    "address_councildis": "B",
    "status": "Assigned to Contractor",
    "contractor": "Richards Disposal",
    "rowid": "1004453",
    "final_x": "3669026.15329",
    "final_y": "525530.482365",
    "longitude": "-90.10766066327318",
    "latitude": "29.939399301851022",
    "geocoded_column": {
      "latitude": "29.939399301851022",
      "longitude": "-90.10766066327318"
    }
  },
  {
    "service_request": "2023-1004452",
    "request_type": "Property Maintenance",
    "request_reason": "Property Maintenance",
    "date_created": "2023-05-31T15:31:24.000",
    "date_modified": "2023-05-31T15:31:24.000",
    "request_status": "Pending",
    "responsible_agency": "Department of Code Enforcement",
    "final_address": "6251 Oxford St",
    "address_councildis": "C",
    "status": "Pending",
    "rowid": "1004452",
    "final_x": "3707371.87262",
    "final_y": "519665.5806",
    "longitude": "-89.98681684936588",
    "latitude": "29.922089347644842",
    "geocoded_column": {
      "latitude": "29.922089347644842",
      "longitude": "-89.98681684936588"
    }
  },
  {
    "service_request": "2023-1004451",
    "request_type": "Roads/Drainage",
    "request_reason": "Damaged Sidewalk",
    "date_created": "2023-05-31T15:31:02.000",
    "date_modified": "2023-05-31T15:31:03.000",
    "request_status": "Pending",
    "responsible_agency": "Department of Public Works",
    "final_address": "5814 Louisville St",
    "address_councildis": "A",
    "status": "Pending",
    "rowid": "1004451",
    "final_x": "3667616.62849",
    "final_y": "546204.189456",
    "longitude": "-90.11141469982117",
    "latitude": "29.996286503005575",
    "geocoded_column": {
      "latitude": "29.996286503005575",
      "longitude": "-90.11141469982117"
    }
  },
  {
    "service_request": "2023-1004450",
    "request_type": "Trash/Recycling",
    "request_reason": "Request a Large Item Pick Up",
    "date_created": "2023-05-31T15:25:00.000",
    "date_modified": "2023-05-31T15:25:01.000",
    "request_status": "Pending",
    "responsible_agency": "Department of Sanitation",
    "final_address": "2110 Urquhart St",
    "address_councildis": "C",
    "status": "Assigned to Contractor",
    "contractor": "IV Waste",
    "rowid": "1004450",
    "final_x": "3684652.6406",
    "final_y": "536988.356872",
    "longitude": "-90.05792323823715",
    "latitude": "29.970435681510246",
    "geocoded_column": {
      "latitude": "29.970435681510246",
      "longitude": "-90.05792323823715"
    }
  },
  {
    "service_request": "2023-1004449",
    "request_type": "Trash/Recycling",
    "request_reason": "Repair Trash Cart",
    "date_created": "2023-05-31T15:23:28.000",
    "date_modified": "2023-05-31T15:25:19.000",
    "request_status": "Pending",
    "responsible_agency": "Department of Sanitation",
    "final_address": "7501 Morrison Rd",
    "address_councildis": "E",
    "status": "Assigned to Contractor",
    "contractor": "Waste Pro",
    "rowid": "1004449",
    "final_x": "3700903.11549",
    "final_y": "559701.312157",
    "longitude": "-90.00577169892954",
    "latitude": "30.032380443347375",
    "geocoded_column": {
      "latitude": "30.032380443347375",
      "longitude": "-90.00577169892954"
    }
  },
  {
    "service_request": "2023-1004447",
    "request_type": "Trash/Recycling",
    "request_reason": "Missed Trash Pick-Up",
    "date_created": "2023-05-31T15:21:59.000",
    "date_modified": "2023-05-31T16:18:39.000",
    "case_close_date": "2023-05-31T11:18:39.000",
    "request_status": "Closed",
    "responsible_agency": "Department of Sanitation",
    "final_address": "5621 Eads St",
    "address_councildis": "D",
    "status": "Assigned to Contractor",
    "contractor": "IV Waste",
    "contractor_action": "Invalid Pick-Up",
    "rowid": "1004447",
    "final_x": "3686938.37756",
    "final_y": "553851.690071",
    "longitude": "-90.05010822466613",
    "latitude": "30.016733640155074",
    "geocoded_column": {
      "latitude": "30.016733640155074",
      "longitude": "-90.05010822466613"
    }
  },
  {
    "service_request": "2023-1004446",
    "request_type": "Trash/Recycling",
    "request_reason": "Missed Trash Pick-Up",
    "date_created": "2023-05-31T15:17:13.000",
    "date_modified": "2023-05-31T15:54:07.000",
    "case_close_date": "2023-05-31T10:54:07.000",
    "request_status": "Closed",
    "responsible_agency": "Department of Sanitation",
    "final_address": "5621 Eads St",
    "address_councildis": "D",
    "status": "Duplicate Request",
    "contractor": "IV Waste",
    "contractor_action": "duplicate",
    "rowid": "1004446",
    "final_x": "3686938.37756",
    "final_y": "553851.690071",
    "longitude": "-90.05010822466613",
    "latitude": "30.016733640155074",
    "geocoded_column": {
      "latitude": "30.016733640155074",
      "longitude": "-90.05010822466613"
    }
  },
  {
    "service_request": "2023-1004444",
    "request_type": "Trash/Recycling",
    "request_reason": "Missed Trash Pick-Up",
    "date_created": "2023-05-31T15:15:38.000",
    "date_modified": "2023-05-31T15:15:39.000",
    "request_status": "Pending",
    "responsible_agency": "Department of Sanitation",
    "final_address": "11417 Tanner S Davis Dr",
    "address_councildis": "E",
    "status": "Assigned to Contractor",
    "contractor": "Waste Pro",
    "rowid": "1004444",
    "final_x": "3718188.72889",
    "final_y": "561183.526622",
    "longitude": "-89.95109204540033",
    "latitude": "30.035893939637027",
    "geocoded_column": {
      "latitude": "30.035893939637027",
      "longitude": "-89.95109204540033"
    }
  },
  {
    "service_request": "2023-1004443",
    "request_type": "Trash/Recycling",
    "request_reason": "MIssed Recycling Pick-Up",
    "date_created": "2023-05-31T15:12:38.000",
    "date_modified": "2023-05-31T15:12:39.000",
    "request_status": "Pending",
    "responsible_agency": "Department of Sanitation",
    "final_address": "10901 Morrison Rd",
    "address_councildis": "E",
    "status": "Assigned to Contractor",
    "contractor": "Waste Pro",
    "rowid": "1004443",
    "final_x": "3710752.20824",
    "final_y": "564858.67101",
    "longitude": "-89.97445486473423",
    "latitude": "30.046243680097923",
    "geocoded_column": {
      "latitude": "30.046243680097923",
      "longitude": "-89.97445486473423"
    }
  },
  {
    "service_request": "2023-1004442",
    "request_type": "Trash/Recycling",
    "request_reason": "Request a Large Item Pick Up",
    "date_created": "2023-05-31T15:12:27.000",
    "date_modified": "2023-05-31T15:12:27.000",
    "request_status": "Pending",
    "responsible_agency": "Department of Sanitation",
    "final_address": "3211 Conti St",
    "address_councildis": "B",
    "status": "Assigned to Contractor",
    "contractor": "Richards Disposal",
    "rowid": "1004442",
    "final_x": "3674537.02478",
    "final_y": "537334.891848",
    "longitude": "-90.08985766168401",
    "latitude": "29.971694254544293",
    "geocoded_column": {
      "latitude": "29.971694254544293",
      "longitude": "-90.08985766168401"
    }
  },
  {
    "service_request": "2023-1004441",
    "request_type": "Trash/Recycling",
    "request_reason": "Order Trash Cart",
    "date_created": "2023-05-31T15:11:37.000",
    "date_modified": "2023-05-31T15:11:38.000",
    "request_status": "Pending",
    "responsible_agency": "Department of Sanitation",
    "final_address": "2832 Palmer Ave",
    "address_councildis": "A",
    "status": "Assigned to Contractor",
    "contractor": "Richards Disposal",
    "rowid": "1004441",
    "final_x": "3666884.44109",
    "final_y": "527045.575102",
    "longitude": "-90.11437146734711",
    "latitude": "29.943628138548807",
    "geocoded_column": {
      "latitude": "29.943628138548807",
      "longitude": "-90.11437146734711"
    }
  },
  {
    "service_request": "2023-1004440",
    "request_type": "Abandoned Vehicles",
    "request_reason": "Abandoned/Junk Vehicles",
    "date_created": "2023-05-31T15:10:56.000",
    "date_modified": "2023-05-31T15:14:12.000",
    "request_status": "Pending",
    "responsible_agency": "Department of Public Works",
    "final_address": "2100 Josephine St",
    "address_councildis": "B",
    "status": "Pending",
    "rowid": "1004440",
    "final_x": "3676709.04718",
    "final_y": "525454.606845",
    "longitude": "-90.08340735792878",
    "latitude": "29.9389624605017",
    "geocoded_column": {
      "latitude": "29.9389624605017",
      "longitude": "-90.08340735792878"
    }
  },
  {
    "service_request": "2023-1004439",
    "request_type": "Trash/Recycling",
    "request_reason": "Order Trash Cart",
    "date_created": "2023-05-31T15:06:48.000",
    "date_modified": "2023-05-31T15:06:49.000",
    "request_status": "Pending",
    "responsible_agency": "Department of Sanitation",
    "final_address": "2832 Palmer Ave",
    "address_councildis": "A",
    "status": "Assigned to Contractor",
    "contractor": "Richards Disposal",
    "rowid": "1004439",
    "final_x": "3666884.44109",
    "final_y": "527045.575102",
    "longitude": "-90.11437146734711",
    "latitude": "29.943628138548807",
    "geocoded_column": {
      "latitude": "29.943628138548807",
      "longitude": "-90.11437146734711"
    }
  },
  {
    "service_request": "2023-1004436",
    "request_type": "Roads/Drainage",
    "request_reason": "Accessibility Ramps, Curbs and Sidewalk Repair",
    "date_created": "2023-05-31T15:00:43.000",
    "date_modified": "2023-05-31T15:00:44.000",
    "request_status": "Pending",
    "responsible_agency": "Department of Public Works",
    "final_address": "4850 Magazine St",
    "address_councildis": "B",
    "status": "Pending",
    "rowid": "1004436",
    "final_x": "3669141.53793",
    "final_y": "518558.767031",
    "longitude": "-90.10753184401018",
    "latitude": "29.920225916862794",
    "geocoded_column": {
      "latitude": "29.920225916862794",
      "longitude": "-90.10753184401018"
    }
  },
  {
    "service_request": "2023-1004435",
    "request_type": "Trash/Recycling",
    "request_reason": "MIssed Recycling Pick-Up",
    "date_created": "2023-05-31T14:57:10.000",
    "date_modified": "2023-05-31T14:57:11.000",
    "request_status": "Pending",
    "responsible_agency": "Department of Sanitation",
    "final_address": "2634 Upperline St",
    "address_councildis": "B",
    "status": "Assigned to Contractor",
    "contractor": "Richards Disposal",
    "rowid": "1004435",
    "final_x": "3669146.60993",
    "final_y": "524540.253052",
    "longitude": "-90.10731381522838",
    "latitude": "29.93667294696024",
    "geocoded_column": {
      "latitude": "29.93667294696024",
      "longitude": "-90.10731381522838"
    }
  },
  {
    "service_request": "2023-1004434",
    "request_type": "Property Maintenance",
    "request_reason": "Property Maintenance",
    "date_created": "2023-05-31T14:55:19.000",
    "date_modified": "2023-05-31T14:55:20.000",
    "request_status": "Pending",
    "responsible_agency": "Department of Code Enforcement",
    "final_address": "3525 Timber Wolf Ln",
    "address_councildis": "C",
    "status": "Pending",
    "rowid": "1004434",
    "final_x": "3704430.88158",
    "final_y": "511236.891376",
    "longitude": "-89.99641068577874",
    "latitude": "29.899008041328173",
    "geocoded_column": {
      "latitude": "29.899008041328173",
      "longitude": "-89.99641068577874"
    }
  },
  {
    "service_request": "2023-1004433",
    "request_type": "Trash/Recycling",
    "request_reason": "Illegal Dumping",
    "date_created": "2023-05-31T14:55:05.000",
    "date_modified": "2023-05-31T14:55:06.000",
    "request_status": "Pending",
    "responsible_agency": "Department of Sanitation",
    "final_address": "ANNETTE ST & N ROMAN ST",
    "address_councildis": "D",
    "status": "Pending",
    "rowid": "1004433",
    "final_x": "3682939.8",
    "final_y": "538727.28",
    "longitude": "-90.06327170497366",
    "latitude": "29.97526942829095",
    "geocoded_column": {
      "latitude": "29.97526942829095",
      "longitude": "-90.06327170497366"
    }
  },
  {
    "service_request": "2023-1004432",
    "request_type": "Traffic Signals/Signs/Striping/Streetlights",
    "request_reason": "Street Name Sign Damaged or Missing",
    "date_created": "2023-05-31T14:54:59.000",
    "date_modified": "2023-05-31T16:51:48.000",
    "request_status": "Pending",
    "responsible_agency": "Department of Public Works",
    "final_address": "BURGUNDY ST & MUSIC ST & FRANKLIN AVE",
    "address_councildis": "C",
    "status": "Scheduled",
    "rowid": "1004432",
    "final_x": "3686922.7",
    "final_y": "535687.08",
    "longitude": "-90.05080014997277",
    "latitude": "29.966787951634057",
    "geocoded_column": {
      "latitude": "29.966787951634057",
      "longitude": "-90.05080014997277"
    }
  },
  {
    "service_request": "2023-1004430",
    "request_type": "Abandoned Vehicles",
    "request_reason": "Abandoned/Junk Vehicles",
    "date_created": "2023-05-31T14:53:02.000",
    "date_modified": "2023-05-31T14:54:46.000",
    "request_status": "Pending",
    "responsible_agency": "Department of Public Works",
    "final_address": "4405 Crowder Blvd",
    "address_councildis": "E",
    "status": "Pending",
    "rowid": "1004430",
    "final_x": "3706717.86801",
    "final_y": "553881.128599",
    "longitude": "-89.98761281056476",
    "latitude": "30.01619068167714",
    "geocoded_column": {
      "latitude": "30.01619068167714",
      "longitude": "-89.98761281056476"
    }
  },
  {
    "service_request": "2023-1004429",
    "request_type": "Trash/Recycling",
    "request_reason": "Order Recycling Cart",
    "date_created": "2023-05-31T14:50:43.000",
    "date_modified": "2023-05-31T14:50:43.000",
    "request_status": "Pending",
    "responsible_agency": "Department of Sanitation",
    "final_address": "13119 Lemans St",
    "address_councildis": "E",
    "status": "Pending",
    "rowid": "1004429",
    "final_x": "3724131.81984",
    "final_y": "562884.442272",
    "longitude": "-89.93224531800296",
    "latitude": "30.04037229283204",
    "geocoded_column": {
      "latitude": "30.04037229283204",
      "longitude": "-89.93224531800296"
    }
  },
  {
    "service_request": "2023-1004428",
    "request_type": "Parks & Parkways",
    "request_reason": "Request Grass Cutting Service (City Owned Property)",
    "date_created": "2023-05-31T14:48:11.000",
    "date_modified": "2023-05-31T14:48:12.000",
    "request_status": "Pending",
    "responsible_agency": "Department of Parks & Parkway",
    "final_address": "POYDRAS ST & I 10 E & S CLAIBORNE AVE",
    "address_councildis": "B",
    "status": "Pending",
    "rowid": "1004428",
    "final_x": "3676836.7",
    "final_y": "530857.68",
    "longitude": "-90.0828181784778",
    "latitude": "29.953815289693384",
    "geocoded_column": {
      "latitude": "29.953815289693384",
      "longitude": "-90.0828181784778"
    }
  },
  {
    "service_request": "2023-1004427",
    "request_type": "Trash/Recycling",
    "request_reason": "Order Trash Cart",
    "date_created": "2023-05-31T14:48:02.000",
    "date_modified": "2023-05-31T14:48:03.000",
    "request_status": "Pending",
    "responsible_agency": "Department of Sanitation",
    "final_address": "13119 Lemans St",
    "address_councildis": "E",
    "status": "Assigned to Contractor",
    "contractor": "Waste Pro",
    "rowid": "1004427",
    "final_x": "3724131.81984",
    "final_y": "562884.442272",
    "longitude": "-89.93224531800296",
    "latitude": "30.04037229283204",
    "geocoded_column": {
      "latitude": "30.04037229283204",
      "longitude": "-89.93224531800296"
    }
  },
  {
    "service_request": "2023-1004426",
    "request_type": "Utility Poles",
    "request_reason": "Utility Pole Leaning",
    "date_created": "2023-05-31T14:47:32.000",
    "date_modified": "2023-05-31T14:47:36.000",
    "request_status": "Pending",
    "responsible_agency": "Utility Company Collective",
    "final_address": "767 N Claiborne Ave",
    "address_councildis": "D",
    "status": "Pending",
    "rowid": "1004426",
    "final_x": "3679881.80463",
    "final_y": "534922.813446",
    "longitude": "-90.07306181961053",
    "latitude": "29.964901297415203",
    "geocoded_column": {
      "latitude": "29.964901297415203",
      "longitude": "-90.07306181961053"
    }
  },
  {
    "service_request": "2023-1004425",
    "request_type": "Trash/Recycling",
    "request_reason": "Missed Trash Pick-Up",
    "date_created": "2023-05-31T14:46:08.000",
    "date_modified": "2023-05-31T14:46:08.000",
    "request_status": "Pending",
    "responsible_agency": "Department of Sanitation",
    "final_address": "8720 Colapissa St",
    "address_councildis": "A",
    "status": "Assigned to Contractor",
    "contractor": "Richards Disposal",
    "rowid": "1004425",
    "final_x": "3664799.5074",
    "final_y": "534932.459142",
    "longitude": "-90.1206906550005",
    "latitude": "29.965375328619235",
    "geocoded_column": {
      "latitude": "29.965375328619235",
      "longitude": "-90.1206906550005"
    }
  },
  {
    "service_request": "2023-1004424",
    "request_type": "Roads/Drainage",
    "request_reason": "Catch Basin - Clogged",
    "date_created": "2023-05-31T14:45:30.000",
    "date_modified": "2023-05-31T15:02:17.000",
    "case_close_date": "2023-05-31T10:02:17.000",
    "request_status": "Closed",
    "responsible_agency": "Department of Public Works",
    "final_address": "522 Constantinople St",
    "address_councildis": "B",
    "status": "Duplicate Request",
    "rowid": "1004424",
    "final_x": "3672599.1252",
    "final_y": "517835.08351",
    "longitude": "-90.09664251846615",
    "latitude": "29.918133857748277",
    "geocoded_column": {
      "latitude": "29.918133857748277",
      "longitude": "-90.09664251846615"
    }
  },
  {
    "service_request": "2023-1004423",
    "request_type": "Trash/Recycling",
    "request_reason": "Replace Trash Cart",
    "date_created": "2023-05-31T14:45:15.000",
    "date_modified": "2023-05-31T16:16:09.000",
    "case_close_date": "2023-05-31T11:16:09.000",
    "request_status": "Closed",
    "responsible_agency": "Department of Sanitation",
    "final_address": "719 Teche St",
    "address_councildis": "C",
    "status": "Resolved",
    "contractor": "Richards Disposal",
    "rowid": "1004423",
    "final_x": "3686446.6637",
    "final_y": "528846.53344",
    "longitude": "-90.05254493371535",
    "latitude": "29.94799344393641",
    "geocoded_column": {
      "latitude": "29.94799344393641",
      "longitude": "-90.05254493371535"
    }
  },
  {
    "service_request": "2023-1004420",
    "request_type": "Parks & Parkways",
    "request_reason": "Tree Stump (removal, grind)",
    "date_created": "2023-05-31T14:43:31.000",
    "date_modified": "2023-05-31T14:43:31.000",
    "case_close_date": "2023-03-15T19:00:00.000",
    "request_status": "Pending",
    "responsible_agency": "Department of Parks & Parkway",
    "final_address": "4624 Danneel St",
    "address_councildis": "B",
    "status": "Pending",
    "rowid": "1004420",
    "final_x": "3669777.18855",
    "final_y": "522127.078714",
    "longitude": "-90.10540468784106",
    "latitude": "29.93001892530912",
    "geocoded_column": {
      "latitude": "29.93001892530912",
      "longitude": "-90.10540468784106"
    }
  },
  {
    "service_request": "2023-1004419",
    "request_type": "Trash/Recycling",
    "request_reason": "Missed Trash Pick-Up",
    "date_created": "2023-05-31T14:39:27.000",
    "date_modified": "2023-05-31T14:39:28.000",
    "request_status": "Pending",
    "responsible_agency": "Department of Sanitation",
    "final_address": "3521 Broadway St",
    "address_councildis": "B",
    "status": "Assigned to Contractor",
    "contractor": "Richards Disposal",
    "rowid": "1004419",
    "final_x": "3668871.53991",
    "final_y": "533406.424516",
    "longitude": "-90.10788286954514",
    "latitude": "29.961060116406887",
    "geocoded_column": {
      "latitude": "29.961060116406887",
      "longitude": "-90.10788286954514"
    }
  },
  {
    "service_request": "2023-1004418",
    "request_type": "Trash/Recycling",
    "request_reason": "Missed Trash Pick-Up",
    "date_created": "2023-05-31T14:37:56.000",
    "date_modified": "2023-05-31T14:37:57.000",
    "request_status": "Pending",
    "responsible_agency": "Department of Sanitation",
    "final_address": "731 Fern St",
    "address_councildis": "A",
    "status": "Assigned to Contractor",
    "contractor": "Richards Disposal",
    "rowid": "1004418",
    "final_x": "3661572.91936",
    "final_y": "526733.867006",
    "longitude": "-90.1311517589614",
    "latitude": "29.942925341207168",
    "geocoded_column": {
      "latitude": "29.942925341207168",
      "longitude": "-90.1311517589614"
    }
  },
  {
    "service_request": "2023-1004417",
    "request_type": "Roads/Drainage",
    "request_reason": "Pothole",
    "date_created": "2023-05-31T14:36:36.000",
    "date_modified": "2023-05-31T14:36:37.000",
    "request_status": "Pending",
    "responsible_agency": "Department of Public Works",
    "final_address": "3521 Broadway St",
    "address_councildis": "B",
    "status": "Pending",
    "rowid": "1004417",
    "final_x": "3668871.53991",
    "final_y": "533406.424516",
    "longitude": "-90.10788286954514",
    "latitude": "29.961060116406887",
    "geocoded_column": {
      "latitude": "29.961060116406887",
      "longitude": "-90.10788286954514"
    }
  },
  {
    "service_request": "2023-1004416",
    "request_type": "Trash/Recycling",
    "request_reason": "Request a Large Item Pick Up",
    "date_created": "2023-05-31T14:33:00.000",
    "date_modified": "2023-05-31T14:33:01.000",
    "request_status": "Pending",
    "responsible_agency": "Department of Sanitation",
    "final_address": "2369 Laurel St",
    "address_councildis": "B",
    "status": "Assigned to Contractor",
    "contractor": "Richards Disposal",
    "rowid": "1004416",
    "final_x": "3678529.28885",
    "final_y": "520956.374457",
    "longitude": "-90.07781624868781",
    "latitude": "29.926539074691995",
    "geocoded_column": {
      "latitude": "29.926539074691995",
      "longitude": "-90.07781624868781"
    }
  },
  {
    "service_request": "2023-1004415",
    "request_type": "Property Maintenance",
    "request_reason": "Property Maintenance",
    "date_created": "2023-05-31T14:32:45.000",
    "date_modified": "2023-05-31T14:32:45.000",
    "request_status": "Pending",
    "responsible_agency": "Department of Code Enforcement",
    "final_address": "1814 Old St Bernard St",
    "address_councildis": "D",
    "status": "Pending",
    "rowid": "1004415",
    "final_x": "3682384.05928",
    "final_y": "538858.291593",
    "longitude": "-90.0650223001847",
    "latitude": "29.975646590486136",
    "geocoded_column": {
      "latitude": "29.975646590486136",
      "longitude": "-90.0650223001847"
    }
  },
  {
    "service_request": "2023-1004414",
    "request_type": "Trash/Recycling",
    "request_reason": "Missed Trash Pick-Up",
    "date_created": "2023-05-31T14:24:39.000",
    "date_modified": "2023-05-31T14:24:39.000",
    "request_status": "Pending",
    "responsible_agency": "Department of Sanitation",
    "final_address": "1312 Fern St",
    "address_councildis": "A",
    "status": "Assigned to Contractor",
    "contractor": "Richards Disposal",
    "rowid": "1004414",
    "final_x": "3662822.9792",
    "final_y": "528227.44544",
    "longitude": "-90.12715535903098",
    "latitude": "29.946996082372866",
    "geocoded_column": {
      "latitude": "29.946996082372866",
      "longitude": "-90.12715535903098"
    }
  },
  {
    "service_request": "2023-1004413",
    "request_type": "Abandoned Vehicles",
    "request_reason": "Abandoned/Junk Vehicles",
    "date_created": "2023-05-31T14:21:39.000",
    "date_modified": "2023-05-31T14:29:25.000",
    "request_status": "Pending",
    "responsible_agency": "Department of Public Works",
    "final_address": "600 BLK France St",
    "address_councildis": "C",
    "status": "Pending",
    "rowid": "1004413",
    "final_x": "3691969.78138",
    "final_y": "533486.141477",
    "longitude": "-90.03494030244326",
    "latitude": "29.960579845477202",
    "geocoded_column": {
      "latitude": "29.960579845477202",
      "longitude": "-90.03494030244326"
    }
  },
  {
    "service_request": "2023-1004411",
    "request_type": "Trash/Recycling",
    "request_reason": "Request a Large Item Pick Up",
    "date_created": "2023-05-31T14:14:05.000",
    "date_modified": "2023-05-31T14:14:06.000",
    "request_status": "Pending",
    "responsible_agency": "Department of Sanitation",
    "final_address": "810 Austerlitz St",
    "address_councildis": "B",
    "status": "Assigned to Contractor",
    "contractor": "Richards Disposal",
    "rowid": "1004411",
    "final_x": "3672855.95425",
    "final_y": "518690.617783",
    "longitude": "-90.09580268126325",
    "latitude": "29.920478680021702",
    "geocoded_column": {
      "latitude": "29.920478680021702",
      "longitude": "-90.09580268126325"
    }
  },
  {
    "service_request": "2023-1004410",
    "request_type": "Trash/Recycling",
    "request_reason": "Order Trash Cart",
    "date_created": "2023-05-31T14:13:05.000",
    "date_modified": "2023-05-31T14:13:05.000",
    "request_status": "Pending",
    "responsible_agency": "Department of Sanitation",
    "final_address": "2343 N Villere St",
    "address_councildis": "C",
    "status": "Assigned to Contractor",
    "contractor": "IV Waste",
    "rowid": "1004410",
    "final_x": "3686087.10626",
    "final_y": "537538.182664",
    "longitude": "-90.05337364700308",
    "latitude": "29.97190352956304",
    "geocoded_column": {
      "latitude": "29.97190352956304",
      "longitude": "-90.05337364700308"
    }
  },
  {
    "service_request": "2023-1004409",
    "request_type": "Trash/Recycling",
    "request_reason": "Request a Large Item Pick Up",
    "date_created": "2023-05-31T14:12:25.000",
    "date_modified": "2023-05-31T14:12:25.000",
    "request_status": "Pending",
    "responsible_agency": "Department of Sanitation",
    "final_address": "7200 Thornley Dr",
    "address_councildis": "E",
    "status": "Assigned to Contractor",
    "contractor": "Waste Pro",
    "rowid": "1004409",
    "final_x": "3702890.17514",
    "final_y": "559749.937757",
    "longitude": "-89.99949070006933",
    "latitude": "30.0324506934833",
    "geocoded_column": {
      "latitude": "30.0324506934833",
      "longitude": "-89.99949070006933"
    }
  },
  {
    "service_request": "2023-1004408",
    "request_type": "Trash/Recycling",
    "request_reason": "Missed Trash Pick-Up",
    "date_created": "2023-05-31T14:09:52.000",
    "date_modified": "2023-05-31T14:09:52.000",
    "request_status": "Pending",
    "responsible_agency": "Department of Sanitation",
    "final_address": "4936 Marque Dr",
    "address_councildis": "E",
    "status": "Assigned to Contractor",
    "contractor": "Waste Pro",
    "rowid": "1004408",
    "final_x": "3709871.33246",
    "final_y": "556941.142938",
    "longitude": "-89.97753494343715",
    "latitude": "30.024502315793235",
    "geocoded_column": {
      "latitude": "30.024502315793235",
      "longitude": "-89.97753494343715"
    }
  },
  {
    "service_request": "2023-1004407",
    "request_type": "Trash/Recycling",
    "request_reason": "Repair Trash Cart",
    "date_created": "2023-05-31T14:00:20.000",
    "date_modified": "2023-05-31T14:00:22.000",
    "request_status": "Pending",
    "responsible_agency": "Department of Sanitation",
    "final_address": "328 Seguin St",
    "address_councildis": "C",
    "status": "Assigned to Contractor",
    "contractor": "Richards Disposal",
    "rowid": "1004407",
    "final_x": "3686138.03548",
    "final_y": "530384.649986",
    "longitude": "-90.05346515014182",
    "latitude": "29.952232222109394",
    "geocoded_column": {
      "latitude": "29.952232222109394",
      "longitude": "-90.05346515014182"
    }
  },
  {
    "service_request": "2023-1004406",
    "request_type": "Trash/Recycling",
    "request_reason": "Order Recycling Cart",
    "date_created": "2023-05-31T13:58:03.000",
    "date_modified": "2023-05-31T13:58:04.000",
    "request_status": "Pending",
    "responsible_agency": "Department of Sanitation",
    "final_address": "4729 Good Dr",
    "address_councildis": "E",
    "status": "Pending",
    "rowid": "1004406",
    "final_x": "3714860.55186",
    "final_y": "556794.075482",
    "longitude": "-89.96177562424513",
    "latitude": "30.023934673015457",
    "geocoded_column": {
      "latitude": "30.023934673015457",
      "longitude": "-89.96177562424513"
    }
  },
  {
    "service_request": "2023-1004405",
    "request_type": "Traffic Signals/Signs/Striping/Streetlights",
    "request_reason": "Street Light Outage/Malfunction",
    "date_created": "2023-05-31T13:55:28.000",
    "date_modified": "2023-05-31T13:55:29.000",
    "request_status": "Pending",
    "responsible_agency": "Department of Public Works",
    "final_address": "1600 BLK Feliciana St",
    "address_councildis": "D",
    "status": "Assigned to Contractor",
    "contractor": "Legacy Professional Services",
    "rowid": "1004405",
    "final_x": "3689251.54534",
    "final_y": "538136.906125",
    "longitude": "-90.04335858842806",
    "latitude": "29.973452233016",
    "geocoded_column": {
      "latitude": "29.973452233016",
      "longitude": "-90.04335858842806"
    }
  },
  {
    "service_request": "2023-1004404",
    "request_type": "Trash/Recycling",
    "request_reason": "Order Trash Cart",
    "date_created": "2023-05-31T13:55:27.000",
    "date_modified": "2023-05-31T13:55:28.000",
    "request_status": "Pending",
    "responsible_agency": "Department of Sanitation",
    "final_address": "2812 Palmyra St",
    "address_councildis": "B",
    "status": "Assigned to Contractor",
    "contractor": "Richards Disposal",
    "rowid": "1004404",
    "final_x": "3674257.52859",
    "final_y": "534844.724742",
    "longitude": "-90.09082563255227",
    "latitude": "29.96485547385951",
    "geocoded_column": {
      "latitude": "29.96485547385951",
      "longitude": "-90.09082563255227"
    }
  },
  {
    "service_request": "2023-1004403",
    "request_type": "Trash/Recycling",
    "request_reason": "Repair Trash Cart",
    "date_created": "2023-05-31T13:54:20.000",
    "date_modified": "2023-05-31T13:54:21.000",
    "request_status": "Pending",
    "responsible_agency": "Department of Sanitation",
    "final_address": "6815 Marshal Foch St",
    "address_councildis": "A",
    "status": "Assigned to Contractor",
    "contractor": "IV Waste",
    "rowid": "1004403",
    "final_x": "3670372.59706",
    "final_y": "552623.21647",
    "longitude": "-90.1024909470084",
    "latitude": "30.01385548242477",
    "geocoded_column": {
      "latitude": "30.01385548242477",
      "longitude": "-90.1024909470084"
    }
  },
  {
    "service_request": "2023-1004401",
    "request_type": "Trash/Recycling",
    "request_reason": "Order Trash Cart",
    "date_created": "2023-05-31T13:47:22.000",
    "date_modified": "2023-05-31T13:47:23.000",
    "request_status": "Pending",
    "responsible_agency": "Department of Sanitation",
    "final_address": "2112 France St",
    "address_councildis": "D",
    "status": "Assigned to Contractor",
    "contractor": "IV Waste",
    "rowid": "1004401",
    "final_x": "3693322.7903",
    "final_y": "539047.209354",
    "longitude": "-90.03046811627196",
    "latitude": "29.975828587644294",
    "geocoded_column": {
      "latitude": "29.975828587644294",
      "longitude": "-90.03046811627196"
    }
  },
  {
    "service_request": "2023-1004400",
    "request_type": "Roads/Drainage",
    "request_reason": "Street Flooding / Drainage",
    "date_created": "2023-05-31T13:47:19.000",
    "date_modified": "2023-05-31T13:47:19.000",
    "request_status": "Pending",
    "responsible_agency": "Department of Public Works",
    "final_address": "721 Richard St",
    "address_councildis": "B",
    "status": "Pending",
    "rowid": "1004400",
    "final_x": "3681206.47464",
    "final_y": "522874.159739",
    "longitude": "-90.06929833351386",
    "latitude": "29.931731421798403",
    "geocoded_column": {
      "latitude": "29.931731421798403",
      "longitude": "-90.06929833351386"
    }
  },
  {
    "service_request": "2023-1004399",
    "request_type": "Abandoned Vehicles",
    "request_reason": "Abandoned/Junk Vehicles",
    "date_created": "2023-05-31T13:38:45.000",
    "date_modified": "2023-05-31T13:38:45.000",
    "request_status": "Pending",
    "responsible_agency": "Department of Public Works",
    "final_address": "1040 Piety St",
    "address_councildis": "C",
    "status": "Pending",
    "rowid": "1004399",
    "final_x": "3689780.53116",
    "final_y": "535674.824199",
    "longitude": "-90.04177559256652",
    "latitude": "29.96666598824858",
    "geocoded_column": {
      "latitude": "29.96666598824858",
      "longitude": "-90.04177559256652"
    }
  },
  {
    "service_request": "2023-1004398",
    "request_type": "Trash/Recycling",
    "request_reason": "Request a Large Item Pick Up",
    "date_created": "2023-05-31T13:38:24.000",
    "date_modified": "2023-05-31T13:38:24.000",
    "request_status": "Pending",
    "responsible_agency": "Department of Sanitation",
    "final_address": "916 First St",
    "address_councildis": "B",
    "status": "Assigned to Contractor",
    "contractor": "Richards Disposal",
    "rowid": "1004398",
    "final_x": "3678349.11733",
    "final_y": "521003.470393",
    "longitude": "-90.07838337233237",
    "latitude": "29.926674000269735",
    "geocoded_column": {
      "latitude": "29.926674000269735",
      "longitude": "-90.07838337233237"
    }
  },
  {
    "service_request": "2023-1004397",
    "request_type": "Trash/Recycling",
    "request_reason": "Request a Large Item Pick Up",
    "date_created": "2023-05-31T13:37:50.000",
    "date_modified": "2023-05-31T13:37:51.000",
    "request_status": "Pending",
    "responsible_agency": "Department of Sanitation",
    "final_address": "1721 Broadway St",
    "address_councildis": "A",
    "status": "Assigned to Contractor",
    "contractor": "Richards Disposal",
    "rowid": "1004397",
    "final_x": "3665296.06925",
    "final_y": "528079.497151",
    "longitude": "-90.11935181303953",
    "latitude": "29.946517457933044",
    "geocoded_column": {
      "latitude": "29.946517457933044",
      "longitude": "-90.11935181303953"
    }
  },
  {
    "service_request": "2023-1004396",
    "request_type": "Trash/Recycling",
    "request_reason": "Repair Trash Cart",
    "date_created": "2023-05-31T13:31:59.000",
    "date_modified": "2023-05-31T13:32:00.000",
    "request_status": "Pending",
    "responsible_agency": "Department of Sanitation",
    "final_address": "3620 Palmyra St",
    "address_councildis": "B",
    "status": "Assigned to Contractor",
    "contractor": "Richards Disposal",
    "rowid": "1004396",
    "final_x": "3671911.15739",
    "final_y": "536617.580807",
    "longitude": "-90.0981749892301",
    "latitude": "29.96979998433987",
    "geocoded_column": {
      "latitude": "29.96979998433987",
      "longitude": "-90.0981749892301"
    }
  },
  {
    "service_request": "2023-1004395",
    "request_type": "Trash/Recycling",
    "request_reason": "Order Trash Cart",
    "date_created": "2023-05-31T13:31:10.000",
    "date_modified": "2023-05-31T13:31:10.000",
    "request_status": "Pending",
    "responsible_agency": "Department of Sanitation",
    "final_address": "1125 Short St",
    "address_councildis": "A",
    "status": "Assigned to Contractor",
    "contractor": "Richards Disposal",
    "rowid": "1004395",
    "final_x": "3662244.78976",
    "final_y": "527950.567359",
    "longitude": "-90.12899011518715",
    "latitude": "29.94625147906057",
    "geocoded_column": {
      "latitude": "29.94625147906057",
      "longitude": "-90.12899011518715"
    }
  },
  {
    "service_request": "2023-1004394",
    "request_type": "Property Maintenance",
    "request_reason": "Property Maintenance",
    "date_created": "2023-05-31T13:26:31.000",
    "date_modified": "2023-05-31T13:26:31.000",
    "request_status": "Pending",
    "responsible_agency": "Department of Code Enforcement",
    "final_address": "ST PETER ST & N DORGENOIS ST",
    "address_councildis": "D",
    "status": "Pending",
    "rowid": "1004394",
    "final_x": "3677106.7",
    "final_y": "536527.48",
    "longitude": "-90.08177008226382",
    "latitude": "29.96939721943577",
    "geocoded_column": {
      "latitude": "29.96939721943577",
      "longitude": "-90.08177008226382"
    }
  },
  {
    "service_request": "2023-1004393",
    "request_type": "Property Maintenance",
    "request_reason": "Property Maintenance",
    "date_created": "2023-05-31T13:25:44.000",
    "date_modified": "2023-05-31T13:25:44.000",
    "request_status": "Pending",
    "responsible_agency": "Department of Code Enforcement",
    "final_address": "7600 BLK Poitevent Ave",
    "address_councildis": "E",
    "status": "Pending",
    "rowid": "1004393",
    "final_x": "3706895.1157",
    "final_y": "564276.440788",
    "longitude": "-89.9866667800427",
    "latitude": "30.044767988480427",
    "geocoded_column": {
      "latitude": "30.044767988480427",
      "longitude": "-89.9866667800427"
    }
  },
  {
    "service_request": "2023-1004392",
    "request_type": "Trash/Recycling",
    "request_reason": "Repair Trash Cart",
    "date_created": "2023-05-31T13:24:47.000",
    "date_modified": "2023-05-31T13:24:47.000",
    "request_status": "Pending",
    "responsible_agency": "Department of Sanitation",
    "final_address": "5830 Florida Ave",
    "address_councildis": "E",
    "status": "Assigned to Contractor",
    "contractor": "Waste Pro",
    "rowid": "1004392",
    "final_x": "3700476.52445",
    "final_y": "539515.88737",
    "longitude": "-90.0078576230775",
    "latitude": "29.976891684002737",
    "geocoded_column": {
      "latitude": "29.976891684002737",
      "longitude": "-90.0078576230775"
    }
  },
  {
    "service_request": "2023-1004391",
    "request_type": "Trash/Recycling",
    "request_reason": "Request a Large Item Pick Up",
    "date_created": "2023-05-31T13:23:12.000",
    "date_modified": "2023-05-31T13:23:12.000",
    "request_status": "Pending",
    "responsible_agency": "Department of Sanitation",
    "final_address": "1228 Kentucky St",
    "address_councildis": "D",
    "status": "Assigned to Contractor",
    "contractor": "IV Waste",
    "rowid": "1004391",
    "final_x": "3693392.28937",
    "final_y": "535549.109382",
    "longitude": "-90.03037424829891",
    "latitude": "29.96620788233002",
    "geocoded_column": {
      "latitude": "29.96620788233002",
      "longitude": "-90.03037424829891"
    }
  },
  {
    "service_request": "2023-1004390",
    "request_type": "Trash/Recycling",
    "request_reason": "Request a Large Item Pick Up",
    "date_created": "2023-05-31T13:20:30.000",
    "date_modified": "2023-05-31T13:20:31.000",
    "request_status": "Pending",
    "responsible_agency": "Department of Sanitation",
    "final_address": "2230 Broadway St",
    "address_councildis": "A",
    "status": "Assigned to Contractor",
    "contractor": "Richards Disposal",
    "rowid": "1004390",
    "final_x": "3666236.18849",
    "final_y": "529694.845761",
    "longitude": "-90.11632934069942",
    "latitude": "29.950931722358888",
    "geocoded_column": {
      "latitude": "29.950931722358888",
      "longitude": "-90.11632934069942"
    }
  },
  {
    "service_request": "2023-1004389",
    "request_type": "Traffic Signals/Signs/Striping/Streetlights",
    "request_reason": "Street Light Outage/Malfunction",
    "date_created": "2023-05-31T13:20:03.000",
    "date_modified": "2023-05-31T13:20:04.000",
    "request_status": "Pending",
    "responsible_agency": "Department of Public Works",
    "final_address": "6900 BLK Louis XIV St",
    "address_councildis": "A",
    "status": "Assigned to Contractor",
    "contractor": "Legacy Professional Services",
    "rowid": "1004389",
    "final_x": "3668659.84768",
    "final_y": "553696.616148",
    "longitude": "-90.10786610369088",
    "latitude": "30.01685742955329",
    "geocoded_column": {
      "latitude": "30.01685742955329",
      "longitude": "-90.10786610369088"
    }
  },
  {
    "service_request": "2023-1004388",
    "request_type": "Roads/Drainage",
    "request_reason": "Damaged Sidewalk",
    "date_created": "2023-05-31T13:19:06.000",
    "date_modified": "2023-05-31T13:19:07.000",
    "request_status": "Pending",
    "responsible_agency": "Department of Public Works",
    "final_address": "915 Barracks St",
    "address_councildis": "C",
    "status": "Pending",
    "rowid": "1004388",
    "final_x": "3683215.87311",
    "final_y": "534747.210566",
    "longitude": "-90.0625392025937",
    "latitude": "29.96431719791021",
    "geocoded_column": {
      "latitude": "29.96431719791021",
      "longitude": "-90.0625392025937"
    }
  },
  {
    "service_request": "2023-1004387",
    "request_type": "Trash/Recycling",
    "request_reason": "Request a Large Item Pick Up",
    "date_created": "2023-05-31T13:11:55.000",
    "date_modified": "2023-05-31T13:11:56.000",
    "request_status": "Pending",
    "responsible_agency": "Department of Sanitation",
    "final_address": "2322 State St",
    "address_councildis": "A",
    "status": "Assigned to Contractor",
    "contractor": "Richards Disposal",
    "rowid": "1004387",
    "final_x": "3666574.43226",
    "final_y": "525254.130877",
    "longitude": "-90.11541036971003",
    "latitude": "29.938711307299418",
    "geocoded_column": {
      "latitude": "29.938711307299418",
      "longitude": "-90.11541036971003"
    }
  },
  {
    "service_request": "2023-1004386",
    "request_type": "Trash/Recycling",
    "request_reason": "Missed Trash Pick-Up",
    "date_created": "2023-05-31T13:11:00.000",
    "date_modified": "2023-05-31T13:11:01.000",
    "request_status": "Pending",
    "responsible_agency": "Department of Sanitation",
    "final_address": "WALMSLEY AVE & VERSAILLES BLVD",
    "address_councildis": "B",
    "status": "Assigned to Contractor",
    "contractor": "Richards Disposal",
    "rowid": "1004386",
    "final_x": "3667935.2",
    "final_y": "530732.48",
    "longitude": "-90.11092974900723",
    "latitude": "29.953735149564356",
    "geocoded_column": {
      "latitude": "29.953735149564356",
      "longitude": "-90.11092974900723"
    }
  },
  {
    "service_request": "2023-1004385",
    "request_type": "Traffic Signals/Signs/Striping/Streetlights",
    "request_reason": "Street Light Outage/Malfunction",
    "date_created": "2023-05-31T13:08:48.000",
    "date_modified": "2023-05-31T13:08:48.000",
    "request_status": "Pending",
    "responsible_agency": "Department of Public Works",
    "final_address": "3219 Coliseum St",
    "address_councildis": "B",
    "status": "Assigned to Contractor",
    "contractor": "Legacy Professional Services",
    "rowid": "1004385",
    "final_x": "3675138.38357",
    "final_y": "520894.682489",
    "longitude": "-90.08852252936254",
    "latitude": "29.92647116960814",
    "geocoded_column": {
      "latitude": "29.92647116960814",
      "longitude": "-90.08852252936254"
    }
  },