[
  {
    "service_request": "2022-895151",
    "request_type": "Tax and Revenue",
    "request_reason": "Personal Property Tax Question",
    "date_created": "2022-06-28T01:50:54.000",
    "date_modified": "2022-06-28T01:50:54.000",
    "request_status": "Pending",
    "responsible_agency": "Bureau of Treasury",
    "final_address": "5207 N Robertson St",
    "address_councildis": "E",
    "status": "Pending",
    "rowid": "895151",
    "final_x": "3697053.78877",
    "final_y": "535660.883654",
    "longitude": "-90.01880732490967",
    "latitude": "29.966400230042886",
    "geocoded_column": {
      "latitude": "29.966400230042886",
      "longitude": "-90.01880732490967"
    }
  },
  {
    "service_request": "2022-895150",
    "request_type": "Trash/Recycling",
    "request_reason": "Illegal Dumping",
    "date_created": "2022-06-28T00:51:58.000",
    "date_modified": "2022-06-28T00:51:58.000",
    "request_status": "Pending",
    "responsible_agency": "Department of Sanitation",
    "final_address": "7040 Crowder Blvd",
    "address_councildis": "E",
    "status": "Pending",
    "rowid": "895150",
    "final_x": "3704245.12241",
    "final_y": "559593.113565",
    "longitude": "-89.99521478358396",
    "latitude": "30.031976049920896",
    "geocoded_column": {
      "latitude": "30.031976049920896",
      "longitude": "-89.99521478358396"
    }
  },
  {
    "service_request": "2022-895149",
    "request_type": "Trash/Recycling",
    "request_reason": "Illegal Dumping",
    "date_created": "2022-06-28T00:44:26.000",
    "date_modified": "2022-06-28T00:44:26.000",
    "request_status": "Pending",
    "responsible_agency": "Department of Sanitation",
    "final_address": "CROWDER BLVD & CROWDER EXIT & I 10 W ONRAMP",
    "address_councildis": "E",
    "status": "Pending",
    "rowid": "895149",
    "final_x": "3704699.5",
    "final_y": "559063.58",
    "longitude": "-89.99379849601604",
    "latitude": "30.030505441406184",
    "geocoded_column": {
      "latitude": "30.030505441406184",
      "longitude": "-89.99379849601604"
    }
  },
  {
    "service_request": "2022-895148",
    "request_type": "Trash/Recycling",
    "request_reason": "Illegal Dumping",
    "date_created": "2022-06-28T00:39:29.000",
    "date_modified": "2022-06-28T00:39:29.000",
    "request_status": "Pending",
    "responsible_agency": "Department of Sanitation",
    "final_address": "7008 Crowder Blvd",
    "address_councildis": "E",
    "status": "Pending",
    "rowid": "895148",
    "final_x": "3704309.52273",
    "final_y": "559458.005149",
    "longitude": "-89.99501626287896",
    "latitude": "30.03160248645925",
    "geocoded_column": {
      "latitude": "30.03160248645925",
      "longitude": "-89.99501626287896"
    }
  },
  {
    "service_request": "2022-895147",
    "request_type": "Trash/Recycling",
    "request_reason": "Missed Trash Pick-Up",
    "date_created": "2022-06-28T00:21:38.000",
    "date_modified": "2022-06-28T00:21:39.000",
    "request_status": "Pending",
    "responsible_agency": "Department of Sanitation",
    "final_address": "2029 Mediamolle Dr",
    "address_councildis": "C",
    "status": "Assigned to Contractor",
    "contractor": "Richards Disposal",
    "rowid": "895147",
    "final_x": "3699192.52669",
    "final_y": "523825.370555",
    "longitude": "-90.01248411354189",
    "latitude": "29.933789098597618",
    "geocoded_column": {
      "latitude": "29.933789098597618",
      "longitude": "-90.01248411354189"
    }
  },
  {
    "service_request": "2022-895146",
    "request_type": "Trash/Recycling",
    "request_reason": "Replace Trash Cart",
    "date_created": "2022-06-27T23:52:54.000",
    "date_modified": "2022-06-27T23:52:55.000",
    "request_status": "Pending",
    "responsible_agency": "Department of Sanitation",
    "final_address": "2504 Cleveland Ave",
    "address_councildis": "B",
    "status": "Assigned to Contractor",
    "contractor": "Richards Disposal",
    "rowid": "895146",
    "final_x": "3675778.96622",
    "final_y": "534151.727813",
    "longitude": "-90.0860448467522",
    "latitude": "29.962904514860394",
    "geocoded_column": {
      "latitude": "29.962904514860394",
      "longitude": "-90.0860448467522"
    }
  },
  {
    "service_request": "2022-895145",
    "request_type": "Trash/Recycling",
    "request_reason": "MIssed Recycling Pick-Up",
    "date_created": "2022-06-27T23:31:29.000",
    "date_modified": "2022-06-27T23:31:30.000",
    "request_status": "Pending",
    "responsible_agency": "Department of Sanitation",
    "final_address": "811 Behrman Ave",
    "address_councildis": "C",
    "status": "Assigned to Contractor",
    "contractor": "Richards Disposal",
    "rowid": "895145",
    "final_x": "3691411.00809",
    "final_y": "528461.308992",
    "longitude": "-90.03688432059984",
    "latitude": "29.946780696786504",
    "geocoded_column": {
      "latitude": "29.946780696786504",
      "longitude": "-90.03688432059984"
    }
  },
  {
    "service_request": "2022-895144",
    "request_type": "Parks & Parkways",
    "request_reason": "Request Tree Service (Right of Way/Public Property)",
    "date_created": "2022-06-27T22:22:16.000",
    "date_modified": "2022-06-27T22:22:16.000",
    "request_status": "Pending",
    "responsible_agency": "Department of Parks & Parkway",
    "final_address": "2036 Broadway St",
    "address_councildis": "A",
    "status": "Pending",
    "rowid": "895144",
    "final_x": "3665879.02426",
    "final_y": "529143.662848",
    "longitude": "-90.11747555667735",
    "latitude": "29.94942657399547",
    "geocoded_column": {
      "latitude": "29.94942657399547",
      "longitude": "-90.11747555667735"
    }
  },
  {
    "service_request": "2022-895142",
    "request_type": "Trash/Recycling",
    "request_reason": "Request a Large Item Pick Up",
    "date_created": "2022-06-27T21:38:33.000",
    "date_modified": "2022-06-27T21:38:34.000",
    "request_status": "Pending",
    "responsible_agency": "Department of Sanitation",
    "final_address": "1105 First St",
    "address_councildis": "B",
    "status": "Assigned to Contractor",
    "contractor": "Richards Disposal",
    "rowid": "895142",
    "final_x": "3678053.0763",
    "final_y": "521598.855545",
    "longitude": "-90.07929732435387",
    "latitude": "29.9283200274214",
    "geocoded_column": {
      "latitude": "29.9283200274214",
      "longitude": "-90.07929732435387"
    }
  },
  {
    "service_request": "2022-895140",
    "request_type": "Abandoned Vehicles",
    "request_reason": "Abandoned/Junk Vehicles",
    "date_created": "2022-06-27T21:33:38.000",
    "date_modified": "2022-06-27T21:33:38.000",
    "request_status": "Pending",
    "responsible_agency": "Department of Public Works",
    "final_address": "1607 Monroe St",
    "address_councildis": "A",
    "status": "Pending",
    "rowid": "895140",
    "final_x": "3661417.96768",
    "final_y": "530888.72621",
    "longitude": "-90.13150339247726",
    "latitude": "29.954354343306054",
    "geocoded_column": {
      "latitude": "29.954354343306054",
      "longitude": "-90.13150339247726"
    }
  },
  {
    "service_request": "2022-895139",
    "request_type": "Abandoned Vehicles",
    "request_reason": "Abandoned/Junk Vehicles",
    "date_created": "2022-06-27T20:58:50.000",
    "date_modified": "2022-06-27T20:58:50.000",
    "request_status": "Pending",
    "responsible_agency": "Department of Public Works",
    "final_address": "317 S Hennessey St",
    "address_councildis": "A",
    "status": "Pending",
    "rowid": "895139",
    "final_x": "3669600.96833",
    "final_y": "538276.767433",
    "longitude": "-90.10541464896039",
    "latitude": "29.97443046210764",
    "geocoded_column": {
      "latitude": "29.97443046210764",
      "longitude": "-90.10541464896039"
    }
  },
  {
    "service_request": "2022-895138",
    "request_type": "Roads/Drainage",
    "request_reason": "Debris in Roadway",
    "date_created": "2022-06-27T20:52:32.000",
    "date_modified": "2022-06-27T20:52:32.000",
    "request_status": "Pending",
    "responsible_agency": "Department of Public Works",
    "final_address": "521 Hendee St",
    "address_councildis": "C",
    "status": "Pending",
    "rowid": "895138",
    "final_x": "3690851.42256",
    "final_y": "529592.155649",
    "longitude": "-90.03861078544458",
    "latitude": "29.949907533036637",
    "geocoded_column": {
      "latitude": "29.949907533036637",
      "longitude": "-90.03861078544458"
    }
  },
  {
    "service_request": "2022-895137",
    "request_type": "Trash/Recycling",
    "request_reason": "Order Recycling Cart",
    "date_created": "2022-06-27T20:47:53.000",
    "date_modified": "2022-06-27T20:47:53.000",
    "request_status": "Pending",
    "responsible_agency": "Department of Sanitation",
    "final_address": "521 Hendee St",
    "address_councildis": "C",
    "status": "Pending",
    "rowid": "895137",
    "final_x": "3690851.42256",
    "final_y": "529592.155649",
    "longitude": "-90.03861078544458",
    "latitude": "29.949907533036637",
    "geocoded_column": {
      "latitude": "29.949907533036637",
      "longitude": "-90.03861078544458"
    }
  },
  {
    "service_request": "2022-895136",
    "request_type": "Trash/Recycling",
    "request_reason": "Replace Trash Cart",
    "date_created": "2022-06-27T20:46:40.000",
    "date_modified": "2022-06-27T20:46:40.000",
    "request_status": "Pending",
    "responsible_agency": "Department of Sanitation",
    "final_address": "6023 Freret St",
    "address_councildis": "A",
    "status": "Assigned to Contractor",
    "contractor": "Richards Disposal",
    "rowid": "895136",
    "final_x": "3666246.58292",
    "final_y": "524549.3319",
    "longitude": "-90.11646906030212",
    "latitude": "29.9367829133896",
    "geocoded_column": {
      "latitude": "29.9367829133896",
      "longitude": "-90.11646906030212"
    }
  },
  {
    "service_request": "2022-895135",
    "request_type": "Trash/Recycling",
    "request_reason": "Request a Large Item Pick Up",
    "date_created": "2022-06-27T20:28:35.000",
    "date_modified": "2022-06-27T20:28:36.000",
    "request_status": "Pending",
    "responsible_agency": "Department of Sanitation",
    "final_address": "23 Honeysuckle Ln",
    "address_councildis": "E",
    "status": "Assigned to Contractor",
    "contractor": "Metro Disposal",
    "rowid": "895135",
    "final_x": "3712947.10264",
    "final_y": "568449.062373",
    "longitude": "-89.96738267223158",
    "latitude": "30.056044040651045",
    "geocoded_column": {
      "latitude": "30.056044040651045",
      "longitude": "-89.96738267223158"
    }
  },
  {
    "service_request": "2022-895134",
    "request_type": "Parks & Parkways",
    "request_reason": "Tree Stump (removal, grind)",
    "date_created": "2022-06-27T19:48:30.000",
    "date_modified": "2022-06-27T19:48:30.000",
    "request_status": "Pending",
    "responsible_agency": "Department of Parks & Parkway",
    "final_address": "5330 Camp St",
    "address_councildis": "B",
    "status": "Pending",
    "rowid": "895134",
    "final_x": "3667254.12948",
    "final_y": "519003.313463",
    "longitude": "-90.11347457721239",
    "latitude": "29.921503664049855",
    "geocoded_column": {
      "latitude": "29.921503664049855",
      "longitude": "-90.11347457721239"
    }
  },
  {
    "service_request": "2022-895133",
    "request_type": "Abandoned Vehicles",
    "request_reason": "Abandoned/Junk Vehicles",
    "date_created": "2022-06-27T19:45:04.000",
    "date_modified": "2022-06-27T19:45:04.000",
    "request_status": "Pending",
    "responsible_agency": "Department of Public Works",
    "final_address": "4120 Baudin St",
    "address_councildis": "A",
    "status": "Pending",
    "rowid": "895133",
    "final_x": "3669801.21409",
    "final_y": "537251.197128",
    "longitude": "-90.10481695021508",
    "latitude": "29.971604586641288",
    "geocoded_column": {
      "latitude": "29.971604586641288",
      "longitude": "-90.10481695021508"
    }
  },
  {
    "service_request": "2022-895132",
    "request_type": "Abandoned Vehicles",
    "request_reason": "Abandoned/Junk Vehicles",
    "date_created": "2022-06-27T19:44:38.000",
    "date_modified": "2022-06-27T19:44:38.000",
    "request_status": "Pending",
    "responsible_agency": "Department of Public Works",
    "final_address": "2 Gannon Rd",
    "address_councildis": "E",
    "status": "Pending",
    "rowid": "895132",
    "final_x": "3716058.77957",
    "final_y": "570534.616167",
    "longitude": "-89.95746816849034",
    "latitude": "30.061676089794005",
    "geocoded_column": {
      "latitude": "30.061676089794005",
      "longitude": "-89.95746816849034"
    }
  },
  {
    "service_request": "2022-895131",
    "request_type": "Abandoned Vehicles",
    "request_reason": "Abandoned/Junk Vehicles",
    "date_created": "2022-06-27T19:44:25.000",
    "date_modified": "2022-06-27T19:44:25.000",
    "request_status": "Pending",
    "responsible_agency": "Department of Public Works",
    "final_address": "2 Gannon Rd",
    "address_councildis": "E",
    "status": "Pending",
    "rowid": "895131",
    "final_x": "3716058.77957",
    "final_y": "570534.616167",
    "longitude": "-89.95746816849034",
    "latitude": "30.061676089794005",
    "geocoded_column": {
      "latitude": "30.061676089794005",
      "longitude": "-89.95746816849034"
    }
  },
  {
    "service_request": "2022-895130",
    "request_type": "Trash/Recycling",
    "request_reason": "Missed Trash Pick-Up",
    "date_created": "2022-06-27T19:43:20.000",
    "date_modified": "2022-06-27T19:43:21.000",
    "request_status": "Pending",
    "responsible_agency": "Department of Sanitation",
    "final_address": "New Orleans, Louisiana",
    "status": "Assigned to Contractor",
    "rowid": "895130",
    "longitude": "0.0",
    "latitude": "0.0",
    "geocoded_column": {
      "latitude": "0.0",
      "longitude": "0.0"
    }
  },
  {
    "service_request": "2022-895129",
    "request_type": "Property Maintenance",
    "request_reason": "Property Maintenance",
    "date_created": "2022-06-27T19:37:11.000",
    "date_modified": "2022-06-27T19:37:11.000",
    "request_status": "Pending",
    "responsible_agency": "Department of Code Enforcement",
    "final_address": "500 S Hennessey St",
    "address_councildis": "A",
    "status": "Pending",
    "rowid": "895129",
    "final_x": "3669328.40948",
    "final_y": "537625.285896",
    "longitude": "-90.10629749088581",
    "latitude": "29.972647135303404",
    "geocoded_column": {
      "latitude": "29.972647135303404",
      "longitude": "-90.10629749088581"
    }
  },
  {
    "service_request": "2022-895128",
    "request_type": "Trash/Recycling",
    "request_reason": "Missed Trash Pick-Up",
    "date_created": "2022-06-27T19:29:47.000",
    "date_modified": "2022-06-27T19:29:47.000",
    "request_status": "Pending",
    "responsible_agency": "Department of Sanitation",
    "final_address": "2812 N Rampart St",
    "address_councildis": "C",
    "status": "Assigned to Contractor",
    "contractor": "Metro Disposal",
    "rowid": "895128",
    "final_x": "3687708.0726",
    "final_y": "535819.402567",
    "longitude": "-90.04831526561642",
    "latitude": "29.967127597951514",
    "geocoded_column": {
      "latitude": "29.967127597951514",
      "longitude": "-90.04831526561642"
    }
  },
  {
    "service_request": "2022-895127",
    "request_type": "Trash/Recycling",
    "request_reason": "Request a Large Item Pick Up",
    "date_created": "2022-06-27T19:27:12.000",
    "date_modified": "2022-06-27T19:27:12.000",
    "request_status": "Pending",
    "responsible_agency": "Department of Sanitation",
    "final_address": "4606 Virgilian St",
    "address_councildis": "D",
    "status": "Assigned to Contractor",
    "contractor": "Metro Disposal",
    "rowid": "895127",
    "final_x": "3697469.68938",
    "final_y": "553003.738583",
    "longitude": "-90.01686468473487",
    "latitude": "30.014073596959737",
    "geocoded_column": {
      "latitude": "30.014073596959737",
      "longitude": "-90.01686468473487"
    }
  },
  {
    "service_request": "2022-895125",
    "request_type": "Trash/Recycling",
    "request_reason": "Missed Trash Pick-Up",
    "date_created": "2022-06-27T19:07:36.000",
    "date_modified": "2022-06-27T19:07:37.000",
    "request_status": "Pending",
    "responsible_agency": "Department of Sanitation",
    "final_address": "2401 Chartres St",
    "address_councildis": "C",
    "status": "Assigned to Contractor",
    "contractor": "Metro Disposal",
    "rowid": "895125",
    "final_x": "3685957.06665",
    "final_y": "534603.281734",
    "longitude": "-90.05388782823974",
    "latitude": "29.96383756582574",
    "geocoded_column": {
      "latitude": "29.96383756582574",
      "longitude": "-90.05388782823974"
    }
  },
  {
    "service_request": "2022-895124",
    "request_type": "Roads/Drainage",
    "request_reason": "Catch Basin - Clogged",
    "date_created": "2022-06-27T19:04:21.000",
    "date_modified": "2022-06-27T19:04:21.000",
    "request_status": "Pending",
    "responsible_agency": "Department of Public Works",
    "final_address": "9408 Palm St",
    "address_councildis": "A",
    "status": "Pending",
    "rowid": "895124",
    "final_x": "3664198.11546",
    "final_y": "537835.589001",
    "longitude": "-90.12249295035443",
    "latitude": "29.97337546338181",
    "geocoded_column": {
      "latitude": "29.97337546338181",
      "longitude": "-90.12249295035443"
    }
  },
  {
    "service_request": "2022-895123",
    "request_type": "Trash/Recycling",
    "request_reason": "Replace Trash Cart",
    "date_created": "2022-06-27T18:52:33.000",
    "date_modified": "2022-06-27T18:52:33.000",
    "request_status": "Pending",
    "responsible_agency": "Department of Sanitation",
    "final_address": "3721 Rue Nichole",
    "address_councildis": "C",
    "status": "Assigned to Contractor",
    "contractor": "Richards Disposal",
    "rowid": "895123",
    "final_x": "3703926.39889",
    "final_y": "516806.285173",
    "longitude": "-89.99779788805958",
    "latitude": "29.914338152277136",
    "geocoded_column": {
      "latitude": "29.914338152277136",
      "longitude": "-89.99779788805958"
    }
  },
  {
    "service_request": "2022-895122",
    "request_type": "Trash/Recycling",
    "request_reason": "Missed Trash Pick-Up",
    "date_created": "2022-06-27T18:44:22.000",
    "date_modified": "2022-06-27T18:44:22.000",
    "request_status": "Pending",
    "responsible_agency": "Department of Sanitation",
    "final_address": "2419 Chartres St",
    "address_councildis": "C",
    "status": "Assigned to Contractor",
    "contractor": "Metro Disposal",
    "rowid": "895122",
    "final_x": "3686079.00662",
    "final_y": "534615.158534",
    "longitude": "-90.05350233542893",
    "latitude": "29.96386647846724",
    "geocoded_column": {
      "latitude": "29.96386647846724",
      "longitude": "-90.05350233542893"
    }
  },
  {
    "service_request": "2022-895121",
    "request_type": "Trash/Recycling",
    "request_reason": "Missed Trash Pick-Up",
    "date_created": "2022-06-27T18:44:18.000",
    "date_modified": "2022-06-27T18:44:19.000",
    "case_close_date": "2021-04-10T19:00:00.000",
    "request_status": "Pending",
    "responsible_agency": "Department of Sanitation",
    "final_address": "2419 Chartres St",
    "address_councildis": "C",
    "status": "Assigned to Contractor",
    "contractor": "Metro Disposal",
    "rowid": "895121",
    "final_x": "3686079.00662",
    "final_y": "534615.158534",
    "longitude": "-90.05350233542893",
    "latitude": "29.96386647846724",
    "geocoded_column": {
      "latitude": "29.96386647846724",
      "longitude": "-90.05350233542893"
    }
  },
  {
    "service_request": "2022-895120",
    "request_type": "Property Maintenance",
    "request_reason": "Property Maintenance",
    "date_created": "2022-06-27T18:41:49.000",
    "date_modified": "2022-06-27T18:41:49.000",
    "request_status": "Pending",
    "responsible_agency": "Department of Code Enforcement",
    "final_address": "4788 Charlene Dr",
    "address_councildis": "E",
    "status": "Pending",
    "rowid": "895120",
    "final_x": "3707809.44555",
    "final_y": "555877.659993",
    "longitude": "-89.98408965582159",
    "latitude": "30.021645073467777",
    "geocoded_column": {
      "latitude": "30.021645073467777",
      "longitude": "-89.98408965582159"
    }
  },
  {
    "service_request": "2022-895118",
    "request_type": "Property Maintenance",
    "request_reason": "Property Maintenance",
    "date_created": "2022-06-27T18:38:09.000",
    "date_modified": "2022-06-27T18:38:09.000",
    "request_status": "Pending",
    "responsible_agency": "Department of Code Enforcement",
    "final_address": "10400 Old Gentilly Rd",
    "address_councildis": "E",
    "status": "Pending",
    "rowid": "895118",
    "final_x": "3714663.55013",
    "final_y": "553701.824471",
    "longitude": "-89.96251499793892",
    "latitude": "30.01543868456762",
    "geocoded_column": {
      "latitude": "30.01543868456762",
      "longitude": "-89.96251499793892"
    }
  },
  {
    "service_request": "2022-895117",
    "request_type": "Trash/Recycling",
    "request_reason": "Order Recycling Cart",
    "date_created": "2022-06-27T18:35:03.000",
    "date_modified": "2022-06-27T18:35:03.000",
    "request_status": "Pending",
    "responsible_agency": "Department of Sanitation",
    "final_address": "4941 Elysian Fields Ave",
    "address_councildis": "D",
    "status": "Pending",
    "rowid": "895117",
    "final_x": "3683954.79868",
    "final_y": "551017.034069",
    "longitude": "-90.05963462053637",
    "latitude": "30.009030905797417",
    "geocoded_column": {
      "latitude": "30.009030905797417",
      "longitude": "-90.05963462053637"
    }
  },
  {
    "service_request": "2022-895116",
    "request_type": "Trash/Recycling",
    "request_reason": "Order Trash Cart",
    "date_created": "2022-06-27T18:28:10.000",
    "date_modified": "2022-06-27T18:28:11.000",
    "request_status": "Pending",
    "responsible_agency": "Department of Sanitation",
    "final_address": "8637 Belfast St",
    "address_councildis": "A",
    "status": "Assigned to Contractor",
    "contractor": "Richards Disposal",
    "rowid": "895116",
    "final_x": "3664074.38784",
    "final_y": "533794.766597",
    "longitude": "-90.12301850788727",
    "latitude": "29.962268128150367",
    "geocoded_column": {
      "latitude": "29.962268128150367",
      "longitude": "-90.12301850788727"
    }
  },
  {
    "service_request": "2022-895115",
    "request_type": "Trash/Recycling",
    "request_reason": "Request a Large Item Pick Up",
    "date_created": "2022-06-27T18:26:32.000",
    "date_modified": "2022-06-27T18:26:33.000",
    "request_status": "Pending",
    "responsible_agency": "Department of Sanitation",
    "final_address": "825 Atlantic Ave",
    "address_councildis": "C",
    "status": "Assigned to Contractor",
    "contractor": "Richards Disposal",
    "rowid": "895115",
    "final_x": "3688694.51292",
    "final_y": "528482.119744",
    "longitude": "-90.04546052170087",
    "latitude": "29.94692215194199",
    "geocoded_column": {
      "latitude": "29.94692215194199",
      "longitude": "-90.04546052170087"
    }
  },
  {
    "service_request": "2022-895114",
    "request_type": "Trash/Recycling",
    "request_reason": "Replace Trash Cart",
    "date_created": "2022-06-27T18:23:42.000",
    "date_modified": "2022-06-27T18:23:43.000",
    "request_status": "Pending",
    "responsible_agency": "Department of Sanitation",
    "final_address": "2630 Bell St",
    "address_councildis": "A",
    "status": "Assigned to Contractor",
    "contractor": "Richards Disposal",
    "rowid": "895114",
    "final_x": "3677800.70062",
    "final_y": "538984.97889",
    "longitude": "-90.07949344721771",
    "latitude": "29.976133637515336",
    "geocoded_column": {
      "latitude": "29.976133637515336",
      "longitude": "-90.07949344721771"
    }
  },
  {
    "service_request": "2022-895113",
    "request_type": "Property Maintenance",
    "request_reason": "Property Maintenance",
    "date_created": "2022-06-27T18:06:06.000",
    "date_modified": "2022-06-27T18:12:42.000",
    "request_status": "Pending",
    "responsible_agency": "Department of Code Enforcement",
    "final_address": "New Orleans,LA",
    "address_councildis": "D",
    "rowid": "895113",
    "final_x": "3681977.72924",
    "final_y": "541954.204044",
    "longitude": "-90.0661974742372",
    "latitude": "29.9841716295432",
    "geocoded_column": {
      "latitude": "29.9841716295432",
      "longitude": "-90.0661974742372"
    }
  },
  {
    "service_request": "2022-895112",
    "request_type": "Traffic Signals/Signs/Striping/Streetlights",
    "request_reason": "Street Light Outage/Malfunction",
    "date_created": "2022-06-27T17:57:33.000",
    "date_modified": "2022-06-27T17:57:34.000",
    "request_status": "Pending",
    "responsible_agency": "Department of Public Works",
    "final_address": "2537 Hamilton St",
    "address_councildis": "A",
    "status": "Pending",
    "contractor": "Royal Engineering",
    "rowid": "895112",
    "final_x": "3662711.9632",
    "final_y": "534389.432005",
    "longitude": "-90.12730110213121",
    "latitude": "29.963942763461002",
    "geocoded_column": {
      "latitude": "29.963942763461002",
      "longitude": "-90.12730110213121"
    }
  },
  {
    "service_request": "2022-895111",
    "request_type": "Mosquito, Termite & Rodent Control",
    "request_reason": "Non-Rodent Complaint (Mice, Possums, Snakes)",
    "date_created": "2022-06-27T17:55:16.000",
    "date_modified": "2022-06-27T17:55:16.000",
    "request_status": "Pending",
    "responsible_agency": "Mosquito, Termite & Rodent Control Board",
    "final_address": "9026 Apple St",
    "address_councildis": "A",
    "status": "Pending",
    "rowid": "895111",
    "final_x": "3662835.37831",
    "final_y": "534348.153349",
    "longitude": "-90.12691273923737",
    "latitude": "29.963825688317048",
    "geocoded_column": {
      "latitude": "29.963825688317048",
      "longitude": "-90.12691273923737"
    }
  },
  {
    "service_request": "2022-895110",
    "request_type": "Property Maintenance",
    "request_reason": "Property Maintenance",
    "date_created": "2022-06-27T17:50:37.000",
    "date_modified": "2022-06-27T17:50:37.000",
    "request_status": "Pending",
    "responsible_agency": "Department of Code Enforcement",
    "final_address": "8002 Plum St",
    "address_councildis": "A",
    "status": "Pending",
    "rowid": "895110",
    "final_x": "3662439.11226",
    "final_y": "528363.258048",
    "longitude": "-90.12836286598905",
    "latitude": "29.947380628837305",
    "geocoded_column": {
      "latitude": "29.947380628837305",
      "longitude": "-90.12836286598905"
    }
  },
  {
    "service_request": "2022-895109",
    "request_type": "Traffic Signals/Signs/Striping/Streetlights",
    "request_reason": "Street Light Knocked Down/Leaning",
    "date_created": "2022-06-27T17:50:26.000",
    "date_modified": "2022-06-27T17:50:26.000",
    "request_status": "Pending",
    "responsible_agency": "Department of Public Works",
    "final_address": "4514 N Robertson St",
    "address_councildis": "D",
    "status": "Pending",
    "contractor": "Royal Engineering",
    "rowid": "895109",
    "final_x": "3693815.2232",
    "final_y": "536351.848711",
    "longitude": "-90.02900978166969",
    "latitude": "29.968401900605514",
    "geocoded_column": {
      "latitude": "29.968401900605514",
      "longitude": "-90.02900978166969"
    }
  },
  {
    "service_request": "2022-895108",
    "request_type": "Trash/Recycling",
    "request_reason": "Request a Large Item Pick Up",
    "date_created": "2022-06-27T17:47:30.000",
    "date_modified": "2022-06-27T17:47:31.000",
    "request_status": "Pending",
    "responsible_agency": "Department of Sanitation",
    "final_address": "532 Burgundy St",
    "address_councildis": "C",
    "status": "Assigned to Contractor",
    "contractor": "Empire Services",
    "rowid": "895108",
    "final_x": "3681408.5204",
    "final_y": "532705.342212",
    "longitude": "-90.06831785930844",
    "latitude": "29.958757748524246",
    "geocoded_column": {
      "latitude": "29.958757748524246",
      "longitude": "-90.06831785930844"
    }
  },
  {
    "service_request": "2022-895107",
    "request_type": "Trash/Recycling",
    "request_reason": "Return Trash Cart",
    "date_created": "2022-06-27T17:46:46.000",
    "date_modified": "2022-06-27T17:46:47.000",
    "request_status": "Pending",
    "responsible_agency": "Department of Sanitation",
    "final_address": "8222 Green St, New Orleans, Louisiana, 70118",
    "address_councildis": "A",
    "status": "Assigned to Contractor",
    "contractor": "Richards Disposal",
    "rowid": "895107",
    "final_x": "3662717.35239",
    "final_y": "530008.017281",
    "longitude": "-90.1274296974035",
    "latitude": "29.951895139506732",
    "geocoded_column": {
      "latitude": "29.951895139506732",
      "longitude": "-90.1274296974035"
    }
  },
  {
    "service_request": "2022-895106",
    "request_type": "Roads/Drainage",
    "request_reason": "Street Subsidence (Sinking)",
    "date_created": "2022-06-27T17:44:38.000",
    "date_modified": "2022-06-27T17:44:38.000",
    "request_status": "Pending",
    "responsible_agency": "Department of Public Works",
    "final_address": "5625 Marshal Foch St",
    "address_councildis": "A",
    "status": "Pending",
    "rowid": "895106",
    "final_x": "3669653.96948",
    "final_y": "544527.853327",
    "longitude": "-90.10503562664655",
    "latitude": "29.991617259917206",
    "geocoded_column": {
      "latitude": "29.991617259917206",
      "longitude": "-90.10503562664655"
    }
  },
  {
    "service_request": "2022-895105",
    "request_type": "Roads/Drainage",
    "request_reason": "Street Flooding / Drainage",
    "date_created": "2022-06-27T17:40:48.000",
    "date_modified": "2022-06-27T17:40:48.000",
    "request_status": "Pending",
    "responsible_agency": "Department of Public Works",
    "final_address": "1100 S Carrollton Ave",
    "address_councildis": "A",
    "status": "Pending",
    "rowid": "895105",
    "final_x": "3661751.90522",
    "final_y": "528190.900672",
    "longitude": "-90.13053836561525",
    "latitude": "29.946926554318562",
    "geocoded_column": {
      "latitude": "29.946926554318562",
      "longitude": "-90.13053836561525"
    }
  },
  {
    "service_request": "2022-895104",
    "request_type": "Trash/Recycling",
    "request_reason": "MIssed Recycling Pick-Up",
    "date_created": "2022-06-27T17:31:36.000",
    "date_modified": "2022-06-27T17:31:36.000",
    "request_status": "Pending",
    "responsible_agency": "Department of Sanitation",
    "final_address": "2727 Audubon St",
    "address_councildis": "B",
    "status": "Assigned to Contractor",
    "contractor": "Richards Disposal",
    "rowid": "895104",
    "final_x": "3667374.45953",
    "final_y": "530842.530178",
    "longitude": "-90.11269663873546",
    "latitude": "29.954054188401447",
    "geocoded_column": {
      "latitude": "29.954054188401447",
      "longitude": "-90.11269663873546"
    }
  },
  {
    "service_request": "2022-895103",
    "request_type": "Trash/Recycling",
    "request_reason": "Request a Large Item Pick Up",
    "date_created": "2022-06-27T17:31:27.000",
    "date_modified": "2022-06-27T17:31:28.000",
    "request_status": "Pending",
    "responsible_agency": "Department of Sanitation",
    "final_address": "4809 Carondelet St, New Orleans, Louisiana, 70115",
    "address_councildis": "B",
    "status": "Assigned to Contractor",
    "contractor": "Richards Disposal",
    "rowid": "895103",
    "final_x": "3669233.08615",
    "final_y": "521157.453433",
    "longitude": "-90.1071550895139",
    "latitude": "29.927368786754712",
    "geocoded_column": {
      "latitude": "29.927368786754712",
      "longitude": "-90.1071550895139"
    }
  },
  {
    "service_request": "2022-895102",
    "request_type": "Trash/Recycling",
    "request_reason": "Illegal Dumping",
    "date_created": "2022-06-27T17:27:18.000",
    "date_modified": "2022-06-27T17:27:19.000",
    "request_status": "Pending",
    "responsible_agency": "Department of Sanitation",
    "final_address": "BULLARD AVE & CHEF MENTEUR HWY",
    "address_councildis": "E",
    "status": "Pending",
    "rowid": "895102",
    "final_x": "3719420.4",
    "final_y": "556924.28",
    "longitude": "-89.94736259270046",
    "latitude": "30.024141818205965",
    "geocoded_column": {
      "latitude": "30.024141818205965",
      "longitude": "-89.94736259270046"
    }
  },
  {
    "service_request": "2022-895100",
    "request_type": "Abandoned Vehicles",
    "request_reason": "Abandoned/Junk Vehicles",
    "date_created": "2022-06-27T17:03:02.000",
    "date_modified": "2022-06-27T17:03:02.000",
    "request_status": "Pending",
    "responsible_agency": "Department of Public Works",
    "final_address": "2000 BLK Saint Anthony St",
    "address_councildis": "D",
    "status": "Pending",
    "rowid": "895100",
    "final_x": "3683234.23783",
    "final_y": "539682.335449",
    "longitude": "-90.06230833467822",
    "latitude": "29.977886520650294",
    "geocoded_column": {
      "latitude": "29.977886520650294",
      "longitude": "-90.06230833467822"
    }
  },
  {
    "service_request": "2022-895099",
    "request_type": "Abandoned Vehicles",
    "request_reason": "Abandoned/Junk Vehicles",
    "date_created": "2022-06-27T16:58:51.000",
    "date_modified": "2022-06-27T16:58:52.000",
    "request_status": "Pending",
    "responsible_agency": "Department of Public Works",
    "final_address": "1119 Dante St",
    "address_councildis": "A",
    "status": "Pending",
    "rowid": "895099",
    "final_x": "3661360.50835",
    "final_y": "528704.588928",
    "longitude": "-90.1317571484113",
    "latitude": "29.948350324069004",
    "geocoded_column": {
      "latitude": "29.948350324069004",
      "longitude": "-90.1317571484113"
    }
  },
  {
    "service_request": "2022-895098",
    "request_type": "Roads/Drainage",
    "request_reason": "Street Subsidence (Sinking)",
    "date_created": "2022-06-27T16:58:16.000",
    "date_modified": "2022-06-27T16:58:16.000",
    "request_status": "Pending",
    "responsible_agency": "Department of Public Works",
    "final_address": "3716 Post Oak Ave",
    "address_councildis": "C",
    "status": "Pending",
    "rowid": "895098",
    "final_x": "3704267.02935",
    "final_y": "514355.621555",
    "longitude": "-89.9968129745796",
    "latitude": "29.90758874529686",
    "geocoded_column": {
      "latitude": "29.90758874529686",
      "longitude": "-89.9968129745796"
    }
  },
  {
    "service_request": "2022-895097",
    "request_type": "Trash/Recycling",
    "request_reason": "Replace Trash Cart",
    "date_created": "2022-06-27T16:57:19.000",
    "date_modified": "2022-06-27T16:57:20.000",
    "request_status": "Pending",
    "responsible_agency": "Department of Sanitation",
    "final_address": "3235 Banks St",
    "address_councildis": "B",
    "status": "Assigned to Contractor",
    "contractor": "Richards Disposal",
    "rowid": "895097",
    "final_x": "3672948.47873",
    "final_y": "535502.666118",
    "longitude": "-90.09493708041461",
    "latitude": "29.96670355770002",
    "geocoded_column": {
      "latitude": "29.96670355770002",
      "longitude": "-90.09493708041461"
    }
  },
  {
    "service_request": "2022-895096",
    "request_type": "Property Maintenance",
    "request_reason": "Property Maintenance",
    "date_created": "2022-06-27T16:53:27.000",
    "date_modified": "2022-06-27T16:53:28.000",
    "request_status": "Pending",
    "responsible_agency": "Department of Code Enforcement",
    "final_address": "7541 Morel St",
    "address_councildis": "E",
    "status": "Pending",
    "rowid": "895096",
    "final_x": "3719149.11903",
    "final_y": "571603.356904",
    "longitude": "-89.94765886612052",
    "latitude": "30.064512287519054",
    "geocoded_column": {
      "latitude": "30.064512287519054",
      "longitude": "-89.94765886612052"
    }
  },
  {
    "service_request": "2022-895095",
    "request_type": "Trash/Recycling",
    "request_reason": "Missed Trash Pick-Up",
    "date_created": "2022-06-27T16:49:54.000",
    "date_modified": "2022-06-27T16:49:55.000",
    "request_status": "Pending",
    "responsible_agency": "Department of Sanitation",
    "final_address": "3915 Baronne St",
    "address_councildis": "B",
    "status": "Assigned to Contractor",
    "contractor": "Richards Disposal",
    "rowid": "895095",
    "final_x": "3672334.76091",
    "final_y": "521790.844218",
    "longitude": "-90.09734228929463",
    "latitude": "29.92901877788667",
    "geocoded_column": {
      "latitude": "29.92901877788667",
      "longitude": "-90.09734228929463"
    }
  },
  {
    "service_request": "2022-895094",
    "request_type": "Property Maintenance",
    "request_reason": "Property Maintenance",
    "date_created": "2022-06-27T16:47:40.000",
    "date_modified": "2022-06-27T16:47:40.000",
    "request_status": "Pending",
    "responsible_agency": "Department of Code Enforcement",
    "final_address": "3821 Prytania St",
    "address_councildis": "B",
    "status": "Pending",
    "rowid": "895094",
    "final_x": "3672808.64123",
    "final_y": "520613.04716",
    "longitude": "-90.0958864931361",
    "latitude": "29.925766150743545",
    "geocoded_column": {
      "latitude": "29.925766150743545",
      "longitude": "-90.0958864931361"
    }
  },
  {
    "service_request": "2022-895093",
    "request_type": "Trash/Recycling",
    "request_reason": "Request a Large Item Pick Up",
    "date_created": "2022-06-27T16:46:42.000",
    "date_modified": "2022-06-27T16:46:43.000",
    "request_status": "Pending",
    "responsible_agency": "Department of Sanitation",
    "final_address": "1830 St Philip St",
    "address_councildis": "D",
    "status": "Assigned to Contractor",
    "contractor": "Richards Disposal",
    "rowid": "895093",
    "final_x": "3679913.7732",
    "final_y": "535845.678471",
    "longitude": "-90.07292880754487",
    "latitude": "29.967437893860325",
    "geocoded_column": {
      "latitude": "29.967437893860325",
      "longitude": "-90.07292880754487"
    }
  },
  {
    "service_request": "2022-895092",
    "request_type": "Trash/Recycling",
    "request_reason": "Request a Large Item Pick Up",
    "date_created": "2022-06-27T16:46:40.000",
    "date_modified": "2022-06-27T16:46:41.000",
    "request_status": "Pending",
    "responsible_agency": "Department of Sanitation",
    "final_address": "2917 Lepage St",
    "address_councildis": "A",
    "status": "Assigned to Contractor",
    "contractor": "Metro Disposal",
    "rowid": "895092",
    "final_x": "3677108.42523",
    "final_y": "540028.116363",
    "longitude": "-90.081643868415",
    "latitude": "29.979022717782893",
    "geocoded_column": {
      "latitude": "29.979022717782893",
      "longitude": "-90.081643868415"
    }
  },
  {
    "service_request": "2022-895091",
    "request_type": "Trash/Recycling",
    "request_reason": "Repair Trash Cart",
    "date_created": "2022-06-27T16:45:14.000",
    "date_modified": "2022-06-27T16:45:14.000",
    "request_status": "Pending",
    "responsible_agency": "Department of Sanitation",
    "final_address": "4011 DHemecourt St",
    "address_councildis": "A",
    "status": "Assigned to Contractor",
    "contractor": "Richards Disposal",
    "rowid": "895091",
    "final_x": "3670180.48948",
    "final_y": "536661.804807",
    "longitude": "-90.1036391146166",
    "latitude": "29.969972768916328",
    "geocoded_column": {
      "latitude": "29.969972768916328",
      "longitude": "-90.1036391146166"
    }
  },
  {
    "service_request": "2022-895090",
    "request_type": "Trash/Recycling",
    "request_reason": "Missed Trash Pick-Up",
    "date_created": "2022-06-27T16:42:44.000",
    "date_modified": "2022-06-27T16:42:45.000",
    "request_status": "Pending",
    "responsible_agency": "Department of Sanitation",
    "final_address": "3716 Post Oak Ave",
    "address_councildis": "C",
    "status": "Assigned to Contractor",
    "contractor": "Richards Disposal",
    "rowid": "895090",
    "final_x": "3704267.02935",
    "final_y": "514355.621555",
    "longitude": "-89.9968129745796",
    "latitude": "29.90758874529686",
    "geocoded_column": {
      "latitude": "29.90758874529686",
      "longitude": "-89.9968129745796"
    }
  },
  {
    "service_request": "2022-895089",
    "request_type": "Property Maintenance",
    "request_reason": "Property Maintenance",
    "date_created": "2022-06-27T16:39:15.000",
    "date_modified": "2022-06-27T16:39:16.000",
    "request_status": "Pending",
    "responsible_agency": "Department of Code Enforcement",
    "final_address": "2817 Cherry St",
    "address_councildis": "A",
    "status": "Pending",
    "rowid": "895089",
    "final_x": "3662845.96839",
    "final_y": "535577.01735",
    "longitude": "-90.12683843602727",
    "latitude": "29.967204355011802",
    "geocoded_column": {
      "latitude": "29.967204355011802",
      "longitude": "-90.12683843602727"
    }
  },
  {
    "service_request": "2022-895088",
    "request_type": "Trash/Recycling",
    "request_reason": "Request a Large Item Pick Up",
    "date_created": "2022-06-27T16:20:41.000",
    "date_modified": "2022-06-27T16:20:42.000",
    "request_status": "Pending",
    "responsible_agency": "Department of Sanitation",
    "final_address": "7741 Symmes Ave",
    "address_councildis": "E",
    "status": "Assigned to Contractor",
    "contractor": "Metro Disposal",
    "rowid": "895088",
    "final_x": "3707678.11102",
    "final_y": "565012.959522",
    "longitude": "-89.98416476329626",
    "latitude": "30.0467677945899",
    "geocoded_column": {
      "latitude": "30.0467677945899",
      "longitude": "-89.98416476329626"
    }
  },
  {
    "service_request": "2022-895087",
    "request_type": "Trash/Recycling",
    "request_reason": "Request a Large Item Pick Up",
    "date_created": "2022-06-27T16:18:23.000",
    "date_modified": "2022-06-27T16:18:24.000",
    "request_status": "Pending",
    "responsible_agency": "Department of Sanitation",
    "final_address": "8531 Dinkins St",
    "address_councildis": "E",
    "status": "Assigned to Contractor",
    "contractor": "Metro Disposal",
    "rowid": "895087",
    "final_x": "3703592.69425",
    "final_y": "562912.141024",
    "longitude": "-89.9971541756265",
    "latitude": "30.041123008055827",
    "geocoded_column": {
      "latitude": "30.041123008055827",
      "longitude": "-89.9971541756265"
    }
  },
  {
    "service_request": "2022-895086",
    "request_type": "Roads/Drainage",
    "request_reason": "Street Subsidence (Sinking)",
    "date_created": "2022-06-27T16:18:11.000",
    "date_modified": "2022-06-27T16:18:11.000",
    "request_status": "Pending",
    "responsible_agency": "Department of Public Works",
    "final_address": "1504 Louisa St",
    "address_councildis": "D",
    "status": "Pending",
    "rowid": "895086",
    "final_x": "3689917.33449",
    "final_y": "537415.79988",
    "longitude": "-90.0412815746156",
    "latitude": "29.971448818764028",
    "geocoded_column": {
      "latitude": "29.971448818764028",
      "longitude": "-90.0412815746156"
    }
  },
  {
    "service_request": "2022-895084",
    "request_type": "Property Maintenance",
    "request_reason": "Property Maintenance",
    "date_created": "2022-06-27T16:15:21.000",
    "date_modified": "2022-06-27T16:15:21.000",
    "request_status": "Pending",
    "responsible_agency": "Department of Code Enforcement",
    "final_address": "2108 Magnolia St",
    "address_councildis": "B",
    "status": "Pending",
    "rowid": "895084",
    "final_x": "3675453.91112",
    "final_y": "526984.805246",
    "longitude": "-90.08731743990084",
    "latitude": "29.94320759065088",
    "geocoded_column": {
      "latitude": "29.94320759065088",
      "longitude": "-90.08731743990084"
    }
  },
  {
    "service_request": "2022-895083",
    "request_type": "Trash/Recycling",
    "request_reason": "Order Recycling Cart",
    "date_created": "2022-06-27T16:14:35.000",
    "date_modified": "2022-06-27T16:14:35.000",
    "request_status": "Pending",
    "responsible_agency": "Department of Sanitation",
    "final_address": "520 Lowerline St",
    "address_councildis": "A",
    "status": "Pending",
    "rowid": "895083",
    "final_x": "3662163.80071",
    "final_y": "524645.82246",
    "longitude": "-90.12935546360622",
    "latitude": "29.937166822197213",
    "geocoded_column": {
      "latitude": "29.937166822197213",
      "longitude": "-90.12935546360622"
    }
  },
  {
    "service_request": "2022-895082",
    "request_type": "Traffic Signals/Signs/Striping/Streetlights",
    "request_reason": "Street Name Sign Damaged or Missing",
    "date_created": "2022-06-27T16:12:45.000",
    "date_modified": "2022-06-27T16:12:46.000",
    "request_status": "Pending",
    "responsible_agency": "Department of Public Works",
    "final_address": "LEON C SIMON DR & ST ROCH AVE",
    "address_councildis": "D",
    "status": "Pending",
    "rowid": "895082",
    "final_x": "3684790.5",
    "final_y": "557044.38",
    "longitude": "-90.05678221852526",
    "latitude": "30.025578324844233",
    "geocoded_column": {
      "latitude": "30.025578324844233",
      "longitude": "-90.05678221852526"
    }
  },
  {
    "service_request": "2022-895081",
    "request_type": "Trash/Recycling",
    "request_reason": "Replace Trash Cart",
    "date_created": "2022-06-27T16:09:17.000",
    "date_modified": "2022-06-27T16:09:18.000",
    "request_status": "Pending",
    "responsible_agency": "Department of Sanitation",
    "final_address": "4512 Baudin St, New Orleans, Louisiana, 70119",
    "address_councildis": "A",
    "status": "Assigned to Contractor",
    "contractor": "Richards Disposal",
    "rowid": "895081",
    "final_x": "3668550.63386",
    "final_y": "538180.156425",
    "longitude": "-90.10873512787366",
    "latitude": "29.97419572183933",
    "geocoded_column": {
      "latitude": "29.97419572183933",
      "longitude": "-90.10873512787366"
    }
  },
  {
    "service_request": "2022-895080",
    "request_type": "Abandoned Vehicles",
    "request_reason": "Abandoned/Junk Vehicles",
    "date_created": "2022-06-27T16:07:54.000",
    "date_modified": "2022-06-27T16:07:54.000",
    "request_status": "Pending",
    "responsible_agency": "Department of Public Works",
    "final_address": "1748 Filmore Ave",
    "address_councildis": "D",
    "status": "Pending",
    "rowid": "895080",
    "final_x": "3680228.72603",
    "final_y": "551841.126102",
    "longitude": "-90.07137785340946",
    "latitude": "30.01141022155532",
    "geocoded_column": {
      "latitude": "30.01141022155532",
      "longitude": "-90.07137785340946"
    }
  },
  {
    "service_request": "2022-895079",
    "request_type": "Trash/Recycling",
    "request_reason": "Order Recycling Cart",
    "date_created": "2022-06-27T16:06:02.000",
    "date_modified": "2022-06-27T16:06:02.000",
    "request_status": "Pending",
    "responsible_agency": "Department of Sanitation",
    "final_address": "1724 S Norman C Francis Prkwy",
    "address_councildis": "B",
    "status": "Pending",
    "rowid": "895079",
    "final_x": "3669312.18414",
    "final_y": "530768.032962",
    "longitude": "-90.10658059090525",
    "latitude": "29.95379244432349",
    "geocoded_column": {
      "latitude": "29.95379244432349",
      "longitude": "-90.10658059090525"
    }
  },
  {
    "service_request": "2022-895078",
    "request_type": "Traffic Signals/Signs/Striping/Streetlights",
    "request_reason": "Street Name Sign Damaged or Missing",
    "date_created": "2022-06-27T16:05:09.000",
    "date_modified": "2022-06-27T16:05:09.000",
    "request_status": "Pending",
    "responsible_agency": "Department of Public Works",
    "final_address": "2431 Columbus St",
    "address_councildis": "D",
    "status": "Pending",
    "rowid": "895078",
    "final_x": "3679309.54133",
    "final_y": "539113.586442",
    "longitude": "-90.0747236246973",
    "latitude": "29.976441779299755",
    "geocoded_column": {
      "latitude": "29.976441779299755",
      "longitude": "-90.0747236246973"
    }
  },
  {
    "service_request": "2022-895077",
    "request_type": "Trash/Recycling",
    "request_reason": "Order Trash Cart",
    "date_created": "2022-06-27T16:04:53.000",
    "date_modified": "2022-06-27T16:04:53.000",
    "request_status": "Pending",
    "responsible_agency": "Department of Sanitation",
    "final_address": "5710 Abbey Dr",
    "address_councildis": "C",
    "status": "Assigned to Contractor",
    "contractor": "Richards Disposal",
    "rowid": "895077",
    "final_x": "3704727.43159",
    "final_y": "521189.937401",
    "longitude": "-89.99510798477439",
    "latitude": "29.92636598219396",
    "geocoded_column": {
      "latitude": "29.92636598219396",
      "longitude": "-89.99510798477439"
    }
  },
  {
    "service_request": "2022-895076",
    "request_type": "Trash/Recycling",
    "request_reason": "Return Trash Cart",
    "date_created": "2022-06-27T16:04:16.000",
    "date_modified": "2022-06-27T16:04:17.000",
    "request_status": "Pending",
    "responsible_agency": "Department of Sanitation",
    "final_address": "520 Lowerline St",
    "address_councildis": "A",
    "status": "Assigned to Contractor",
    "contractor": "Richards Disposal",
    "rowid": "895076",
    "final_x": "3662163.80071",
    "final_y": "524645.82246",
    "longitude": "-90.12935546360622",
    "latitude": "29.937166822197213",
    "geocoded_column": {
      "latitude": "29.937166822197213",
      "longitude": "-90.12935546360622"
    }
  },
  {
    "service_request": "2022-895075",
    "request_type": "Trash/Recycling",
    "request_reason": "Missed Trash Pick-Up",
    "date_created": "2022-06-27T16:02:07.000",
    "date_modified": "2022-06-27T16:02:08.000",
    "request_status": "Pending",
    "responsible_agency": "Department of Sanitation",
    "final_address": "11221 N Forest Park Ct, New Orleans, Louisiana, 70128",
    "address_councildis": "E",
    "status": "Assigned to Contractor",
    "contractor": "Metro Disposal",
    "rowid": "895075",
    "final_x": "3716917.12338",
    "final_y": "558901.897756",
    "longitude": "-89.95519722800496",
    "latitude": "30.029662494514362",
    "geocoded_column": {
      "latitude": "30.029662494514362",
      "longitude": "-89.95519722800496"
    }
  },
  {
    "service_request": "2022-895074",
    "request_type": "Trash/Recycling",
    "request_reason": "Illegal Dumping",
    "date_created": "2022-06-27T16:02:02.000",
    "date_modified": "2022-06-27T16:02:06.000",
    "request_status": "Pending",
    "responsible_agency": "Department of Sanitation",
    "final_address": "520 Lowerline St",
    "address_councildis": "A",
    "status": "Pending",
    "rowid": "895074",
    "final_x": "3662163.80071",
    "final_y": "524645.82246",
    "longitude": "-90.12935546360622",
    "latitude": "29.937166822197213",
    "geocoded_column": {
      "latitude": "29.937166822197213",
      "longitude": "-90.12935546360622"
    }
  },
  {
    "service_request": "2022-895073",
    "request_type": "Trash/Recycling",
    "request_reason": "Request a Large Item Pick Up",
    "date_created": "2022-06-27T16:01:08.000",
    "date_modified": "2022-06-27T16:01:09.000",
    "request_status": "Pending",
    "responsible_agency": "Department of Sanitation",
    "final_address": "7521 Alabama St",
    "address_councildis": "D",
    "status": "Assigned to Contractor",
    "contractor": "Metro Disposal",
    "rowid": "895073",
    "final_x": "3695040.99216",
    "final_y": "558305.13462",
    "longitude": "-90.02434675700846",
    "latitude": "30.028726934574166",
    "geocoded_column": {
      "latitude": "30.028726934574166",
      "longitude": "-90.02434675700846"
    }
  },
  {
    "service_request": "2022-895072",
    "request_type": "Trash/Recycling",
    "request_reason": "Request a Large Item Pick Up",
    "date_created": "2022-06-27T15:58:34.000",
    "date_modified": "2022-06-27T15:58:35.000",
    "request_status": "Pending",
    "responsible_agency": "Department of Sanitation",
    "final_address": "6015 Pauline Dr",
    "address_councildis": "D",
    "status": "Assigned to Contractor",
    "contractor": "Metro Disposal",
    "rowid": "895072",
    "final_x": "3691569.679",
    "final_y": "556166.664538",
    "longitude": "-90.03539246635368",
    "latitude": "30.022955528781015",
    "geocoded_column": {
      "latitude": "30.022955528781015",
      "longitude": "-90.03539246635368"
    }
  },
  {
    "service_request": "2022-895071",
    "request_type": "Roads/Drainage",
    "request_reason": "Unpermitted work in ROW",
    "date_created": "2022-06-27T15:58:25.000",
    "date_modified": "2022-06-27T15:58:25.000",
    "request_status": "Pending",
    "responsible_agency": "Department of Public Works",
    "final_address": "1351 Harrison Ave",
    "address_councildis": "D",
    "status": "Pending",
    "rowid": "895071",
    "final_x": "3677739.34005",
    "final_y": "547666.192658",
    "longitude": "-90.07938719608052",
    "latitude": "30.0000057926072",
    "geocoded_column": {
      "latitude": "30.0000057926072",
      "longitude": "-90.07938719608052"
    }
  },
  {
    "service_request": "2022-895070",
    "request_type": "Trash/Recycling",
    "request_reason": "Request a Large Item Pick Up",
    "date_created": "2022-06-27T15:58:06.000",
    "date_modified": "2022-06-27T15:58:17.000",
    "request_status": "Pending",
    "responsible_agency": "Department of Sanitation",
    "final_address": "2903 Pocahontas St",
    "address_councildis": "D",
    "status": "Assigned to Contractor",
    "contractor": "Metro Disposal",
    "rowid": "895070",
    "final_x": "3688927.11132",
    "final_y": "548390.964434",
    "longitude": "-90.04401882184649",
    "latitude": "30.00165726028263",
    "geocoded_column": {
      "latitude": "30.00165726028263",
      "longitude": "-90.04401882184649"
    }
  },
  {
    "service_request": "2022-895069",
    "request_type": "Trash/Recycling",
    "request_reason": "Order Recycling Cart",
    "date_created": "2022-06-27T15:55:33.000",
    "date_modified": "2022-06-27T15:55:34.000",
    "request_status": "Pending",
    "responsible_agency": "Department of Sanitation",
    "final_address": "6023 N Rampart St",
    "address_councildis": "E",
    "status": "Pending",
    "rowid": "895069",
    "final_x": "3699179.729",
    "final_y": "532988.948804",
    "longitude": "-90.01219096741912",
    "latitude": "29.958986130147387",
    "geocoded_column": {
      "latitude": "29.958986130147387",
      "longitude": "-90.01219096741912"
    }
  },
  {
    "service_request": "2022-895068",
    "request_type": "Traffic Signals/Signs/Striping/Streetlights",
    "request_reason": "Street Light Outage/Malfunction",
    "date_created": "2022-06-27T15:54:23.000",
    "date_modified": "2022-06-27T15:54:24.000",
    "request_status": "Pending",
    "responsible_agency": "Department of Public Works",
    "final_address": "CARTIER AVE & SEVILLE DR",
    "address_councildis": "D",
    "status": "Pending",
    "contractor": "Royal Engineering",
    "rowid": "895068",
    "final_x": "3677711.5",
    "final_y": "551151.78",
    "longitude": "-90.0793546410494",
    "latitude": "30.009590755167263",
    "geocoded_column": {
      "latitude": "30.009590755167263",
      "longitude": "-90.0793546410494"
    }
  },
  {
    "service_request": "2022-895067",
    "request_type": "Property Maintenance",
    "request_reason": "Property Maintenance",
    "date_created": "2022-06-27T15:50:34.000",
    "date_modified": "2022-06-27T15:50:34.000",
    "request_status": "Pending",
    "responsible_agency": "Department of Code Enforcement",
    "final_address": "1700 Pressburg Dr",
    "address_councildis": "D",
    "status": "Pending",
    "rowid": "895067",
    "final_x": "3679688.00859",
    "final_y": "554059.489432",
    "longitude": "-90.07300911150796",
    "latitude": "30.017526281816004",
    "geocoded_column": {
      "latitude": "30.017526281816004",
      "longitude": "-90.07300911150796"
    }
  },
  {
    "service_request": "2022-895066",
    "request_type": "Property Maintenance",
    "request_reason": "Property Maintenance",
    "date_created": "2022-06-27T15:46:06.000",
    "date_modified": "2022-06-27T15:46:06.000",
    "request_status": "Pending",
    "responsible_agency": "Department of Code Enforcement",
    "final_address": "3504 Palmyra St",
    "address_councildis": "B",
    "status": "Pending",
    "rowid": "895066",
    "final_x": "3672304.63367",
    "final_y": "536376.123015",
    "longitude": "-90.09694058022295",
    "latitude": "29.96912438827937",
    "geocoded_column": {
      "latitude": "29.96912438827937",
      "longitude": "-90.09694058022295"
    }
  },
  {
    "service_request": "2022-895065",
    "request_type": "Trash/Recycling",
    "request_reason": "Replace Trash Cart",
    "date_created": "2022-06-27T15:44:29.000",
    "date_modified": "2022-06-27T15:44:30.000",
    "request_status": "Pending",
    "responsible_agency": "Department of Sanitation",
    "final_address": "2315 Loyola Ave",
    "address_councildis": "B",
    "status": "Assigned to Contractor",
    "contractor": "Richards Disposal",
    "rowid": "895065",
    "final_x": "3675873.13806",
    "final_y": "525101.363709",
    "longitude": "-90.08605856290376",
    "latitude": "29.938016203899917",
    "geocoded_column": {
      "latitude": "29.938016203899917",
      "longitude": "-90.08605856290376"
    }
  },
  {
    "service_request": "2022-895064",
    "request_type": "Trash/Recycling",
    "request_reason": "Illegal Dumping",
    "date_created": "2022-06-27T15:37:55.000",
    "date_modified": "2022-06-27T15:37:55.000",
    "request_status": "Pending",
    "responsible_agency": "Department of Sanitation",
    "final_address": "2626 Banks St",
    "address_councildis": "B",
    "status": "Pending",
    "rowid": "895064",
    "final_x": "3674869.4052",
    "final_y": "533880.917125",
    "longitude": "-90.08892641741694",
    "latitude": "29.96218706931181",
    "geocoded_column": {
      "latitude": "29.96218706931181",
      "longitude": "-90.08892641741694"
    }
  },
  {
    "service_request": "2022-895063",
    "request_type": "Abandoned Vehicles",
    "request_reason": "Abandoned/Junk Vehicles",
    "date_created": "2022-06-27T15:36:34.000",
    "date_modified": "2022-06-27T15:36:34.000",
    "request_status": "Pending",
    "responsible_agency": "Department of Public Works",
    "final_address": "915 Jackson Ave",
    "address_councildis": "B",
    "status": "Pending",
    "rowid": "895063",
    "final_x": "3679269.15899",
    "final_y": "521623.187001",
    "longitude": "-90.07545757539529",
    "latitude": "29.928350279256097",
    "geocoded_column": {
      "latitude": "29.928350279256097",
      "longitude": "-90.07545757539529"
    }
  },
  {
    "service_request": "2022-895061",
    "request_type": "Roads/Drainage",
    "request_reason": "Leaking Hydrant",
    "date_created": "2022-06-27T15:28:53.000",
    "date_modified": "2022-06-27T15:28:53.000",
    "request_status": "Pending",
    "responsible_agency": "Department of Public Works",
    "final_address": "11500 Chef Menteur Hwy",
    "address_councildis": "E",
    "status": "Pending",
    "rowid": "895061",
    "final_x": "3718139.9806",
    "final_y": "556310.089818",
    "longitude": "-89.95143183445582",
    "latitude": "30.022495563058094",
    "geocoded_column": {
      "latitude": "30.022495563058094",
      "longitude": "-89.95143183445582"
    }
  },
  {
    "service_request": "2022-895060",
    "request_type": "Property Maintenance",
    "request_reason": "Property Maintenance",
    "date_created": "2022-06-27T15:25:55.000",
    "date_modified": "2022-06-27T15:25:55.000",
    "request_status": "Pending",
    "responsible_agency": "Department of Code Enforcement",
    "final_address": "171 Torrey Pines Dr",
    "address_councildis": "E",
    "status": "Pending",
    "rowid": "895060",
    "final_x": "3718579.91615",
    "final_y": "564453.563553",
    "longitude": "-89.94973105483433",
    "latitude": "30.044872228670105",
    "geocoded_column": {
      "latitude": "30.044872228670105",
      "longitude": "-89.94973105483433"
    }
  },
  {
    "service_request": "2022-895059",
    "request_type": "Traffic Signals/Signs/Striping/Streetlights",
    "request_reason": "Street Light Knocked Down/Leaning",
    "date_created": "2022-06-27T15:23:29.000",
    "date_modified": "2022-06-27T15:23:30.000",
    "request_status": "Pending",
    "responsible_agency": "Department of Public Works",
    "final_address": "N ROBERTSON ST & POLAND AVE",
    "address_councildis": "D",
    "status": "Pending",
    "contractor": "Royal Engineering",
    "rowid": "895059",
    "final_x": "3693387.9",
    "final_y": "536500.58",
    "longitude": "-90.03035394194877",
    "latitude": "29.968824227096107",
    "geocoded_column": {
      "latitude": "29.968824227096107",
      "longitude": "-90.03035394194877"
    }
  },
  {
    "service_request": "2022-895058",
    "request_type": "Trash/Recycling",
    "request_reason": "Repair Trash Cart",
    "date_created": "2022-06-27T15:20:50.000",
    "date_modified": "2022-06-27T15:20:51.000",
    "case_close_date": "2022-02-24T18:00:00.000",
    "request_status": "Pending",
    "responsible_agency": "Department of Sanitation",
    "final_address": "5333 Coliseum St",
    "address_councildis": "B",
    "status": "Assigned to Contractor",
    "contractor": "Richards Disposal",
    "rowid": "895058",
    "final_x": "3667383.56705",
    "final_y": "519801.768312",
    "longitude": "-90.1130391562591",
    "latitude": "29.923695373444726",
    "geocoded_column": {
      "latitude": "29.923695373444726",
      "longitude": "-90.1130391562591"
    }
  },
  {
    "service_request": "2022-895057",
    "request_type": "Trash/Recycling",
    "request_reason": "Request a Large Item Pick Up",
    "date_created": "2022-06-27T15:19:52.000",
    "date_modified": "2022-06-27T15:19:52.000",
    "request_status": "Pending",
    "responsible_agency": "Department of Sanitation",
    "final_address": "1020 Jena St, New Orleans, Louisiana, 70115",
    "address_councildis": "B",
    "status": "Assigned to Contractor",
    "contractor": "Richards Disposal",
    "rowid": "895057",
    "final_x": "3670561.91438",
    "final_y": "519277.931767",
    "longitude": "-90.10302400554674",
    "latitude": "29.922161533972375",
    "geocoded_column": {
      "latitude": "29.922161533972375",
      "longitude": "-90.10302400554674"
    }
  },
  {
    "service_request": "2022-895056",
    "request_type": "Traffic Signals/Signs/Striping/Streetlights",
    "request_reason": "Street Light Outage/Malfunction",
    "date_created": "2022-06-27T15:19:47.000",
    "date_modified": "2022-06-27T15:20:56.000",
    "request_status": "Pending",
    "responsible_agency": "Department of Public Works",
    "final_address": "4900 BLK Willow St",
    "address_councildis": "B",
    "status": "Pending",
    "contractor": "Royal Engineering",
    "rowid": "895056",
    "final_x": "3669034.79542",
    "final_y": "525306.439004",
    "longitude": "-90.10764094513645",
    "latitude": "29.938783000705172",
    "geocoded_column": {
      "latitude": "29.938783000705172",
      "longitude": "-90.10764094513645"
    }
  },
  {
    "service_request": "2022-895055",
    "request_type": "Trash/Recycling",
    "request_reason": "Illegal Dumping",
    "date_created": "2022-06-27T15:18:25.000",
    "date_modified": "2022-06-27T15:18:26.000",
    "request_status": "Pending",
    "responsible_agency": "Department of Sanitation",
    "final_address": "2101 Willow St",
    "address_councildis": "B",
    "status": "Pending",
    "rowid": "895055",
    "final_x": "3675077.82715",
    "final_y": "527569.767167",
    "longitude": "-90.08848476837395",
    "latitude": "29.944827283015943",
    "geocoded_column": {
      "latitude": "29.944827283015943",
      "longitude": "-90.08848476837395"
    }
  },
  {
    "service_request": "2022-895054",
    "request_type": "Trash/Recycling",
    "request_reason": "Repair Trash Cart",
    "date_created": "2022-06-27T15:17:16.000",
    "date_modified": "2022-06-27T15:17:17.000",
    "request_status": "Pending",
    "responsible_agency": "Department of Sanitation",
    "final_address": "4920 Willow St",
    "address_councildis": "B",
    "status": "Assigned to Contractor",
    "contractor": "Richards Disposal",
    "rowid": "895054",
    "final_x": "3669026.38241",
    "final_y": "525418.177661",
    "longitude": "-90.10766373253676",
    "latitude": "29.939090493415932",
    "geocoded_column": {
      "latitude": "29.939090493415932",
      "longitude": "-90.10766373253676"
    }
  },
  {
    "service_request": "2022-895053",
    "request_type": "Trash/Recycling",
    "request_reason": "Order Trash Cart",
    "date_created": "2022-06-27T15:13:31.000",
    "date_modified": "2022-06-27T16:20:24.000",
    "request_status": "Pending",
    "responsible_agency": "Department of Sanitation",
    "final_address": "New Orleans,LA",
    "address_councildis": "D",
    "status": "Assigned to Contractor",
    "contractor": "Metro Disposal",
    "rowid": "895053",
    "final_x": "3678814.77954",
    "final_y": "548944.963475",
    "longitude": "-90.0759455001337",
    "latitude": "30.003489553304238",
    "geocoded_column": {
      "latitude": "30.003489553304238",
      "longitude": "-90.0759455001337"
    }
  },
  {
    "service_request": "2022-895052",
    "request_type": "Trash/Recycling",
    "request_reason": "Illegal Dumping",
    "date_created": "2022-06-27T15:13:01.000",
    "date_modified": "2022-06-27T15:13:01.000",
    "request_status": "Pending",
    "responsible_agency": "Department of Sanitation",
    "final_address": "1828 Hollygrove St",
    "address_councildis": "A",
    "status": "Pending",
    "rowid": "895052",
    "final_x": "3661164.61517",
    "final_y": "532276.842691",
    "longitude": "-90.13225743939608",
    "latitude": "29.958178519872593",
    "geocoded_column": {
      "latitude": "29.958178519872593",
      "longitude": "-90.13225743939608"
    }
  },
  {
    "service_request": "2022-895051",
    "request_type": "Property Maintenance",
    "request_reason": "Property Maintenance",
    "date_created": "2022-06-27T15:12:35.000",
    "date_modified": "2022-06-27T15:12:35.000",
    "request_status": "Pending",
    "responsible_agency": "Department of Code Enforcement",
    "final_address": "6072 Wickfield Dr",
    "address_councildis": "D",
    "status": "Pending",
    "rowid": "895051",
    "final_x": "3680855.08386",
    "final_y": "555443.146841",
    "longitude": "-90.0692733892556",
    "latitude": "30.021295486806483",
    "geocoded_column": {
      "latitude": "30.021295486806483",
      "longitude": "-90.0692733892556"
    }
  },
  {
    "service_request": "2022-895050",
    "request_type": "Abandoned Vehicles",
    "request_reason": "Abandoned/Junk Vehicles",
    "date_created": "2022-06-27T15:10:50.000",
    "date_modified": "2022-06-27T15:10:50.000",
    "request_status": "Pending",
    "responsible_agency": "Department of Public Works",
    "final_address": "6065 Wickfield Dr",
    "address_councildis": "D",
    "status": "Pending",
    "rowid": "895050",
    "final_x": "3681009.53525",
    "final_y": "555360.114713",
    "longitude": "-90.06878826125102",
    "latitude": "30.02106249290218",
    "geocoded_column": {
      "latitude": "30.02106249290218",
      "longitude": "-90.06878826125102"
    }
  },
  {
    "service_request": "2022-895049",
    "request_type": "Trash/Recycling",
    "request_reason": "Request a Large Item Pick Up",
    "date_created": "2022-06-27T15:09:40.000",
    "date_modified": "2022-06-27T15:09:40.000",
    "request_status": "Pending",
    "responsible_agency": "Department of Sanitation",
    "final_address": "2915 Josephine St",
    "address_councildis": "B",
    "status": "Assigned to Contractor",
    "contractor": "Richards Disposal",
    "rowid": "895049",
    "final_x": "3675074.50984",
    "final_y": "527686.944191",
    "longitude": "-90.08849122285153",
    "latitude": "29.94514958028682",
    "geocoded_column": {
      "latitude": "29.94514958028682",
      "longitude": "-90.08849122285153"
    }
  },
  {
    "service_request": "2022-895048",
    "request_type": "Trash/Recycling",
    "request_reason": "Request a Large Item Pick Up",
    "date_created": "2022-06-27T15:09:27.000",
    "date_modified": "2022-06-27T15:09:27.000",
    "request_status": "Pending",
    "responsible_agency": "Department of Sanitation",
    "final_address": "2913 Josephine St",
    "address_councildis": "B",
    "status": "Assigned to Contractor",
    "contractor": "Richards Disposal",
    "rowid": "895048",
    "final_x": "3675081.93269",
    "final_y": "527675.190975",
    "longitude": "-90.08846818972034",
    "latitude": "29.945117041078834",
    "geocoded_column": {
      "latitude": "29.945117041078834",
      "longitude": "-90.08846818972034"
    }
  },
  {
    "service_request": "2022-895047",
    "request_type": "Abandoned Vehicles",
    "request_reason": "Abandoned/Junk Vehicles",
    "date_created": "2022-06-27T15:04:09.000",
    "date_modified": "2022-06-27T15:04:09.000",
    "request_status": "Pending",
    "responsible_agency": "Department of Public Works",
    "final_address": "4257 Vincennes Pl",
    "address_councildis": "B",
    "status": "Pending",
    "rowid": "895047",
    "final_x": "3668921.64071",
    "final_y": "531732.800963",
    "longitude": "-90.10778118652796",
    "latitude": "29.95645673048087",
    "geocoded_column": {
      "latitude": "29.95645673048087",
      "longitude": "-90.10778118652796"
    }
  },
  {
    "service_request": "2022-895046",
    "request_type": "Trash/Recycling",
    "request_reason": "Request a Large Item Pick Up",
    "date_created": "2022-06-27T15:04:07.000",
    "date_modified": "2022-06-27T15:04:08.000",
    "request_status": "Pending",
    "responsible_agency": "Department of Sanitation",
    "final_address": "3214 Sabine St",
    "address_councildis": "C",
    "status": "Assigned to Contractor",
    "contractor": "Richards Disposal",
    "rowid": "895046",
    "final_x": "3694753.29014",
    "final_y": "518185.183286",
    "longitude": "-90.0267015527812",
    "latitude": "29.91842045939851",
    "geocoded_column": {
      "latitude": "29.91842045939851",
      "longitude": "-90.0267015527812"
    }
  },
  {
    "service_request": "2022-895044",
    "request_type": "Trash/Recycling",
    "request_reason": "Start Trash Service",
    "date_created": "2022-06-27T15:01:23.000",
    "date_modified": "2022-06-27T15:01:24.000",
    "request_status": "Pending",
    "responsible_agency": "Department of Sanitation",
    "final_address": "2767 Vienna St",
    "address_councildis": "D",
    "status": "Assigned to Contractor",
    "contractor": "Metro Disposal",
    "rowid": "895044",
    "final_x": "3687747.61641",
    "final_y": "555355.062233",
    "longitude": "-90.04749807390834",
    "latitude": "30.020842413087948",
    "geocoded_column": {
      "latitude": "30.020842413087948",
      "longitude": "-90.04749807390834"
    }
  },
  {
    "service_request": "2022-895043",
    "request_type": "Trash/Recycling",
    "request_reason": "Order Recycling Cart",
    "date_created": "2022-06-27T15:01:12.000",
    "date_modified": "2022-06-27T15:01:12.000",
    "request_status": "Pending",
    "responsible_agency": "Department of Sanitation",
    "final_address": "2767 Vienna St",
    "address_councildis": "D",
    "status": "Pending",
    "rowid": "895043",
    "final_x": "3687747.61641",
    "final_y": "555355.062233",
    "longitude": "-90.04749807390834",
    "latitude": "30.020842413087948",
    "geocoded_column": {
      "latitude": "30.020842413087948",
      "longitude": "-90.04749807390834"
    }
  },
  {
    "service_request": "2022-895042",
    "request_type": "Trash/Recycling",
    "request_reason": "Order Trash Cart",
    "date_created": "2022-06-27T15:00:58.000",
    "date_modified": "2022-06-27T15:00:59.000",
    "request_status": "Pending",
    "responsible_agency": "Department of Sanitation",
    "final_address": "2767 Vienna St",
    "address_councildis": "D",
    "status": "Assigned to Contractor",
    "contractor": "Metro Disposal",
    "rowid": "895042",
    "final_x": "3687747.61641",
    "final_y": "555355.062233",
    "longitude": "-90.04749807390834",
    "latitude": "30.020842413087948",
    "geocoded_column": {
      "latitude": "30.020842413087948",
      "longitude": "-90.04749807390834"
    }
  },
  {
    "service_request": "2022-895041",
    "request_type": "Abandoned Vehicles",
    "request_reason": "Abandoned/Junk Vehicles",
    "date_created": "2022-06-27T15:00:50.000",
    "date_modified": "2022-06-27T15:00:50.000",
    "request_status": "Pending",
    "responsible_agency": "Department of Public Works",
    "final_address": "2400 BLK Governor Nicholls St",
    "address_councildis": "D",
    "status": "Pending",
    "rowid": "895041",
    "final_x": "3678777.44785",
    "final_y": "537685.807618",
    "longitude": "-90.07645360068759",
    "latitude": "29.97253193894309",
    "geocoded_column": {
      "latitude": "29.97253193894309",
      "longitude": "-90.07645360068759"
    }
  },
  {
    "service_request": "2022-895040",
    "request_type": "Abandoned Vehicles",
    "request_reason": "Abandoned/Junk Vehicles",
    "date_created": "2022-06-27T15:00:11.000",
    "date_modified": "2022-06-27T15:00:11.000",
    "request_status": "Pending",
    "responsible_agency": "Department of Public Works",
    "final_address": "4257 Vincennes Pl",
    "address_councildis": "B",
    "status": "Pending",
    "rowid": "895040",
    "final_x": "3668921.64071",
    "final_y": "531732.800963",
    "longitude": "-90.10778118652796",
    "latitude": "29.95645673048087",
    "geocoded_column": {
      "latitude": "29.95645673048087",
      "longitude": "-90.10778118652796"
    }
  },
  {
    "service_request": "2022-895039",
    "request_type": "Trash/Recycling",
    "request_reason": "Order Trash Cart",
    "date_created": "2022-06-27T14:56:30.000",
    "date_modified": "2022-06-27T14:57:49.000",
    "request_status": "Pending",
    "responsible_agency": "Department of Sanitation",
    "final_address": "2522 N Galvez St",
    "address_councildis": "D",
    "status": "Assigned to Contractor",
    "contractor": "Metro Disposal",
    "rowid": "895039",
    "final_x": "3687130.40591",
    "final_y": "540142.809739",
    "longitude": "-90.04998661910504",
    "latitude": "29.97903325194054",
    "geocoded_column": {
      "latitude": "29.97903325194054",
      "longitude": "-90.04998661910504"
    }
  },
  {
    "service_request": "2022-895037",
    "request_type": "Traffic Signals/Signs/Striping/Streetlights",
    "request_reason": "Traffic Sign Missing/Damaged",
    "date_created": "2022-06-27T14:52:39.000",
    "date_modified": "2022-06-27T14:52:40.000",
    "request_status": "Pending",
    "responsible_agency": "Department of Public Works",
    "final_address": "HAMMOND ST & READ BLVD",
    "address_councildis": "E",
    "status": "Pending",
    "rowid": "895037",
    "final_x": "3712767.4",
    "final_y": "556391.98",
    "longitude": "-89.96840464453139",
    "latitude": "30.02289779413389",
    "geocoded_column": {
      "latitude": "30.02289779413389",
      "longitude": "-89.96840464453139"
    }
  },
  {
    "service_request": "2022-895035",
    "request_type": "Trash/Recycling",
    "request_reason": "Replace Trash Cart",
    "date_created": "2022-06-27T14:50:43.000",
    "date_modified": "2022-06-27T14:50:44.000",
    "request_status": "Pending",
    "responsible_agency": "Department of Sanitation",
    "final_address": "29 Christopher Ct",
    "address_councildis": "E",
    "status": "Assigned to Contractor",
    "contractor": "Metro Disposal",
    "rowid": "895035",
    "final_x": "3716375.96056",
    "final_y": "570075.287463",
    "longitude": "-89.95648301674474",
    "latitude": "30.060402650545566",
    "geocoded_column": {
      "latitude": "30.060402650545566",
      "longitude": "-89.95648301674474"
    }
  },
  {
    "service_request": "2022-895034",
    "request_type": "Trash/Recycling",
    "request_reason": "Request a Large Item Pick Up",
    "date_created": "2022-06-27T14:48:59.000",
    "date_modified": "2022-06-27T14:49:00.000",
    "request_status": "Pending",
    "responsible_agency": "Department of Sanitation",
    "final_address": "412 Pacific Ave",
    "address_councildis": "C",
    "status": "Assigned to Contractor",
    "contractor": "Richards Disposal",
    "rowid": "895034",
    "final_x": "3688567.53359",
    "final_y": "530182.539585",
    "longitude": "-90.04580111365277",
    "latitude": "29.951601647494307",
    "geocoded_column": {
      "latitude": "29.951601647494307",
      "longitude": "-90.04580111365277"
    }
  },
  {
    "service_request": "2022-895033",
    "request_type": "Trash/Recycling",
    "request_reason": "Illegal Dumping",
    "date_created": "2022-06-27T14:47:57.000",
    "date_modified": "2022-06-27T14:47:57.000",
    "request_status": "Pending",
    "responsible_agency": "Department of Sanitation",
    "final_address": "2514 N Galvez St",
    "address_councildis": "D",
    "status": "Pending",
    "rowid": "895033",
    "final_x": "3687063.84079",
    "final_y": "540130.716491",
    "longitude": "-90.0501972845821",
    "latitude": "29.97900204956419",
    "geocoded_column": {
      "latitude": "29.97900204956419",
      "longitude": "-90.0501972845821"
    }
  },
  {
    "service_request": "2022-895032",
    "request_type": "Trash/Recycling",
    "request_reason": "Request a Large Item Pick Up",
    "date_created": "2022-06-27T14:47:10.000",
    "date_modified": "2022-06-27T14:47:11.000",
    "request_status": "Pending",
    "responsible_agency": "Department of Sanitation",
    "final_address": "1209 Alvar St",
    "address_councildis": "D",
    "status": "Assigned to Contractor",
    "contractor": "Metro Disposal",
    "rowid": "895032",
    "final_x": "3691650.21052",
    "final_y": "535827.242567",
    "longitude": "-90.03586572980795",
    "latitude": "29.9670270050957",
    "geocoded_column": {
      "latitude": "29.9670270050957",
      "longitude": "-90.03586572980795"
    }
  },
  {
    "service_request": "2022-895031",
    "request_type": "Trash/Recycling",
    "request_reason": "Request a Large Item Pick Up",
    "date_created": "2022-06-27T14:45:42.000",
    "date_modified": "2022-06-27T14:45:42.000",
    "request_status": "Pending",
    "responsible_agency": "Department of Sanitation",
    "final_address": "1215 Leonidas St",
    "address_councildis": "A",
    "status": "Assigned to Contractor",
    "contractor": "Richards Disposal",
    "rowid": "895031",
    "final_x": "3660766.67085",
    "final_y": "529641.748865",
    "longitude": "-90.1336011675939",
    "latitude": "29.950944323507866",
    "geocoded_column": {
      "latitude": "29.950944323507866",
      "longitude": "-90.1336011675939"
    }
  },
  {
    "service_request": "2022-895030",
    "request_type": "Abandoned Vehicles",
    "request_reason": "Abandoned/Junk Vehicles",
    "date_created": "2022-06-27T14:35:45.000",
    "date_modified": "2022-06-27T14:35:45.000",
    "request_status": "Pending",
    "responsible_agency": "Department of Public Works",
    "final_address": "1924 Lafayette St",
    "address_councildis": "B",
    "status": "Pending",
    "rowid": "895030",
    "final_x": "3676352.49941",
    "final_y": "530492.675522",
    "longitude": "-90.08435964784621",
    "latitude": "29.952826170537296",
    "geocoded_column": {
      "latitude": "29.952826170537296",
      "longitude": "-90.08435964784621"
    }
  },
  {
    "service_request": "2022-895029",
    "request_type": "Trash/Recycling",
    "request_reason": "Request a Large Item Pick Up",
    "date_created": "2022-06-27T14:35:16.000",
    "date_modified": "2022-06-27T14:35:16.000",
    "request_status": "Pending",
    "responsible_agency": "Department of Sanitation",
    "final_address": "421 Seguin St",
    "address_councildis": "C",
    "status": "Assigned to Contractor",
    "contractor": "Richards Disposal",
    "rowid": "895029",
    "final_x": "3686268.87145",
    "final_y": "530105.985409",
    "longitude": "-90.05306186289025",
    "latitude": "29.951461970746035",
    "geocoded_column": {
      "latitude": "29.951461970746035",
      "longitude": "-90.05306186289025"
    }
  },
  {
    "service_request": "2022-895028",
    "request_type": "Traffic Signals/Signs/Striping/Streetlights",
    "request_reason": "Disabled Parking Sign ",
    "date_created": "2022-06-27T14:31:48.000",
    "date_modified": "2022-06-27T14:31:49.000",
    "request_status": "Pending",
    "responsible_agency": "Department of Public Works",
    "final_address": "1712 Fern St",
    "address_councildis": "A",
    "status": "Pending",
    "rowid": "895028",
    "final_x": "3663772.51386",
    "final_y": "529266.124481",
    "longitude": "-90.12412270341467",
    "latitude": "29.949824597329503",
    "geocoded_column": {
      "latitude": "29.949824597329503",
      "longitude": "-90.12412270341467"
    }
  },
  {
    "service_request": "2022-895027",
    "request_type": "Abandoned Vehicles",
    "request_reason": "Abandoned/Junk Vehicles",
    "date_created": "2022-06-27T14:31:35.000",
    "date_modified": "2022-06-27T14:31:35.000",
    "request_status": "Pending",
    "responsible_agency": "Department of Public Works",
    "final_address": "1924 Lafayette St",
    "address_councildis": "B",
    "status": "Pending",
    "rowid": "895027",
    "final_x": "3676352.49941",
    "final_y": "530492.675522",
    "longitude": "-90.08435964784621",
    "latitude": "29.952826170537296",
    "geocoded_column": {
      "latitude": "29.952826170537296",
      "longitude": "-90.08435964784621"
    }
  },
  {
    "service_request": "2022-895026",
    "request_type": "Trash/Recycling",
    "request_reason": "Order Recycling Cart",
    "date_created": "2022-06-27T14:30:06.000",
    "date_modified": "2022-06-27T14:30:06.000",
    "request_status": "Pending",
    "responsible_agency": "Department of Sanitation",
    "final_address": "New Orleans,LA",
    "status": "Pending",
    "rowid": "895026",
    "longitude": "0.0",
    "latitude": "0.0",
    "geocoded_column": {
      "latitude": "0.0",
      "longitude": "0.0"
    }
  },
  {
    "service_request": "2022-895024",
    "request_type": "Property Maintenance",
    "request_reason": "Property Maintenance",
    "date_created": "2022-06-27T14:25:42.000",
    "date_modified": "2022-06-27T14:27:36.000",
    "request_status": "Pending",
    "responsible_agency": "Department of Code Enforcement",
    "final_address": "1819 New Orleans St",
    "address_councildis": "D",
    "status": "Pending",
    "rowid": "895024",
    "final_x": "3682218.40904",
    "final_y": "538856.688137",
    "longitude": "-90.06554552518398",
    "latitude": "29.97564722213871",
    "geocoded_column": {
      "latitude": "29.97564722213871",
      "longitude": "-90.06554552518398"
    }
  },
  {
    "service_request": "2022-895023",
    "request_type": "Property Maintenance",
    "request_reason": "Property Maintenance",
    "date_created": "2022-06-27T14:19:47.000",
    "date_modified": "2022-06-27T14:19:48.000",
    "request_status": "Pending",
    "responsible_agency": "Department of Code Enforcement",
    "final_address": "1820 New Orleans St",
    "address_councildis": "D",
    "status": "Pending",
    "rowid": "895023",
    "final_x": "3682156.71093",
    "final_y": "538857.497865",
    "longitude": "-90.0657403564802",
    "latitude": "29.97565132549996",
    "geocoded_column": {
      "latitude": "29.97565132549996",
      "longitude": "-90.0657403564802"
    }
  },
  {
    "service_request": "2022-895022",
    "request_type": "Trash/Recycling",
    "request_reason": "Request a Large Item Pick Up",
    "date_created": "2022-06-27T14:18:49.000",
    "date_modified": "2022-06-27T14:18:50.000",
    "request_status": "Pending",
    "responsible_agency": "Department of Sanitation",
    "final_address": "3011 Royal St",
    "address_councildis": "C",
    "status": "Assigned to Contractor",
    "contractor": "Metro Disposal",
    "rowid": "895022",
    "final_x": "3688182.0918",
    "final_y": "534650.194758",
    "longitude": "-90.04685976871461",
    "latitude": "29.9638980585104",
    "geocoded_column": {
      "latitude": "29.9638980585104",
      "longitude": "-90.04685976871461"
    }
  },
  {
    "service_request": "2022-895021",
    "request_type": "Traffic Signals/Signs/Striping/Streetlights",
    "request_reason": "Street Name Sign Damaged or Missing",
    "date_created": "2022-06-27T14:15:14.000",
    "date_modified": "2022-06-27T14:15:15.000",
    "request_status": "Pending",
    "responsible_agency": "Department of Public Works",
    "final_address": "N DERBIGNY ST & PAINTERS ST",
    "address_councildis": "D",
    "status": "Pending",
    "rowid": "895021",
    "final_x": "3687389.4",
    "final_y": "538720.58",
    "longitude": "-90.04921895823388",
    "latitude": "29.975114642929626",
    "geocoded_column": {
      "latitude": "29.975114642929626",
      "longitude": "-90.04921895823388"
    }
  },
  {
    "service_request": "2022-895020",
    "request_type": "Trash/Recycling",
    "request_reason": "Order Trash Cart",
    "date_created": "2022-06-27T14:12:11.000",
    "date_modified": "2022-06-27T14:12:11.000",
    "case_close_date": "2022-05-25T19:00:00.000",
    "request_status": "Closed",
    "responsible_agency": "Department of Sanitation",
    "final_address": "431 Leboeuf St",
    "address_councildis": "C",
    "status": "Resolved",
    "contractor": "Richards Disposal",
    "rowid": "895020",
    "final_x": "3689788.24924",
    "final_y": "529966.897793",
    "longitude": "-90.04195436986073",
    "latitude": "29.95097093421532",
    "geocoded_column": {
      "latitude": "29.95097093421532",
      "longitude": "-90.04195436986073"
    }
  },
  {
    "service_request": "2022-895019",
    "request_type": "Abandoned Vehicles",
    "request_reason": "Abandoned/Junk Vehicles",
    "date_created": "2022-06-27T14:08:15.000",
    "date_modified": "2022-06-27T14:08:15.000",
    "request_status": "Pending",
    "responsible_agency": "Department of Public Works",
    "final_address": "5401 S Johnson St",
    "address_councildis": "A",
    "status": "Pending",
    "rowid": "895019",
    "final_x": "3668525.84756",
    "final_y": "527050.92307",
    "longitude": "-90.10918891615353",
    "latitude": "29.943594728233116",
    "geocoded_column": {
      "latitude": "29.943594728233116",
      "longitude": "-90.10918891615353"
    }
  },
  {
    "service_request": "2022-895017",
    "request_type": "Roads/Drainage",
    "request_reason": "Street Flooding / Drainage",
    "date_created": "2022-06-27T14:05:32.000",
    "date_modified": "2022-06-27T14:05:32.000",
    "request_status": "Pending",
    "responsible_agency": "Department of Public Works",
    "final_address": "2203 Kraft Pl",
    "address_councildis": "C",
    "status": "Pending",
    "rowid": "895017",
    "final_x": "3692441.63427",
    "final_y": "523395.534203",
    "longitude": "-90.03381166828977",
    "latitude": "29.93281944707598",
    "geocoded_column": {
      "latitude": "29.93281944707598",
      "longitude": "-90.03381166828977"
    }
  },
  {
    "service_request": "2022-895016",
    "request_type": "Trash/Recycling",
    "request_reason": "Missed Trash Pick-Up",
    "date_created": "2022-06-27T14:04:31.000",
    "date_modified": "2022-06-27T14:04:32.000",
    "request_status": "Pending",
    "responsible_agency": "Department of Sanitation",
    "final_address": "2521 Dreux Ave",
    "address_councildis": "D",
    "status": "Assigned to Contractor",
    "contractor": "Metro Disposal",
    "rowid": "895016",
    "final_x": "3686227.9485",
    "final_y": "552269.17135",
    "longitude": "-90.05240877195156",
    "latitude": "30.012404151942697",
    "geocoded_column": {
      "latitude": "30.012404151942697",
      "longitude": "-90.05240877195156"
    }
  },
  {
    "service_request": "2022-895015",
    "request_type": "Trash/Recycling",
    "request_reason": "Request a Large Item Pick Up",
    "date_created": "2022-06-27T14:03:39.000",
    "date_modified": "2022-06-27T14:03:39.000",
    "request_status": "Pending",
    "responsible_agency": "Department of Sanitation",
    "final_address": "1116 Felicity St",
    "address_councildis": "B",
    "status": "Assigned to Contractor",
    "contractor": "Richards Disposal",
    "rowid": "895015",
    "final_x": "3679873.88955",
    "final_y": "523126.750267",
    "longitude": "-90.07349638743332",
    "latitude": "29.93246631672283",
    "geocoded_column": {
      "latitude": "29.93246631672283",
      "longitude": "-90.07349638743332"
    }
  },
  {
    "service_request": "2022-895014",
    "request_type": "Traffic Signals/Signs/Striping/Streetlights",
    "request_reason": "Street Light Knocked Down/Leaning",
    "date_created": "2022-06-27T14:00:31.000",
    "date_modified": "2022-06-27T14:10:40.000",
    "request_status": "Pending",
    "responsible_agency": "Department of Public Works",
    "final_address": "Martin Dr & I-10 Service Rd, New Orleans, Louisiana, 70126",
    "address_councildis": "E",
    "status": "Pending",
    "contractor": "Royal Engineering",
    "rowid": "895014",
    "final_x": "3699144.2",
    "final_y": "557625.24",
    "longitude": "-90.01140565575285",
    "latitude": "30.026727960348676",
    "geocoded_column": {
      "latitude": "30.026727960348676",
      "longitude": "-90.01140565575285"
    }
  },
  {
    "service_request": "2022-895013",
    "request_type": "Property Maintenance",
    "request_reason": "Property Maintenance",
    "date_created": "2022-06-27T13:57:23.000",
    "date_modified": "2022-06-27T13:57:23.000",
    "request_status": "Pending",
    "responsible_agency": "Department of Code Enforcement",
    "final_address": "856 Olga St",
    "address_councildis": "A",
    "status": "Pending",
    "rowid": "895013",
    "final_x": "3673370.12961",
    "final_y": "540174.811659",
    "longitude": "-90.09344585059007",
    "latitude": "29.97953783577759",
    "geocoded_column": {
      "latitude": "29.97953783577759",
      "longitude": "-90.09344585059007"
    }
  },
  {
    "service_request": "2022-895012",
    "request_type": "Abandoned Vehicles",
    "request_reason": "Abandoned/Junk Vehicles",
    "date_created": "2022-06-27T13:49:18.000",
    "date_modified": "2022-06-27T13:49:19.000",
    "request_status": "Pending",
    "responsible_agency": "Department of Public Works",
    "final_address": "10310 Chevy Chase Dr",
    "address_councildis": "E",
    "status": "Pending",
    "rowid": "895012",
    "final_x": "3710345.83525",
    "final_y": "563311.570656",
    "longitude": "-89.97579712943346",
    "latitude": "30.04200302002155",
    "geocoded_column": {
      "latitude": "30.04200302002155",
      "longitude": "-89.97579712943346"
    }
  },
  {
    "service_request": "2022-895011",
    "request_type": "Trash/Recycling",
    "request_reason": "MIssed Recycling Pick-Up",
    "date_created": "2022-06-27T13:48:47.000",
    "date_modified": "2022-06-27T13:48:48.000",
    "request_status": "Pending",
    "responsible_agency": "Department of Sanitation",
    "final_address": "1820 Lauradale Dr, New Orleans, Louisiana, 70114",
    "address_councildis": "C",
    "status": "Assigned to Contractor",
    "contractor": "Richards Disposal",
    "rowid": "895011",
    "final_x": "3692779.5064",
    "final_y": "524520.917052",
    "longitude": "-90.03270470988977",
    "latitude": "29.935903325737044",
    "geocoded_column": {
      "latitude": "29.935903325737044",
      "longitude": "-90.03270470988977"
    }
  },
  {
    "service_request": "2022-895010",
    "request_type": "Traffic Signals/Signs/Striping/Streetlights",
    "request_reason": "Street Light Outage/Malfunction",
    "date_created": "2022-06-27T13:48:32.000",
    "date_modified": "2022-06-27T13:48:32.000",
    "request_status": "Pending",
    "responsible_agency": "Department of Public Works",
    "final_address": "2122 N Robertson St",
    "address_councildis": "C",
    "status": "Pending",
    "contractor": "Royal Engineering",
    "rowid": "895010",
    "final_x": "3684660.21737",
    "final_y": "537674.41844",
    "longitude": "-90.05787519246994",
    "latitude": "29.97232188022525",
    "geocoded_column": {
      "latitude": "29.97232188022525",
      "longitude": "-90.05787519246994"
    }
  },
  {
    "service_request": "2022-895009",
    "request_type": "Abandoned Vehicles",
    "request_reason": "Abandoned/Junk Vehicles",
    "date_created": "2022-06-27T13:47:19.000",
    "date_modified": "2022-06-27T13:47:19.000",
    "request_status": "Pending",
    "responsible_agency": "Department of Public Works",
    "final_address": "CLEVELAND AVE & ELK PL",
    "address_councildis": "B",
    "status": "Pending",
    "rowid": "895009",
    "final_x": "3679503.0",
    "final_y": "531416.58",
    "longitude": "-90.0743797158658",
    "latitude": "29.955271795302785",
    "geocoded_column": {
      "latitude": "29.955271795302785",
      "longitude": "-90.0743797158658"
    }
  },
  {
    "service_request": "2022-895008",
    "request_type": "Roads/Drainage",
    "request_reason": "Street Flooding / Drainage",
    "date_created": "2022-06-27T13:46:19.000",
    "date_modified": "2022-06-27T13:46:19.000",
    "request_status": "Pending",
    "responsible_agency": "Department of Public Works",
    "final_address": "5000 Woodland Dr",
    "address_councildis": "C",
    "status": "Pending",
    "rowid": "895008",
    "final_x": "3706126.56151",
    "final_y": "512999.697457",
    "longitude": "-89.99099424165844",
    "latitude": "29.903800647355098",
    "geocoded_column": {
      "latitude": "29.903800647355098",
      "longitude": "-89.99099424165844"
    }
  },
  {
    "service_request": "2022-895007",
    "request_type": "Trash/Recycling",
    "request_reason": "Replace Trash Cart",
    "date_created": "2022-06-27T13:46:16.000",
    "date_modified": "2022-06-27T13:46:18.000",
    "request_status": "Pending",
    "responsible_agency": "Department of Sanitation",
    "final_address": "325 Walnut St",
    "address_councildis": "A",
    "status": "Assigned to Contractor",
    "contractor": "Richards Disposal",
    "rowid": "895007",
    "final_x": "3661930.82055",
    "final_y": "521995.061114",
    "longitude": "-90.13017887191772",
    "latitude": "29.929884792395068",
    "geocoded_column": {
      "latitude": "29.929884792395068",
      "longitude": "-90.13017887191772"
    }
  },
  {
    "service_request": "2022-895006",
    "request_type": "Property Maintenance",
    "request_reason": "Property Maintenance",
    "date_created": "2022-06-27T13:45:05.000",
    "date_modified": "2022-06-27T13:45:05.000",
    "request_status": "Pending",
    "responsible_agency": "Department of Code Enforcement",
    "final_address": "1443 Frenchmen St",
    "address_councildis": "C",
    "status": "Pending",
    "rowid": "895006",
    "final_x": "3684551.28386",
    "final_y": "537710.48916",
    "longitude": "-90.05821795501542",
    "latitude": "29.972424395818376",
    "geocoded_column": {
      "latitude": "29.972424395818376",
      "longitude": "-90.05821795501542"
    }
  },
  {
    "service_request": "2022-895005",
    "request_type": "Trash/Recycling",
    "request_reason": "Illegal Dumping",
    "date_created": "2022-06-27T13:44:05.000",
    "date_modified": "2022-06-27T13:44:05.000",
    "request_status": "Pending",
    "responsible_agency": "Department of Sanitation",
    "final_address": "2121 Franklin Ave",
    "address_councildis": "D",
    "status": "Pending",
    "rowid": "895005",
    "final_x": "3687687.80873",
    "final_y": "540412.681291",
    "longitude": "-90.04821657145183",
    "latitude": "29.979758125579217",
    "geocoded_column": {
      "latitude": "29.979758125579217",
      "longitude": "-90.04821657145183"
    }
  },
  {
    "service_request": "2022-895004",
    "request_type": "Roads/Drainage",
    "request_reason": "Leaking Hydrant",
    "date_created": "2022-06-27T13:40:47.000",
    "date_modified": "2022-06-27T13:40:47.000",
    "request_status": "Pending",
    "responsible_agency": "Department of Public Works",
    "final_address": "336 N Norman C Francis Prkwy",
    "address_councildis": "B",
    "status": "Pending",
    "rowid": "895004",
    "final_x": "3673998.46228",
    "final_y": "537533.114312",
    "longitude": "-90.09155174253101",
    "latitude": "29.972255358519124",
    "geocoded_column": {
      "latitude": "29.972255358519124",
      "longitude": "-90.09155174253101"
    }
  },
  {
    "service_request": "2022-895003",
    "request_type": "Property Maintenance",
    "request_reason": "Property Maintenance",
    "date_created": "2022-06-27T13:40:06.000",
    "date_modified": "2022-06-27T13:40:07.000",
    "request_status": "Pending",
    "responsible_agency": "Department of Code Enforcement",
    "final_address": "1926 Ellen Park Pl",
    "address_councildis": "C",
    "status": "Pending",
    "rowid": "895003",
    "final_x": "3703014.65815",
    "final_y": "523698.118075",
    "longitude": "-90.0004225858919",
    "latitude": "29.933317497881898",
    "geocoded_column": {
      "latitude": "29.933317497881898",
      "longitude": "-90.0004225858919"
    }
  },
  {
    "service_request": "2022-895002",
    "request_type": "Trash/Recycling",
    "request_reason": "Request a Large Item Pick Up",
    "date_created": "2022-06-27T13:39:52.000",
    "date_modified": "2022-06-27T13:39:53.000",
    "request_status": "Pending",
    "responsible_agency": "Department of Sanitation",
    "final_address": "2317 Jena St",
    "address_councildis": "B",
    "status": "Assigned to Contractor",
    "contractor": "Richards Disposal",
    "rowid": "895002",
    "final_x": "3670224.54535",
    "final_y": "523474.156091",
    "longitude": "-90.10394682726233",
    "latitude": "29.933709766065302",
    "geocoded_column": {
      "latitude": "29.933709766065302",
      "longitude": "-90.10394682726233"
    }
  },
  {
    "service_request": "2022-895001",
    "request_type": "Trash/Recycling",
    "request_reason": "Request a Large Item Pick Up",
    "date_created": "2022-06-27T13:39:23.000",
    "date_modified": "2022-06-27T13:39:24.000",
    "request_status": "Pending",
    "responsible_agency": "Department of Sanitation",
    "final_address": "1661 Rousselin Dr, New Orleans, Louisiana, 70119",
    "address_councildis": "D",
    "status": "Assigned to Contractor",
    "contractor": "Metro Disposal",
    "rowid": "895001",
    "final_x": "3679645.60264",
    "final_y": "540406.314635",
    "longitude": "-90.07361735561733",
    "latitude": "29.97998617973667",
    "geocoded_column": {
      "latitude": "29.97998617973667",
      "longitude": "-90.07361735561733"
    }
  },