[
  {
    "service_request": "2022-915016",
    "request_type": "Trash/Recycling",
    "request_reason": "Missed Trash Pick-Up",
    "date_created": "2022-08-31T01:53:14.000",
    "date_modified": "2022-08-31T01:53:15.000",
    "request_status": "Pending",
    "responsible_agency": "Department of Sanitation",
    "final_address": "4821 Perrier St",
    "address_councildis": "B",
    "status": "Assigned to Contractor",
    "contractor": "Richards Disposal",
    "rowid": "915016",
    "final_x": "3669290.90919",
    "final_y": "519968.116088",
    "longitude": "-90.10701273752578",
    "latitude": "29.924096785708983",
    "geocoded_column": {
      "latitude": "29.924096785708983",
      "longitude": "-90.10701273752578"
    }
  },
  {
    "service_request": "2022-915015",
    "request_type": "Property Maintenance",
    "request_reason": "Property Maintenance",
    "date_created": "2022-08-31T01:18:12.000",
    "date_modified": "2022-08-31T01:18:12.000",
    "request_status": "Pending",
    "responsible_agency": "Department of Code Enforcement",
    "final_address": "4444 Lonely Oak Dr",
    "address_councildis": "E",
    "status": "Pending",
    "rowid": "915015",
    "final_x": "3702385.95741",
    "final_y": "553066.071127",
    "longitude": "-90.0013295859386",
    "latitude": "30.0140887624596",
    "geocoded_column": {
      "latitude": "30.0140887624596",
      "longitude": "-90.0013295859386"
    }
  },
  {
    "service_request": "2022-915014",
    "request_type": "Trash/Recycling",
    "request_reason": "Missed Trash Pick-Up",
    "date_created": "2022-08-31T00:00:27.000",
    "date_modified": "2022-08-31T00:00:28.000",
    "request_status": "Pending",
    "responsible_agency": "Department of Sanitation",
    "final_address": "5621 Marcia Ave",
    "address_councildis": "A",
    "status": "Assigned to Contractor",
    "contractor": "Metro Disposal",
    "rowid": "915014",
    "final_x": "3664959.20973",
    "final_y": "545078.377999",
    "longitude": "-90.11984700138727",
    "latitude": "29.99326855919187",
    "geocoded_column": {
      "latitude": "29.99326855919187",
      "longitude": "-90.11984700138727"
    }
  },
  {
    "service_request": "2022-915013",
    "request_type": "Roads/Drainage",
    "request_reason": "Catch Basin - Broken/Damage",
    "date_created": "2022-08-30T23:51:38.000",
    "date_modified": "2022-08-30T23:51:38.000",
    "request_status": "Pending",
    "responsible_agency": "Department of Public Works",
    "final_address": "1438 Lesseps St",
    "address_councildis": "D",
    "status": "Pending",
    "rowid": "915013",
    "final_x": "3692978.66243",
    "final_y": "536506.171911",
    "longitude": "-90.0316461333445",
    "latitude": "29.968852392309586",
    "geocoded_column": {
      "latitude": "29.968852392309586",
      "longitude": "-90.0316461333445"
    }
  },
  {
    "service_request": "2022-915012",
    "request_type": "Trash/Recycling",
    "request_reason": "Missed Trash Pick-Up",
    "date_created": "2022-08-30T23:47:41.000",
    "date_modified": "2022-08-30T23:47:42.000",
    "request_status": "Pending",
    "responsible_agency": "Department of Sanitation",
    "final_address": "1711 Milan St",
    "address_councildis": "B",
    "status": "Assigned to Contractor",
    "contractor": "Richards Disposal",
    "rowid": "915012",
    "final_x": "3671586.28251",
    "final_y": "521441.770361",
    "longitude": "-90.09971695679681",
    "latitude": "29.92808111550677",
    "geocoded_column": {
      "latitude": "29.92808111550677",
      "longitude": "-90.09971695679681"
    }
  },
  {
    "service_request": "2022-915011",
    "request_type": "Trash/Recycling",
    "request_reason": "Replace Trash Cart",
    "date_created": "2022-08-30T23:22:58.000",
    "date_modified": "2022-08-30T23:22:58.000",
    "request_status": "Pending",
    "responsible_agency": "Department of Sanitation",
    "final_address": "2719 Bruxelles St",
    "address_councildis": "D",
    "status": "Assigned to Contractor",
    "contractor": "Metro Disposal",
    "rowid": "915011",
    "final_x": "3680369.25346",
    "final_y": "542410.694669",
    "longitude": "-90.07126203855518",
    "latitude": "29.98547563032099",
    "geocoded_column": {
      "latitude": "29.98547563032099",
      "longitude": "-90.07126203855518"
    }
  },
  {
    "service_request": "2022-915010",
    "request_type": "Trash/Recycling",
    "request_reason": "Replace Trash Cart",
    "date_created": "2022-08-30T23:22:09.000",
    "date_modified": "2022-08-30T23:22:10.000",
    "request_status": "Pending",
    "responsible_agency": "Department of Sanitation",
    "final_address": "2912 Baudin St",
    "address_councildis": "B",
    "status": "Assigned to Contractor",
    "contractor": "Richards Disposal",
    "rowid": "915010",
    "final_x": "3673510.69262",
    "final_y": "534434.259845",
    "longitude": "-90.0931981257771",
    "latitude": "29.963749080023298",
    "geocoded_column": {
      "latitude": "29.963749080023298",
      "longitude": "-90.0931981257771"
    }
  },
  {
    "service_request": "2022-915009",
    "request_type": "Trash/Recycling",
    "request_reason": "Order Recycling Cart",
    "date_created": "2022-08-30T23:14:39.000",
    "date_modified": "2022-08-30T23:14:39.000",
    "request_status": "Pending",
    "responsible_agency": "Department of Sanitation",
    "final_address": "631 S Dupre St",
    "address_councildis": "B",
    "status": "Pending",
    "rowid": "915009",
    "final_x": "3673243.06171",
    "final_y": "534006.393029",
    "longitude": "-90.09405789262209",
    "latitude": "29.962580551523185",
    "geocoded_column": {
      "latitude": "29.962580551523185",
      "longitude": "-90.09405789262209"
    }
  },
  {
    "service_request": "2022-915008",
    "request_type": "Traffic Signals/Signs/Striping/Streetlights",
    "request_reason": "Street Light Knocked Down/Leaning",
    "date_created": "2022-08-30T22:43:42.000",
    "date_modified": "2022-08-30T22:43:42.000",
    "request_status": "Pending",
    "responsible_agency": "Department of Public Works",
    "final_address": "5704 Constance St",
    "address_councildis": "A",
    "status": "Pending",
    "contractor": "Legacy Professional Services",
    "rowid": "915008",
    "final_x": "3665646.65012",
    "final_y": "518593.474423",
    "longitude": "-90.11856242540681",
    "latitude": "29.920423693007614",
    "geocoded_column": {
      "latitude": "29.920423693007614",
      "longitude": "-90.11856242540681"
    }
  },
  {
    "service_request": "2022-915007",
    "request_type": "Trash/Recycling",
    "request_reason": "Missed Trash Pick-Up",
    "date_created": "2022-08-30T22:42:28.000",
    "date_modified": "2022-08-30T22:42:29.000",
    "request_status": "Pending",
    "responsible_agency": "Department of Sanitation",
    "final_address": "1303 Cadiz St",
    "address_councildis": "B",
    "status": "Assigned to Contractor",
    "contractor": "Richards Disposal",
    "rowid": "915007",
    "final_x": "3670225.21754",
    "final_y": "520045.56716",
    "longitude": "-90.10406082534332",
    "latitude": "29.924282223573574",
    "geocoded_column": {
      "latitude": "29.924282223573574",
      "longitude": "-90.10406082534332"
    }
  },
  {
    "service_request": "2022-915006",
    "request_type": "Trash/Recycling",
    "request_reason": "MIssed Recycling Pick-Up",
    "date_created": "2022-08-30T22:24:45.000",
    "date_modified": "2022-08-30T22:24:46.000",
    "request_status": "Pending",
    "responsible_agency": "Department of Sanitation",
    "final_address": "3365 Esplanade Ave",
    "address_councildis": "A",
    "status": "Assigned to Contractor",
    "contractor": "Metro Disposal",
    "rowid": "915006",
    "final_x": "3675660.05979",
    "final_y": "540980.489547",
    "longitude": "-90.0861856291962",
    "latitude": "29.98168484085554",
    "geocoded_column": {
      "latitude": "29.98168484085554",
      "longitude": "-90.0861856291962"
    }
  },
  {
    "service_request": "2022-915005",
    "request_type": "Mayor's Request",
    "request_reason": "Requests to the Mayor",
    "date_created": "2022-08-30T22:21:42.000",
    "date_modified": "2022-08-30T22:21:42.000",
    "request_status": "Pending",
    "responsible_agency": "Executive Office of the Mayor",
    "final_address": "3319 Freret St",
    "address_councildis": "B",
    "status": "Pending",
    "rowid": "915005",
    "final_x": "3672995.01268",
    "final_y": "524583.574396",
    "longitude": "-90.09516273616983",
    "latitude": "29.93667828257183",
    "geocoded_column": {
      "latitude": "29.93667828257183",
      "longitude": "-90.09516273616983"
    }
  },
  {
    "service_request": "2022-915004",
    "request_type": "Traffic Signals/Signs/Striping/Streetlights",
    "request_reason": "Street Light Outage/Malfunction",
    "date_created": "2022-08-30T22:19:15.000",
    "date_modified": "2022-08-30T22:19:46.000",
    "request_status": "Pending",
    "responsible_agency": "Department of Public Works",
    "final_address": "6128 Coliseum St",
    "address_councildis": "A",
    "status": "Pending",
    "contractor": "Legacy Professional Services",
    "rowid": "915004",
    "final_x": "3664263.05997",
    "final_y": "520404.815096",
    "longitude": "-90.1228693891462",
    "latitude": "29.925444573421842",
    "geocoded_column": {
      "latitude": "29.925444573421842",
      "longitude": "-90.1228693891462"
    }
  },
  {
    "service_request": "2022-915003",
    "request_type": "Trash/Recycling",
    "request_reason": "Replace Trash Cart",
    "date_created": "2022-08-30T22:07:33.000",
    "date_modified": "2022-08-30T22:07:34.000",
    "request_status": "Pending",
    "responsible_agency": "Department of Sanitation",
    "final_address": "5880 Marcia Ave",
    "address_councildis": "A",
    "status": "Assigned to Contractor",
    "contractor": "Metro Disposal",
    "rowid": "915003",
    "final_x": "3664720.35892",
    "final_y": "546947.514641",
    "longitude": "-90.12053900201036",
    "latitude": "29.998414999823513",
    "geocoded_column": {
      "latitude": "29.998414999823513",
      "longitude": "-90.12053900201036"
    }
  },
  {
    "service_request": "2022-915002",
    "request_type": "Roads/Drainage",
    "request_reason": "Catch Basin - Clogged",
    "date_created": "2022-08-30T22:07:15.000",
    "date_modified": "2022-08-30T22:07:15.000",
    "request_status": "Pending",
    "responsible_agency": "Department of Public Works",
    "final_address": "3504 S Tonti St",
    "address_councildis": "B",
    "status": "Pending",
    "rowid": "915002",
    "final_x": "3671157.55412",
    "final_y": "528254.039424",
    "longitude": "-90.10083904715685",
    "latitude": "29.946825334493983",
    "geocoded_column": {
      "latitude": "29.946825334493983",
      "longitude": "-90.10083904715685"
    }
  },
  {
    "service_request": "2022-915001",
    "request_type": "Trash/Recycling",
    "request_reason": "Missed Trash Pick-Up",
    "date_created": "2022-08-30T22:06:58.000",
    "date_modified": "2022-08-30T22:06:59.000",
    "request_status": "Pending",
    "responsible_agency": "Department of Sanitation",
    "final_address": "5880 Marcia Ave",
    "address_councildis": "A",
    "status": "Assigned to Contractor",
    "contractor": "Metro Disposal",
    "rowid": "915001",
    "final_x": "3664720.35892",
    "final_y": "546947.514641",
    "longitude": "-90.12053900201036",
    "latitude": "29.998414999823513",
    "geocoded_column": {
      "latitude": "29.998414999823513",
      "longitude": "-90.12053900201036"
    }
  },
  {
    "service_request": "2022-915000",
    "request_type": "Safety & Permits",
    "request_reason": "Licenses & Permits",
    "date_created": "2022-08-30T22:04:14.000",
    "date_modified": "2022-08-30T22:04:14.000",
    "request_status": "Pending",
    "responsible_agency": "Safety and Permits",
    "status": "Pending",
    "rowid": "915000",
    "longitude": "0.0",
    "latitude": "0.0",
    "geocoded_column": {
      "latitude": "0.0",
      "longitude": "0.0"
    }
  },
  {
    "service_request": "2022-914999",
    "request_type": "Trash/Recycling",
    "request_reason": "Request a Large Item Pick Up",
    "date_created": "2022-08-30T21:59:54.000",
    "date_modified": "2022-08-30T21:59:55.000",
    "request_status": "Pending",
    "responsible_agency": "Department of Sanitation",
    "final_address": "137 N Norman C Francis Prkwy",
    "address_councildis": "B",
    "status": "Assigned to Contractor",
    "contractor": "Richards Disposal",
    "rowid": "914999",
    "final_x": "3673312.05236",
    "final_y": "537102.60244",
    "longitude": "-90.09373425461202",
    "latitude": "29.971092033030175",
    "geocoded_column": {
      "latitude": "29.971092033030175",
      "longitude": "-90.09373425461202"
    }
  },
  {
    "service_request": "2022-914998",
    "request_type": "Roads/Drainage",
    "request_reason": "Street Flooding / Drainage",
    "date_created": "2022-08-30T21:59:16.000",
    "date_modified": "2022-08-30T21:59:16.000",
    "request_status": "Pending",
    "responsible_agency": "Department of Public Works",
    "final_address": "2736 Octavia St",
    "address_councildis": "A",
    "status": "Pending",
    "rowid": "914998",
    "final_x": "3667901.85767",
    "final_y": "525666.879741",
    "longitude": "-90.11120563047973",
    "latitude": "29.939807371131554",
    "geocoded_column": {
      "latitude": "29.939807371131554",
      "longitude": "-90.11120563047973"
    }
  },
  {
    "service_request": "2022-914997",
    "request_type": "Trash/Recycling",
    "request_reason": "Missed Trash Pick-Up",
    "date_created": "2022-08-30T21:51:10.000",
    "date_modified": "2022-08-30T21:51:10.000",
    "request_status": "Pending",
    "responsible_agency": "Department of Sanitation",
    "final_address": "5249 Marcia Ave",
    "address_councildis": "A",
    "status": "Assigned to Contractor",
    "contractor": "Metro Disposal",
    "rowid": "914997",
    "final_x": "3664391.19661",
    "final_y": "543305.037134",
    "longitude": "-90.12170050273659",
    "latitude": "29.988409001418095",
    "geocoded_column": {
      "latitude": "29.988409001418095",
      "longitude": "-90.12170050273659"
    }
  },
  {
    "service_request": "2022-914996",
    "request_type": "Trash/Recycling",
    "request_reason": "Request a Large Item Pick Up",
    "date_created": "2022-08-30T21:49:42.000",
    "date_modified": "2022-08-30T21:49:43.000",
    "request_status": "Pending",
    "responsible_agency": "Department of Sanitation",
    "final_address": "1015 Pleasant St",
    "address_councildis": "B",
    "status": "Assigned to Contractor",
    "contractor": "Richards Disposal",
    "rowid": "914996",
    "final_x": "3675694.05787",
    "final_y": "519672.081976",
    "longitude": "-90.08681040361196",
    "latitude": "29.923092802304254",
    "geocoded_column": {
      "latitude": "29.923092802304254",
      "longitude": "-90.08681040361196"
    }
  },
  {
    "service_request": "2022-914995",
    "request_type": "Trash/Recycling",
    "request_reason": "Request a Large Item Pick Up",
    "date_created": "2022-08-30T21:36:08.000",
    "date_modified": "2022-08-30T21:36:09.000",
    "request_status": "Pending",
    "responsible_agency": "Department of Sanitation",
    "final_address": "138 Alvin Callender St, New Orleans, Louisiana, 70118",
    "address_councildis": "A",
    "status": "Assigned to Contractor",
    "contractor": "Richards Disposal",
    "rowid": "914995",
    "final_x": "3661064.18925",
    "final_y": "523402.506299",
    "longitude": "-90.13286814521028",
    "latitude": "29.933779818332855",
    "geocoded_column": {
      "latitude": "29.933779818332855",
      "longitude": "-90.13286814521028"
    }
  },
  {
    "service_request": "2022-914994",
    "request_type": "Trash/Recycling",
    "request_reason": "Missed Trash Pick-Up",
    "date_created": "2022-08-30T21:32:50.000",
    "date_modified": "2022-08-30T21:32:51.000",
    "request_status": "Pending",
    "responsible_agency": "Department of Sanitation",
    "final_address": "5546 Dayna Ct",
    "address_councildis": "A",
    "status": "Assigned to Contractor",
    "contractor": "Metro Disposal",
    "rowid": "914994",
    "final_x": "3664515.76474",
    "final_y": "544066.589966",
    "longitude": "-90.12128158488811",
    "latitude": "29.990499391348862",
    "geocoded_column": {
      "latitude": "29.990499391348862",
      "longitude": "-90.12128158488811"
    }
  },
  {
    "service_request": "2022-914993",
    "request_type": "Trash/Recycling",
    "request_reason": "Request a Large Item Pick Up",
    "date_created": "2022-08-30T21:31:23.000",
    "date_modified": "2022-08-30T21:31:24.000",
    "request_status": "Pending",
    "responsible_agency": "Department of Sanitation",
    "final_address": "722 Louque Pl",
    "address_councildis": "A",
    "status": "Assigned to Contractor",
    "contractor": "Metro Disposal",
    "rowid": "914993",
    "final_x": "3668415.9433",
    "final_y": "543493.073358",
    "longitude": "-90.1089812217495",
    "latitude": "29.988808402033648",
    "geocoded_column": {
      "latitude": "29.988808402033648",
      "longitude": "-90.1089812217495"
    }
  },
  {
    "service_request": "2022-914992",
    "request_type": "Trash/Recycling",
    "request_reason": "Repair Recycling Cart",
    "date_created": "2022-08-30T21:30:28.000",
    "date_modified": "2022-08-30T21:30:28.000",
    "request_status": "Pending",
    "responsible_agency": "Department of Sanitation",
    "final_address": "5546 Dayna Ct",
    "address_councildis": "A",
    "status": "Pending",
    "rowid": "914992",
    "final_x": "3664515.76474",
    "final_y": "544066.589966",
    "longitude": "-90.12128158488811",
    "latitude": "29.990499391348862",
    "geocoded_column": {
      "latitude": "29.990499391348862",
      "longitude": "-90.12128158488811"
    }
  },
  {
    "service_request": "2022-914991",
    "request_type": "Trash/Recycling",
    "request_reason": "Order Trash Cart",
    "date_created": "2022-08-30T21:24:45.000",
    "date_modified": "2022-08-30T21:24:46.000",
    "request_status": "Pending",
    "responsible_agency": "Department of Sanitation",
    "final_address": "6114 St Claude Ave",
    "address_councildis": "E",
    "status": "Assigned to Contractor",
    "contractor": "Metro Disposal",
    "rowid": "914991",
    "final_x": "3699605.62871",
    "final_y": "533207.90586",
    "longitude": "-90.01083811092492",
    "latitude": "29.959574674818732",
    "geocoded_column": {
      "latitude": "29.959574674818732",
      "longitude": "-90.01083811092492"
    }
  },
  {
    "service_request": "2022-914990",
    "request_type": "Roads/Drainage",
    "request_reason": "Pothole",
    "date_created": "2022-08-30T21:24:22.000",
    "date_modified": "2022-08-30T21:24:22.000",
    "request_status": "Pending",
    "responsible_agency": "Department of Public Works",
    "final_address": "227 N Murat St",
    "address_councildis": "A",
    "status": "Pending",
    "rowid": "914990",
    "final_x": "3670057.87655",
    "final_y": "539987.976011",
    "longitude": "-90.10391363343486",
    "latitude": "29.979122236076297",
    "geocoded_column": {
      "latitude": "29.979122236076297",
      "longitude": "-90.10391363343486"
    }
  },
  {
    "service_request": "2022-914989",
    "request_type": "Trash/Recycling",
    "request_reason": "Missed Trash Pick-Up",
    "date_created": "2022-08-30T21:05:36.000",
    "date_modified": "2022-08-30T21:05:36.000",
    "request_status": "Pending",
    "responsible_agency": "Department of Sanitation",
    "final_address": "5642 Evelyn Ct",
    "address_councildis": "A",
    "status": "Assigned to Contractor",
    "contractor": "Metro Disposal",
    "rowid": "914989",
    "final_x": "3664415.95296",
    "final_y": "545074.114959",
    "longitude": "-90.12156321012914",
    "latitude": "29.99327264562637",
    "geocoded_column": {
      "latitude": "29.99327264562637",
      "longitude": "-90.12156321012914"
    }
  },
  {
    "service_request": "2022-914988",
    "request_type": "Trash/Recycling",
    "request_reason": "Missed Trash Pick-Up",
    "date_created": "2022-08-30T21:04:45.000",
    "date_modified": "2022-08-30T21:04:46.000",
    "request_status": "Pending",
    "responsible_agency": "Department of Sanitation",
    "final_address": "5447 Marcia Ave",
    "address_councildis": "A",
    "status": "Assigned to Contractor",
    "contractor": "Metro Disposal",
    "rowid": "914988",
    "final_x": "3664902.34554",
    "final_y": "544022.095246",
    "longitude": "-90.12006195661223",
    "latitude": "29.99036579645197",
    "geocoded_column": {
      "latitude": "29.99036579645197",
      "longitude": "-90.12006195661223"
    }
  },
  {
    "service_request": "2022-914987",
    "request_type": "Traffic Signals/Signs/Striping/Streetlights",
    "request_reason": "Street Light Outage/Malfunction",
    "date_created": "2022-08-30T21:01:00.000",
    "date_modified": "2022-08-30T21:01:01.000",
    "request_status": "Pending",
    "responsible_agency": "Department of Public Works",
    "final_address": "4153 Orleans Ave",
    "address_councildis": "A",
    "status": "Pending",
    "contractor": "Legacy Professional Services",
    "rowid": "914987",
    "final_x": "3672284.06183",
    "final_y": "540619.120587",
    "longitude": "-90.09686095202986",
    "latitude": "29.980791803234826",
    "geocoded_column": {
      "latitude": "29.980791803234826",
      "longitude": "-90.09686095202986"
    }
  },
  {
    "service_request": "2022-914986",
    "request_type": "Trash/Recycling",
    "request_reason": "Missed Trash Pick-Up",
    "date_created": "2022-08-30T20:55:59.000",
    "date_modified": "2022-08-30T20:56:00.000",
    "request_status": "Pending",
    "responsible_agency": "Department of Sanitation",
    "final_address": "5814 Bellaire Dr",
    "address_councildis": "A",
    "status": "Assigned to Contractor",
    "contractor": "Metro Disposal",
    "rowid": "914986",
    "final_x": "3664067.44359",
    "final_y": "546687.107921",
    "longitude": "-90.1226102619034",
    "latitude": "29.997717956122926",
    "geocoded_column": {
      "latitude": "29.997717956122926",
      "longitude": "-90.1226102619034"
    }
  },
  {
    "service_request": "2022-914985",
    "request_type": "Traffic Signals/Signs/Striping/Streetlights",
    "request_reason": "Street Light Outage/Malfunction",
    "date_created": "2022-08-30T20:51:46.000",
    "date_modified": "2022-08-30T20:51:47.000",
    "request_status": "Pending",
    "responsible_agency": "Department of Public Works",
    "final_address": "GENERAL DE GAULLE DR & HOLIDAY DR",
    "address_councildis": "C",
    "status": "Pending",
    "contractor": "Legacy Professional Services",
    "rowid": "914985",
    "final_x": "3698595.0",
    "final_y": "519112.58",
    "longitude": "-90.01454170298932",
    "latitude": "29.920849468009546",
    "geocoded_column": {
      "latitude": "29.920849468009546",
      "longitude": "-90.01454170298932"
    }
  },
  {
    "service_request": "2022-914984",
    "request_type": "Abandoned Vehicles",
    "request_reason": "Abandoned/Junk Vehicles",
    "date_created": "2022-08-30T20:51:45.000",
    "date_modified": "2022-08-30T20:51:45.000",
    "request_status": "Pending",
    "responsible_agency": "Department of Public Works",
    "final_address": "2106 Josephine St",
    "address_councildis": "B",
    "status": "Pending",
    "rowid": "914984",
    "final_x": "3676685.79521",
    "final_y": "525489.721405",
    "longitude": "-90.08347955792952",
    "latitude": "29.939059711402567",
    "geocoded_column": {
      "latitude": "29.939059711402567",
      "longitude": "-90.08347955792952"
    }
  },
  {
    "service_request": "2022-914983",
    "request_type": "Trash/Recycling",
    "request_reason": "Missed Trash Pick-Up",
    "date_created": "2022-08-30T20:45:21.000",
    "date_modified": "2022-08-30T20:45:21.000",
    "request_status": "Pending",
    "responsible_agency": "Department of Sanitation",
    "final_address": "360 Leslie Ln",
    "address_councildis": "A",
    "status": "Assigned to Contractor",
    "contractor": "Metro Disposal",
    "rowid": "914983",
    "final_x": "3664659.42522",
    "final_y": "547336.598545",
    "longitude": "-90.1207184848632",
    "latitude": "29.999486620435047",
    "geocoded_column": {
      "latitude": "29.999486620435047",
      "longitude": "-90.1207184848632"
    }
  },
  {
    "service_request": "2022-914982",
    "request_type": "Trash/Recycling",
    "request_reason": "Missed Trash Pick-Up",
    "date_created": "2022-08-30T20:44:27.000",
    "date_modified": "2022-08-30T20:44:28.000",
    "request_status": "Pending",
    "responsible_agency": "Department of Sanitation",
    "final_address": "5478 Dayna Ct",
    "address_councildis": "A",
    "status": "Assigned to Contractor",
    "contractor": "Metro Disposal",
    "rowid": "914982",
    "final_x": "3664256.92608",
    "final_y": "543830.774222",
    "longitude": "-90.12210706847387",
    "latitude": "29.9898585038205",
    "geocoded_column": {
      "latitude": "29.9898585038205",
      "longitude": "-90.12210706847387"
    }
  },
  {
    "service_request": "2022-914981",
    "request_type": "Trash/Recycling",
    "request_reason": "Missed Trash Pick-Up",
    "date_created": "2022-08-30T20:43:04.000",
    "date_modified": "2022-08-30T20:43:05.000",
    "request_status": "Pending",
    "responsible_agency": "Department of Sanitation",
    "final_address": "1550 N Galvez St",
    "address_councildis": "D",
    "status": "Assigned to Contractor",
    "contractor": "Metro Disposal",
    "rowid": "914981",
    "final_x": "3680665.92987",
    "final_y": "538587.473161",
    "longitude": "-90.07045805427593",
    "latitude": "29.97495411371902",
    "geocoded_column": {
      "latitude": "29.97495411371902",
      "longitude": "-90.07045805427593"
    }
  },
  {
    "service_request": "2022-914980",
    "request_type": "Trash/Recycling",
    "request_reason": "Missed Trash Pick-Up",
    "date_created": "2022-08-30T20:31:40.000",
    "date_modified": "2022-08-30T20:31:40.000",
    "request_status": "Pending",
    "responsible_agency": "Department of Sanitation",
    "final_address": "5419 Dayna Ct",
    "address_councildis": "A",
    "status": "Assigned to Contractor",
    "contractor": "Metro Disposal",
    "rowid": "914980",
    "final_x": "3664613.18356",
    "final_y": "543791.722062",
    "longitude": "-90.12098304842777",
    "latitude": "29.98974076397246",
    "geocoded_column": {
      "latitude": "29.98974076397246",
      "longitude": "-90.12098304842777"
    }
  },
  {
    "service_request": "2022-914979",
    "request_type": "Trash/Recycling",
    "request_reason": "Missed Trash Pick-Up",
    "date_created": "2022-08-30T20:24:04.000",
    "date_modified": "2022-08-30T20:24:05.000",
    "request_status": "Pending",
    "responsible_agency": "Department of Sanitation",
    "final_address": "5512 Dayna Ct",
    "address_councildis": "A",
    "status": "Assigned to Contractor",
    "contractor": "Metro Disposal",
    "rowid": "914979",
    "final_x": "3664258.45696",
    "final_y": "543991.813518",
    "longitude": "-90.12209685570275",
    "latitude": "29.990301262842525",
    "geocoded_column": {
      "latitude": "29.990301262842525",
      "longitude": "-90.12209685570275"
    }
  },
  {
    "service_request": "2022-914978",
    "request_type": "Traffic Signals/Signs/Striping/Streetlights",
    "request_reason": "Street Light Outage/Malfunction",
    "date_created": "2022-08-30T20:19:05.000",
    "date_modified": "2022-08-30T20:19:06.000",
    "request_status": "Pending",
    "responsible_agency": "Department of Public Works",
    "final_address": "6515 Wuerpel St",
    "address_councildis": "A",
    "status": "Pending",
    "contractor": "Legacy Professional Services",
    "rowid": "914978",
    "final_x": "3667132.16513",
    "final_y": "551004.183445",
    "longitude": "-90.11278357673909",
    "latitude": "30.009499020445286",
    "geocoded_column": {
      "latitude": "30.009499020445286",
      "longitude": "-90.11278357673909"
    }
  },
  {
    "service_request": "2022-914977",
    "request_type": "Trash/Recycling",
    "request_reason": "Missed Trash Pick-Up",
    "date_created": "2022-08-30T20:09:47.000",
    "date_modified": "2022-08-30T20:09:48.000",
    "request_status": "Pending",
    "responsible_agency": "Department of Sanitation",
    "final_address": "5524 Dayna Ct",
    "address_councildis": "A",
    "status": "Assigned to Contractor",
    "contractor": "Metro Disposal",
    "rowid": "914977",
    "final_x": "3664368.24064",
    "final_y": "544067.054542",
    "longitude": "-90.12174756285931",
    "latitude": "29.99050495874657",
    "geocoded_column": {
      "latitude": "29.99050495874657",
      "longitude": "-90.12174756285931"
    }
  },
  {
    "service_request": "2022-914976",
    "request_type": "Trash/Recycling",
    "request_reason": "Missed Trash Pick-Up",
    "date_created": "2022-08-30T19:56:17.000",
    "date_modified": "2022-08-30T19:56:18.000",
    "request_status": "Pending",
    "responsible_agency": "Department of Sanitation",
    "final_address": "2124 S Gayoso St",
    "address_councildis": "B",
    "status": "Assigned to Contractor",
    "contractor": "Richards Disposal",
    "rowid": "914976",
    "final_x": "3669691.5625",
    "final_y": "528928.721152",
    "longitude": "-90.10544490426787",
    "latitude": "29.948723765931963",
    "geocoded_column": {
      "latitude": "29.948723765931963",
      "longitude": "-90.10544490426787"
    }
  },
  {
    "service_request": "2022-914975",
    "request_type": "Abandoned Vehicles",
    "request_reason": "Vehicle Blocking Your Driveway",
    "date_created": "2022-08-30T19:25:31.000",
    "date_modified": "2022-08-30T19:25:31.000",
    "request_status": "Pending",
    "responsible_agency": "Department of Public Works",
    "final_address": "2319 New Orleans St",
    "address_councildis": "D",
    "status": "Pending",
    "rowid": "914975",
    "final_x": "3682076.83215",
    "final_y": "540676.301067",
    "longitude": "-90.06592909860426",
    "latitude": "29.98065483004407",
    "geocoded_column": {
      "latitude": "29.98065483004407",
      "longitude": "-90.06592909860426"
    }
  },
  {
    "service_request": "2022-914973",
    "request_type": "Trash/Recycling",
    "request_reason": "Missed Trash Pick-Up",
    "date_created": "2022-08-30T19:18:36.000",
    "date_modified": "2022-08-30T19:18:37.000",
    "request_status": "Pending",
    "responsible_agency": "Department of Sanitation",
    "final_address": "5590 Jacquelyn Ct",
    "address_councildis": "A",
    "status": "Assigned to Contractor",
    "contractor": "Metro Disposal",
    "rowid": "914973",
    "final_x": "3664605.15495",
    "final_y": "544955.388111",
    "longitude": "-90.12096951766739",
    "latitude": "29.99294068410047",
    "geocoded_column": {
      "latitude": "29.99294068410047",
      "longitude": "-90.12096951766739"
    }
  },
  {
    "service_request": "2022-914972",
    "request_type": "Trash/Recycling",
    "request_reason": "Request a Large Item Pick Up",
    "date_created": "2022-08-30T19:16:32.000",
    "date_modified": "2022-08-30T19:16:33.000",
    "request_status": "Pending",
    "responsible_agency": "Department of Sanitation",
    "final_address": "3710 Palmyra St",
    "address_councildis": "A",
    "status": "Assigned to Contractor",
    "contractor": "Richards Disposal",
    "rowid": "914972",
    "final_x": "3671749.66247",
    "final_y": "536795.030024",
    "longitude": "-90.09867896789598",
    "latitude": "29.97029269565399",
    "geocoded_column": {
      "latitude": "29.97029269565399",
      "longitude": "-90.09867896789598"
    }
  },
  {
    "service_request": "2022-914971",
    "request_type": "Trash/Recycling",
    "request_reason": "Missed Trash Pick-Up",
    "date_created": "2022-08-30T19:01:25.000",
    "date_modified": "2022-08-30T19:01:26.000",
    "request_status": "Pending",
    "responsible_agency": "Department of Sanitation",
    "final_address": "1515 Jefferson Ave",
    "address_councildis": "B",
    "status": "Assigned to Contractor",
    "contractor": "Richards Disposal",
    "rowid": "914971",
    "final_x": "3667248.21767",
    "final_y": "520687.835257",
    "longitude": "-90.11343662860484",
    "latitude": "29.926135740304627",
    "geocoded_column": {
      "latitude": "29.926135740304627",
      "longitude": "-90.11343662860484"
    }
  },
  {
    "service_request": "2022-914970",
    "request_type": "Trash/Recycling",
    "request_reason": "Request a Large Item Pick Up",
    "date_created": "2022-08-30T19:00:52.000",
    "date_modified": "2022-08-30T19:00:53.000",
    "request_status": "Pending",
    "responsible_agency": "Department of Sanitation",
    "final_address": "3016 Carondelet St",
    "address_councildis": "B",
    "status": "Assigned to Contractor",
    "contractor": "Richards Disposal",
    "rowid": "914970",
    "final_x": "3674919.28501",
    "final_y": "522296.511226",
    "longitude": "-90.0891661142654",
    "latitude": "29.930332288110137",
    "geocoded_column": {
      "latitude": "29.930332288110137",
      "longitude": "-90.0891661142654"
    }
  },
  {
    "service_request": "2022-914969",
    "request_type": "Roads/Drainage",
    "request_reason": "Pothole",
    "date_created": "2022-08-30T18:59:08.000",
    "date_modified": "2022-08-30T18:59:08.000",
    "request_status": "Pending",
    "responsible_agency": "Department of Public Works",
    "final_address": "540 Chartres St",
    "address_councildis": "C",
    "status": "Pending",
    "rowid": "914969",
    "final_x": "3682596.4772",
    "final_y": "531892.984003",
    "longitude": "-90.0645950042685",
    "latitude": "29.95648792470408",
    "geocoded_column": {
      "latitude": "29.95648792470408",
      "longitude": "-90.0645950042685"
    }
  },
  {
    "service_request": "2022-914968",
    "request_type": "Property Maintenance",
    "request_reason": "Property Maintenance",
    "date_created": "2022-08-30T18:38:02.000",
    "date_modified": "2022-08-30T18:38:02.000",
    "request_status": "Pending",
    "responsible_agency": "Department of Code Enforcement",
    "final_address": "1403 St Roch Ave",
    "address_councildis": "C",
    "status": "Pending",
    "rowid": "914968",
    "final_x": "3686470.8582",
    "final_y": "537577.645768",
    "longitude": "-90.05216030648705",
    "latitude": "29.972000246785218",
    "geocoded_column": {
      "latitude": "29.972000246785218",
      "longitude": "-90.05216030648705"
    }
  },
  {
    "service_request": "2022-914967",
    "request_type": "Traffic Signals/Signs/Striping/Streetlights",
    "request_reason": "Street Light Outage/Malfunction",
    "date_created": "2022-08-30T18:24:53.000",
    "date_modified": "2022-08-30T18:24:56.000",
    "request_status": "Pending",
    "responsible_agency": "Department of Public Works",
    "final_address": "937 Conti St",
    "address_councildis": "C",
    "status": "Pending",
    "contractor": "Legacy Professional Services",
    "rowid": "914967",
    "final_x": "3681113.01647",
    "final_y": "532244.403907",
    "longitude": "-90.06926704130144",
    "latitude": "29.957499291937914",
    "geocoded_column": {
      "latitude": "29.957499291937914",
      "longitude": "-90.06926704130144"
    }
  },
  {
    "service_request": "2022-914966",
    "request_type": "Trash/Recycling",
    "request_reason": "Replace Trash Cart",
    "date_created": "2022-08-30T18:02:58.000",
    "date_modified": "2022-08-30T18:02:59.000",
    "request_status": "Pending",
    "responsible_agency": "Department of Sanitation",
    "final_address": "3627 Dumaine St",
    "address_councildis": "A",
    "status": "Assigned to Contractor",
    "contractor": "Richards Disposal",
    "rowid": "914966",
    "final_x": "3674154.00641",
    "final_y": "539879.47553",
    "longitude": "-90.09098016328954",
    "latitude": "29.978702416237894",
    "geocoded_column": {
      "latitude": "29.978702416237894",
      "longitude": "-90.09098016328954"
    }
  },
  {
    "service_request": "2022-914965",
    "request_type": "Abandoned Vehicles",
    "request_reason": "Abandoned/Junk Vehicles",
    "date_created": "2022-08-30T17:50:33.000",
    "date_modified": "2022-08-30T17:50:33.000",
    "request_status": "Pending",
    "responsible_agency": "Department of Public Works",
    "final_address": "8400 BLK Nelson St",
    "address_councildis": "A",
    "status": "Pending",
    "rowid": "914965",
    "final_x": "3664193.04953",
    "final_y": "532684.308107",
    "longitude": "-90.1226808400854",
    "latitude": "29.95921128342338",
    "geocoded_column": {
      "latitude": "29.95921128342338",
      "longitude": "-90.1226808400854"
    }
  },
  {
    "service_request": "2022-914964",
    "request_type": "Abandoned Vehicles",
    "request_reason": "Abandoned/Junk Vehicles",
    "date_created": "2022-08-30T17:48:36.000",
    "date_modified": "2022-08-30T17:48:36.000",
    "request_status": "Pending",
    "responsible_agency": "Department of Public Works",
    "final_address": "8400 BLK Nelson St",
    "address_councildis": "A",
    "status": "Pending",
    "rowid": "914964",
    "final_x": "3664193.04953",
    "final_y": "532684.308107",
    "longitude": "-90.1226808400854",
    "latitude": "29.95921128342338",
    "geocoded_column": {
      "latitude": "29.95921128342338",
      "longitude": "-90.1226808400854"
    }
  },
  {
    "service_request": "2022-914963",
    "request_type": "Trash/Recycling",
    "request_reason": "Missed Trash Pick-Up",
    "date_created": "2022-08-30T17:48:34.000",
    "date_modified": "2022-08-30T17:48:35.000",
    "request_status": "Pending",
    "responsible_agency": "Department of Sanitation",
    "final_address": "4702 Perrier St",
    "address_councildis": "B",
    "status": "Assigned to Contractor",
    "contractor": "Richards Disposal",
    "rowid": "914963",
    "final_x": "3669764.67463",
    "final_y": "519926.11404",
    "longitude": "-90.10551864389504",
    "latitude": "29.923967342927465",
    "geocoded_column": {
      "latitude": "29.923967342927465",
      "longitude": "-90.10551864389504"
    }
  },
  {
    "service_request": "2022-914962",
    "request_type": "Trash/Recycling",
    "request_reason": "MIssed Recycling Pick-Up",
    "date_created": "2022-08-30T17:46:26.000",
    "date_modified": "2022-08-30T17:46:26.000",
    "request_status": "Pending",
    "responsible_agency": "Department of Sanitation",
    "final_address": "312 N White St",
    "address_councildis": "B",
    "status": "Assigned to Contractor",
    "contractor": "Richards Disposal",
    "rowid": "914962",
    "final_x": "3675497.84085",
    "final_y": "536191.172103",
    "longitude": "-90.0868625471907",
    "latitude": "29.968520708590212",
    "geocoded_column": {
      "latitude": "29.968520708590212",
      "longitude": "-90.0868625471907"
    }
  },
  {
    "service_request": "2022-914961",
    "request_type": "Abandoned Vehicles",
    "request_reason": "Abandoned/Junk Vehicles",
    "date_created": "2022-08-30T17:40:29.000",
    "date_modified": "2022-08-30T17:40:29.000",
    "request_status": "Pending",
    "responsible_agency": "Department of Public Works",
    "final_address": "8400 BLK Nelson St",
    "address_councildis": "A",
    "status": "Pending",
    "rowid": "914961",
    "final_x": "3664193.04953",
    "final_y": "532684.308107",
    "longitude": "-90.1226808400854",
    "latitude": "29.95921128342338",
    "geocoded_column": {
      "latitude": "29.95921128342338",
      "longitude": "-90.1226808400854"
    }
  },
  {
    "service_request": "2022-914960",
    "request_type": "Traffic Signals/Signs/Striping/Streetlights",
    "request_reason": "Street Light Outage/Malfunction",
    "date_created": "2022-08-30T17:35:52.000",
    "date_modified": "2022-08-30T17:35:52.000",
    "request_status": "Pending",
    "responsible_agency": "Department of Public Works",
    "final_address": "814 Conti St",
    "address_councildis": "C",
    "status": "Pending",
    "contractor": "Legacy Professional Services",
    "rowid": "914960",
    "final_x": "3681431.73384",
    "final_y": "531858.916227",
    "longitude": "-90.0682740661354",
    "latitude": "29.956429660008755",
    "geocoded_column": {
      "latitude": "29.956429660008755",
      "longitude": "-90.0682740661354"
    }
  },
  {
    "service_request": "2022-914959",
    "request_type": "Property Maintenance",
    "request_reason": "Property Maintenance",
    "date_created": "2022-08-30T17:33:27.000",
    "date_modified": "2022-08-30T17:33:27.000",
    "request_status": "Pending",
    "responsible_agency": "Department of Code Enforcement",
    "final_address": "2601 Philip St",
    "address_councildis": "B",
    "status": "Pending",
    "rowid": "914959",
    "final_x": "3675156.55483",
    "final_y": "526404.793662",
    "longitude": "-90.08827616760917",
    "latitude": "29.941621637326588",
    "geocoded_column": {
      "latitude": "29.941621637326588",
      "longitude": "-90.08827616760917"
    }
  },
  {
    "service_request": "2022-914958",
    "request_type": "Trash/Recycling",
    "request_reason": "Illegal Dumping",
    "date_created": "2022-08-30T17:28:21.000",
    "date_modified": "2022-08-30T17:28:21.000",
    "request_status": "Pending",
    "responsible_agency": "Department of Sanitation",
    "final_address": "13267 Curran Rd",
    "address_councildis": "E",
    "status": "Pending",
    "rowid": "914958",
    "final_x": "3716068.85452",
    "final_y": "570237.024743",
    "longitude": "-89.95744761732104",
    "latitude": "30.060857504111915",
    "geocoded_column": {
      "latitude": "30.060857504111915",
      "longitude": "-89.95744761732104"
    }
  },
  {
    "service_request": "2022-914957",
    "request_type": "Traffic Signals/Signs/Striping/Streetlights",
    "request_reason": "Additional signage",
    "date_created": "2022-08-30T17:27:31.000",
    "date_modified": "2022-08-30T17:27:32.000",
    "request_status": "Pending",
    "responsible_agency": "Department of Public Works",
    "final_address": "10900 BLK Hayne Blvd",
    "address_councildis": "E",
    "status": "Pending",
    "rowid": "914957",
    "final_x": "3709502.57604",
    "final_y": "567037.742352",
    "longitude": "-89.9783228653903",
    "latitude": "30.05227593726991",
    "geocoded_column": {
      "latitude": "30.05227593726991",
      "longitude": "-89.9783228653903"
    }
  },
  {
    "service_request": "2022-914956",
    "request_type": "Traffic Signals/Signs/Striping/Streetlights",
    "request_reason": "Street Light Outage/Malfunction",
    "date_created": "2022-08-30T17:25:25.000",
    "date_modified": "2022-08-30T17:25:26.000",
    "request_status": "Pending",
    "responsible_agency": "Department of Public Works",
    "final_address": "707 Conti St",
    "address_councildis": "C",
    "status": "Pending",
    "contractor": "Legacy Professional Services",
    "rowid": "914956",
    "final_x": "3681805.73762",
    "final_y": "531694.043075",
    "longitude": "-90.06709883991566",
    "latitude": "29.955964955713213",
    "geocoded_column": {
      "latitude": "29.955964955713213",
      "longitude": "-90.06709883991566"
    }
  },
  {
    "service_request": "2022-914955",
    "request_type": "Traffic Signals/Signs/Striping/Streetlights",
    "request_reason": "Street Light Outage/Malfunction",
    "date_created": "2022-08-30T17:22:06.000",
    "date_modified": "2022-08-30T17:22:06.000",
    "request_status": "Pending",
    "responsible_agency": "Department of Public Works",
    "final_address": "707 Conti St",
    "address_councildis": "C",
    "status": "Pending",
    "contractor": "Legacy Professional Services",
    "rowid": "914955",
    "final_x": "3681805.73762",
    "final_y": "531694.043075",
    "longitude": "-90.06709883991566",
    "latitude": "29.955964955713213",
    "geocoded_column": {
      "latitude": "29.955964955713213",
      "longitude": "-90.06709883991566"
    }
  },
  {
    "service_request": "2022-914954",
    "request_type": "Traffic Signals/Signs/Striping/Streetlights",
    "request_reason": "Street Light Outage/Malfunction",
    "date_created": "2022-08-30T17:08:05.000",
    "date_modified": "2022-08-30T17:08:06.000",
    "request_status": "Pending",
    "responsible_agency": "Department of Public Works",
    "final_address": "4734 Owens Blvd",
    "address_councildis": "D",
    "status": "Pending",
    "contractor": "Legacy Professional Services",
    "rowid": "914954",
    "final_x": "3676572.63265",
    "final_y": "549761.467348",
    "longitude": "-90.08300065781211",
    "latitude": "30.00580211144149",
    "geocoded_column": {
      "latitude": "30.00580211144149",
      "longitude": "-90.08300065781211"
    }
  },
  {
    "service_request": "2022-914953",
    "request_type": "Traffic Signals/Signs/Striping/Streetlights",
    "request_reason": "Street Light Outage/Malfunction",
    "date_created": "2022-08-30T17:04:46.000",
    "date_modified": "2022-08-30T17:04:50.000",
    "request_status": "Pending",
    "responsible_agency": "Department of Public Works",
    "final_address": "620 Conti St Unit B",
    "address_councildis": "C",
    "status": "Pending",
    "contractor": "Legacy Professional Services",
    "rowid": "914953",
    "final_x": "3681988.7302",
    "final_y": "531460.461891",
    "longitude": "-90.06652916733327",
    "latitude": "29.955317125141814",
    "geocoded_column": {
      "latitude": "29.955317125141814",
      "longitude": "-90.06652916733327"
    }
  },
  {
    "service_request": "2022-914952",
    "request_type": "Traffic Signals/Signs/Striping/Streetlights",
    "request_reason": "Street Light Outage/Malfunction",
    "date_created": "2022-08-30T16:51:46.000",
    "date_modified": "2022-08-30T16:51:47.000",
    "request_status": "Pending",
    "responsible_agency": "Department of Public Works",
    "final_address": "620 Conti St",
    "address_councildis": "C",
    "status": "Pending",
    "contractor": "Legacy Professional Services",
    "rowid": "914952",
    "final_x": "3681994.49474",
    "final_y": "531467.546051",
    "longitude": "-90.06651071772971",
    "latitude": "29.955336428937557",
    "geocoded_column": {
      "latitude": "29.955336428937557",
      "longitude": "-90.06651071772971"
    }
  },
  {
    "service_request": "2022-914951",
    "request_type": "Traffic Signals/Signs/Striping/Streetlights",
    "request_reason": "Street Light Outage/Malfunction",
    "date_created": "2022-08-30T16:47:56.000",
    "date_modified": "2022-08-30T16:47:57.000",
    "request_status": "Pending",
    "responsible_agency": "Department of Public Works",
    "final_address": "620 Conti St",
    "address_councildis": "C",
    "status": "Pending",
    "contractor": "Legacy Professional Services",
    "rowid": "914951",
    "final_x": "3681994.49474",
    "final_y": "531467.546051",
    "longitude": "-90.06651071772971",
    "latitude": "29.955336428937557",
    "geocoded_column": {
      "latitude": "29.955336428937557",
      "longitude": "-90.06651071772971"
    }
  },
  {
    "service_request": "2022-914950",
    "request_type": "Trash/Recycling",
    "request_reason": "Repair Trash Cart",
    "date_created": "2022-08-30T16:45:06.000",
    "date_modified": "2022-08-30T16:45:07.000",
    "request_status": "Pending",
    "responsible_agency": "Department of Sanitation",
    "final_address": "54 Crane St",
    "address_councildis": "D",
    "status": "Assigned to Contractor",
    "contractor": "Metro Disposal",
    "rowid": "914950",
    "final_x": "3673245.45096",
    "final_y": "555139.194073",
    "longitude": "-90.09332815997722",
    "latitude": "30.020688355368147",
    "geocoded_column": {
      "latitude": "30.020688355368147",
      "longitude": "-90.09332815997722"
    }
  },
  {
    "service_request": "2022-914949",
    "request_type": "Traffic Signals/Signs/Striping/Streetlights",
    "request_reason": "Street Light Outage/Malfunction",
    "date_created": "2022-08-30T16:44:44.000",
    "date_modified": "2022-08-30T16:44:45.000",
    "request_status": "Pending",
    "responsible_agency": "Department of Public Works",
    "final_address": "620 Conti St",
    "address_councildis": "C",
    "status": "Pending",
    "contractor": "Legacy Professional Services",
    "rowid": "914949",
    "final_x": "3681994.49474",
    "final_y": "531467.546051",
    "longitude": "-90.06651071772971",
    "latitude": "29.955336428937557",
    "geocoded_column": {
      "latitude": "29.955336428937557",
      "longitude": "-90.06651071772971"
    }
  },
  {
    "service_request": "2022-914948",
    "request_type": "Trash/Recycling",
    "request_reason": "Replace Trash Cart",
    "date_created": "2022-08-30T16:43:20.000",
    "date_modified": "2022-08-30T16:43:20.000",
    "request_status": "Pending",
    "responsible_agency": "Department of Sanitation",
    "final_address": "4131 Prytania St",
    "address_councildis": "B",
    "status": "Assigned to Contractor",
    "contractor": "Richards Disposal",
    "rowid": "914948",
    "final_x": "3671738.79457",
    "final_y": "520453.897208",
    "longitude": "-90.09926909581954",
    "latitude": "29.92536026507658",
    "geocoded_column": {
      "latitude": "29.92536026507658",
      "longitude": "-90.09926909581954"
    }
  },
  {
    "service_request": "2022-914947",
    "request_type": "Traffic Signals/Signs/Striping/Streetlights",
    "request_reason": "Street Light Outage/Malfunction",
    "date_created": "2022-08-30T16:40:58.000",
    "date_modified": "2022-08-30T16:40:59.000",
    "request_status": "Pending",
    "responsible_agency": "Department of Public Works",
    "final_address": "606 Conti St",
    "address_councildis": "C",
    "status": "Pending",
    "contractor": "Legacy Professional Services",
    "rowid": "914947",
    "final_x": "3682114.47151",
    "final_y": "531383.801923",
    "longitude": "-90.06613479963184",
    "latitude": "29.95510251319852",
    "geocoded_column": {
      "latitude": "29.95510251319852",
      "longitude": "-90.06613479963184"
    }
  },
  {
    "service_request": "2022-914946",
    "request_type": "Trash/Recycling",
    "request_reason": "Missed Trash Pick-Up",
    "date_created": "2022-08-30T16:40:38.000",
    "date_modified": "2022-08-30T16:40:39.000",
    "request_status": "Pending",
    "responsible_agency": "Department of Sanitation",
    "final_address": "68 Yellowstone Dr, New Orleans, Louisiana, 70131",
    "address_councildis": "C",
    "status": "Assigned to Contractor",
    "contractor": "Richards Disposal",
    "rowid": "914946",
    "final_x": "3700379.05482",
    "final_y": "516436.987573",
    "longitude": "-90.00900790393071",
    "latitude": "29.913435921085764",
    "geocoded_column": {
      "latitude": "29.913435921085764",
      "longitude": "-90.00900790393071"
    }
  },
  {
    "service_request": "2022-914945",
    "request_type": "Traffic Signals/Signs/Striping/Streetlights",
    "request_reason": "Street Light Outage/Malfunction",
    "date_created": "2022-08-30T16:37:44.000",
    "date_modified": "2022-08-30T16:37:45.000",
    "request_status": "Pending",
    "responsible_agency": "Department of Public Works",
    "final_address": "520 Conti St",
    "address_councildis": "C",
    "status": "Pending",
    "contractor": "Legacy Professional Services",
    "rowid": "914945",
    "final_x": "3682315.61327",
    "final_y": "531202.028162",
    "longitude": "-90.06550602027865",
    "latitude": "29.954596579050627",
    "geocoded_column": {
      "latitude": "29.954596579050627",
      "longitude": "-90.06550602027865"
    }
  },
  {
    "service_request": "2022-914944",
    "request_type": "Property Maintenance",
    "request_reason": "Property Maintenance",
    "date_created": "2022-08-30T16:37:10.000",
    "date_modified": "2022-08-30T16:37:10.000",
    "request_status": "Pending",
    "responsible_agency": "Department of Code Enforcement",
    "final_address": "5700 Vicksburg St",
    "address_councildis": "A",
    "status": "Pending",
    "rowid": "914944",
    "final_x": "3668614.41652",
    "final_y": "545466.443536",
    "longitude": "-90.10828766204176",
    "latitude": "29.9942286607737",
    "geocoded_column": {
      "latitude": "29.9942286607737",
      "longitude": "-90.10828766204176"
    }
  },
  {
    "service_request": "2022-914943",
    "request_type": "Trash/Recycling",
    "request_reason": "Order Trash Cart",
    "date_created": "2022-08-30T16:33:02.000",
    "date_modified": "2022-08-30T16:33:03.000",
    "request_status": "Pending",
    "responsible_agency": "Department of Sanitation",
    "final_address": "7811 Mullet St",
    "address_councildis": "E",
    "status": "Assigned to Contractor",
    "contractor": "Metro Disposal",
    "rowid": "914943",
    "final_x": "3699025.82468",
    "final_y": "560694.612702",
    "longitude": "-90.0116678357294",
    "latitude": "30.03517130686744",
    "geocoded_column": {
      "latitude": "30.03517130686744",
      "longitude": "-90.0116678357294"
    }
  },
  {
    "service_request": "2022-914941",
    "request_type": "Traffic Signals/Signs/Striping/Streetlights",
    "request_reason": "Street Light Outage/Malfunction",
    "date_created": "2022-08-30T16:30:57.000",
    "date_modified": "2022-08-30T16:30:58.000",
    "request_status": "Pending",
    "responsible_agency": "Department of Public Works",
    "final_address": "527 Conti St",
    "address_councildis": "C",
    "status": "Pending",
    "contractor": "Legacy Professional Services",
    "rowid": "914941",
    "final_x": "3682338.06773",
    "final_y": "531306.094146",
    "longitude": "-90.06543148184463",
    "latitude": "29.954882042004883",
    "geocoded_column": {
      "latitude": "29.954882042004883",
      "longitude": "-90.06543148184463"
    }
  },
  {
    "service_request": "2022-914940",
    "request_type": "Traffic Signals/Signs/Striping/Streetlights",
    "request_reason": "Street Light Outage/Malfunction",
    "date_created": "2022-08-30T16:23:34.000",
    "date_modified": "2022-08-30T16:23:35.000",
    "request_status": "Pending",
    "responsible_agency": "Department of Public Works",
    "final_address": "535 Conti St",
    "address_councildis": "C",
    "status": "Pending",
    "contractor": "Legacy Professional Services",
    "rowid": "914940",
    "final_x": "3682306.33346",
    "final_y": "531314.298306",
    "longitude": "-90.06553139990159",
    "latitude": "29.954905566159127",
    "geocoded_column": {
      "latitude": "29.954905566159127",
      "longitude": "-90.06553139990159"
    }
  },
  {
    "service_request": "2022-914939",
    "request_type": "Traffic Signals/Signs/Striping/Streetlights",
    "request_reason": "Street Light Outage/Malfunction",
    "date_created": "2022-08-30T16:20:54.000",
    "date_modified": "2022-08-30T16:20:55.000",
    "request_status": "Pending",
    "responsible_agency": "Department of Public Works",
    "final_address": "525 Conti St",
    "address_councildis": "C",
    "status": "Pending",
    "contractor": "Legacy Professional Services",
    "rowid": "914939",
    "final_x": "3682354.65928",
    "final_y": "531293.589698",
    "longitude": "-90.06537952899826",
    "latitude": "29.954847154198596",
    "geocoded_column": {
      "latitude": "29.954847154198596",
      "longitude": "-90.06537952899826"
    }
  },
  {
    "service_request": "2022-914938",
    "request_type": "Roads/Drainage",
    "request_reason": "Pothole",
    "date_created": "2022-08-30T16:19:48.000",
    "date_modified": "2022-08-30T16:19:48.000",
    "request_status": "Pending",
    "responsible_agency": "Department of Public Works",
    "final_address": "2908 Pocahontas St",
    "address_councildis": "D",
    "status": "Pending",
    "rowid": "914938",
    "final_x": "3688965.81404",
    "final_y": "548335.63605",
    "longitude": "-90.04389852332204",
    "latitude": "30.001503929870548",
    "geocoded_column": {
      "latitude": "30.001503929870548",
      "longitude": "-90.04389852332204"
    }
  },
  {
    "service_request": "2022-914937",
    "request_type": "Trash/Recycling",
    "request_reason": "Order Recycling Cart",
    "date_created": "2022-08-30T16:16:42.000",
    "date_modified": "2022-08-30T16:16:43.000",
    "request_status": "Pending",
    "responsible_agency": "Department of Sanitation",
    "final_address": "2113 S Carrollton Ave",
    "address_councildis": "A",
    "status": "Pending",
    "rowid": "914937",
    "final_x": "3664325.59597",
    "final_y": "530723.297986",
    "longitude": "-90.12232773444109",
    "latitude": "29.953815292322826",
    "geocoded_column": {
      "latitude": "29.953815292322826",
      "longitude": "-90.12232773444109"
    }
  },
  {
    "service_request": "2022-914935",
    "request_type": "Trash/Recycling",
    "request_reason": "Request a Large Item Pick Up",
    "date_created": "2022-08-30T16:14:43.000",
    "date_modified": "2022-08-30T16:14:43.000",
    "request_status": "Pending",
    "responsible_agency": "Department of Sanitation",
    "final_address": "7713 Oak St",
    "address_councildis": "A",
    "status": "Assigned to Contractor",
    "contractor": "Richards Disposal",
    "rowid": "914935",
    "final_x": "3662978.81139",
    "final_y": "527502.436671",
    "longitude": "-90.12668744263348",
    "latitude": "29.944998029084545",
    "geocoded_column": {
      "latitude": "29.944998029084545",
      "longitude": "-90.12668744263348"
    }
  },
  {
    "service_request": "2022-914934",
    "request_type": "Trash/Recycling",
    "request_reason": "Missed Trash Pick-Up",
    "date_created": "2022-08-30T16:13:56.000",
    "date_modified": "2022-08-30T16:13:56.000",
    "request_status": "Pending",
    "responsible_agency": "Department of Sanitation",
    "final_address": "4312 Coliseum St",
    "address_councildis": "B",
    "status": "Assigned to Contractor",
    "contractor": "Richards Disposal",
    "rowid": "914934",
    "final_x": "3671244.94766",
    "final_y": "519766.51916",
    "longitude": "-90.10085135858562",
    "latitude": "29.92348481027771",
    "geocoded_column": {
      "latitude": "29.92348481027771",
      "longitude": "-90.10085135858562"
    }
  },
  {
    "service_request": "2022-914933",
    "request_type": "Roads/Drainage",
    "request_reason": "Street Subsidence (Sinking)",
    "date_created": "2022-08-30T16:13:54.000",
    "date_modified": "2022-08-30T16:13:54.000",
    "request_status": "Pending",
    "responsible_agency": "Department of Public Works",
    "final_address": "5641 Milne St",
    "address_councildis": "A",
    "status": "Pending",
    "rowid": "914933",
    "final_x": "3666872.10721",
    "final_y": "545057.395535",
    "longitude": "-90.11380515606258",
    "latitude": "29.993155022715687",
    "geocoded_column": {
      "latitude": "29.993155022715687",
      "longitude": "-90.11380515606258"
    }
  },
  {
    "service_request": "2022-914932",
    "request_type": "Trash/Recycling",
    "request_reason": "Request a Large Item Pick Up",
    "date_created": "2022-08-30T16:13:35.000",
    "date_modified": "2022-08-30T16:13:36.000",
    "request_status": "Pending",
    "responsible_agency": "Department of Sanitation",
    "final_address": "7711 Oak St",
    "address_councildis": "A",
    "status": "Assigned to Contractor",
    "contractor": "Richards Disposal",
    "rowid": "914932",
    "final_x": "3662989.33056",
    "final_y": "527492.776639",
    "longitude": "-90.12665455140784",
    "latitude": "29.944971162491683",
    "geocoded_column": {
      "latitude": "29.944971162491683",
      "longitude": "-90.12665455140784"
    }
  },
  {
    "service_request": "2022-914931",
    "request_type": "Roads/Drainage",
    "request_reason": "Street Flooding / Drainage",
    "date_created": "2022-08-30T16:12:33.000",
    "date_modified": "2022-08-30T16:12:33.000",
    "request_status": "Pending",
    "responsible_agency": "Department of Public Works",
    "final_address": "6142 Memphis St",
    "address_councildis": "A",
    "status": "Pending",
    "rowid": "914931",
    "final_x": "3669185.34548",
    "final_y": "548205.672786",
    "longitude": "-90.10639151553698",
    "latitude": "30.001743797470894",
    "geocoded_column": {
      "latitude": "30.001743797470894",
      "longitude": "-90.10639151553698"
    }
  },
  {
    "service_request": "2022-914930",
    "request_type": "Traffic Signals/Signs/Striping/Streetlights",
    "request_reason": "Street Light Outage/Malfunction",
    "date_created": "2022-08-30T16:12:21.000",
    "date_modified": "2022-08-30T16:12:22.000",
    "request_status": "Pending",
    "responsible_agency": "Department of Public Works",
    "final_address": "1821 Cadiz St",
    "address_councildis": "B",
    "status": "Pending",
    "contractor": "Legacy Professional Services",
    "rowid": "914930",
    "final_x": "3670045.08353",
    "final_y": "521704.687289",
    "longitude": "-90.10457328469167",
    "latitude": "29.92884958735031",
    "geocoded_column": {
      "latitude": "29.92884958735031",
      "longitude": "-90.10457328469167"
    }
  },
  {
    "service_request": "2022-914929",
    "request_type": "Abandoned Vehicles",
    "request_reason": "Abandoned/Junk Vehicles",
    "date_created": "2022-08-30T16:11:07.000",
    "date_modified": "2022-08-30T16:11:07.000",
    "request_status": "Pending",
    "responsible_agency": "Department of Public Works",
    "final_address": "4430 St Bernard Ave",
    "address_councildis": "D",
    "status": "Pending",
    "rowid": "914929",
    "final_x": "3676730.23771",
    "final_y": "548592.985875",
    "longitude": "-90.08254304259707",
    "latitude": "30.002584472224402",
    "geocoded_column": {
      "latitude": "30.002584472224402",
      "longitude": "-90.08254304259707"
    }
  },
  {
    "service_request": "2022-914928",
    "request_type": "Safety & Permits",
    "request_reason": "Licenses & Permits",
    "date_created": "2022-08-30T16:09:25.000",
    "date_modified": "2022-08-30T16:09:25.000",
    "request_status": "Pending",
    "responsible_agency": "Safety and Permits",
    "status": "Pending",
    "rowid": "914928",
    "longitude": "0.0",
    "latitude": "0.0",
    "geocoded_column": {
      "latitude": "0.0",
      "longitude": "0.0"
    }
  },
  {
    "service_request": "2022-914927",
    "request_type": "Roads/Drainage",
    "request_reason": "Street Flooding / Drainage",
    "date_created": "2022-08-30T16:09:14.000",
    "date_modified": "2022-08-30T16:09:14.000",
    "request_status": "Pending",
    "responsible_agency": "Department of Public Works",
    "final_address": "325 Calhoun St",
    "address_councildis": "A",
    "status": "Pending",
    "rowid": "914927",
    "final_x": "3662887.72557",
    "final_y": "518303.782198",
    "longitude": "-90.12728072196383",
    "latitude": "29.919707266356426",
    "geocoded_column": {
      "latitude": "29.919707266356426",
      "longitude": "-90.12728072196383"
    }
  },
  {
    "service_request": "2022-914926",
    "request_type": "Roads/Drainage",
    "request_reason": "Pothole",
    "date_created": "2022-08-30T16:08:52.000",
    "date_modified": "2022-08-30T16:08:52.000",
    "request_status": "Pending",
    "responsible_agency": "Department of Public Works",
    "final_address": "13000 BLK Curran Rd",
    "address_councildis": "E",
    "status": "Pending",
    "rowid": "914926",
    "final_x": "3715494.28354",
    "final_y": "569664.598975",
    "longitude": "-89.95928550005252",
    "latitude": "30.059302527648068",
    "geocoded_column": {
      "latitude": "30.059302527648068",
      "longitude": "-89.95928550005252"
    }
  },
  {
    "service_request": "2022-914925",
    "request_type": "Safety & Permits",
    "request_reason": "Licenses & Permits",
    "date_created": "2022-08-30T16:07:14.000",
    "date_modified": "2022-08-30T16:07:14.000",
    "request_status": "Pending",
    "responsible_agency": "Safety and Permits",
    "status": "Pending",
    "rowid": "914925",
    "longitude": "0.0",
    "latitude": "0.0",
    "geocoded_column": {
      "latitude": "0.0",
      "longitude": "0.0"
    }
  },
  {
    "service_request": "2022-914924",
    "request_type": "Traffic Signals/Signs/Striping/Streetlights",
    "request_reason": "Street Light Outage/Malfunction",
    "date_created": "2022-08-30T16:05:23.000",
    "date_modified": "2022-08-30T16:05:24.000",
    "request_status": "Pending",
    "responsible_agency": "Department of Public Works",
    "final_address": "4233 Fields St",
    "address_councildis": "C",
    "status": "Pending",
    "contractor": "Legacy Professional Services",
    "rowid": "914924",
    "final_x": "3708033.59665",
    "final_y": "515068.458035",
    "longitude": "-89.98489884968807",
    "latitude": "29.909427459411475",
    "geocoded_column": {
      "latitude": "29.909427459411475",
      "longitude": "-89.98489884968807"
    }
  },
  {
    "service_request": "2022-914923",
    "request_type": "Safety & Permits",
    "request_reason": "Licenses & Permits",
    "date_created": "2022-08-30T16:04:32.000",
    "date_modified": "2022-08-30T16:04:32.000",
    "request_status": "Pending",
    "responsible_agency": "Safety and Permits",
    "status": "Pending",
    "rowid": "914923",
    "longitude": "0.0",
    "latitude": "0.0",
    "geocoded_column": {
      "latitude": "0.0",
      "longitude": "0.0"
    }
  },
  {
    "service_request": "2022-914922",
    "request_type": "Property Maintenance",
    "request_reason": "Property Maintenance",
    "date_created": "2022-08-30T16:03:07.000",
    "date_modified": "2022-08-30T16:03:07.000",
    "request_status": "Pending",
    "responsible_agency": "Department of Code Enforcement",
    "final_address": "7530 Hansbrough Ave",
    "address_councildis": "E",
    "status": "Pending",
    "rowid": "914922",
    "final_x": "3707712.96792",
    "final_y": "564253.205665",
    "longitude": "-89.98408287281936",
    "latitude": "30.044677646667182",
    "geocoded_column": {
      "latitude": "30.044677646667182",
      "longitude": "-89.98408287281936"
    }
  },
  {
    "service_request": "2022-914921",
    "request_type": "Trash/Recycling",
    "request_reason": "Repair Trash Cart",
    "date_created": "2022-08-30T16:01:07.000",
    "date_modified": "2022-08-30T16:01:08.000",
    "request_status": "Pending",
    "responsible_agency": "Department of Sanitation",
    "final_address": "6846 Milne Blvd",
    "address_councildis": "A",
    "status": "Assigned to Contractor",
    "contractor": "Metro Disposal",
    "rowid": "914921",
    "final_x": "3667454.65709",
    "final_y": "553032.719447",
    "longitude": "-90.11169638030633",
    "latitude": "30.015067333681788",
    "geocoded_column": {
      "latitude": "30.015067333681788",
      "longitude": "-90.11169638030633"
    }
  },
  {
    "service_request": "2022-914919",
    "request_type": "Trash/Recycling",
    "request_reason": "Missed Trash Pick-Up",
    "date_created": "2022-08-30T15:54:34.000",
    "date_modified": "2022-08-30T15:56:18.000",
    "case_close_date": "2022-08-30T10:56:18.000",
    "request_status": "Closed",
    "responsible_agency": "Department of Sanitation",
    "final_address": "536 Dumaine St",
    "address_councildis": "C",
    "status": "Assigned to Contractor",
    "contractor": "Empire Services",
    "contractor_action": "Completed",
    "rowid": "914919",
    "final_x": "3683363.65417",
    "final_y": "532729.50298",
    "longitude": "-90.06214321050746",
    "latitude": "29.95876468665325",
    "geocoded_column": {
      "latitude": "29.95876468665325",
      "longitude": "-90.06214321050746"
    }
  },
  {
    "service_request": "2022-914917",
    "request_type": "Abandoned Vehicles",
    "request_reason": "Abandoned/Junk Vehicles",
    "date_created": "2022-08-30T15:51:04.000",
    "date_modified": "2022-08-30T15:51:04.000",
    "request_status": "Pending",
    "responsible_agency": "Department of Public Works",
    "final_address": "4038 S Derbigny St",
    "address_councildis": "B",
    "status": "Pending",
    "rowid": "914917",
    "final_x": "3671508.43342",
    "final_y": "526332.071166",
    "longitude": "-90.09979651837014",
    "latitude": "29.941530167079108",
    "geocoded_column": {
      "latitude": "29.941530167079108",
      "longitude": "-90.09979651837014"
    }
  },
  {
    "service_request": "2022-914916",
    "request_type": "Traffic Signals/Signs/Striping/Streetlights",
    "request_reason": "Street Light Knocked Down/Leaning",
    "date_created": "2022-08-30T15:48:21.000",
    "date_modified": "2022-08-30T15:48:22.000",
    "request_status": "Pending",
    "responsible_agency": "Department of Public Works",
    "final_address": "2839 Amazon St",
    "address_councildis": "C",
    "status": "Pending",
    "contractor": "Legacy Professional Services",
    "rowid": "914916",
    "final_x": "3693801.5656",
    "final_y": "521343.178041",
    "longitude": "-90.02959220929611",
    "latitude": "29.927133686559937",
    "geocoded_column": {
      "latitude": "29.927133686559937",
      "longitude": "-90.02959220929611"
    }
  },
  {
    "service_request": "2022-914915",
    "request_type": "Trash/Recycling",
    "request_reason": "Missed Trash Pick-Up",
    "date_created": "2022-08-30T15:48:15.000",
    "date_modified": "2022-08-30T15:48:16.000",
    "request_status": "Pending",
    "responsible_agency": "Department of Sanitation",
    "final_address": "1200 Block of Delachaise St, New Orleans, Louisiana, 70115",
    "status": "Assigned to Contractor",
    "rowid": "914915",
    "longitude": "0.0",
    "latitude": "0.0",
    "geocoded_column": {
      "latitude": "0.0",
      "longitude": "0.0"
    }
  },
  {
    "service_request": "2022-914913",
    "request_type": "Property Maintenance",
    "request_reason": "Property Maintenance",
    "date_created": "2022-08-30T15:46:00.000",
    "date_modified": "2022-08-30T15:46:00.000",
    "request_status": "Pending",
    "responsible_agency": "Department of Code Enforcement",
    "final_address": "4234 Alfred St",
    "address_councildis": "D",
    "status": "Pending",
    "rowid": "914913",
    "final_x": "3677557.75355",
    "final_y": "547875.939922",
    "longitude": "-90.07995358911155",
    "latitude": "30.000587986176445",
    "geocoded_column": {
      "latitude": "30.000587986176445",
      "longitude": "-90.07995358911155"
    }
  },
  {
    "service_request": "2022-914912",
    "request_type": "Roads/Drainage",
    "request_reason": "Catch Basin - Clogged",
    "date_created": "2022-08-30T15:42:40.000",
    "date_modified": "2022-08-30T15:42:40.000",
    "request_status": "Pending",
    "responsible_agency": "Department of Public Works",
    "final_address": "1329 Mandolin St",
    "address_councildis": "D",
    "status": "Pending",
    "rowid": "914912",
    "final_x": "3677456.01672",
    "final_y": "548108.25301",
    "longitude": "-90.08026695708274",
    "latitude": "30.00122982448429",
    "geocoded_column": {
      "latitude": "30.00122982448429",
      "longitude": "-90.08026695708274"
    }
  },
  {
    "service_request": "2022-914911",
    "request_type": "Trash/Recycling",
    "request_reason": "Missed Trash Pick-Up",
    "date_created": "2022-08-30T15:41:21.000",
    "date_modified": "2022-08-30T15:43:33.000",
    "case_close_date": "2022-08-30T10:43:33.000",
    "request_status": "Closed",
    "responsible_agency": "Department of Sanitation",
    "final_address": "931 Dauphine St",
    "address_councildis": "C",
    "status": "Assigned to Contractor",
    "contractor": "Empire Services",
    "contractor_action": "Completed",
    "rowid": "914911",
    "final_x": "3682559.00943",
    "final_y": "533700.370309",
    "longitude": "-90.06465012527642",
    "latitude": "29.96145876085319",
    "geocoded_column": {
      "latitude": "29.96145876085319",
      "longitude": "-90.06465012527642"
    }
  },
  {
    "service_request": "2022-914910",
    "request_type": "Property Maintenance",
    "request_reason": "Property Maintenance",
    "date_created": "2022-08-30T15:39:36.000",
    "date_modified": "2022-08-30T15:39:36.000",
    "request_status": "Pending",
    "responsible_agency": "Department of Code Enforcement",
    "final_address": "1329 Mandolin St",
    "address_councildis": "D",
    "status": "Pending",
    "rowid": "914910",
    "final_x": "3677456.01672",
    "final_y": "548108.25301",
    "longitude": "-90.08026695708274",
    "latitude": "30.00122982448429",
    "geocoded_column": {
      "latitude": "30.00122982448429",
      "longitude": "-90.08026695708274"
    }
  },
  {
    "service_request": "2022-914909",
    "request_type": "Trash/Recycling",
    "request_reason": "Order Recycling Cart",
    "date_created": "2022-08-30T15:37:40.000",
    "date_modified": "2022-08-30T15:37:41.000",
    "request_status": "Pending",
    "responsible_agency": "Department of Sanitation",
    "final_address": "4700 Canal St",
    "address_councildis": "A",
    "status": "Pending",
    "rowid": "914909",
    "final_x": "3669032.90433",
    "final_y": "539791.327626",
    "longitude": "-90.10715754925495",
    "latitude": "29.978611718608555",
    "geocoded_column": {
      "latitude": "29.978611718608555",
      "longitude": "-90.10715754925495"
    }
  },
  {
    "service_request": "2022-914908",
    "request_type": "Trash/Recycling",
    "request_reason": "MIssed Recycling Pick-Up",
    "date_created": "2022-08-30T15:36:43.000",
    "date_modified": "2022-08-30T15:36:43.000",
    "request_status": "Pending",
    "responsible_agency": "Department of Sanitation",
    "final_address": "415 Bouny St",
    "address_councildis": "C",
    "status": "Assigned to Contractor",
    "contractor": "Richards Disposal",
    "rowid": "914908",
    "final_x": "3685948.17084",
    "final_y": "529913.918081",
    "longitude": "-90.05408124756813",
    "latitude": "29.95094369996993",
    "geocoded_column": {
      "latitude": "29.95094369996993",
      "longitude": "-90.05408124756813"
    }
  },
  {
    "service_request": "2022-914906",
    "request_type": "Trash/Recycling",
    "request_reason": "Request a Large Item Pick Up",
    "date_created": "2022-08-30T15:31:18.000",
    "date_modified": "2022-08-30T15:31:20.000",
    "request_status": "Pending",
    "responsible_agency": "Department of Sanitation",
    "final_address": "4674 Venus St",
    "address_councildis": "D",
    "status": "Assigned to Contractor",
    "contractor": "Metro Disposal",
    "rowid": "914906",
    "final_x": "3686442.36399",
    "final_y": "550219.611924",
    "longitude": "-90.0518037629815",
    "latitude": "30.006762019598067",
    "geocoded_column": {
      "latitude": "30.006762019598067",
      "longitude": "-90.0518037629815"
    }
  },
  {
    "service_request": "2022-914905",
    "request_type": "Property Maintenance",
    "request_reason": "Property Maintenance",
    "date_created": "2022-08-30T15:30:29.000",
    "date_modified": "2022-08-30T15:30:29.000",
    "request_status": "Pending",
    "responsible_agency": "Department of Code Enforcement",
    "final_address": "1936 N Johnson St",
    "address_councildis": "D",
    "status": "Pending",
    "rowid": "914905",
    "final_x": "3683212.3174",
    "final_y": "539418.856394",
    "longitude": "-90.0623867971092",
    "latitude": "29.977162713813787",
    "geocoded_column": {
      "latitude": "29.977162713813787",
      "longitude": "-90.0623867971092"
    }
  },
  {
    "service_request": "2022-914904",
    "request_type": "Trash/Recycling",
    "request_reason": "Missed Trash Pick-Up",
    "date_created": "2022-08-30T15:30:18.000",
    "date_modified": "2022-08-30T15:30:21.000",
    "request_status": "Pending",
    "responsible_agency": "Department of Sanitation",
    "final_address": "3419 Cherry St",
    "address_councildis": "A",
    "status": "Assigned to Contractor",
    "contractor": "Richards Disposal",
    "rowid": "914904",
    "final_x": "3664254.88045",
    "final_y": "537114.446216",
    "longitude": "-90.12233774429816",
    "latitude": "29.9713909103089",
    "geocoded_column": {
      "latitude": "29.9713909103089",
      "longitude": "-90.12233774429816"
    }
  },
  {
    "service_request": "2022-914903",
    "request_type": "Trash/Recycling",
    "request_reason": "Replace Trash Cart",
    "date_created": "2022-08-30T15:29:55.000",
    "date_modified": "2022-08-30T15:29:56.000",
    "request_status": "Pending",
    "responsible_agency": "Department of Sanitation",
    "final_address": "602 Pacific Ave",
    "address_councildis": "C",
    "status": "Assigned to Contractor",
    "contractor": "Richards Disposal",
    "rowid": "914903",
    "final_x": "3688569.58575",
    "final_y": "529416.332929",
    "longitude": "-90.04582181823999",
    "latitude": "29.94949477871877",
    "geocoded_column": {
      "latitude": "29.94949477871877",
      "longitude": "-90.04582181823999"
    }
  },
  {
    "service_request": "2022-914902",
    "request_type": "Property Maintenance",
    "request_reason": "Property Maintenance",
    "date_created": "2022-08-30T15:29:30.000",
    "date_modified": "2022-08-30T15:29:30.000",
    "request_status": "Pending",
    "responsible_agency": "Department of Code Enforcement",
    "final_address": "1932 N Johnson St",
    "address_councildis": "D",
    "status": "Pending",
    "rowid": "914902",
    "final_x": "3683177.50216",
    "final_y": "539455.516618",
    "longitude": "-90.06249547068461",
    "latitude": "29.977264578407954",
    "geocoded_column": {
      "latitude": "29.977264578407954",
      "longitude": "-90.06249547068461"
    }
  },
  {
    "service_request": "2022-914901",
    "request_type": "Trash/Recycling",
    "request_reason": "Illegal Dumping",
    "date_created": "2022-08-30T15:28:47.000",
    "date_modified": "2022-08-30T15:28:47.000",
    "request_status": "Pending",
    "responsible_agency": "Department of Sanitation",
    "final_address": "3817 General Meyer Ave",
    "address_councildis": "C",
    "status": "Pending",
    "rowid": "914901",
    "final_x": "3698096.23747",
    "final_y": "525088.746877",
    "longitude": "-90.01589917016835",
    "latitude": "29.937297649451793",
    "geocoded_column": {
      "latitude": "29.937297649451793",
      "longitude": "-90.01589917016835"
    }
  },
  {
    "service_request": "2022-914900",
    "request_type": "Abandoned Vehicles",
    "request_reason": "Abandoned/Junk Vehicles",
    "date_created": "2022-08-30T15:25:23.000",
    "date_modified": "2022-08-30T15:27:12.000",
    "request_status": "Pending",
    "responsible_agency": "Department of Public Works",
    "final_address": "3910 Hollygrove St",
    "address_councildis": "A",
    "status": "Pending",
    "rowid": "914900",
    "final_x": "3666101.99943",
    "final_y": "537706.54388",
    "longitude": "-90.11648439768975",
    "latitude": "29.972965174958304",
    "geocoded_column": {
      "latitude": "29.972965174958304",
      "longitude": "-90.11648439768975"
    }
  },
  {
    "service_request": "2022-914899",
    "request_type": "Traffic Signals/Signs/Striping/Streetlights",
    "request_reason": "Street Light Outage/Malfunction",
    "date_created": "2022-08-30T15:24:57.000",
    "date_modified": "2022-08-30T15:24:58.000",
    "request_status": "Pending",
    "responsible_agency": "Department of Public Works",
    "final_address": "11901 Curran Rd",
    "address_councildis": "E",
    "status": "Pending",
    "contractor": "Legacy Professional Services",
    "rowid": "914899",
    "final_x": "3712933.69099",
    "final_y": "567785.166948",
    "longitude": "-89.96745007793196",
    "latitude": "30.054219039254882",
    "geocoded_column": {
      "latitude": "30.054219039254882",
      "longitude": "-89.96745007793196"
    }
  },
  {
    "service_request": "2022-914897",
    "request_type": "Trash/Recycling",
    "request_reason": "MIssed Recycling Pick-Up",
    "date_created": "2022-08-30T15:18:37.000",
    "date_modified": "2022-08-30T15:18:38.000",
    "request_status": "Pending",
    "responsible_agency": "Department of Sanitation",
    "final_address": "3723 DHemecourt St",
    "address_councildis": "B",
    "status": "Assigned to Contractor",
    "contractor": "Richards Disposal",
    "rowid": "914897",
    "final_x": "3671012.44155",
    "final_y": "535999.306951",
    "longitude": "-90.10103422299287",
    "latitude": "29.96812654604858",
    "geocoded_column": {
      "latitude": "29.96812654604858",
      "longitude": "-90.10103422299287"
    }
  },
  {
    "service_request": "2022-914896",
    "request_type": "Traffic Signals/Signs/Striping/Streetlights",
    "request_reason": "Street Light Outage/Malfunction",
    "date_created": "2022-08-30T15:07:05.000",
    "date_modified": "2022-08-30T15:07:06.000",
    "request_status": "Pending",
    "responsible_agency": "Department of Public Works",
    "final_address": "2323 Filmore Ave",
    "address_councildis": "D",
    "status": "Pending",
    "contractor": "Legacy Professional Services",
    "rowid": "914896",
    "final_x": "3684630.42613",
    "final_y": "552543.253782",
    "longitude": "-90.0574463999321",
    "latitude": "30.01320678639251",
    "geocoded_column": {
      "latitude": "30.01320678639251",
      "longitude": "-90.0574463999321"
    }
  },
  {
    "service_request": "2022-914895",
    "request_type": "Trash/Recycling",
    "request_reason": "Request a Large Item Pick Up",
    "date_created": "2022-08-30T15:04:58.000",
    "date_modified": "2022-08-30T15:04:58.000",
    "request_status": "Pending",
    "responsible_agency": "Department of Sanitation",
    "final_address": "3954 Pauger St",
    "address_councildis": "D",
    "status": "Assigned to Contractor",
    "contractor": "Metro Disposal",
    "rowid": "914895",
    "final_x": "3683078.79746",
    "final_y": "545532.923472",
    "longitude": "-90.06259434553063",
    "latitude": "29.993978315657834",
    "geocoded_column": {
      "latitude": "29.993978315657834",
      "longitude": "-90.06259434553063"
    }
  },
  {
    "service_request": "2022-914894",
    "request_type": "Traffic Signals/Signs/Striping/Streetlights",
    "request_reason": "Street Light Knocked Down/Leaning",
    "date_created": "2022-08-30T15:01:27.000",
    "date_modified": "2022-08-30T15:01:28.000",
    "request_status": "Pending",
    "responsible_agency": "Department of Public Works",
    "final_address": "GIROD ST & CARONDELET ST",
    "address_councildis": "B",
    "status": "Pending",
    "contractor": "Legacy Professional Services",
    "rowid": "914894",
    "final_x": "3680129.4",
    "final_y": "528644.98",
    "longitude": "-90.07249807521346",
    "latitude": "29.94763188861492",
    "geocoded_column": {
      "latitude": "29.94763188861492",
      "longitude": "-90.07249807521346"
    }
  },
  {
    "service_request": "2022-914892",
    "request_type": "Roads/Drainage",
    "request_reason": "Damaged Sidewalk",
    "date_created": "2022-08-30T14:52:53.000",
    "date_modified": "2022-08-30T14:52:53.000",
    "request_status": "Pending",
    "responsible_agency": "Department of Public Works",
    "final_address": "800 Tchoupitoulas St",
    "address_councildis": "B",
    "status": "Pending",
    "rowid": "914892",
    "final_x": "3681778.39247",
    "final_y": "527634.649919",
    "longitude": "-90.06732681058045",
    "latitude": "29.944803824928933",
    "geocoded_column": {
      "latitude": "29.944803824928933",
      "longitude": "-90.06732681058045"
    }
  },
  {
    "service_request": "2022-914891",
    "request_type": "Property Maintenance",
    "request_reason": "Property Maintenance",
    "date_created": "2022-08-30T14:52:20.000",
    "date_modified": "2022-08-30T14:52:20.000",
    "request_status": "Pending",
    "responsible_agency": "Department of Code Enforcement",
    "final_address": "2627 Banks St",
    "address_councildis": "B",
    "status": "Pending",
    "rowid": "914891",
    "final_x": "3674896.59169",
    "final_y": "534022.542533",
    "longitude": "-90.08883570901338",
    "latitude": "29.962575679692623",
    "geocoded_column": {
      "latitude": "29.962575679692623",
      "longitude": "-90.08883570901338"
    }
  },
  {
    "service_request": "2022-914890",
    "request_type": "Trash/Recycling",
    "request_reason": "Missed Trash Pick-Up",
    "date_created": "2022-08-30T14:50:28.000",
    "date_modified": "2022-08-30T14:50:29.000",
    "request_status": "Pending",
    "responsible_agency": "Department of Sanitation",
    "final_address": "4139 State Street Dr",
    "address_councildis": "B",
    "status": "Assigned to Contractor",
    "contractor": "Richards Disposal",
    "rowid": "914890",
    "final_x": "3668430.47412",
    "final_y": "530808.382338",
    "longitude": "-90.10936331414214",
    "latitude": "29.953929318484317",
    "geocoded_column": {
      "latitude": "29.953929318484317",
      "longitude": "-90.10936331414214"
    }
  },
  {
    "service_request": "2022-914889",
    "request_type": "Mosquito, Termite & Rodent Control",
    "request_reason": "Rodent Complaint (Rats)",
    "date_created": "2022-08-30T14:49:08.000",
    "date_modified": "2022-08-30T14:49:08.000",
    "request_status": "Pending",
    "responsible_agency": "Mosquito, Termite & Rodent Control Board",
    "final_address": "2501 Banks St",
    "address_councildis": "B",
    "status": "Pending",
    "rowid": "914889",
    "final_x": "3675422.22798",
    "final_y": "533620.953349",
    "longitude": "-90.08718961099208",
    "latitude": "29.96145573647873",
    "geocoded_column": {
      "latitude": "29.96145573647873",
      "longitude": "-90.08718961099208"
    }
  },
  {
    "service_request": "2022-914888",
    "request_type": "Trash/Recycling",
    "request_reason": "Request a Large Item Pick Up",
    "date_created": "2022-08-30T14:48:05.000",
    "date_modified": "2022-08-30T14:48:06.000",
    "request_status": "Pending",
    "responsible_agency": "Department of Sanitation",
    "final_address": "1236 Alvar St, New Orleans, Louisiana, 70117",
    "address_councildis": "D",
    "status": "Assigned to Contractor",
    "contractor": "Metro Disposal",
    "rowid": "914888",
    "final_x": "3691615.8047",
    "final_y": "536049.223623",
    "longitude": "-90.03596644594789",
    "latitude": "29.967638445991263",
    "geocoded_column": {
      "latitude": "29.967638445991263",
      "longitude": "-90.03596644594789"
    }
  },
  {
    "service_request": "2022-914887",
    "request_type": "Property Maintenance",
    "request_reason": "Property Maintenance",
    "date_created": "2022-08-30T14:47:55.000",
    "date_modified": "2022-08-30T14:47:55.000",
    "request_status": "Pending",
    "responsible_agency": "Department of Code Enforcement",
    "final_address": "2501 Banks St",
    "address_councildis": "B",
    "status": "Pending",
    "rowid": "914887",
    "final_x": "3675422.22798",
    "final_y": "533620.953349",
    "longitude": "-90.08718961099208",
    "latitude": "29.96145573647873",
    "geocoded_column": {
      "latitude": "29.96145573647873",
      "longitude": "-90.08718961099208"
    }
  },
  {
    "service_request": "2022-914886",
    "request_type": "Trash/Recycling",
    "request_reason": "Request a Large Item Pick Up",
    "date_created": "2022-08-30T14:45:48.000",
    "date_modified": "2022-08-30T14:45:49.000",
    "request_status": "Pending",
    "responsible_agency": "Department of Sanitation",
    "final_address": "1519 Jackson Ave",
    "address_councildis": "B",
    "status": "Assigned to Contractor",
    "contractor": "Richards Disposal",
    "rowid": "914886",
    "final_x": "3677876.62894",
    "final_y": "523459.968507",
    "longitude": "-90.0797900565652",
    "latitude": "29.933442788360022",
    "geocoded_column": {
      "latitude": "29.933442788360022",
      "longitude": "-90.0797900565652"
    }
  },
  {
    "service_request": "2022-914885",
    "request_type": "Traffic Signals/Signs/Striping/Streetlights",
    "request_reason": "Street Light Outage/Malfunction",
    "date_created": "2022-08-30T14:45:47.000",
    "date_modified": "2022-08-30T14:47:30.000",
    "request_status": "Pending",
    "responsible_agency": "Department of Public Works",
    "final_address": "2323 Filmore Ave",
    "address_councildis": "D",
    "status": "Pending",
    "contractor": "Legacy Professional Services",
    "rowid": "914885",
    "final_x": "3684630.42613",
    "final_y": "552543.253782",
    "longitude": "-90.0574463999321",
    "latitude": "30.01320678639251",
    "geocoded_column": {
      "latitude": "30.01320678639251",
      "longitude": "-90.0574463999321"
    }
  },
  {
    "service_request": "2022-914884",
    "request_type": "Trash/Recycling",
    "request_reason": "Request a Large Item Pick Up",
    "date_created": "2022-08-30T14:40:42.000",
    "date_modified": "2022-08-30T14:40:43.000",
    "request_status": "Pending",
    "responsible_agency": "Department of Sanitation",
    "final_address": "1519 Jackson Ave, New Orleans, Louisiana, 70130",
    "address_councildis": "B",
    "status": "Assigned to Contractor",
    "contractor": "Richards Disposal",
    "rowid": "914884",
    "final_x": "3677876.62894",
    "final_y": "523459.968507",
    "longitude": "-90.0797900565652",
    "latitude": "29.933442788360022",
    "geocoded_column": {
      "latitude": "29.933442788360022",
      "longitude": "-90.0797900565652"
    }
  },
  {
    "service_request": "2022-914883",
    "request_type": "Property Maintenance",
    "request_reason": "Property Maintenance",
    "date_created": "2022-08-30T14:40:22.000",
    "date_modified": "2022-08-30T14:40:22.000",
    "request_status": "Pending",
    "responsible_agency": "Department of Code Enforcement",
    "final_address": "2615 S Rocheblave St",
    "address_councildis": "B",
    "status": "Pending",
    "rowid": "914883",
    "final_x": "3672053.99995",
    "final_y": "529272.999489",
    "longitude": "-90.09797394810114",
    "latitude": "29.94960059612236",
    "geocoded_column": {
      "latitude": "29.94960059612236",
      "longitude": "-90.09797394810114"
    }
  },
  {
    "service_request": "2022-914882",
    "request_type": "Trash/Recycling",
    "request_reason": "Illegal Dumping",
    "date_created": "2022-08-30T14:39:28.000",
    "date_modified": "2022-08-30T14:39:28.000",
    "request_status": "Pending",
    "responsible_agency": "Department of Sanitation",
    "final_address": "821 N Villere St",
    "address_councildis": "C",
    "status": "Pending",
    "rowid": "914882",
    "final_x": "3680621.50664",
    "final_y": "534645.131078",
    "longitude": "-90.07073555043985",
    "latitude": "29.96411537459687",
    "geocoded_column": {
      "latitude": "29.96411537459687",
      "longitude": "-90.07073555043985"
    }
  },
  {
    "service_request": "2022-914881",
    "request_type": "Property Maintenance",
    "request_reason": "Property Maintenance",
    "date_created": "2022-08-30T14:38:48.000",
    "date_modified": "2022-08-30T14:38:48.000",
    "request_status": "Pending",
    "responsible_agency": "Department of Code Enforcement",
    "final_address": "2623 S Rocheblave St",
    "address_councildis": "B",
    "status": "Pending",
    "rowid": "914881",
    "final_x": "3672020.79214",
    "final_y": "529212.741632",
    "longitude": "-90.09808085151873",
    "latitude": "29.949435891237336",
    "geocoded_column": {
      "latitude": "29.949435891237336",
      "longitude": "-90.09808085151873"
    }
  },
  {
    "service_request": "2022-914879",
    "request_type": "Property Maintenance",
    "request_reason": "Property Maintenance",
    "date_created": "2022-08-30T14:33:30.000",
    "date_modified": "2022-08-30T14:33:30.000",
    "request_status": "Pending",
    "responsible_agency": "Department of Code Enforcement",
    "final_address": "5501 Edenboro Rd",
    "address_councildis": "E",
    "status": "Pending",
    "rowid": "914879",
    "final_x": "3708222.78052",
    "final_y": "558086.456859",
    "longitude": "-89.98270137350146",
    "latitude": "30.027705012642564",
    "geocoded_column": {
      "latitude": "30.027705012642564",
      "longitude": "-89.98270137350146"
    }
  },
  {
    "service_request": "2022-914878",
    "request_type": "Abandoned Vehicles",
    "request_reason": "Abandoned/Junk Vehicles",
    "date_created": "2022-08-30T14:30:45.000",
    "date_modified": "2022-08-30T14:30:45.000",
    "request_status": "Pending",
    "responsible_agency": "Department of Public Works",
    "final_address": "5660 Norgate Dr",
    "address_councildis": "E",
    "status": "Pending",
    "rowid": "914878",
    "final_x": "3707971.05124",
    "final_y": "558290.846236",
    "longitude": "-89.98348920390008",
    "latitude": "30.02827515959021",
    "geocoded_column": {
      "latitude": "30.02827515959021",
      "longitude": "-89.98348920390008"
    }
  },
  {
    "service_request": "2022-914877",
    "request_type": "Property Maintenance",
    "request_reason": "Property Maintenance",
    "date_created": "2022-08-30T14:29:19.000",
    "date_modified": "2022-08-30T14:29:20.000",
    "request_status": "Pending",
    "responsible_agency": "Department of Code Enforcement",
    "final_address": "4526 Lancelot Dr",
    "address_councildis": "E",
    "status": "Pending",
    "rowid": "914877",
    "final_x": "3707506.37899",
    "final_y": "554119.396248",
    "longitude": "-89.98511262588997",
    "latitude": "30.0168203388609",
    "geocoded_column": {
      "latitude": "30.0168203388609",
      "longitude": "-89.98511262588997"
    }
  },
  {
    "service_request": "2022-914876",
    "request_type": "Property Maintenance",
    "request_reason": "Property Maintenance",
    "date_created": "2022-08-30T14:27:09.000",
    "date_modified": "2022-08-30T14:27:09.000",
    "request_status": "Pending",
    "responsible_agency": "Department of Code Enforcement",
    "final_address": "6117 Franklin Ave",
    "address_councildis": "D",
    "status": "Pending",
    "rowid": "914876",
    "final_x": "3686468.66198",
    "final_y": "555716.994457",
    "longitude": "-90.05152639563431",
    "latitude": "30.021876993744364",
    "geocoded_column": {
      "latitude": "30.021876993744364",
      "longitude": "-90.05152639563431"
    }
  },
  {
    "service_request": "2022-914875",
    "request_type": "Roads/Drainage",
    "request_reason": "Pothole",
    "date_created": "2022-08-30T14:26:04.000",
    "date_modified": "2022-08-30T14:26:04.000",
    "request_status": "Pending",
    "responsible_agency": "Department of Public Works",
    "final_address": "7900 BLK Belfast St",
    "address_councildis": "A",
    "status": "Pending",
    "rowid": "914875",
    "final_x": "3666048.52154",
    "final_y": "531947.035631",
    "longitude": "-90.11684640323463",
    "latitude": "29.957129990004326",
    "geocoded_column": {
      "latitude": "29.957129990004326",
      "longitude": "-90.11684640323463"
    }
  },
  {
    "service_request": "2022-914874",
    "request_type": "Property Maintenance",
    "request_reason": "Property Maintenance",
    "date_created": "2022-08-30T14:24:18.000",
    "date_modified": "2022-08-30T14:24:18.000",
    "request_status": "Pending",
    "responsible_agency": "Department of Code Enforcement",
    "final_address": "BACCHUS DR & TULLIS DR",
    "address_councildis": "C",
    "status": "Pending",
    "rowid": "914874",
    "final_x": "3710174.3",
    "final_y": "517322.78",
    "longitude": "-89.97805830907903",
    "latitude": "29.915556616687564",
    "geocoded_column": {
      "latitude": "29.915556616687564",
      "longitude": "-89.97805830907903"
    }
  },
  {
    "service_request": "2022-914873",
    "request_type": "Roads/Drainage",
    "request_reason": "Catch Basin - Clogged",
    "date_created": "2022-08-30T14:19:53.000",
    "date_modified": "2022-08-30T14:19:53.000",
    "request_status": "Pending",
    "responsible_agency": "Department of Public Works",
    "final_address": "CAMP ST & 6TH ST",
    "address_councildis": "B",
    "status": "Pending",
    "rowid": "914873",
    "final_x": "3676420.2",
    "final_y": "520855.68",
    "longitude": "-90.08447752998414",
    "latitude": "29.926325573087016",
    "geocoded_column": {
      "latitude": "29.926325573087016",
      "longitude": "-90.08447752998414"
    }
  },
  {
    "service_request": "2022-914872",
    "request_type": "Trash/Recycling",
    "request_reason": "Repair Trash Cart",
    "date_created": "2022-08-30T14:19:35.000",
    "date_modified": "2022-08-30T14:19:36.000",
    "request_status": "Pending",
    "responsible_agency": "Department of Sanitation",
    "final_address": "1644 Flanders St",
    "address_councildis": "C",
    "status": "Assigned to Contractor",
    "contractor": "Richards Disposal",
    "rowid": "914872",
    "final_x": "3696724.22576",
    "final_y": "525144.089981",
    "longitude": "-90.02022867350007",
    "latitude": "29.937493127853344",
    "geocoded_column": {
      "latitude": "29.937493127853344",
      "longitude": "-90.02022867350007"
    }
  },
  {
    "service_request": "2022-914871",
    "request_type": "Traffic Signals/Signs/Striping/Streetlights",
    "request_reason": "Street Light Knocked Down/Leaning",
    "date_created": "2022-08-30T14:18:37.000",
    "date_modified": "2022-08-30T14:18:38.000",
    "request_status": "Pending",
    "responsible_agency": "Department of Public Works",
    "final_address": "PAULINE ST & N ROMAN ST",
    "address_councildis": "D",
    "status": "Pending",
    "contractor": "Legacy Professional Services",
    "rowid": "914871",
    "final_x": "3691863.2",
    "final_y": "538077.98",
    "longitude": "-90.03511257993357",
    "latitude": "29.973209104090124",
    "geocoded_column": {
      "latitude": "29.973209104090124",
      "longitude": "-90.03511257993357"
    }
  },
  {
    "service_request": "2022-914870",
    "request_type": "Trash/Recycling",
    "request_reason": "Order Recycling Cart",
    "date_created": "2022-08-30T14:17:47.000",
    "date_modified": "2022-08-30T14:17:47.000",
    "request_status": "Pending",
    "responsible_agency": "Department of Sanitation",
    "final_address": "4004 Lennox Blvd",
    "address_councildis": "C",
    "status": "Pending",
    "rowid": "914870",
    "final_x": "3700909.30353",
    "final_y": "515968.867636",
    "longitude": "-90.00735138424272",
    "latitude": "29.9121318886082",
    "geocoded_column": {
      "latitude": "29.9121318886082",
      "longitude": "-90.00735138424272"
    }
  },
  {
    "service_request": "2022-914869",
    "request_type": "Traffic Signals/Signs/Striping/Streetlights",
    "request_reason": "Street Light Outage/Malfunction",
    "date_created": "2022-08-30T14:16:01.000",
    "date_modified": "2022-08-30T14:16:02.000",
    "request_status": "Pending",
    "responsible_agency": "Department of Public Works",
    "final_address": "PAULINE ST & N ROMAN ST",
    "address_councildis": "D",
    "status": "Pending",
    "contractor": "Legacy Professional Services",
    "rowid": "914869",
    "final_x": "3691863.2",
    "final_y": "538077.98",
    "longitude": "-90.03511257993357",
    "latitude": "29.973209104090124",
    "geocoded_column": {
      "latitude": "29.973209104090124",
      "longitude": "-90.03511257993357"
    }
  },