[
  {
    "service_request": "2021-838907",
    "request_type": "Roads/Drainage",
    "request_reason": "Catch Basin - Broken/Damage",
    "date_created": "2021-11-02T00:13:14.000",
    "date_modified": "2021-11-02T00:13:14.000",
    "request_status": "Pending",
    "responsible_agency": "Department of Public Works",
    "final_address": "119 N Lopez St",
    "address_councildis": "B",
    "status": "Pending",
    "rowid": "838907",
    "final_x": "3673993.06388",
    "final_y": "536448.551495",
    "longitude": "-90.091605910311",
    "latitude": "29.969273339094578",
    "geocoded_column": {
      "latitude": "29.969273339094578",
      "longitude": "-90.091605910311"
    }
  },
  {
    "service_request": "2021-838906",
    "request_type": "Roads/Drainage",
    "request_reason": "Street Subsidence (Sinking)",
    "date_created": "2021-11-02T00:03:11.000",
    "date_modified": "2021-11-02T00:03:11.000",
    "request_status": "Pending",
    "responsible_agency": "Department of Public Works",
    "final_address": "823 Bordeaux St",
    "address_councildis": "B",
    "status": "Pending",
    "rowid": "838906",
    "final_x": "3669656.43905",
    "final_y": "518478.14399",
    "longitude": "-90.1059092675477",
    "latitude": "29.919989072827008",
    "geocoded_column": {
      "latitude": "29.919989072827008",
      "longitude": "-90.1059092675477"
    }
  },
  {
    "service_request": "2021-838905",
    "request_type": "Trash/Recycling",
    "request_reason": "Request a Large Item Pick Up",
    "date_created": "2021-11-02T00:01:32.000",
    "date_modified": "2021-11-02T00:01:32.000",
    "request_status": "Pending",
    "responsible_agency": "Department of Sanitation",
    "final_address": "823 Bordeaux St",
    "address_councildis": "B",
    "status": "Assigned to Contractor",
    "contractor": "Richards Disposal",
    "rowid": "838905",
    "final_x": "3669656.43905",
    "final_y": "518478.14399",
    "longitude": "-90.1059092675477",
    "latitude": "29.919989072827008",
    "geocoded_column": {
      "latitude": "29.919989072827008",
      "longitude": "-90.1059092675477"
    }
  },
  {
    "service_request": "2021-838904",
    "request_type": "Traffic Signals/Signs/Striping/Streetlights",
    "request_reason": "Street Light Outage/Malfunction",
    "date_created": "2021-11-01T23:37:35.000",
    "date_modified": "2021-11-02T00:01:10.000",
    "request_status": "Pending",
    "responsible_agency": "Department of Public Works",
    "final_address": "128 Central PK PL",
    "status": "Pending",
    "contractor": "Royal Engineering",
    "rowid": "838904",
    "longitude": "0.0",
    "latitude": "0.0",
    "geocoded_column": {
      "latitude": "0.0",
      "longitude": "0.0"
    }
  },
  {
    "service_request": "2021-838903",
    "request_type": "Traffic Signals/Signs/Striping/Streetlights",
    "request_reason": "Street Light Outage/Malfunction",
    "date_created": "2021-11-01T23:03:42.000",
    "date_modified": "2021-11-01T23:03:42.000",
    "request_status": "Pending",
    "responsible_agency": "Department of Public Works",
    "final_address": "1434 Audubon St",
    "address_councildis": "A",
    "status": "Pending",
    "contractor": "Royal Engineering",
    "rowid": "838903",
    "final_x": "3664896.74132",
    "final_y": "527102.732031",
    "longitude": "-90.12064527795641",
    "latitude": "29.94384329508611",
    "geocoded_column": {
      "latitude": "29.94384329508611",
      "longitude": "-90.12064527795641"
    }
  },
  {
    "service_request": "2021-838902",
    "request_type": "Abandoned Vehicles",
    "request_reason": "Vehicle Blocking Your Driveway",
    "date_created": "2021-11-01T23:01:08.000",
    "date_modified": "2021-11-01T23:01:08.000",
    "request_status": "Pending",
    "responsible_agency": "Department of Public Works",
    "final_address": "1535 Port St",
    "address_councildis": "C",
    "status": "Pending",
    "rowid": "838902",
    "final_x": "3687917.45225",
    "final_y": "538185.675337",
    "longitude": "-90.04757019257639",
    "latitude": "29.97362756100885",
    "geocoded_column": {
      "latitude": "29.97362756100885",
      "longitude": "-90.04757019257639"
    }
  },
  {
    "service_request": "2021-838900",
    "request_type": "Trash/Recycling",
    "request_reason": "Order Trash Cart",
    "date_created": "2021-11-01T22:42:48.000",
    "date_modified": "2021-11-01T23:00:58.000",
    "request_status": "Pending",
    "responsible_agency": "Department of Sanitation",
    "final_address": "4874 Bergerac St",
    "address_councildis": "E",
    "status": "Assigned to Contractor",
    "contractor": "Metro Disposal",
    "rowid": "838900",
    "final_x": "3725939.66771",
    "final_y": "561599.831135",
    "longitude": "-89.9265818537097",
    "latitude": "30.036779236999948",
    "geocoded_column": {
      "latitude": "30.036779236999948",
      "longitude": "-89.9265818537097"
    }
  },
  {
    "service_request": "2021-838899",
    "request_type": "Traffic Signals/Signs/Striping/Streetlights",
    "request_reason": "Street Light Outage/Malfunction",
    "date_created": "2021-11-01T22:40:03.000",
    "date_modified": "2021-11-01T22:40:04.000",
    "request_status": "Pending",
    "responsible_agency": "Department of Public Works",
    "final_address": "4859 Bergerac St",
    "address_councildis": "E",
    "status": "Pending",
    "contractor": "Royal Engineering",
    "rowid": "838899",
    "final_x": "3726131.18304",
    "final_y": "561511.330271",
    "longitude": "-89.92598006852437",
    "latitude": "30.036529429732457",
    "geocoded_column": {
      "latitude": "30.036529429732457",
      "longitude": "-89.92598006852437"
    }
  },
  {
    "service_request": "2021-838898",
    "request_type": "Trash/Recycling",
    "request_reason": "Order Trash Cart",
    "date_created": "2021-11-01T21:27:24.000",
    "date_modified": "2021-11-01T21:27:25.000",
    "request_status": "Pending",
    "responsible_agency": "Department of Sanitation",
    "final_address": "2704 Soniat St",
    "address_councildis": "B",
    "status": "Assigned to Contractor",
    "contractor": "Richards Disposal",
    "rowid": "838898",
    "final_x": "3668517.15054",
    "final_y": "525383.145021",
    "longitude": "-90.10927262577508",
    "latitude": "29.939009132840326",
    "geocoded_column": {
      "latitude": "29.939009132840326",
      "longitude": "-90.10927262577508"
    }
  },
  {
    "service_request": "2021-838897",
    "request_type": "Traffic Signals/Signs/Striping/Streetlights",
    "request_reason": "Street Light Outage/Malfunction",
    "date_created": "2021-11-01T21:04:45.000",
    "date_modified": "2021-11-01T21:04:46.000",
    "request_status": "Pending",
    "responsible_agency": "Department of Public Works",
    "final_address": "2820 S Saratoga St",
    "address_councildis": "B",
    "status": "Pending",
    "contractor": "Royal Engineering",
    "rowid": "838897",
    "final_x": "3674792.6571",
    "final_y": "523891.955836",
    "longitude": "-90.08951118681252",
    "latitude": "29.93472302239601",
    "geocoded_column": {
      "latitude": "29.93472302239601",
      "longitude": "-90.08951118681252"
    }
  },
  {
    "service_request": "2021-838896",
    "request_type": "Traffic Signals/Signs/Striping/Streetlights",
    "request_reason": "Street Light Outage/Malfunction",
    "date_created": "2021-11-01T19:46:48.000",
    "date_modified": "2021-11-01T19:46:48.000",
    "request_status": "Pending",
    "responsible_agency": "Department of Public Works",
    "final_address": "4440 Elba St",
    "address_councildis": "B",
    "status": "Pending",
    "contractor": "Royal Engineering",
    "rowid": "838896",
    "final_x": "3669529.51956",
    "final_y": "530505.47533",
    "longitude": "-90.10590321445441",
    "latitude": "29.953064097288816",
    "geocoded_column": {
      "latitude": "29.953064097288816",
      "longitude": "-90.10590321445441"
    }
  },
  {
    "service_request": "2021-838895",
    "request_type": "Traffic Signals/Signs/Striping/Streetlights",
    "request_reason": "Street Light Outage/Malfunction",
    "date_created": "2021-11-01T19:34:06.000",
    "date_modified": "2021-11-01T19:34:06.000",
    "request_status": "Pending",
    "responsible_agency": "Department of Public Works",
    "final_address": "2400 BLK Governor Nicholls St",
    "address_councildis": "D",
    "status": "Pending",
    "contractor": "Royal Engineering",
    "rowid": "838895",
    "final_x": "3678777.44785",
    "final_y": "537685.807618",
    "longitude": "-90.07645360068759",
    "latitude": "29.97253193894309",
    "geocoded_column": {
      "latitude": "29.97253193894309",
      "longitude": "-90.07645360068759"
    }
  },
  {
    "service_request": "2021-838894",
    "request_type": "Traffic Signals/Signs/Striping/Streetlights",
    "request_reason": "Street Light Outage/Malfunction",
    "date_created": "2021-11-01T19:19:07.000",
    "date_modified": "2021-11-01T19:19:07.000",
    "request_status": "Pending",
    "responsible_agency": "Department of Public Works",
    "final_address": "2419 Broadway St",
    "address_councildis": "A",
    "status": "Pending",
    "contractor": "Royal Engineering",
    "rowid": "838894",
    "final_x": "3666743.89703",
    "final_y": "530228.138689",
    "longitude": "-90.11470833899538",
    "latitude": "29.952383267244098",
    "geocoded_column": {
      "latitude": "29.952383267244098",
      "longitude": "-90.11470833899538"
    }
  },
  {
    "service_request": "2021-838892",
    "request_type": "Parks & Parkways",
    "request_reason": "Request Grass Cutting Service (City Owned Property)",
    "date_created": "2021-11-01T19:08:51.000",
    "date_modified": "2021-11-01T19:08:51.000",
    "request_status": "Pending",
    "responsible_agency": "Department of Parks & Parkway",
    "final_address": "11000 Dreux Ave",
    "address_councildis": "E",
    "status": "Pending",
    "rowid": "838892",
    "final_x": "3716035.96044",
    "final_y": "556174.284698",
    "longitude": "-89.95808510851164",
    "latitude": "30.022191756234346",
    "geocoded_column": {
      "latitude": "30.022191756234346",
      "longitude": "-89.95808510851164"
    }
  },
  {
    "service_request": "2021-838891",
    "request_type": "Trash/Recycling",
    "request_reason": "Request a Large Item Pick Up",
    "date_created": "2021-11-01T18:56:45.000",
    "date_modified": "2021-11-01T19:00:54.000",
    "request_status": "Pending",
    "responsible_agency": "Department of Sanitation",
    "final_address": "4401 Elba St",
    "address_councildis": "B",
    "status": "Assigned to Contractor",
    "contractor": "Richards Disposal",
    "rowid": "838891",
    "final_x": "3669817.25326",
    "final_y": "530417.186434",
    "longitude": "-90.1049976631163",
    "latitude": "29.95281285361731",
    "geocoded_column": {
      "latitude": "29.95281285361731",
      "longitude": "-90.1049976631163"
    }
  },
  {
    "service_request": "2021-838890",
    "request_type": "Trash/Recycling",
    "request_reason": "Stop Trash Service",
    "date_created": "2021-11-01T18:53:55.000",
    "date_modified": "2021-11-01T19:00:55.000",
    "request_status": "Pending",
    "responsible_agency": "Department of Sanitation",
    "final_address": "617 Washington Ave",
    "address_councildis": "B",
    "status": "Assigned to Contractor",
    "contractor": "Richards Disposal",
    "rowid": "838890",
    "final_x": "3678025.68462",
    "final_y": "519464.054199",
    "longitude": "-90.07945753884007",
    "latitude": "29.92245084187026",
    "geocoded_column": {
      "latitude": "29.92245084187026",
      "longitude": "-90.07945753884007"
    }
  },
  {
    "service_request": "2021-838889",
    "request_type": "Trash/Recycling",
    "request_reason": "Start Trash Service",
    "date_created": "2021-11-01T18:51:11.000",
    "date_modified": "2021-11-01T19:00:56.000",
    "request_status": "Pending",
    "responsible_agency": "Department of Sanitation",
    "final_address": "1929 Delachaise St",
    "address_councildis": "B",
    "status": "Assigned to Contractor",
    "contractor": "Richards Disposal",
    "rowid": "838889",
    "final_x": "3673329.87912",
    "final_y": "522642.508282",
    "longitude": "-90.09417181724247",
    "latitude": "29.931331026276997",
    "geocoded_column": {
      "latitude": "29.931331026276997",
      "longitude": "-90.09417181724247"
    }
  },
  {
    "service_request": "2021-838888",
    "request_type": "Trash/Recycling",
    "request_reason": "Request a Large Item Pick Up",
    "date_created": "2021-11-01T18:47:58.000",
    "date_modified": "2021-11-01T18:47:58.000",
    "request_status": "Pending",
    "responsible_agency": "Department of Sanitation",
    "final_address": "7031 Wayside Dr",
    "address_councildis": "E",
    "status": "Assigned to Contractor",
    "contractor": "Metro Disposal",
    "rowid": "838888",
    "final_x": "3717724.07308",
    "final_y": "567823.357924",
    "longitude": "-89.9523075280143",
    "latitude": "30.05416616717181",
    "geocoded_column": {
      "latitude": "30.05416616717181",
      "longitude": "-89.9523075280143"
    }
  },
  {
    "service_request": "2021-838887",
    "request_type": "Traffic Signals/Signs/Striping/Streetlights",
    "request_reason": "Street Light Outage/Malfunction",
    "date_created": "2021-11-01T18:45:18.000",
    "date_modified": "2021-11-01T18:45:18.000",
    "request_status": "Pending",
    "responsible_agency": "Department of Public Works",
    "final_address": "3500 BLK Clematis St",
    "address_councildis": "D",
    "status": "Pending",
    "contractor": "Royal Engineering",
    "rowid": "838887",
    "final_x": "3686484.96918",
    "final_y": "545861.240414",
    "longitude": "-90.0518231576351",
    "latitude": "29.994776763214116",
    "geocoded_column": {
      "latitude": "29.994776763214116",
      "longitude": "-90.0518231576351"
    }
  },
  {
    "service_request": "2021-838886",
    "request_type": "Traffic Signals/Signs/Striping/Streetlights",
    "request_reason": "Street Light Outage/Malfunction",
    "date_created": "2021-11-01T18:44:36.000",
    "date_modified": "2021-11-01T18:44:36.000",
    "request_status": "Pending",
    "responsible_agency": "Department of Public Works",
    "final_address": "3500 BLK Clematis St",
    "address_councildis": "D",
    "status": "Pending",
    "contractor": "Royal Engineering",
    "rowid": "838886",
    "final_x": "3686484.96918",
    "final_y": "545861.240414",
    "longitude": "-90.0518231576351",
    "latitude": "29.994776763214116",
    "geocoded_column": {
      "latitude": "29.994776763214116",
      "longitude": "-90.0518231576351"
    }
  },
  {
    "service_request": "2021-838885",
    "request_type": "Traffic Signals/Signs/Striping/Streetlights",
    "request_reason": "Street Light Outage/Malfunction",
    "date_created": "2021-11-01T18:44:12.000",
    "date_modified": "2021-11-01T18:44:12.000",
    "request_status": "Pending",
    "responsible_agency": "Department of Public Works",
    "final_address": "3500 BLK Clematis St",
    "address_councildis": "D",
    "status": "Pending",
    "contractor": "Royal Engineering",
    "rowid": "838885",
    "final_x": "3686484.96918",
    "final_y": "545861.240414",
    "longitude": "-90.0518231576351",
    "latitude": "29.994776763214116",
    "geocoded_column": {
      "latitude": "29.994776763214116",
      "longitude": "-90.0518231576351"
    }
  },
  {
    "service_request": "2021-838884",
    "request_type": "Traffic Signals/Signs/Striping/Streetlights",
    "request_reason": "Street Light Outage/Malfunction",
    "date_created": "2021-11-01T18:43:52.000",
    "date_modified": "2021-11-01T18:43:52.000",
    "request_status": "Pending",
    "responsible_agency": "Department of Public Works",
    "final_address": "3500 BLK Clematis St",
    "address_councildis": "D",
    "status": "Pending",
    "contractor": "Royal Engineering",
    "rowid": "838884",
    "final_x": "3686484.96918",
    "final_y": "545861.240414",
    "longitude": "-90.0518231576351",
    "latitude": "29.994776763214116",
    "geocoded_column": {
      "latitude": "29.994776763214116",
      "longitude": "-90.0518231576351"
    }
  },
  {
    "service_request": "2021-838883",
    "request_type": "Traffic Signals/Signs/Striping/Streetlights",
    "request_reason": "Street Light Outage/Malfunction",
    "date_created": "2021-11-01T18:43:42.000",
    "date_modified": "2021-11-01T18:43:42.000",
    "request_status": "Pending",
    "responsible_agency": "Department of Public Works",
    "final_address": "3500 BLK Clematis St",
    "address_councildis": "D",
    "status": "Pending",
    "contractor": "Royal Engineering",
    "rowid": "838883",
    "final_x": "3686484.96918",
    "final_y": "545861.240414",
    "longitude": "-90.0518231576351",
    "latitude": "29.994776763214116",
    "geocoded_column": {
      "latitude": "29.994776763214116",
      "longitude": "-90.0518231576351"
    }
  },
  {
    "service_request": "2021-838882",
    "request_type": "Traffic Signals/Signs/Striping/Streetlights",
    "request_reason": "Street Light Outage/Malfunction",
    "date_created": "2021-11-01T18:42:18.000",
    "date_modified": "2021-11-01T18:42:19.000",
    "request_status": "Pending",
    "responsible_agency": "Department of Public Works",
    "final_address": "3500 BLK Clematis St",
    "address_councildis": "D",
    "status": "Pending",
    "contractor": "Royal Engineering",
    "rowid": "838882",
    "final_x": "3686484.96918",
    "final_y": "545861.240414",
    "longitude": "-90.0518231576351",
    "latitude": "29.994776763214116",
    "geocoded_column": {
      "latitude": "29.994776763214116",
      "longitude": "-90.0518231576351"
    }
  },
  {
    "service_request": "2021-838881",
    "request_type": "Health Related Questions",
    "request_reason": "Noise Ordinance Complaint",
    "date_created": "2021-11-01T18:39:34.000",
    "date_modified": "2021-11-01T19:00:57.000",
    "request_status": "Pending",
    "responsible_agency": "Health Department",
    "final_address": "1221 Feliciana Street",
    "address_councildis": "C",
    "status": "Pending",
    "rowid": "838881",
    "final_x": "3688896.49987",
    "final_y": "536567.007623",
    "longitude": "-90.04453565899367",
    "latitude": "29.969146549706398",
    "geocoded_column": {
      "latitude": "29.969146549706398",
      "longitude": "-90.04453565899367"
    }
  },
  {
    "service_request": "2021-838880",
    "request_type": "Trash/Recycling",
    "request_reason": "Order Recycling Cart",
    "date_created": "2021-11-01T18:34:40.000",
    "date_modified": "2021-11-01T19:00:59.000",
    "request_status": "Pending",
    "responsible_agency": "Department of Sanitation",
    "final_address": "2016 S Rendon St",
    "address_councildis": "B",
    "status": "Pending",
    "rowid": "838880",
    "final_x": "3669138.66868",
    "final_y": "529772.696257",
    "longitude": "-90.1071621145367",
    "latitude": "29.951060701444312",
    "geocoded_column": {
      "latitude": "29.951060701444312",
      "longitude": "-90.1071621145367"
    }
  },
  {
    "service_request": "2021-838879",
    "request_type": "Trash/Recycling",
    "request_reason": "Illegal Dumping",
    "date_created": "2021-11-01T18:30:14.000",
    "date_modified": "2021-11-01T18:30:14.000",
    "request_status": "Pending",
    "responsible_agency": "Department of Sanitation",
    "final_address": "613 Washington Ave",
    "address_councildis": "B",
    "status": "Pending",
    "rowid": "838879",
    "final_x": "3678042.25032",
    "final_y": "519437.057463",
    "longitude": "-90.0794061801845",
    "latitude": "29.9223761111324",
    "geocoded_column": {
      "latitude": "29.9223761111324",
      "longitude": "-90.0794061801845"
    }
  },
  {
    "service_request": "2021-838878",
    "request_type": "Trash/Recycling",
    "request_reason": "Start Trash Service",
    "date_created": "2021-11-01T18:26:32.000",
    "date_modified": "2021-11-01T18:26:32.000",
    "request_status": "Pending",
    "responsible_agency": "Department of Sanitation",
    "final_address": "1522 N Robertson St",
    "address_councildis": "C",
    "status": "Assigned to Contractor",
    "contractor": "Metro Disposal",
    "rowid": "838878",
    "final_x": "3682179.87618",
    "final_y": "537087.37524",
    "longitude": "-90.06572904046273",
    "latitude": "29.970783397096294",
    "geocoded_column": {
      "latitude": "29.970783397096294",
      "longitude": "-90.06572904046273"
    }
  },
  {
    "service_request": "2021-838877",
    "request_type": "Roads/Drainage",
    "request_reason": "Street Flooding / Drainage",
    "date_created": "2021-11-01T18:19:03.000",
    "date_modified": "2021-11-01T18:19:03.000",
    "request_status": "Pending",
    "responsible_agency": "Department of Public Works",
    "final_address": "5725 Providence Pl",
    "address_councildis": "D",
    "status": "Pending",
    "rowid": "838877",
    "final_x": "3688346.30006",
    "final_y": "554423.697176",
    "longitude": "-90.04563948473002",
    "latitude": "30.018263018429856",
    "geocoded_column": {
      "latitude": "30.018263018429856",
      "longitude": "-90.04563948473002"
    }
  },
  {
    "service_request": "2021-838876",
    "request_type": "Property Maintenance",
    "request_reason": "Property Maintenance",
    "date_created": "2021-11-01T18:15:32.000",
    "date_modified": "2021-11-01T18:15:32.000",
    "request_status": "Pending",
    "responsible_agency": "Department of Code Enforcement",
    "final_address": "5725 Providence Pl",
    "address_councildis": "D",
    "status": "Pending",
    "rowid": "838876",
    "final_x": "3688346.30006",
    "final_y": "554423.697176",
    "longitude": "-90.04563948473002",
    "latitude": "30.018263018429856",
    "geocoded_column": {
      "latitude": "30.018263018429856",
      "longitude": "-90.04563948473002"
    }
  },
  {
    "service_request": "2021-838874",
    "request_type": "Trash/Recycling",
    "request_reason": "Request a Large Item Pick Up",
    "date_created": "2021-11-01T18:06:29.000",
    "date_modified": "2021-11-01T19:01:01.000",
    "request_status": "Pending",
    "responsible_agency": "Department of Sanitation",
    "final_address": "117 S Scott St, New Orleans, Louisiana, 70119",
    "address_councildis": "A",
    "status": "Assigned to Contractor",
    "contractor": "Richards Disposal",
    "rowid": "838874",
    "final_x": "3671604.96487",
    "final_y": "537663.590536",
    "longitude": "-90.09910639363603",
    "latitude": "29.972685230521463",
    "geocoded_column": {
      "latitude": "29.972685230521463",
      "longitude": "-90.09910639363603"
    }
  },
  {
    "service_request": "2021-838873",
    "request_type": "Trash/Recycling",
    "request_reason": "Repair Trash Cart",
    "date_created": "2021-11-01T17:59:14.000",
    "date_modified": "2021-11-01T18:00:59.000",
    "request_status": "Pending",
    "responsible_agency": "Department of Sanitation",
    "final_address": "39 Audubon Blvd",
    "address_councildis": "A",
    "status": "Assigned to Contractor",
    "contractor": "Richards Disposal",
    "rowid": "838873",
    "final_x": "3665588.38215",
    "final_y": "527142.032191",
    "longitude": "-90.11846025583854",
    "latitude": "29.943931212427586",
    "geocoded_column": {
      "latitude": "29.943931212427586",
      "longitude": "-90.11846025583854"
    }
  },
  {
    "service_request": "2021-838872",
    "request_type": "Safety & Permits",
    "request_reason": "Short term Rental (Enforcement)",
    "date_created": "2021-11-01T17:56:26.000",
    "date_modified": "2021-11-01T17:56:26.000",
    "request_status": "Pending",
    "responsible_agency": "Safety and Permits",
    "final_address": "2303 Leonidas St",
    "address_councildis": "A",
    "status": "Pending",
    "rowid": "838872",
    "final_x": "3663256.68813",
    "final_y": "532383.761795",
    "longitude": "-90.1256476590568",
    "latitude": "29.95841204877729",
    "geocoded_column": {
      "latitude": "29.95841204877729",
      "longitude": "-90.1256476590568"
    }
  },
  {
    "service_request": "2021-838871",
    "request_type": "Trash/Recycling",
    "request_reason": "Start Trash Service",
    "date_created": "2021-11-01T17:42:28.000",
    "date_modified": "2021-11-01T18:01:00.000",
    "request_status": "Pending",
    "responsible_agency": "Department of Sanitation",
    "final_address": "1501 Mazant St",
    "address_councildis": "D",
    "status": "Assigned to Contractor",
    "contractor": "Metro Disposal",
    "rowid": "838871",
    "final_x": "3692523.44329",
    "final_y": "536741.477383",
    "longitude": "-90.03307530545969",
    "latitude": "29.96951361065496",
    "geocoded_column": {
      "latitude": "29.96951361065496",
      "longitude": "-90.03307530545969"
    }
  },
  {
    "service_request": "2021-838870",
    "request_type": "Parks & Parkways",
    "request_reason": "Tree Stump (removal, grind)",
    "date_created": "2021-11-01T17:36:38.000",
    "date_modified": "2021-11-01T17:36:38.000",
    "request_status": "Pending",
    "responsible_agency": "Department of Parks & Parkway",
    "final_address": "6555 Memphis St",
    "address_councildis": "A",
    "status": "Pending",
    "rowid": "838870",
    "final_x": "3669624.07943",
    "final_y": "551028.283669",
    "longitude": "-90.10490990952725",
    "latitude": "30.009492065982442",
    "geocoded_column": {
      "latitude": "30.009492065982442",
      "longitude": "-90.10490990952725"
    }
  },
  {
    "service_request": "2021-838869",
    "request_type": "Trash/Recycling",
    "request_reason": "Request a Large Item Pick Up",
    "date_created": "2021-11-01T17:33:20.000",
    "date_modified": "2021-11-01T18:01:02.000",
    "request_status": "Pending",
    "responsible_agency": "Department of Sanitation",
    "final_address": "7525 Scottwood Dr",
    "address_councildis": "E",
    "status": "Assigned to Contractor",
    "contractor": "Metro Disposal",
    "rowid": "838869",
    "final_x": "3717698.97676",
    "final_y": "570303.615847",
    "longitude": "-89.95229236412173",
    "latitude": "30.060986680515455",
    "geocoded_column": {
      "latitude": "30.060986680515455",
      "longitude": "-89.95229236412173"
    }
  },
  {
    "service_request": "2021-838868",
    "request_type": "Trash/Recycling",
    "request_reason": "Request a Large Item Pick Up",
    "date_created": "2021-11-01T17:28:08.000",
    "date_modified": "2021-11-01T18:01:03.000",
    "request_status": "Pending",
    "responsible_agency": "Department of Sanitation",
    "final_address": "4627 Dhemecourt St, New Orleans, Louisiana, 70119",
    "address_councildis": "A",
    "status": "Assigned to Contractor",
    "contractor": "Richards Disposal",
    "rowid": "838868",
    "final_x": "3668060.56999",
    "final_y": "538223.606601",
    "longitude": "-90.11028140354505",
    "latitude": "29.974329587424975",
    "geocoded_column": {
      "latitude": "29.974329587424975",
      "longitude": "-90.11028140354505"
    }
  },
  {
    "service_request": "2021-838867",
    "request_type": "Trash/Recycling",
    "request_reason": "Replace Trash Cart",
    "date_created": "2021-11-01T17:24:30.000",
    "date_modified": "2021-11-01T18:01:04.000",
    "request_status": "Pending",
    "responsible_agency": "Department of Sanitation",
    "final_address": "937 Egania St",
    "address_councildis": "E",
    "status": "Assigned to Contractor",
    "contractor": "Metro Disposal",
    "rowid": "838867",
    "final_x": "3696686.75619",
    "final_y": "533466.0505",
    "longitude": "-90.02004584334199",
    "latitude": "29.960376790963522",
    "geocoded_column": {
      "latitude": "29.960376790963522",
      "longitude": "-90.02004584334199"
    }
  },
  {
    "service_request": "2021-838866",
    "request_type": "Trash/Recycling",
    "request_reason": "Request a Large Item Pick Up",
    "date_created": "2021-11-01T17:19:55.000",
    "date_modified": "2021-11-01T18:01:05.000",
    "request_status": "Pending",
    "responsible_agency": "Department of Sanitation",
    "final_address": "2323 Lapeyrouse St",
    "address_councildis": "D",
    "status": "Assigned to Contractor",
    "contractor": "Metro Disposal",
    "rowid": "838866",
    "final_x": "3680086.93058",
    "final_y": "539430.039114",
    "longitude": "-90.0722573950431",
    "latitude": "29.977288412450672",
    "geocoded_column": {
      "latitude": "29.977288412450672",
      "longitude": "-90.0722573950431"
    }
  },
  {
    "service_request": "2021-838864",
    "request_type": "Trash/Recycling",
    "request_reason": "Replace Trash Cart",
    "date_created": "2021-11-01T17:14:30.000",
    "date_modified": "2021-11-01T18:01:09.000",
    "request_status": "Pending",
    "responsible_agency": "Department of Sanitation",
    "final_address": "8932 Colapissa St",
    "address_councildis": "A",
    "status": "Assigned to Contractor",
    "contractor": "Richards Disposal",
    "rowid": "838864",
    "final_x": "3664221.28429",
    "final_y": "535457.992838",
    "longitude": "-90.12249912677251",
    "latitude": "29.966837186794134",
    "geocoded_column": {
      "latitude": "29.966837186794134",
      "longitude": "-90.12249912677251"
    }
  },
  {
    "service_request": "2021-838863",
    "request_type": "Roads/Drainage",
    "request_reason": "Pothole",
    "date_created": "2021-11-01T17:12:00.000",
    "date_modified": "2021-11-01T18:01:11.000",
    "request_status": "Pending",
    "responsible_agency": "Department of Public Works",
    "final_address": "I 10 W ONRAMP & S CLAIBORNE AV OVERPASS & POYDRAS EXIT",
    "address_councildis": "B",
    "status": "Pending",
    "rowid": "838863",
    "final_x": "3676338.4",
    "final_y": "530009.38",
    "longitude": "-90.08442080059783",
    "latitude": "29.95149769161262",
    "geocoded_column": {
      "latitude": "29.95149769161262",
      "longitude": "-90.08442080059783"
    }
  },
  {
    "service_request": "2021-838862",
    "request_type": "Trash/Recycling",
    "request_reason": "Replace Trash Cart",
    "date_created": "2021-11-01T17:07:23.000",
    "date_modified": "2021-11-01T18:01:12.000",
    "request_status": "Pending",
    "responsible_agency": "Department of Sanitation",
    "final_address": "2603 Danneel St, New Orleans, Louisiana, 70113",
    "address_councildis": "B",
    "status": "Assigned to Contractor",
    "contractor": "Richards Disposal",
    "rowid": "838862",
    "final_x": "3675586.96001",
    "final_y": "524073.64966",
    "longitude": "-90.08699734435952",
    "latitude": "29.935198888856274",
    "geocoded_column": {
      "latitude": "29.935198888856274",
      "longitude": "-90.08699734435952"
    }
  },
  {
    "service_request": "2021-838861",
    "request_type": "Traffic Signals/Signs/Striping/Streetlights",
    "request_reason": "Traffic Signal Malfunctioning/Damaged",
    "date_created": "2021-11-01T17:04:38.000",
    "date_modified": "2021-11-01T17:04:38.000",
    "request_status": "Pending",
    "responsible_agency": "Department of Public Works",
    "final_address": "GENERAL DE GAULLE DR & HOLIDAY DR",
    "address_councildis": "C",
    "status": "Pending",
    "rowid": "838861",
    "final_x": "3698595.0",
    "final_y": "519112.58",
    "longitude": "-90.01454170298932",
    "latitude": "29.920849468009546",
    "geocoded_column": {
      "latitude": "29.920849468009546",
      "longitude": "-90.01454170298932"
    }
  },
  {
    "service_request": "2021-838859",
    "request_type": "Trash/Recycling",
    "request_reason": "Repair Recycling Cart",
    "date_created": "2021-11-01T16:53:53.000",
    "date_modified": "2021-11-01T16:53:53.000",
    "request_status": "Pending",
    "responsible_agency": "Department of Sanitation",
    "final_address": "4750 Marigny St",
    "address_councildis": "D",
    "status": "Pending",
    "rowid": "838859",
    "final_x": "3684315.35996",
    "final_y": "550493.734612",
    "longitude": "-90.05851388228268",
    "latitude": "30.007580996843775",
    "geocoded_column": {
      "latitude": "30.007580996843775",
      "longitude": "-90.05851388228268"
    }
  },
  {
    "service_request": "2021-838857",
    "request_type": "Trash/Recycling",
    "request_reason": "Request a Large Item Pick Up",
    "date_created": "2021-11-01T16:52:16.000",
    "date_modified": "2021-11-01T17:01:06.000",
    "request_status": "Pending",
    "responsible_agency": "Department of Sanitation",
    "final_address": "New Orleans,LA",
    "address_councildis": "A",
    "status": "Assigned to Contractor",
    "contractor": "Richards Disposal",
    "rowid": "838857",
    "final_x": "3666499.99905",
    "final_y": "530081.753153",
    "longitude": "-90.11548337255182",
    "latitude": "29.951987884792466",
    "geocoded_column": {
      "latitude": "29.951987884792466",
      "longitude": "-90.11548337255182"
    }
  },
  {
    "service_request": "2021-838856",
    "request_type": "Trash/Recycling",
    "request_reason": "Order Trash Cart",
    "date_created": "2021-11-01T16:51:56.000",
    "date_modified": "2021-11-01T17:01:08.000",
    "request_status": "Pending",
    "responsible_agency": "Department of Sanitation",
    "final_address": "54 Grand Canyon Dr",
    "address_councildis": "C",
    "status": "Assigned to Contractor",
    "contractor": "Richards Disposal",
    "rowid": "838856",
    "final_x": "3699272.22186",
    "final_y": "516340.871029",
    "longitude": "-90.01250488678245",
    "latitude": "29.91320676172224",
    "geocoded_column": {
      "latitude": "29.91320676172224",
      "longitude": "-90.01250488678245"
    }
  },
  {
    "service_request": "2021-838855",
    "request_type": "Trash/Recycling",
    "request_reason": "Start Trash Service",
    "date_created": "2021-11-01T16:51:13.000",
    "date_modified": "2021-11-01T17:01:10.000",
    "request_status": "Pending",
    "responsible_agency": "Department of Sanitation",
    "final_address": "54 Grand Canyon Dr",
    "address_councildis": "C",
    "status": "Assigned to Contractor",
    "contractor": "Richards Disposal",
    "rowid": "838855",
    "final_x": "3699272.22186",
    "final_y": "516340.871029",
    "longitude": "-90.01250488678245",
    "latitude": "29.91320676172224",
    "geocoded_column": {
      "latitude": "29.91320676172224",
      "longitude": "-90.01250488678245"
    }
  },
  {
    "service_request": "2021-838854",
    "request_type": "Trash/Recycling",
    "request_reason": "Order Recycling Cart",
    "date_created": "2021-11-01T16:50:00.000",
    "date_modified": "2021-11-01T17:01:12.000",
    "request_status": "Pending",
    "responsible_agency": "Department of Sanitation",
    "final_address": "54 Grand Canyon Dr",
    "address_councildis": "C",
    "status": "Pending",
    "rowid": "838854",
    "final_x": "3699272.22186",
    "final_y": "516340.871029",
    "longitude": "-90.01250488678245",
    "latitude": "29.91320676172224",
    "geocoded_column": {
      "latitude": "29.91320676172224",
      "longitude": "-90.01250488678245"
    }
  },
  {
    "service_request": "2021-838853",
    "request_type": "Trash/Recycling",
    "request_reason": "Missed Trash Pick-Up",
    "date_created": "2021-11-01T16:44:25.000",
    "date_modified": "2021-11-01T16:44:26.000",
    "request_status": "Pending",
    "responsible_agency": "Department of Sanitation",
    "final_address": "2400 BLK Coliseum St",
    "address_councildis": "B",
    "status": "Assigned to Contractor",
    "contractor": "Richards Disposal",
    "rowid": "838853",
    "final_x": "3677379.39324",
    "final_y": "522283.088424",
    "longitude": "-90.08140039527781",
    "latitude": "29.930221700872377",
    "geocoded_column": {
      "latitude": "29.930221700872377",
      "longitude": "-90.08140039527781"
    }
  },
  {
    "service_request": "2021-838852",
    "request_type": "Abandoned Vehicles",
    "request_reason": "Abandoned/Junk Vehicles",
    "date_created": "2021-11-01T16:42:15.000",
    "date_modified": "2021-11-01T16:42:15.000",
    "request_status": "Pending",
    "responsible_agency": "Department of Public Works",
    "final_address": "7626 Willow St",
    "address_councildis": "A",
    "status": "Pending",
    "rowid": "838852",
    "final_x": "3663560.35226",
    "final_y": "527821.625663",
    "longitude": "-90.12484070177621",
    "latitude": "29.94585884465734",
    "geocoded_column": {
      "latitude": "29.94585884465734",
      "longitude": "-90.12484070177621"
    }
  },
  {
    "service_request": "2021-838851",
    "request_type": "Trash/Recycling",
    "request_reason": "Repair Trash Cart",
    "date_created": "2021-11-01T16:39:48.000",
    "date_modified": "2021-11-01T17:01:14.000",
    "case_close_date": "2021-10-31T19:00:00.000",
    "request_status": "Pending",
    "responsible_agency": "Department of Sanitation",
    "final_address": "New Orleans,LA",
    "address_councildis": "C",
    "status": "Assigned to Contractor",
    "contractor": "Richards Disposal",
    "rowid": "838851",
    "final_x": "3699980.05386",
    "final_y": "521958.512762",
    "longitude": "-90.010066004666",
    "latitude": "29.928630900076605",
    "geocoded_column": {
      "latitude": "29.928630900076605",
      "longitude": "-90.010066004666"
    }
  },
  {
    "service_request": "2021-838849",
    "request_type": "Roads/Drainage",
    "request_reason": "Road Shoulder Repair",
    "date_created": "2021-11-01T16:37:56.000",
    "date_modified": "2021-11-01T16:37:56.000",
    "request_status": "Pending",
    "responsible_agency": "Department of Public Works",
    "final_address": "POYDRAS ST & CARONDELET ST",
    "address_councildis": "B",
    "status": "Pending",
    "rowid": "838849",
    "final_x": "3680324.0",
    "final_y": "529424.68",
    "longitude": "-90.07185654451405",
    "latitude": "29.949769912728506",
    "geocoded_column": {
      "latitude": "29.949769912728506",
      "longitude": "-90.07185654451405"
    }
  },
  {
    "service_request": "2021-838847",
    "request_type": "Roads/Drainage",
    "request_reason": "Road Shoulder Repair",
    "date_created": "2021-11-01T16:37:31.000",
    "date_modified": "2021-11-01T16:37:31.000",
    "request_status": "Pending",
    "responsible_agency": "Department of Public Works",
    "final_address": "BARONNE ST & POYDRAS ST",
    "address_councildis": "B",
    "status": "Pending",
    "rowid": "838847",
    "final_x": "3679940.5",
    "final_y": "529582.38",
    "longitude": "-90.07306195309357",
    "latitude": "29.950215138363777",
    "geocoded_column": {
      "latitude": "29.950215138363777",
      "longitude": "-90.07306195309357"
    }
  },
  {
    "service_request": "2021-838846",
    "request_type": "Trash/Recycling",
    "request_reason": "Request a Large Item Pick Up",
    "date_created": "2021-11-01T16:30:44.000",
    "date_modified": "2021-11-01T16:30:45.000",
    "request_status": "Pending",
    "responsible_agency": "Department of Sanitation",
    "final_address": "4810 Dauphine St",
    "address_councildis": "E",
    "status": "Assigned to Contractor",
    "contractor": "Metro Disposal",
    "rowid": "838846",
    "final_x": "3694811.78538",
    "final_y": "533313.754628",
    "longitude": "-90.02597207417128",
    "latitude": "29.960016987023565",
    "geocoded_column": {
      "latitude": "29.960016987023565",
      "longitude": "-90.02597207417128"
    }
  },
  {
    "service_request": "2021-838845",
    "request_type": "Trash/Recycling",
    "request_reason": "Start Trash Service",
    "date_created": "2021-11-01T16:29:07.000",
    "date_modified": "2021-11-01T17:01:15.000",
    "request_status": "Pending",
    "responsible_agency": "Department of Sanitation",
    "final_address": "2031 Jackson Ave",
    "address_councildis": "B",
    "status": "Assigned to Contractor",
    "contractor": "Richards Disposal",
    "rowid": "838845",
    "final_x": "3676521.10881",
    "final_y": "525199.059517",
    "longitude": "-90.084009498368",
    "latitude": "29.938265425087906",
    "geocoded_column": {
      "latitude": "29.938265425087906",
      "longitude": "-90.084009498368"
    }
  },
  {
    "service_request": "2021-838844",
    "request_type": "Trash/Recycling",
    "request_reason": "Start Trash Service",
    "date_created": "2021-11-01T16:28:54.000",
    "date_modified": "2021-11-01T17:01:17.000",
    "request_status": "Pending",
    "responsible_agency": "Department of Sanitation",
    "final_address": "2033 Jackson Ave",
    "address_councildis": "B",
    "status": "Assigned to Contractor",
    "contractor": "Richards Disposal",
    "rowid": "838844",
    "final_x": "3676513.69902",
    "final_y": "525209.643901",
    "longitude": "-90.0840325274655",
    "latitude": "29.938294750810673",
    "geocoded_column": {
      "latitude": "29.938294750810673",
      "longitude": "-90.0840325274655"
    }
  },
  {
    "service_request": "2021-838843",
    "request_type": "Traffic Signals/Signs/Striping/Streetlights",
    "request_reason": "Traffic Signal Malfunctioning/Damaged",
    "date_created": "2021-11-01T16:28:35.000",
    "date_modified": "2021-11-01T16:28:36.000",
    "request_status": "Pending",
    "responsible_agency": "Department of Public Works",
    "final_address": "POYDRAS ST & LOYOLA AVE",
    "address_councildis": "B",
    "status": "Pending",
    "rowid": "838843",
    "final_x": "3679043.7",
    "final_y": "529761.78",
    "longitude": "-90.07588735863006",
    "latitude": "29.950735519370852",
    "geocoded_column": {
      "latitude": "29.950735519370852",
      "longitude": "-90.07588735863006"
    }
  },
  {
    "service_request": "2021-838842",
    "request_type": "Trash/Recycling",
    "request_reason": "Order Trash Cart",
    "date_created": "2021-11-01T16:28:17.000",
    "date_modified": "2021-11-01T17:01:18.000",
    "request_status": "Pending",
    "responsible_agency": "Department of Sanitation",
    "final_address": "2033 Jackson Ave",
    "address_councildis": "B",
    "status": "Assigned to Contractor",
    "contractor": "Richards Disposal",
    "rowid": "838842",
    "final_x": "3676513.69902",
    "final_y": "525209.643901",
    "longitude": "-90.0840325274655",
    "latitude": "29.938294750810673",
    "geocoded_column": {
      "latitude": "29.938294750810673",
      "longitude": "-90.0840325274655"
    }
  },
  {
    "service_request": "2021-838841",
    "request_type": "Trash/Recycling",
    "request_reason": "Order Trash Cart",
    "date_created": "2021-11-01T16:27:57.000",
    "date_modified": "2021-11-01T17:01:19.000",
    "request_status": "Pending",
    "responsible_agency": "Department of Sanitation",
    "final_address": "2031 Jackson Ave",
    "address_councildis": "B",
    "status": "Assigned to Contractor",
    "contractor": "Richards Disposal",
    "rowid": "838841",
    "final_x": "3676521.10881",
    "final_y": "525199.059517",
    "longitude": "-90.084009498368",
    "latitude": "29.938265425087906",
    "geocoded_column": {
      "latitude": "29.938265425087906",
      "longitude": "-90.084009498368"
    }
  },
  {
    "service_request": "2021-838839",
    "request_type": "Trash/Recycling",
    "request_reason": "Request a Large Item Pick Up",
    "date_created": "2021-11-01T16:19:22.000",
    "date_modified": "2021-11-01T17:01:22.000",
    "request_status": "Pending",
    "responsible_agency": "Department of Sanitation",
    "final_address": "3361 State Street Dr",
    "address_councildis": "A",
    "status": "Assigned to Contractor",
    "contractor": "Richards Disposal",
    "rowid": "838839",
    "final_x": "3667829.02599",
    "final_y": "528715.129728",
    "longitude": "-90.11133293701378",
    "latitude": "29.948191208272558",
    "geocoded_column": {
      "latitude": "29.948191208272558",
      "longitude": "-90.11133293701378"
    }
  },
  {
    "service_request": "2021-838838",
    "request_type": "Traffic Signals/Signs/Striping/Streetlights",
    "request_reason": "Street Light Outage/Malfunction",
    "date_created": "2021-11-01T16:19:22.000",
    "date_modified": "2021-11-01T16:19:23.000",
    "request_status": "Pending",
    "responsible_agency": "Department of Public Works",
    "final_address": "1224 Pace Blvd",
    "address_councildis": "C",
    "status": "Pending",
    "contractor": "Royal Engineering",
    "rowid": "838838",
    "final_x": "3694517.61277",
    "final_y": "526695.26803",
    "longitude": "-90.02713924809281",
    "latitude": "29.941827680558",
    "geocoded_column": {
      "latitude": "29.941827680558",
      "longitude": "-90.02713924809281"
    }
  },
  {
    "service_request": "2021-838837",
    "request_type": "Roads/Drainage",
    "request_reason": "Street Subsidence (Sinking)",
    "date_created": "2021-11-01T16:17:45.000",
    "date_modified": "2021-11-01T17:01:24.000",
    "request_status": "Pending",
    "responsible_agency": "Department of Public Works",
    "final_address": "New Orleans,LA",
    "address_councildis": "A",
    "rowid": "838837",
    "final_x": "3669494.0539",
    "final_y": "552065.769238",
    "longitude": "-90.10528557734973",
    "latitude": "30.01234861867595",
    "geocoded_column": {
      "latitude": "30.01234861867595",
      "longitude": "-90.10528557734973"
    }
  },
  {
    "service_request": "2021-838836",
    "request_type": "Trash/Recycling",
    "request_reason": "Illegal Dumping",
    "date_created": "2021-11-01T16:17:14.000",
    "date_modified": "2021-11-01T17:01:25.000",
    "request_status": "Pending",
    "responsible_agency": "Department of Sanitation",
    "final_address": "613 Washington Ave",
    "address_councildis": "B",
    "status": "Pending",
    "rowid": "838836",
    "final_x": "3678042.25032",
    "final_y": "519437.057463",
    "longitude": "-90.0794061801845",
    "latitude": "29.9223761111324",
    "geocoded_column": {
      "latitude": "29.9223761111324",
      "longitude": "-90.0794061801845"
    }
  },
  {
    "service_request": "2021-838835",
    "request_type": "Traffic Signals/Signs/Striping/Streetlights",
    "request_reason": "Traffic Sign Missing/Damaged",
    "date_created": "2021-11-01T16:15:01.000",
    "date_modified": "2021-11-01T17:01:27.000",
    "request_status": "Pending",
    "responsible_agency": "Department of Public Works",
    "final_address": "New Orleans,LA",
    "address_councildis": "B",
    "rowid": "838835",
    "final_x": "3667059.4",
    "final_y": "517891.08",
    "longitude": "-90.11412661198831",
    "latitude": "29.918451070309054",
    "geocoded_column": {
      "latitude": "29.918451070309054",
      "longitude": "-90.11412661198831"
    }
  },
  {
    "service_request": "2021-838834",
    "request_type": "Trash/Recycling",
    "request_reason": "Request a Large Item Pick Up",
    "date_created": "2021-11-01T16:14:08.000",
    "date_modified": "2021-11-01T17:01:28.000",
    "request_status": "Pending",
    "responsible_agency": "Department of Sanitation",
    "final_address": "3516 Napoleon Ave",
    "address_councildis": "B",
    "status": "Assigned to Contractor",
    "contractor": "Richards Disposal",
    "rowid": "838834",
    "final_x": "3670017.62484",
    "final_y": "527699.786175",
    "longitude": "-90.10445699851118",
    "latitude": "29.945334984221443",
    "geocoded_column": {
      "latitude": "29.945334984221443",
      "longitude": "-90.10445699851118"
    }
  },
  {
    "service_request": "2021-838833",
    "request_type": "Traffic Signals/Signs/Striping/Streetlights",
    "request_reason": "Traffic Sign Missing/Damaged",
    "date_created": "2021-11-01T16:13:52.000",
    "date_modified": "2021-11-01T17:01:29.000",
    "request_status": "Pending",
    "responsible_agency": "Department of Public Works",
    "final_address": "5340 Laurel St, New Orleans, Louisiana, 70115",
    "address_councildis": "B",
    "rowid": "838833",
    "final_x": "3667059.4",
    "final_y": "517891.08",
    "longitude": "-90.11412661198831",
    "latitude": "29.918451070309054",
    "geocoded_column": {
      "latitude": "29.918451070309054",
      "longitude": "-90.11412661198831"
    }
  },
  {
    "service_request": "2021-838832",
    "request_type": "Traffic Signals/Signs/Striping/Streetlights",
    "request_reason": "Street Light Outage/Malfunction",
    "date_created": "2021-11-01T16:12:00.000",
    "date_modified": "2021-11-01T16:13:46.000",
    "request_status": "Pending",
    "responsible_agency": "Department of Public Works",
    "final_address": "VAN AVE & CHURCHILL DR",
    "address_councildis": "D",
    "status": "Pending",
    "contractor": "Royal Engineering",
    "rowid": "838832",
    "final_x": "3680017.3",
    "final_y": "547983.08",
    "longitude": "-90.07217999296168",
    "latitude": "30.00080837807156",
    "geocoded_column": {
      "latitude": "30.00080837807156",
      "longitude": "-90.07217999296168"
    }
  },
  {
    "service_request": "2021-838831",
    "request_type": "Roads/Drainage",
    "request_reason": "Unpermitted work in ROW",
    "date_created": "2021-11-01T16:10:21.000",
    "date_modified": "2021-11-01T16:10:21.000",
    "request_status": "Pending",
    "responsible_agency": "Department of Public Works",
    "final_address": "1800 Newton St",
    "address_councildis": "C",
    "status": "Pending",
    "rowid": "838831",
    "final_x": "3690861.52259",
    "final_y": "527872.380159",
    "longitude": "-90.03864025040143",
    "latitude": "29.945178428210493",
    "geocoded_column": {
      "latitude": "29.945178428210493",
      "longitude": "-90.03864025040143"
    }
  },
  {
    "service_request": "2021-838830",
    "request_type": "Property Maintenance",
    "request_reason": "Property Maintenance",
    "date_created": "2021-11-01T16:10:17.000",
    "date_modified": "2021-11-01T16:10:17.000",
    "request_status": "Pending",
    "responsible_agency": "Department of Code Enforcement",
    "final_address": "3322 Short St",
    "address_councildis": "B",
    "status": "Pending",
    "rowid": "838830",
    "final_x": "3667443.11393",
    "final_y": "533776.781893",
    "longitude": "-90.11238112988023",
    "latitude": "29.962120405477766",
    "geocoded_column": {
      "latitude": "29.962120405477766",
      "longitude": "-90.11238112988023"
    }
  },
  {
    "service_request": "2021-838829",
    "request_type": "Trash/Recycling",
    "request_reason": "Replace Trash Cart",
    "date_created": "2021-11-01T16:09:22.000",
    "date_modified": "2021-11-01T17:01:30.000",
    "request_status": "Pending",
    "responsible_agency": "Department of Sanitation",
    "final_address": "343 Elmira Ave",
    "address_councildis": "C",
    "status": "Assigned to Contractor",
    "contractor": "Richards Disposal",
    "rowid": "838829",
    "final_x": "3688187.8399",
    "final_y": "530397.234434",
    "longitude": "-90.04699238927374",
    "latitude": "29.95220371046316",
    "geocoded_column": {
      "latitude": "29.95220371046316",
      "longitude": "-90.04699238927374"
    }
  },
  {
    "service_request": "2021-838828",
    "request_type": "Abandoned Vehicles",
    "request_reason": "Abandoned/Junk Vehicles",
    "date_created": "2021-11-01T16:08:35.000",
    "date_modified": "2021-11-01T16:08:35.000",
    "request_status": "Pending",
    "responsible_agency": "Department of Public Works",
    "final_address": "424 S Olympia St",
    "address_councildis": "A",
    "status": "Pending",
    "rowid": "838828",
    "final_x": "3668553.03418",
    "final_y": "538435.675977",
    "longitude": "-90.10871892238673",
    "latitude": "29.97489824424802",
    "geocoded_column": {
      "latitude": "29.97489824424802",
      "longitude": "-90.10871892238673"
    }
  },
  {
    "service_request": "2021-838826",
    "request_type": "Roads/Drainage",
    "request_reason": "Catch Basin - Broken/Damage",
    "date_created": "2021-11-01T16:06:34.000",
    "date_modified": "2021-11-01T16:06:34.000",
    "request_status": "Pending",
    "responsible_agency": "Department of Public Works",
    "final_address": "6038 Constance St",
    "address_councildis": "A",
    "status": "Pending",
    "rowid": "838826",
    "final_x": "3664272.35994",
    "final_y": "518904.907127",
    "longitude": "-90.12289004886946",
    "latitude": "29.92132002600143",
    "geocoded_column": {
      "latitude": "29.92132002600143",
      "longitude": "-90.12289004886946"
    }
  },
  {
    "service_request": "2021-838825",
    "request_type": "Abandoned Vehicles",
    "request_reason": "Abandoned/Junk Vehicles",
    "date_created": "2021-11-01T16:04:56.000",
    "date_modified": "2021-11-01T16:04:56.000",
    "request_status": "Pending",
    "responsible_agency": "Department of Public Works",
    "final_address": "424 S Olympia St",
    "address_councildis": "A",
    "status": "Pending",
    "rowid": "838825",
    "final_x": "3668553.03418",
    "final_y": "538435.675977",
    "longitude": "-90.10871892238673",
    "latitude": "29.97489824424802",
    "geocoded_column": {
      "latitude": "29.97489824424802",
      "longitude": "-90.10871892238673"
    }
  },
  {
    "service_request": "2021-838823",
    "request_type": "Traffic Signals/Signs/Striping/Streetlights",
    "request_reason": "Street Light Outage/Malfunction",
    "date_created": "2021-11-01T16:00:51.000",
    "date_modified": "2021-11-01T16:01:01.000",
    "request_status": "Pending",
    "responsible_agency": "Department of Public Works",
    "final_address": "600 BLK S dOrgenois St",
    "address_councildis": "B",
    "status": "Pending",
    "contractor": "Royal Engineering",
    "rowid": "838823",
    "final_x": "3674391.96909",
    "final_y": "532865.677823",
    "longitude": "-90.09046886643303",
    "latitude": "29.95940975008733",
    "geocoded_column": {
      "latitude": "29.95940975008733",
      "longitude": "-90.09046886643303"
    }
  },
  {
    "service_request": "2021-838822",
    "request_type": "Traffic Signals/Signs/Striping/Streetlights",
    "request_reason": "Street Light Outage/Malfunction",
    "date_created": "2021-11-01T16:00:15.000",
    "date_modified": "2021-11-01T16:01:02.000",
    "request_status": "Pending",
    "responsible_agency": "Department of Public Works",
    "final_address": "600 BLK S dOrgenois St",
    "address_councildis": "B",
    "status": "Pending",
    "contractor": "Royal Engineering",
    "rowid": "838822",
    "final_x": "3674391.96909",
    "final_y": "532865.677823",
    "longitude": "-90.09046886643303",
    "latitude": "29.95940975008733",
    "geocoded_column": {
      "latitude": "29.95940975008733",
      "longitude": "-90.09046886643303"
    }
  },
  {
    "service_request": "2021-838821",
    "request_type": "Traffic Signals/Signs/Striping/Streetlights",
    "request_reason": "Street Light Outage/Malfunction",
    "date_created": "2021-11-01T15:59:46.000",
    "date_modified": "2021-11-01T16:01:05.000",
    "request_status": "Pending",
    "responsible_agency": "Department of Public Works",
    "final_address": "600 BLK S dOrgenois St",
    "address_councildis": "B",
    "status": "Pending",
    "contractor": "Royal Engineering",
    "rowid": "838821",
    "final_x": "3674391.96909",
    "final_y": "532865.677823",
    "longitude": "-90.09046886643303",
    "latitude": "29.95940975008733",
    "geocoded_column": {
      "latitude": "29.95940975008733",
      "longitude": "-90.09046886643303"
    }
  },
  {
    "service_request": "2021-838820",
    "request_type": "Abandoned Vehicles",
    "request_reason": "Abandoned/Junk Vehicles",
    "date_created": "2021-11-01T15:59:27.000",
    "date_modified": "2021-11-01T15:59:27.000",
    "request_status": "Pending",
    "responsible_agency": "Department of Public Works",
    "final_address": "424 S Olympia St",
    "address_councildis": "A",
    "status": "Pending",
    "rowid": "838820",
    "final_x": "3668553.03418",
    "final_y": "538435.675977",
    "longitude": "-90.10871892238673",
    "latitude": "29.97489824424802",
    "geocoded_column": {
      "latitude": "29.97489824424802",
      "longitude": "-90.10871892238673"
    }
  },
  {
    "service_request": "2021-838819",
    "request_type": "Traffic Signals/Signs/Striping/Streetlights",
    "request_reason": "Street Light Outage/Malfunction",
    "date_created": "2021-11-01T15:59:05.000",
    "date_modified": "2021-11-01T16:01:07.000",
    "request_status": "Pending",
    "responsible_agency": "Department of Public Works",
    "final_address": "500 BLK S dOrgenois St",
    "address_councildis": "B",
    "status": "Pending",
    "contractor": "Royal Engineering",
    "rowid": "838819",
    "final_x": "3674686.33169",
    "final_y": "533261.467385",
    "longitude": "-90.08952577095398",
    "latitude": "29.960489256118688",
    "geocoded_column": {
      "latitude": "29.960489256118688",
      "longitude": "-90.08952577095398"
    }
  },
  {
    "service_request": "2021-838818",
    "request_type": "Traffic Signals/Signs/Striping/Streetlights",
    "request_reason": "Street Light Outage/Malfunction",
    "date_created": "2021-11-01T15:58:26.000",
    "date_modified": "2021-11-01T16:01:10.000",
    "request_status": "Pending",
    "responsible_agency": "Department of Public Works",
    "final_address": "500 BLK S dOrgenois St",
    "address_councildis": "B",
    "status": "Pending",
    "contractor": "Royal Engineering",
    "rowid": "838818",
    "final_x": "3674686.33169",
    "final_y": "533261.467385",
    "longitude": "-90.08952577095398",
    "latitude": "29.960489256118688",
    "geocoded_column": {
      "latitude": "29.960489256118688",
      "longitude": "-90.08952577095398"
    }
  },
  {
    "service_request": "2021-838817",
    "request_type": "Traffic Signals/Signs/Striping/Streetlights",
    "request_reason": "Street Light Outage/Malfunction",
    "date_created": "2021-11-01T15:58:01.000",
    "date_modified": "2021-11-01T16:01:12.000",
    "request_status": "Pending",
    "responsible_agency": "Department of Public Works",
    "final_address": "500 BLK S dOrgenois St",
    "address_councildis": "B",
    "status": "Pending",
    "contractor": "Royal Engineering",
    "rowid": "838817",
    "final_x": "3674686.33169",
    "final_y": "533261.467385",
    "longitude": "-90.08952577095398",
    "latitude": "29.960489256118688",
    "geocoded_column": {
      "latitude": "29.960489256118688",
      "longitude": "-90.08952577095398"
    }
  },
  {
    "service_request": "2021-838816",
    "request_type": "Traffic Signals/Signs/Striping/Streetlights",
    "request_reason": "Street Light Outage/Malfunction",
    "date_created": "2021-11-01T15:57:30.000",
    "date_modified": "2021-11-01T16:01:14.000",
    "request_status": "Pending",
    "responsible_agency": "Department of Public Works",
    "final_address": "500 BLK S dOrgenois St",
    "address_councildis": "B",
    "status": "Pending",
    "contractor": "Royal Engineering",
    "rowid": "838816",
    "final_x": "3674686.33169",
    "final_y": "533261.467385",
    "longitude": "-90.08952577095398",
    "latitude": "29.960489256118688",
    "geocoded_column": {
      "latitude": "29.960489256118688",
      "longitude": "-90.08952577095398"
    }
  },
  {
    "service_request": "2021-838815",
    "request_type": "Trash/Recycling",
    "request_reason": "Replace Trash Cart",
    "date_created": "2021-11-01T15:56:59.000",
    "date_modified": "2021-11-01T15:57:01.000",
    "request_status": "Pending",
    "responsible_agency": "Department of Sanitation",
    "final_address": "2406 Burdette St",
    "address_councildis": "A",
    "status": "Assigned to Contractor",
    "contractor": "Richards Disposal",
    "rowid": "838815",
    "final_x": "3665758.79066",
    "final_y": "530933.86765",
    "longitude": "-90.11779522644267",
    "latitude": "29.95435256324789",
    "geocoded_column": {
      "latitude": "29.95435256324789",
      "longitude": "-90.11779522644267"
    }
  },
  {
    "service_request": "2021-838812",
    "request_type": "Trash/Recycling",
    "request_reason": "Illegal Dumping",
    "date_created": "2021-11-01T15:52:13.000",
    "date_modified": "2021-11-01T15:52:13.000",
    "request_status": "Pending",
    "responsible_agency": "Department of Sanitation",
    "final_address": "416 Ptolemy St",
    "address_councildis": "C",
    "status": "Pending",
    "rowid": "838812",
    "final_x": "3686863.38716",
    "final_y": "526079.92435",
    "longitude": "-90.05132690657088",
    "latitude": "29.94037339313308",
    "geocoded_column": {
      "latitude": "29.94037339313308",
      "longitude": "-90.05132690657088"
    }
  },
  {
    "service_request": "2021-838808",
    "request_type": "Trash/Recycling",
    "request_reason": "Request a Large Item Pick Up",
    "date_created": "2021-11-01T15:40:25.000",
    "date_modified": "2021-11-01T16:01:21.000",
    "request_status": "Pending",
    "responsible_agency": "Department of Sanitation",
    "final_address": "520 Upperline St",
    "address_councildis": "B",
    "status": "Assigned to Contractor",
    "contractor": "Richards Disposal",
    "rowid": "838808",
    "final_x": "3668924.58324",
    "final_y": "517414.422773",
    "longitude": "-90.10825528830065",
    "latitude": "29.917085710906232",
    "geocoded_column": {
      "latitude": "29.917085710906232",
      "longitude": "-90.10825528830065"
    }
  },
  {
    "service_request": "2021-838805",
    "request_type": "Safety & Permits",
    "request_reason": "Construction permit",
    "date_created": "2021-11-01T15:27:57.000",
    "date_modified": "2021-11-01T16:01:27.000",
    "request_status": "Pending",
    "responsible_agency": "Department of Code Enforcement",
    "final_address": "4030 Palmyra St",
    "address_councildis": "A",
    "status": "Pending",
    "rowid": "838805",
    "final_x": "3670758.12903",
    "final_y": "537513.651464",
    "longitude": "-90.10178595326433",
    "latitude": "29.972298002636027",
    "geocoded_column": {
      "latitude": "29.972298002636027",
      "longitude": "-90.10178595326433"
    }
  },
  {
    "service_request": "2021-838804",
    "request_type": "Trash/Recycling",
    "request_reason": "Order Trash Cart",
    "date_created": "2021-11-01T15:25:21.000",
    "date_modified": "2021-11-01T16:01:29.000",
    "request_status": "Pending",
    "responsible_agency": "Department of Sanitation",
    "final_address": "1308 Bartholomew St, New Orleans, Louisiana, 70117",
    "address_councildis": "D",
    "status": "Assigned to Contractor",
    "contractor": "Metro Disposal",
    "rowid": "838804",
    "final_x": "3691974.96329",
    "final_y": "536135.838791",
    "longitude": "-90.03482911913808",
    "latitude": "29.96786542068764",
    "geocoded_column": {
      "latitude": "29.96786542068764",
      "longitude": "-90.03482911913808"
    }
  },
  {
    "service_request": "2021-838803",
    "request_type": "Trash/Recycling",
    "request_reason": "Repair Recycling Cart",
    "date_created": "2021-11-01T15:25:01.000",
    "date_modified": "2021-11-01T16:01:32.000",
    "request_status": "Pending",
    "responsible_agency": "Department of Sanitation",
    "final_address": "5191 De Montluzin St",
    "address_councildis": "D",
    "status": "Pending",
    "rowid": "838803",
    "final_x": "3687088.87862",
    "final_y": "552012.973078",
    "longitude": "-90.04969778792577",
    "latitude": "30.011673209346938",
    "geocoded_column": {
      "latitude": "30.011673209346938",
      "longitude": "-90.04969778792577"
    }
  },
  {
    "service_request": "2021-838802",
    "request_type": "Traffic Signals/Signs/Striping/Streetlights",
    "request_reason": "Street Light Outage/Malfunction",
    "date_created": "2021-11-01T15:23:32.000",
    "date_modified": "2021-11-01T16:27:55.000",
    "request_status": "Pending",
    "responsible_agency": "Department of Public Works",
    "final_address": "26 Swan St, New Orleans, Louisiana, 70124",
    "address_councildis": "D",
    "status": "Pending",
    "contractor": "Royal Engineering",
    "rowid": "838802",
    "final_x": "3673619.29499",
    "final_y": "557830.256603",
    "longitude": "-90.09205480965696",
    "latitude": "30.02807667660585",
    "geocoded_column": {
      "latitude": "30.02807667660585",
      "longitude": "-90.09205480965696"
    }
  },
  {
    "service_request": "2021-838801",
    "request_type": "Roads/Drainage",
    "request_reason": "Pothole",
    "date_created": "2021-11-01T15:22:51.000",
    "date_modified": "2021-11-01T16:01:35.000",
    "request_status": "Pending",
    "responsible_agency": "Department of Public Works",
    "final_address": "2611 Washington Ave",
    "address_councildis": "B",
    "status": "Pending",
    "contractor": "Richards Disposal",
    "rowid": "838801",
    "final_x": "3673899.23988",
    "final_y": "525665.282749",
    "longitude": "-90.09227105804597",
    "latitude": "29.939625729931052",
    "geocoded_column": {
      "latitude": "29.939625729931052",
      "longitude": "-90.09227105804597"
    }
  },
  {
    "service_request": "2021-838800",
    "request_type": "Traffic Signals/Signs/Striping/Streetlights",
    "request_reason": "Street Light Outage/Malfunction",
    "date_created": "2021-11-01T15:22:19.000",
    "date_modified": "2021-11-01T16:01:37.000",
    "request_status": "Pending",
    "responsible_agency": "Department of Public Works",
    "final_address": "6404 Argonne Blvd",
    "address_councildis": "A",
    "status": "Pending",
    "contractor": "Royal Engineering",
    "rowid": "838800",
    "final_x": "3670335.97761",
    "final_y": "550018.866772",
    "longitude": "-90.10269501963013",
    "latitude": "30.006695519342685",
    "geocoded_column": {
      "latitude": "30.006695519342685",
      "longitude": "-90.10269501963013"
    }
  },
  {
    "service_request": "2021-838799",
    "request_type": "Trash/Recycling",
    "request_reason": "Missed Trash Pick-Up",
    "date_created": "2021-11-01T15:20:55.000",
    "date_modified": "2021-11-01T16:01:38.000",
    "request_status": "Pending",
    "responsible_agency": "Department of Sanitation",
    "final_address": "241 S Broad St",
    "address_councildis": "B",
    "status": "Assigned to Contractor",
    "contractor": "Richards Disposal",
    "rowid": "838799",
    "final_x": "3674818.58881",
    "final_y": "534578.432581",
    "longitude": "-90.08906296961611",
    "latitude": "29.964106519482677",
    "geocoded_column": {
      "latitude": "29.964106519482677",
      "longitude": "-90.08906296961611"
    }
  },
  {
    "service_request": "2021-838797",
    "request_type": "Trash/Recycling",
    "request_reason": "Missed Trash Pick-Up",
    "date_created": "2021-11-01T15:17:39.000",
    "date_modified": "2021-11-01T16:01:42.000",
    "request_status": "Pending",
    "responsible_agency": "Department of Sanitation",
    "final_address": "2611 Washington Ave",
    "address_councildis": "B",
    "status": "Assigned to Contractor",
    "contractor": "Richards Disposal",
    "rowid": "838797",
    "final_x": "3673899.23988",
    "final_y": "525665.282749",
    "longitude": "-90.09227105804597",
    "latitude": "29.939625729931052",
    "geocoded_column": {
      "latitude": "29.939625729931052",
      "longitude": "-90.09227105804597"
    }
  },
  {
    "service_request": "2021-838796",
    "request_type": "Trash/Recycling",
    "request_reason": "Missed Trash Pick-Up",
    "date_created": "2021-11-01T15:17:30.000",
    "date_modified": "2021-11-01T16:01:43.000",
    "request_status": "Pending",
    "responsible_agency": "Department of Sanitation",
    "final_address": "2611 Washington Ave",
    "address_councildis": "B",
    "status": "Assigned to Contractor",
    "contractor": "Richards Disposal",
    "rowid": "838796",
    "final_x": "3673899.23988",
    "final_y": "525665.282749",
    "longitude": "-90.09227105804597",
    "latitude": "29.939625729931052",
    "geocoded_column": {
      "latitude": "29.939625729931052",
      "longitude": "-90.09227105804597"
    }
  },
  {
    "service_request": "2021-838795",
    "request_type": "Trash/Recycling",
    "request_reason": "Missed Trash Pick-Up",
    "date_created": "2021-11-01T15:17:16.000",
    "date_modified": "2021-11-01T16:01:46.000",
    "request_status": "Pending",
    "responsible_agency": "Department of Sanitation",
    "final_address": "2611 Washington Ave",
    "address_councildis": "B",
    "status": "Assigned to Contractor",
    "contractor": "Richards Disposal",
    "rowid": "838795",
    "final_x": "3673899.23988",
    "final_y": "525665.282749",
    "longitude": "-90.09227105804597",
    "latitude": "29.939625729931052",
    "geocoded_column": {
      "latitude": "29.939625729931052",
      "longitude": "-90.09227105804597"
    }
  },
  {
    "service_request": "2021-838794",
    "request_type": "Mosquito, Termite & Rodent Control",
    "request_reason": "Mosquito Complaint",
    "date_created": "2021-11-01T15:17:06.000",
    "date_modified": "2021-11-01T16:18:59.000",
    "case_close_date": "2021-11-01T11:19:00.000",
    "request_status": "Closed",
    "responsible_agency": "Mosquito, Termite & Rodent Control Board",
    "final_address": "13726 N Lemans St",
    "address_councildis": "E",
    "status": "Resolved",
    "rowid": "838794",
    "final_x": "3726784.74515",
    "final_y": "563524.963872",
    "longitude": "-89.9238364323013",
    "latitude": "30.042043999998516",
    "geocoded_column": {
      "latitude": "30.042043999998516",
      "longitude": "-89.9238364323013"
    }
  },
  {
    "service_request": "2021-838793",
    "request_type": "Trash/Recycling",
    "request_reason": "Missed Trash Pick-Up",
    "date_created": "2021-11-01T15:17:00.000",
    "date_modified": "2021-11-01T16:01:50.000",
    "request_status": "Pending",
    "responsible_agency": "Department of Sanitation",
    "final_address": "2611 Washington Ave",
    "address_councildis": "B",
    "status": "Assigned to Contractor",
    "contractor": "Richards Disposal",
    "rowid": "838793",
    "final_x": "3673899.23988",
    "final_y": "525665.282749",
    "longitude": "-90.09227105804597",
    "latitude": "29.939625729931052",
    "geocoded_column": {
      "latitude": "29.939625729931052",
      "longitude": "-90.09227105804597"
    }
  },
  {
    "service_request": "2021-838792",
    "request_type": "Trash/Recycling",
    "request_reason": "Request a Large Item Pick Up",
    "date_created": "2021-11-01T15:15:23.000",
    "date_modified": "2021-11-01T15:15:24.000",
    "request_status": "Pending",
    "responsible_agency": "Department of Sanitation",
    "final_address": "4235 Iberville St",
    "address_councildis": "A",
    "status": "Assigned to Contractor",
    "contractor": "Richards Disposal",
    "rowid": "838792",
    "final_x": "3670636.79534",
    "final_y": "539279.22817",
    "longitude": "-90.10210923185207",
    "latitude": "29.977156327701984",
    "geocoded_column": {
      "latitude": "29.977156327701984",
      "longitude": "-90.10210923185207"
    }
  },
  {
    "service_request": "2021-838791",
    "request_type": "Trash/Recycling",
    "request_reason": "Replace Trash Cart",
    "date_created": "2021-11-01T15:12:31.000",
    "date_modified": "2021-11-01T16:01:51.000",
    "request_status": "Pending",
    "responsible_agency": "Department of Sanitation",
    "final_address": "2611 Washington Ave",
    "address_councildis": "B",
    "status": "Assigned to Contractor",
    "contractor": "Richards Disposal",
    "rowid": "838791",
    "final_x": "3673899.23988",
    "final_y": "525665.282749",
    "longitude": "-90.09227105804597",
    "latitude": "29.939625729931052",
    "geocoded_column": {
      "latitude": "29.939625729931052",
      "longitude": "-90.09227105804597"
    }
  },
  {
    "service_request": "2021-838789",
    "request_type": "Trash/Recycling",
    "request_reason": "Replace Trash Cart",
    "date_created": "2021-11-01T15:12:11.000",
    "date_modified": "2021-11-01T16:01:53.000",
    "request_status": "Pending",
    "responsible_agency": "Department of Sanitation",
    "final_address": "2611 Washington Ave",
    "address_councildis": "B",
    "status": "Assigned to Contractor",
    "contractor": "Richards Disposal",
    "rowid": "838789",
    "final_x": "3673899.23988",
    "final_y": "525665.282749",
    "longitude": "-90.09227105804597",
    "latitude": "29.939625729931052",
    "geocoded_column": {
      "latitude": "29.939625729931052",
      "longitude": "-90.09227105804597"
    }
  },
  {
    "service_request": "2021-838788",
    "request_type": "Trash/Recycling",
    "request_reason": "Missed Trash Pick-Up",
    "date_created": "2021-11-01T15:12:09.000",
    "date_modified": "2021-11-01T16:01:54.000",
    "request_status": "Pending",
    "responsible_agency": "Department of Sanitation",
    "final_address": "9208 Colapissa St",
    "address_councildis": "A",
    "status": "Assigned to Contractor",
    "contractor": "Richards Disposal",
    "rowid": "838788",
    "final_x": "3663547.19271",
    "final_y": "536026.024455",
    "longitude": "-90.12460899413492",
    "latitude": "29.968418656169927",
    "geocoded_column": {
      "latitude": "29.968418656169927",
      "longitude": "-90.12460899413492"
    }
  },
  {
    "service_request": "2021-838787",
    "request_type": "Trash/Recycling",
    "request_reason": "Replace Trash Cart",
    "date_created": "2021-11-01T15:12:01.000",
    "date_modified": "2021-11-01T16:01:56.000",
    "request_status": "Pending",
    "responsible_agency": "Department of Sanitation",
    "final_address": "2611 Washington Ave",
    "address_councildis": "B",
    "status": "Assigned to Contractor",
    "contractor": "Richards Disposal",
    "rowid": "838787",
    "final_x": "3673899.23988",
    "final_y": "525665.282749",
    "longitude": "-90.09227105804597",
    "latitude": "29.939625729931052",
    "geocoded_column": {
      "latitude": "29.939625729931052",
      "longitude": "-90.09227105804597"
    }
  },
  {
    "service_request": "2021-838786",
    "request_type": "Health Related Questions",
    "request_reason": "Request Information on the Health Marketplace",
    "date_created": "2021-11-01T15:11:52.000",
    "date_modified": "2021-11-01T15:11:52.000",
    "request_status": "Pending",
    "responsible_agency": "Health Department",
    "final_address": "6247 Rhodes Ave",
    "address_councildis": "C",
    "status": "Pending",
    "rowid": "838786",
    "final_x": "3707336.3683",
    "final_y": "519335.205623",
    "longitude": "-89.98694117451318",
    "latitude": "29.921182078900046",
    "geocoded_column": {
      "latitude": "29.921182078900046",
      "longitude": "-89.98694117451318"
    }
  },
  {
    "service_request": "2021-838785",
    "request_type": "Trash/Recycling",
    "request_reason": "Replace Trash Cart",
    "date_created": "2021-11-01T15:11:50.000",
    "date_modified": "2021-11-01T16:01:57.000",
    "request_status": "Pending",
    "responsible_agency": "Department of Sanitation",
    "final_address": "2611 Washington Ave",
    "address_councildis": "B",
    "status": "Assigned to Contractor",
    "contractor": "Richards Disposal",
    "rowid": "838785",
    "final_x": "3673899.23988",
    "final_y": "525665.282749",
    "longitude": "-90.09227105804597",
    "latitude": "29.939625729931052",
    "geocoded_column": {
      "latitude": "29.939625729931052",
      "longitude": "-90.09227105804597"
    }
  },
  {
    "service_request": "2021-838783",
    "request_type": "Trash/Recycling",
    "request_reason": "Repair Trash Cart",
    "date_created": "2021-11-01T15:06:09.000",
    "date_modified": "2021-11-01T15:06:10.000",
    "request_status": "Pending",
    "responsible_agency": "Department of Sanitation",
    "final_address": "712 Pelican Ave",
    "address_councildis": "C",
    "status": "Assigned to Contractor",
    "contractor": "Richards Disposal",
    "rowid": "838783",
    "final_x": "3687680.35036",
    "final_y": "530826.375234",
    "longitude": "-90.04857960848418",
    "latitude": "29.953399355880915",
    "geocoded_column": {
      "latitude": "29.953399355880915",
      "longitude": "-90.04857960848418"
    }
  },
  {
    "service_request": "2021-838782",
    "request_type": "Trash/Recycling",
    "request_reason": "Request a Large Item Pick Up",
    "date_created": "2021-11-01T15:02:55.000",
    "date_modified": "2021-11-01T15:02:57.000",
    "request_status": "Pending",
    "responsible_agency": "Department of Sanitation",
    "final_address": "5840 Brunswick Ct",
    "address_councildis": "C",
    "status": "Assigned to Contractor",
    "contractor": "Richards Disposal",
    "rowid": "838782",
    "final_x": "3705304.21067",
    "final_y": "517210.311989",
    "longitude": "-89.99343417143143",
    "latitude": "29.915404857633558",
    "geocoded_column": {
      "latitude": "29.915404857633558",
      "longitude": "-89.99343417143143"
    }
  },
  {
    "service_request": "2021-838780",
    "request_type": "Trash/Recycling",
    "request_reason": "Missed Trash Pick-Up",
    "date_created": "2021-11-01T15:01:53.000",
    "date_modified": "2021-11-01T16:02:02.000",
    "request_status": "Pending",
    "responsible_agency": "Department of Sanitation",
    "final_address": "4441 General Pershing St",
    "address_councildis": "B",
    "status": "Assigned to Contractor",
    "contractor": "Richards Disposal",
    "rowid": "838780",
    "final_x": "3669207.55674",
    "final_y": "530000.048961",
    "longitude": "-90.10693691651748",
    "latitude": "29.951683819782264",
    "geocoded_column": {
      "latitude": "29.951683819782264",
      "longitude": "-90.10693691651748"
    }
  },
  {
    "service_request": "2021-838779",
    "request_type": "Trash/Recycling",
    "request_reason": "Request a Large Item Pick Up",
    "date_created": "2021-11-01T15:01:01.000",
    "date_modified": "2021-11-01T16:02:07.000",
    "request_status": "Pending",
    "responsible_agency": "Department of Sanitation",
    "final_address": "4441 General Pershing St",
    "address_councildis": "B",
    "status": "Assigned to Contractor",
    "contractor": "Richards Disposal",
    "rowid": "838779",
    "final_x": "3669207.55674",
    "final_y": "530000.048961",
    "longitude": "-90.10693691651748",
    "latitude": "29.951683819782264",
    "geocoded_column": {
      "latitude": "29.951683819782264",
      "longitude": "-90.10693691651748"
    }
  },
  {
    "service_request": "2021-838778",
    "request_type": "Trash/Recycling",
    "request_reason": "Illegal Dumping",
    "date_created": "2021-11-01T15:00:34.000",
    "date_modified": "2021-11-01T15:01:02.000",
    "request_status": "Pending",
    "responsible_agency": "Department of Sanitation",
    "final_address": "2511 Banks St",
    "address_councildis": "B",
    "status": "Pending",
    "rowid": "838778",
    "final_x": "3675362.61691",
    "final_y": "533668.913093",
    "longitude": "-90.08737620593153",
    "latitude": "29.961589392095338",
    "geocoded_column": {
      "latitude": "29.961589392095338",
      "longitude": "-90.08737620593153"
    }
  },
  {
    "service_request": "2021-838777",
    "request_type": "Abandoned Vehicles",
    "request_reason": "Abandoned/Junk Vehicles",
    "date_created": "2021-11-01T15:00:29.000",
    "date_modified": "2021-11-01T15:01:04.000",
    "request_status": "Pending",
    "responsible_agency": "Department of Public Works",
    "final_address": "231 Pine St",
    "address_councildis": "A",
    "status": "Pending",
    "rowid": "838777",
    "final_x": "3661411.62042",
    "final_y": "522854.351739",
    "longitude": "-90.13178946185488",
    "latitude": "29.93226255235044",
    "geocoded_column": {
      "latitude": "29.93226255235044",
      "longitude": "-90.13178946185488"
    }
  },
  {
    "service_request": "2021-838776",
    "request_type": "Roads/Drainage",
    "request_reason": "Leaking Hydrant",
    "date_created": "2021-11-01T15:00:18.000",
    "date_modified": "2021-11-01T15:01:08.000",
    "request_status": "Pending",
    "responsible_agency": "Department of Public Works",
    "final_address": "25 Yosemite Dr",
    "address_councildis": "C",
    "status": "Pending",
    "rowid": "838776",
    "final_x": "3699840.33092",
    "final_y": "517491.132022",
    "longitude": "-90.01066986605048",
    "latitude": "29.91635156957285",
    "geocoded_column": {
      "latitude": "29.91635156957285",
      "longitude": "-90.01066986605048"
    }
  },
  {
    "service_request": "2021-838775",
    "request_type": "Traffic Signals/Signs/Striping/Streetlights",
    "request_reason": "Street Light Outage/Malfunction",
    "date_created": "2021-11-01T14:58:51.000",
    "date_modified": "2021-11-01T14:58:51.000",
    "request_status": "Pending",
    "responsible_agency": "Department of Public Works",
    "final_address": "6044 Camp St",
    "address_councildis": "A",
    "status": "Pending",
    "contractor": "Royal Engineering",
    "rowid": "838775",
    "final_x": "3664399.98144",
    "final_y": "519582.409464",
    "longitude": "-90.12246460284783",
    "latitude": "29.923179237850807",
    "geocoded_column": {
      "latitude": "29.923179237850807",
      "longitude": "-90.12246460284783"
    }
  },
  {
    "service_request": "2021-838774",
    "request_type": "Traffic Signals/Signs/Striping/Streetlights",
    "request_reason": "Street Light Outage/Malfunction",
    "date_created": "2021-11-01T14:58:08.000",
    "date_modified": "2021-11-01T14:58:08.000",
    "request_status": "Pending",
    "responsible_agency": "Department of Public Works",
    "final_address": "7300 BLK Panola St",
    "address_councildis": "A",
    "status": "Pending",
    "contractor": "Royal Engineering",
    "rowid": "838774",
    "final_x": "3665577.24722",
    "final_y": "529390.520403",
    "longitude": "-90.11842014154706",
    "latitude": "29.95011415379365",
    "geocoded_column": {
      "latitude": "29.95011415379365",
      "longitude": "-90.11842014154706"
    }
  },
  {
    "service_request": "2021-838773",
    "request_type": "Traffic Signals/Signs/Striping/Streetlights",
    "request_reason": "Additional signage",
    "date_created": "2021-11-01T14:57:31.000",
    "date_modified": "2021-11-01T14:57:31.000",
    "request_status": "Pending",
    "responsible_agency": "Department of Public Works",
    "final_address": "1400 Annunciation St Ste 1117",
    "address_councildis": "B",
    "status": "Pending",
    "rowid": "838773",
    "final_x": "3681252.18741",
    "final_y": "524451.618812",
    "longitude": "-90.06909907946172",
    "latitude": "29.936067525749202",
    "geocoded_column": {
      "latitude": "29.936067525749202",
      "longitude": "-90.06909907946172"
    }
  },
  {
    "service_request": "2021-838771",
    "request_type": "Traffic Signals/Signs/Striping/Streetlights",
    "request_reason": "Street Name Sign Damaged or Missing",
    "date_created": "2021-11-01T14:55:13.000",
    "date_modified": "2021-11-01T14:55:13.000",
    "request_status": "Pending",
    "responsible_agency": "Department of Public Works",
    "final_address": "7125 Memphis St",
    "address_councildis": "A",
    "status": "Pending",
    "rowid": "838771",
    "final_x": "3669890.99956",
    "final_y": "554501.917336",
    "longitude": "-90.1039488673879",
    "latitude": "30.019035459712974",
    "geocoded_column": {
      "latitude": "30.019035459712974",
      "longitude": "-90.1039488673879"
    }
  },
  {
    "service_request": "2021-838769",
    "request_type": "Abandoned Vehicles",
    "request_reason": "Abandoned/Junk Vehicles",
    "date_created": "2021-11-01T14:52:44.000",
    "date_modified": "2021-11-01T14:52:44.000",
    "request_status": "Pending",
    "responsible_agency": "Department of Public Works",
    "final_address": "2400 Aubry St",
    "address_councildis": "D",
    "status": "Pending",
    "rowid": "838769",
    "final_x": "3680560.81474",
    "final_y": "540378.190987",
    "longitude": "-90.0707277159589",
    "latitude": "29.979881151635315",
    "geocoded_column": {
      "latitude": "29.979881151635315",
      "longitude": "-90.0707277159589"
    }
  },
  {
    "service_request": "2021-838768",
    "request_type": "Trash/Recycling",
    "request_reason": "Missed Trash Pick-Up",
    "date_created": "2021-11-01T14:52:25.000",
    "date_modified": "2021-11-01T15:01:13.000",
    "request_status": "Pending",
    "responsible_agency": "Department of Sanitation",
    "final_address": "5939 Canal Blvd",
    "address_councildis": "A",
    "status": "Assigned to Contractor",
    "contractor": "Metro Disposal",
    "rowid": "838768",
    "final_x": "3668598.14522",
    "final_y": "546934.786641",
    "longitude": "-90.10828947190613",
    "latitude": "29.9982665763951",
    "geocoded_column": {
      "latitude": "29.9982665763951",
      "longitude": "-90.10828947190613"
    }
  },
  {
    "service_request": "2021-838767",
    "request_type": "Abandoned Vehicles",
    "request_reason": "Abandoned/Junk Vehicles",
    "date_created": "2021-11-01T14:52:24.000",
    "date_modified": "2021-11-01T14:52:24.000",
    "request_status": "Pending",
    "responsible_agency": "Department of Public Works",
    "final_address": "5939 West End Blvd",
    "address_councildis": "A",
    "status": "Pending",
    "rowid": "838767",
    "final_x": "3666554.31277",
    "final_y": "547468.000785",
    "longitude": "-90.11472803639829",
    "latitude": "29.99979265615956",
    "geocoded_column": {
      "latitude": "29.99979265615956",
      "longitude": "-90.11472803639829"
    }
  },
  {
    "service_request": "2021-838766",
    "request_type": "Abandoned Vehicles",
    "request_reason": "Abandoned/Junk Vehicles",
    "date_created": "2021-11-01T14:51:05.000",
    "date_modified": "2021-11-01T14:51:05.000",
    "request_status": "Pending",
    "responsible_agency": "Department of Public Works",
    "final_address": "2622 Hyman Pl",
    "address_councildis": "C",
    "status": "Pending",
    "rowid": "838766",
    "final_x": "3701112.89604",
    "final_y": "521426.111033",
    "longitude": "-90.0065093453901",
    "latitude": "29.927130958032315",
    "geocoded_column": {
      "latitude": "29.927130958032315",
      "longitude": "-90.0065093453901"
    }
  },
  {
    "service_request": "2021-838765",
    "request_type": "Traffic Signals/Signs/Striping/Streetlights",
    "request_reason": "Disabled Parking Sign ",
    "date_created": "2021-11-01T14:50:08.000",
    "date_modified": "2021-11-01T14:50:08.000",
    "request_status": "Pending",
    "responsible_agency": "Department of Public Works",
    "final_address": "144 Elk Pl",
    "address_councildis": "B",
    "status": "Pending",
    "rowid": "838765",
    "final_x": "3679701.35995",
    "final_y": "531416.729603",
    "longitude": "-90.07375336287932",
    "latitude": "29.955266212518584",
    "geocoded_column": {
      "latitude": "29.955266212518584",
      "longitude": "-90.07375336287932"
    }
  },
  {
    "service_request": "2021-838763",
    "request_type": "Property Maintenance",
    "request_reason": "Property Maintenance",
    "date_created": "2021-11-01T14:47:51.000",
    "date_modified": "2021-11-01T15:01:15.000",
    "request_status": "Pending",
    "responsible_agency": "Department of Code Enforcement",
    "final_address": "2801 Louisa St",
    "address_councildis": "D",
    "status": "Pending",
    "rowid": "838763",
    "final_x": "3691336.81302",
    "final_y": "542673.795597",
    "longitude": "-90.03661075202265",
    "latitude": "29.985862344935917",
    "geocoded_column": {
      "latitude": "29.985862344935917",
      "longitude": "-90.03661075202265"
    }
  },
  {
    "service_request": "2021-838762",
    "request_type": "Safety & Permits",
    "request_reason": "Licenses & Permits",
    "date_created": "2021-11-01T14:47:32.000",
    "date_modified": "2021-11-01T14:47:32.000",
    "request_status": "Pending",
    "responsible_agency": "Safety and Permits",
    "final_address": "700 Frenchmen St",
    "address_councildis": "C",
    "status": "Pending",
    "rowid": "838762",
    "final_x": "3684674.15349",
    "final_y": "534862.19559",
    "longitude": "-90.05793003716528",
    "latitude": "29.964588816083072",
    "geocoded_column": {
      "latitude": "29.964588816083072",
      "longitude": "-90.05793003716528"
    }
  },
  {
    "service_request": "2021-838761",
    "request_type": "Safety & Permits",
    "request_reason": "Licenses & Permits",
    "date_created": "2021-11-01T14:46:58.000",
    "date_modified": "2021-11-01T15:13:40.000",
    "request_status": "Pending",
    "responsible_agency": "Safety and Permits",
    "final_address": "New Orleans,LA",
    "rowid": "838761",
    "longitude": "0.0",
    "latitude": "0.0",
    "geocoded_column": {
      "latitude": "0.0",
      "longitude": "0.0"
    }
  },
  {
    "service_request": "2021-838760",
    "request_type": "Trash/Recycling",
    "request_reason": "Request a Large Item Pick Up",
    "date_created": "2021-11-01T14:44:57.000",
    "date_modified": "2021-11-01T14:44:58.000",
    "request_status": "Pending",
    "responsible_agency": "Department of Sanitation",
    "final_address": "7111 Memphis St",
    "address_councildis": "A",
    "status": "Assigned to Contractor",
    "contractor": "Metro Disposal",
    "rowid": "838760",
    "final_x": "3669916.80193",
    "final_y": "554343.384856",
    "longitude": "-90.10387271528714",
    "latitude": "30.018598790521263",
    "geocoded_column": {
      "latitude": "30.018598790521263",
      "longitude": "-90.10387271528714"
    }
  },
  {
    "service_request": "2021-838759",
    "request_type": "Trash/Recycling",
    "request_reason": "Illegal Dumping",
    "date_created": "2021-11-01T14:44:25.000",
    "date_modified": "2021-11-01T14:44:25.000",
    "request_status": "Pending",
    "responsible_agency": "Department of Sanitation",
    "final_address": "2475 Marr Ave",
    "address_councildis": "C",
    "status": "Pending",
    "rowid": "838759",
    "final_x": "3691331.36214",
    "final_y": "520788.563961",
    "longitude": "-90.03740977804928",
    "latitude": "29.92568573579254",
    "geocoded_column": {
      "latitude": "29.92568573579254",
      "longitude": "-90.03740977804928"
    }
  },
  {
    "service_request": "2021-838758",
    "request_type": "Abandoned Vehicles",
    "request_reason": "Abandoned/Junk Vehicles",
    "date_created": "2021-11-01T14:42:14.000",
    "date_modified": "2021-11-01T15:01:20.000",
    "request_status": "Pending",
    "responsible_agency": "Department of Public Works",
    "final_address": "1134 Baronne St",
    "address_councildis": "B",
    "status": "Pending",
    "rowid": "838758",
    "final_x": "3679026.02671",
    "final_y": "526892.947262",
    "longitude": "-90.07604255552023",
    "latitude": "29.942847719994383",
    "geocoded_column": {
      "latitude": "29.942847719994383",
      "longitude": "-90.07604255552023"
    }
  },
  {
    "service_request": "2021-838755",
    "request_type": "Abandoned Vehicles",
    "request_reason": "Abandoned/Junk Vehicles",
    "date_created": "2021-11-01T14:30:30.000",
    "date_modified": "2021-11-01T14:30:30.000",
    "request_status": "Pending",
    "responsible_agency": "Department of Public Works",
    "final_address": "1400 BLK Eliza St",
    "address_councildis": "C",
    "status": "Pending",
    "rowid": "838755",
    "final_x": "3690031.17403",
    "final_y": "529818.47624",
    "longitude": "-90.04119262293173",
    "latitude": "29.950555295820987",
    "geocoded_column": {
      "latitude": "29.950555295820987",
      "longitude": "-90.04119262293173"
    }
  },
  {
    "service_request": "2021-838754",
    "request_type": "Trash/Recycling",
    "request_reason": "Illegal Dumping",
    "date_created": "2021-11-01T14:28:58.000",
    "date_modified": "2021-11-01T14:28:58.000",
    "request_status": "Pending",
    "responsible_agency": "Department of Sanitation",
    "final_address": "1613 Eliza St",
    "address_councildis": "C",
    "status": "Pending",
    "rowid": "838754",
    "final_x": "3690417.30998",
    "final_y": "529768.742913",
    "longitude": "-90.03997518168576",
    "latitude": "29.950406567607267",
    "geocoded_column": {
      "latitude": "29.950406567607267",
      "longitude": "-90.03997518168576"
    }
  },
  {
    "service_request": "2021-838752",
    "request_type": "Roads/Drainage",
    "request_reason": "Pothole",
    "date_created": "2021-11-01T14:27:23.000",
    "date_modified": "2021-11-01T15:01:32.000",
    "request_status": "Pending",
    "responsible_agency": "Department of Public Works",
    "final_address": "6557 Dwyer Rd",
    "address_councildis": "E",
    "status": "Pending",
    "rowid": "838752",
    "final_x": "3698865.72656",
    "final_y": "555551.895833",
    "longitude": "-90.01236112616003",
    "latitude": "30.02103588690258",
    "geocoded_column": {
      "latitude": "30.02103588690258",
      "longitude": "-90.01236112616003"
    }
  },
  {
    "service_request": "2021-838750",
    "request_type": "Traffic Signals/Signs/Striping/Streetlights",
    "request_reason": "Street Light Outage/Malfunction",
    "date_created": "2021-11-01T14:17:39.000",
    "date_modified": "2021-11-01T15:01:37.000",
    "request_status": "Pending",
    "responsible_agency": "Department of Public Works",
    "final_address": "5533 Bancroft Dr",
    "address_councildis": "D",
    "status": "Pending",
    "contractor": "Royal Engineering",
    "rowid": "838750",
    "final_x": "3676676.23931",
    "final_y": "552598.789846",
    "longitude": "-90.08257549485023",
    "latitude": "30.013600626157903",
    "geocoded_column": {
      "latitude": "30.013600626157903",
      "longitude": "-90.08257549485023"
    }
  },
  {
    "service_request": "2021-838748",
    "request_type": "Abandoned Vehicles",
    "request_reason": "Abandoned/Junk Vehicles",
    "date_created": "2021-11-01T14:15:09.000",
    "date_modified": "2021-11-01T14:15:10.000",
    "request_status": "Pending",
    "responsible_agency": "Department of Public Works",
    "final_address": "2601 Dumaine St",
    "address_councildis": "D",
    "status": "Pending",
    "rowid": "838748",
    "final_x": "3677583.62939",
    "final_y": "537249.257672",
    "longitude": "-90.08023897251466",
    "latitude": "29.97136752894056",
    "geocoded_column": {
      "latitude": "29.97136752894056",
      "longitude": "-90.08023897251466"
    }
  },
  {
    "service_request": "2021-838747",
    "request_type": "Traffic Signals/Signs/Striping/Streetlights",
    "request_reason": "Street Light Outage/Malfunction",
    "date_created": "2021-11-01T14:14:26.000",
    "date_modified": "2021-11-01T15:01:40.000",
    "request_status": "Pending",
    "responsible_agency": "Department of Public Works",
    "final_address": "4658 Francis Dr",
    "address_councildis": "D",
    "status": "Pending",
    "contractor": "Royal Engineering",
    "rowid": "838747",
    "final_x": "3698211.52803",
    "final_y": "553973.49756",
    "longitude": "-90.0144855978652",
    "latitude": "30.01671661156729",
    "geocoded_column": {
      "latitude": "30.01671661156729",
      "longitude": "-90.0144855978652"
    }
  },
  {
    "service_request": "2021-838746",
    "request_type": "Trash/Recycling",
    "request_reason": "Repair Recycling Cart",
    "date_created": "2021-11-01T14:13:41.000",
    "date_modified": "2021-11-01T15:01:42.000",
    "request_status": "Pending",
    "responsible_agency": "Department of Sanitation",
    "final_address": "6209 Curie St",
    "address_councildis": "D",
    "status": "Pending",
    "rowid": "838746",
    "final_x": "3682550.85064",
    "final_y": "555837.506265",
    "longitude": "-90.06390143628767",
    "latitude": "30.022328283310944",
    "geocoded_column": {
      "latitude": "30.022328283310944",
      "longitude": "-90.06390143628767"
    }
  },
  {
    "service_request": "2021-838745",
    "request_type": "Property Maintenance",
    "request_reason": "Property Maintenance",
    "date_created": "2021-11-01T14:12:49.000",
    "date_modified": "2021-11-01T14:12:49.000",
    "request_status": "Pending",
    "responsible_agency": "Department of Code Enforcement",
    "final_address": "WISNER BLVD & ROBERT E LEE BLVD",
    "address_councildis": "A",
    "status": "Pending",
    "rowid": "838745",
    "final_x": "3676295.4",
    "final_y": "555150.78",
    "longitude": "-90.08369081598791",
    "latitude": "30.020629105491057",
    "geocoded_column": {
      "latitude": "30.020629105491057",
      "longitude": "-90.08369081598791"
    }
  },
  {
    "service_request": "2021-838740",
    "request_type": "Abandoned Vehicles",
    "request_reason": "Abandoned/Junk Vehicles",
    "date_created": "2021-11-01T14:04:58.000",
    "date_modified": "2021-11-01T14:04:58.000",
    "request_status": "Pending",
    "responsible_agency": "Department of Public Works",
    "final_address": "2317 Franklin Ave",
    "address_councildis": "D",
    "status": "Pending",
    "rowid": "838740",
    "final_x": "3687629.3903",
    "final_y": "541094.125452",
    "longitude": "-90.04837694436398",
    "latitude": "29.9816336570886",
    "geocoded_column": {
      "latitude": "29.9816336570886",
      "longitude": "-90.04837694436398"
    }
  },
  {
    "service_request": "2021-838741",
    "request_type": "Trash/Recycling",
    "request_reason": "Request a Large Item Pick Up",
    "date_created": "2021-11-01T14:04:58.000",
    "date_modified": "2021-11-01T15:01:47.000",
    "request_status": "Pending",
    "responsible_agency": "Department of Sanitation",
    "final_address": "2332 Constance St",
    "address_councildis": "B",
    "status": "Assigned to Contractor",
    "contractor": "Richards Disposal",
    "rowid": "838741",
    "final_x": "3678580.56578",
    "final_y": "521367.148729",
    "longitude": "-90.07764017137596",
    "latitude": "29.92766702497978",
    "geocoded_column": {
      "latitude": "29.92766702497978",
      "longitude": "-90.07764017137596"
    }
  },
  {
    "service_request": "2021-838738",
    "request_type": "Trash/Recycling",
    "request_reason": "Return Recycling Cart",
    "date_created": "2021-11-01T14:01:18.000",
    "date_modified": "2021-11-01T14:01:18.000",
    "request_status": "Pending",
    "responsible_agency": "Department of Sanitation",
    "final_address": "1005 Josephine St",
    "address_councildis": "B",
    "status": "Pending",
    "rowid": "838738",
    "final_x": "3679402.01423",
    "final_y": "522070.515066",
    "longitude": "-90.07502267325984",
    "latitude": "29.929576274017826",
    "geocoded_column": {
      "latitude": "29.929576274017826",
      "longitude": "-90.07502267325984"
    }
  },
  {
    "service_request": "2021-838737",
    "request_type": "Trash/Recycling",
    "request_reason": "Request a Large Item Pick Up",
    "date_created": "2021-11-01T14:00:53.000",
    "date_modified": "2021-11-01T14:00:54.000",
    "request_status": "Pending",
    "responsible_agency": "Department of Sanitation",
    "final_address": "4928 Werner Dr",
    "address_councildis": "E",
    "status": "Assigned to Contractor",
    "contractor": "Metro Disposal",
    "rowid": "838737",
    "final_x": "3704626.41719",
    "final_y": "556262.266906",
    "longitude": "-89.99413289664025",
    "latitude": "30.02280526748643",
    "geocoded_column": {
      "latitude": "30.02280526748643",
      "longitude": "-89.99413289664025"
    }
  },