[
  {
    "service_request": "2025-1167511",
    "request_type": "General Services",
    "request_reason": "General Service Request",
    "date_created": "2025-02-07T22:30:48.000",
    "date_modified": "2025-02-07T22:30:50.000",
    "request_status": "Pending",
    "responsible_agency": "Orleans Parish Communication District",
    "final_address": "2918 St Philip St",
    "address_councildis": "A",
    "status": "Pending",
    "rowid": "1167511",
    "final_x": "3676521.94574",
    "final_y": "538464.630089",
    "longitude": "-90.08355005807645",
    "latitude": "29.974741270131023",
    "geocoded_column": {
      "latitude": "29.974741270131023",
      "longitude": "-90.08355005807645"
    }
  },
  {
    "service_request": "2025-1167510",
    "request_type": "Trash/Recycling",
    "request_reason": "Repair Recycling Cart",
    "date_created": "2025-02-07T22:28:16.000",
    "date_modified": "2025-02-07T22:28:19.000",
    "request_status": "Pending",
    "responsible_agency": "Department of Sanitation",
    "final_address": "936 Adams St",
    "address_councildis": "A",
    "status": "Pending",
    "rowid": "1167510",
    "final_x": "3662510.65779",
    "final_y": "526839.988414",
    "longitude": "-90.12818755304033",
    "latitude": "29.94319005535749",
    "geocoded_column": {
      "latitude": "29.94319005535749",
      "longitude": "-90.12818755304033"
    }
  },
  {
    "service_request": "2025-1167509",
    "request_type": "Trash/Recycling",
    "request_reason": "Illegal Dumping",
    "date_created": "2025-02-07T22:26:01.000",
    "date_modified": "2025-02-07T22:26:13.000",
    "request_status": "Pending",
    "responsible_agency": "Department of Sanitation",
    "final_address": "816 Adams St",
    "address_councildis": "A",
    "status": "Pending",
    "rowid": "1167509",
    "final_x": "3662211.40928",
    "final_y": "526509.678206",
    "longitude": "-90.12914332012828",
    "latitude": "29.942290458329726",
    "geocoded_column": {
      "latitude": "29.942290458329726",
      "longitude": "-90.12914332012828"
    }
  },
  {
    "service_request": "2025-1167508",
    "request_type": "General Services",
    "request_reason": "General Service Request",
    "date_created": "2025-02-07T21:18:46.000",
    "date_modified": "2025-02-07T21:18:48.000",
    "request_status": "Pending",
    "responsible_agency": "Orleans Parish Communication District",
    "final_address": "21 Petit Bayou Ln",
    "address_councildis": "E",
    "status": "Pending",
    "rowid": "1167508",
    "final_x": "3724916.94502",
    "final_y": "564160.515809",
    "longitude": "-89.92971470100946",
    "latitude": "30.043854546814966",
    "geocoded_column": {
      "latitude": "30.043854546814966",
      "longitude": "-89.92971470100946"
    }
  },
  {
    "service_request": "2025-1167507",
    "request_type": "Trash/Recycling",
    "request_reason": "Order Recycling Cart",
    "date_created": "2025-02-07T21:00:51.000",
    "date_modified": "2025-02-07T21:00:52.000",
    "request_status": "Pending",
    "responsible_agency": "Department of Sanitation",
    "final_address": "1405 Deslonde St",
    "address_councildis": "E",
    "status": "Pending",
    "rowid": "1167507",
    "final_x": "3695787.12835",
    "final_y": "535572.79943",
    "longitude": "-90.02281058045999",
    "latitude": "29.96619792505669",
    "geocoded_column": {
      "latitude": "29.96619792505669",
      "longitude": "-90.02281058045999"
    }
  },
  {
    "service_request": "2025-1167506",
    "request_type": "Street and Traffic Signs",
    "request_reason": "Street Name Sign Damaged or Missing",
    "date_created": "2025-02-07T20:41:46.000",
    "date_modified": "2025-02-07T20:41:50.000",
    "request_status": "Pending",
    "responsible_agency": "Department of Public Works",
    "final_address": "9968 E Wheaton Cir",
    "address_councildis": "E",
    "status": "Pending",
    "rowid": "1167506",
    "final_x": "3708697.7354",
    "final_y": "562177.388703",
    "longitude": "-89.98104800450625",
    "latitude": "30.03893805709611",
    "geocoded_column": {
      "latitude": "30.03893805709611",
      "longitude": "-89.98104800450625"
    }
  },
  {
    "service_request": "2025-1167505",
    "request_type": "Property Maintenance",
    "request_reason": "Property Maintenance",
    "date_created": "2025-02-07T20:14:26.000",
    "date_modified": "2025-02-07T20:14:29.000",
    "request_status": "Pending",
    "responsible_agency": "Department of Code Enforcement",
    "final_address": "7014 Lake Kenilworth Dr Apt U209",
    "address_councildis": "E",
    "status": "Pending",
    "rowid": "1167505",
    "final_x": "3700062.26564",
    "final_y": "557883.240539",
    "longitude": "-90.00849525710564",
    "latitude": "30.0274082079864",
    "geocoded_column": {
      "latitude": "30.0274082079864",
      "longitude": "-90.00849525710564"
    }
  },
  {
    "service_request": "2025-1167504",
    "request_type": "Trash/Recycling",
    "request_reason": "Request a Large Item Pick Up",
    "date_created": "2025-02-07T20:11:05.000",
    "date_modified": "2025-02-07T20:11:08.000",
    "request_status": "Pending",
    "responsible_agency": "Department of Sanitation",
    "final_address": "1331 Milton St",
    "address_councildis": "D",
    "status": "Assigned to Contractor",
    "contractor": "IV Waste",
    "rowid": "1167504",
    "final_x": "3677614.378",
    "final_y": "546130.025232",
    "longitude": "-90.07983504527778",
    "latitude": "29.995785633819057",
    "geocoded_column": {
      "latitude": "29.995785633819057",
      "longitude": "-90.07983504527778"
    }
  },
  {
    "service_request": "2025-1167503",
    "request_type": "Property Maintenance",
    "request_reason": "Property Maintenance",
    "date_created": "2025-02-07T18:56:11.000",
    "date_modified": "2025-02-07T18:56:13.000",
    "request_status": "Pending",
    "responsible_agency": "Department of Code Enforcement",
    "final_address": "721 Tricou St",
    "address_councildis": "E",
    "status": "Pending",
    "rowid": "1167503",
    "final_x": "3699663.33226",
    "final_y": "531790.441667",
    "longitude": "-90.01070756354369",
    "latitude": "29.955675320726783",
    "geocoded_column": {
      "latitude": "29.955675320726783",
      "longitude": "-90.01070756354369"
    }
  },
  {
    "service_request": "2025-1167502",
    "request_type": "Trash/Recycling",
    "request_reason": "Return Trash Cart",
    "date_created": "2025-02-07T18:25:30.000",
    "date_modified": "2025-02-07T18:25:32.000",
    "request_status": "Pending",
    "responsible_agency": "Department of Sanitation",
    "final_address": "2322 St Thomas St",
    "address_councildis": "B",
    "status": "Assigned to Contractor",
    "contractor": "IV Waste",
    "rowid": "1167502",
    "final_x": "3679498.76802",
    "final_y": "520241.783608",
    "longitude": "-90.07478064741272",
    "latitude": "29.92454493833812",
    "geocoded_column": {
      "latitude": "29.92454493833812",
      "longitude": "-90.07478064741272"
    }
  },
  {
    "service_request": "2025-1167501",
    "request_type": "Street and Traffic Signs",
    "request_reason": "Traffic Signal Malfunctioning or Damaged",
    "date_created": "2025-02-07T18:21:58.000",
    "date_modified": "2025-02-07T18:21:59.000",
    "request_status": "Pending",
    "responsible_agency": "Department of Public Works",
    "final_address": "4300 Block of S Dorgenois St, New Orleans, Louisiana, 70125",
    "status": "Pending",
    "rowid": "1167501",
    "longitude": "0.0",
    "latitude": "0.0",
    "geocoded_column": {
      "latitude": "0.0",
      "longitude": "0.0"
    }
  },
  {
    "service_request": "2025-1167500",
    "request_type": "Streetlights",
    "request_reason": "Streetlight Outage/Malfunction",
    "date_created": "2025-02-07T17:12:01.000",
    "date_modified": "2025-02-07T17:12:02.000",
    "request_status": "Pending",
    "responsible_agency": "Department of Public Works",
    "final_address": "1129 N Miro St",
    "address_councildis": "D",
    "status": "Pending",
    "contractor": "Legacy Professional Services",
    "rowid": "1167500",
    "final_x": "3679110.13282",
    "final_y": "537324.419912",
    "longitude": "-90.07541545158738",
    "latitude": "29.971528208544346",
    "geocoded_column": {
      "latitude": "29.971528208544346",
      "longitude": "-90.07541545158738"
    }
  },
  {
    "service_request": "2025-1167499",
    "request_type": "Trash/Recycling",
    "request_reason": "Request a Large Item Pick Up",
    "date_created": "2025-02-07T16:58:15.000",
    "date_modified": "2025-02-07T16:58:17.000",
    "request_status": "Pending",
    "responsible_agency": "Department of Sanitation",
    "final_address": "8004 Freret St",
    "address_councildis": "A",
    "status": "Assigned to Contractor",
    "contractor": "IV Waste",
    "rowid": "1167499",
    "final_x": "3661734.97901",
    "final_y": "527579.715903",
    "longitude": "-90.130612063513",
    "latitude": "29.945246479944824",
    "geocoded_column": {
      "latitude": "29.945246479944824",
      "longitude": "-90.130612063513"
    }
  },
  {
    "service_request": "2025-1167498",
    "request_type": "Trash/Recycling",
    "request_reason": "Request a Large Item Pick Up",
    "date_created": "2025-02-07T16:57:08.000",
    "date_modified": "2025-02-07T16:57:10.000",
    "request_status": "Pending",
    "responsible_agency": "Department of Sanitation",
    "final_address": "2328 Nashville Ave",
    "address_councildis": "A",
    "status": "Assigned to Contractor",
    "contractor": "IV Waste",
    "rowid": "1167498",
    "final_x": "3666955.573",
    "final_y": "524777.790588",
    "longitude": "-90.11422306272057",
    "latitude": "29.937390379299956",
    "geocoded_column": {
      "latitude": "29.937390379299956",
      "longitude": "-90.11422306272057"
    }
  },
  {
    "service_request": "2025-1167497",
    "request_type": "Trash/Recycling",
    "request_reason": "Replace Trash Cart",
    "date_created": "2025-02-07T16:54:17.000",
    "date_modified": "2025-02-07T16:54:19.000",
    "request_status": "Pending",
    "responsible_agency": "Department of Sanitation",
    "final_address": "4650 Longfellow Dr",
    "address_councildis": "E",
    "status": "Assigned to Contractor",
    "contractor": "Waste Pro",
    "rowid": "1167497",
    "final_x": "3709612.72894",
    "final_y": "555234.930841",
    "longitude": "-89.97841582792694",
    "latitude": "30.019819310467707",
    "geocoded_column": {
      "latitude": "30.019819310467707",
      "longitude": "-89.97841582792694"
    }
  },
  {
    "service_request": "2025-1167496",
    "request_type": "Roads and Streets",
    "request_reason": "Pothole",
    "date_created": "2025-02-07T16:53:41.000",
    "date_modified": "2025-02-07T16:53:43.000",
    "request_status": "Pending",
    "responsible_agency": "Department of Public Works",
    "final_address": "BARTHOLOMEW ST & N TONTI ST",
    "address_councildis": "D",
    "status": "Pending",
    "rowid": "1167496",
    "final_x": "3692924.0",
    "final_y": "539827.58",
    "longitude": "-90.03169960643476",
    "latitude": "29.97798679017948",
    "geocoded_column": {
      "latitude": "29.97798679017948",
      "longitude": "-90.03169960643476"
    }
  },
  {
    "service_request": "2025-1167495",
    "request_type": "General Services",
    "request_reason": "General Service Request",
    "date_created": "2025-02-07T16:51:20.000",
    "date_modified": "2025-02-07T16:54:32.000",
    "case_close_date": "2025-02-07T10:54:32.000",
    "request_status": "Closed",
    "responsible_agency": "Orleans Parish Communication District",
    "final_address": "4507 Touro St",
    "address_councildis": "D",
    "status": "Question Answered.",
    "rowid": "1167495",
    "final_x": "3683233.56156",
    "final_y": "549217.888211",
    "longitude": "-90.0619763146818",
    "latitude": "30.004105929151763",
    "geocoded_column": {
      "latitude": "30.004105929151763",
      "longitude": "-90.0619763146818"
    }
  },
  {
    "service_request": "2025-1167494",
    "request_type": "Trash/Recycling",
    "request_reason": "Request a Large Item Pick Up",
    "date_created": "2025-02-07T16:50:00.000",
    "date_modified": "2025-02-07T16:50:02.000",
    "request_status": "Pending",
    "responsible_agency": "Department of Sanitation",
    "final_address": "7440 Seven Oaks Rd",
    "address_councildis": "E",
    "status": "Assigned to Contractor",
    "contractor": "Waste Pro",
    "rowid": "1167494",
    "final_x": "3712393.98898",
    "final_y": "565422.893538",
    "longitude": "-89.96924481948815",
    "latitude": "30.047741425867912",
    "geocoded_column": {
      "latitude": "30.047741425867912",
      "longitude": "-89.96924481948815"
    }
  },
  {
    "service_request": "2025-1167493",
    "request_type": "Trash/Recycling",
    "request_reason": "Request a Large Item Pick Up",
    "date_created": "2025-02-07T16:47:50.000",
    "date_modified": "2025-02-07T16:47:52.000",
    "request_status": "Pending",
    "responsible_agency": "Department of Sanitation",
    "final_address": "3624 Havana St",
    "address_councildis": "D",
    "status": "Assigned to Contractor",
    "contractor": "IV Waste",
    "rowid": "1167493",
    "final_x": "3680729.4013",
    "final_y": "545801.6356",
    "longitude": "-90.07000639241251",
    "latitude": "29.994788611300248",
    "geocoded_column": {
      "latitude": "29.994788611300248",
      "longitude": "-90.07000639241251"
    }
  },
  {
    "service_request": "2025-1167492",
    "request_type": "Roads and Streets",
    "request_reason": "Pothole",
    "date_created": "2025-02-07T16:45:54.000",
    "date_modified": "2025-02-07T16:46:21.000",
    "case_close_date": "2025-02-07T10:46:20.000",
    "request_status": "Closed",
    "responsible_agency": "Department of Public Works",
    "final_address": "2820 Calhoun St",
    "address_councildis": "A",
    "status": "Resolved",
    "rowid": "1167492",
    "final_x": "3666603.53844",
    "final_y": "527104.485631",
    "longitude": "-90.1152563774034",
    "latitude": "29.943798337317492",
    "geocoded_column": {
      "latitude": "29.943798337317492",
      "longitude": "-90.1152563774034"
    }
  },
  {
    "service_request": "2025-1167491",
    "request_type": "General Services",
    "request_reason": "General Service Request",
    "date_created": "2025-02-07T16:34:25.000",
    "date_modified": "2025-02-07T16:36:29.000",
    "case_close_date": "2025-02-07T10:36:28.000",
    "request_status": "Closed",
    "responsible_agency": "Orleans Parish Communication District",
    "final_address": "2401 Chartres St",
    "address_councildis": "C",
    "status": "Question Answered.",
    "rowid": "1167491",
    "final_x": "3685957.06665",
    "final_y": "534603.281734",
    "longitude": "-90.05388782823974",
    "latitude": "29.96383756582574",
    "geocoded_column": {
      "latitude": "29.96383756582574",
      "longitude": "-90.05388782823974"
    }
  },
  {
    "service_request": "2025-1167490",
    "request_type": "Roads and Streets",
    "request_reason": "Pothole",
    "date_created": "2025-02-07T16:29:40.000",
    "date_modified": "2025-02-07T16:29:41.000",
    "request_status": "Pending",
    "responsible_agency": "Department of Public Works",
    "final_address": "NASHVILLE AVE & CUCULLU ST",
    "address_councildis": "A",
    "status": "Pending",
    "rowid": "1167490",
    "final_x": "3667363.6",
    "final_y": "525858.18",
    "longitude": "-90.11289856041329",
    "latitude": "29.94034916002391",
    "geocoded_column": {
      "latitude": "29.94034916002391",
      "longitude": "-90.11289856041329"
    }
  },
  {
    "service_request": "2025-1167489",
    "request_type": "Traffic Safety",
    "request_reason": "Request for Traffic Calming due to Speeding",
    "date_created": "2025-02-07T16:29:00.000",
    "date_modified": "2025-02-07T16:29:01.000",
    "request_status": "Pending",
    "responsible_agency": "Department of Public Works",
    "final_address": "4857 Viola St",
    "address_councildis": "E",
    "status": "Pending",
    "rowid": "1167489",
    "final_x": "3703955.28746",
    "final_y": "555964.842393",
    "longitude": "-89.99626446289096",
    "latitude": "30.022009015394403",
    "geocoded_column": {
      "latitude": "30.022009015394403",
      "longitude": "-89.99626446289096"
    }
  },
  {
    "service_request": "2025-1167488",
    "request_type": "Roads and Streets",
    "request_reason": "Pothole",
    "date_created": "2025-02-07T16:26:09.000",
    "date_modified": "2025-02-07T16:26:50.000",
    "case_close_date": "2025-02-07T10:26:50.000",
    "request_status": "Closed",
    "responsible_agency": "Department of Public Works",
    "final_address": "6217 N Johnson St",
    "address_councildis": "E",
    "status": "Resolved",
    "rowid": "1167488",
    "final_x": "3701283.84964",
    "final_y": "536348.795463",
    "longitude": "-90.00542377202217",
    "latitude": "29.96815762653825",
    "geocoded_column": {
      "latitude": "29.96815762653825",
      "longitude": "-90.00542377202217"
    }
  },
  {
    "service_request": "2025-1167487",
    "request_type": "Trash/Recycling",
    "request_reason": "Order Trash Cart",
    "date_created": "2025-02-07T16:23:02.000",
    "date_modified": "2025-02-07T16:23:04.000",
    "request_status": "Pending",
    "responsible_agency": "Department of Sanitation",
    "final_address": "2327 Ap Tureaud Ave Apt A",
    "address_councildis": "D",
    "status": "Assigned to Contractor",
    "contractor": "IV Waste",
    "rowid": "1167487",
    "final_x": "3681717.86223",
    "final_y": "540730.580747",
    "longitude": "-90.06706098674016",
    "latitude": "29.98081499291703",
    "geocoded_column": {
      "latitude": "29.98081499291703",
      "longitude": "-90.06706098674016"
    }
  },
  {
    "service_request": "2025-1167486",
    "request_type": "Trash/Recycling",
    "request_reason": "Request a Large Item Pick Up",
    "date_created": "2025-02-07T16:20:21.000",
    "date_modified": "2025-02-07T16:20:24.000",
    "request_status": "Pending",
    "responsible_agency": "Department of Sanitation",
    "final_address": "2228 Hyman Pl",
    "address_councildis": "C",
    "status": "Assigned to Contractor",
    "contractor": "Richards Disposal",
    "rowid": "1167486",
    "final_x": "3701147.28209",
    "final_y": "522589.548666",
    "longitude": "-90.00635826581887",
    "latitude": "29.930328914133444",
    "geocoded_column": {
      "latitude": "29.930328914133444",
      "longitude": "-90.00635826581887"
    }
  },
  {
    "service_request": "2025-1167485",
    "request_type": "Healthy Homes",
    "request_reason": "Healthy Homes",
    "date_created": "2025-02-07T16:20:01.000",
    "date_modified": "2025-02-07T16:20:02.000",
    "request_status": "Pending",
    "responsible_agency": "Department of Code Enforcement",
    "final_address": "3135 Dumaine St",
    "address_councildis": "A",
    "status": "Pending",
    "rowid": "1167485",
    "final_x": "3675484.42043",
    "final_y": "538834.479113",
    "longitude": "-90.08681411790732",
    "latitude": "29.975789304008455",
    "geocoded_column": {
      "latitude": "29.975789304008455",
      "longitude": "-90.08681411790732"
    }
  },
  {
    "service_request": "2025-1167484",
    "request_type": "Healthy Homes",
    "request_reason": "Healthy Homes",
    "date_created": "2025-02-07T16:18:33.000",
    "date_modified": "2025-02-07T16:18:36.000",
    "request_status": "Pending",
    "responsible_agency": "Department of Code Enforcement",
    "final_address": "3135 Dumaine St",
    "address_councildis": "A",
    "status": "Pending",
    "rowid": "1167484",
    "final_x": "3675484.42043",
    "final_y": "538834.479113",
    "longitude": "-90.08681411790732",
    "latitude": "29.975789304008455",
    "geocoded_column": {
      "latitude": "29.975789304008455",
      "longitude": "-90.08681411790732"
    }
  },
  {
    "service_request": "2025-1167483",
    "request_type": "Trash/Recycling",
    "request_reason": "Replace Trash Cart",
    "date_created": "2025-02-07T16:15:56.000",
    "date_modified": "2025-02-07T16:15:58.000",
    "request_status": "Pending",
    "responsible_agency": "Department of Sanitation",
    "final_address": "1814 Toledano St",
    "address_councildis": "B",
    "status": "Assigned to Contractor",
    "contractor": "IV Waste",
    "rowid": "1167483",
    "final_x": "3674188.10228",
    "final_y": "522502.83673",
    "longitude": "-90.09146728826734",
    "latitude": "29.930921426594136",
    "geocoded_column": {
      "latitude": "29.930921426594136",
      "longitude": "-90.09146728826734"
    }
  },
  {
    "service_request": "2025-1167482",
    "request_type": "Trash/Recycling",
    "request_reason": "Request a Large Item Pick Up",
    "date_created": "2025-02-07T16:15:38.000",
    "date_modified": "2025-02-07T16:15:41.000",
    "request_status": "Pending",
    "responsible_agency": "Department of Sanitation",
    "final_address": "2806 Castiglione St",
    "address_councildis": "D",
    "status": "Assigned to Contractor",
    "contractor": "IV Waste",
    "rowid": "1167482",
    "final_x": "3679547.97858",
    "final_y": "542094.715468",
    "longitude": "-90.07386707810126",
    "latitude": "29.984631645146163",
    "geocoded_column": {
      "latitude": "29.984631645146163",
      "longitude": "-90.07386707810126"
    }
  },
  {
    "service_request": "2025-1167481",
    "request_type": "Health Related Request",
    "request_reason": "Homeless Encampment Complaint",
    "date_created": "2025-02-07T16:13:14.000",
    "date_modified": "2025-02-07T16:14:53.000",
    "request_status": "Pending",
    "responsible_agency": "Health Department",
    "final_address": "2401 Chartres St",
    "address_councildis": "C",
    "status": "Pending",
    "rowid": "1167481",
    "final_x": "3685957.06665",
    "final_y": "534603.281734",
    "longitude": "-90.05388782823974",
    "latitude": "29.96383756582574",
    "geocoded_column": {
      "latitude": "29.96383756582574",
      "longitude": "-90.05388782823974"
    }
  },
  {
    "service_request": "2025-1167480",
    "request_type": "Trash/Recycling",
    "request_reason": "Replace Trash Cart",
    "date_created": "2025-02-07T16:10:50.000",
    "date_modified": "2025-02-07T16:10:53.000",
    "request_status": "Pending",
    "responsible_agency": "Department of Sanitation",
    "final_address": "1830 Alabo St",
    "address_councildis": "E",
    "status": "Assigned to Contractor",
    "contractor": "Waste Pro",
    "rowid": "1167480",
    "final_x": "3699636.33738",
    "final_y": "536406.395655",
    "longitude": "-90.01062454980149",
    "latitude": "29.968368402467647",
    "geocoded_column": {
      "latitude": "29.968368402467647",
      "longitude": "-90.01062454980149"
    }
  },
  {
    "service_request": "2025-1167479",
    "request_type": "Streetlights",
    "request_reason": "Streetlight Outage/Malfunction",
    "date_created": "2025-02-07T15:59:04.000",
    "date_modified": "2025-02-07T15:59:05.000",
    "request_status": "Pending",
    "responsible_agency": "Department of Public Works",
    "final_address": "4529 Bonita Dr",
    "address_councildis": "E",
    "status": "Pending",
    "contractor": "Legacy Professional Services",
    "rowid": "1167479",
    "final_x": "3704661.87844",
    "final_y": "553903.904535",
    "longitude": "-89.99410794336404",
    "latitude": "30.01631954007418",
    "geocoded_column": {
      "latitude": "30.01631954007418",
      "longitude": "-89.99410794336404"
    }
  },
  {
    "service_request": "2025-1167478",
    "request_type": "Property Maintenance",
    "request_reason": "Property Maintenance",
    "date_created": "2025-02-07T15:58:46.000",
    "date_modified": "2025-02-07T15:58:48.000",
    "request_status": "Pending",
    "responsible_agency": "Department of Code Enforcement",
    "final_address": "2501 Calhoun St",
    "address_councildis": "A",
    "status": "Pending",
    "rowid": "1167478",
    "final_x": "3666239.34465",
    "final_y": "526040.310334",
    "longitude": "-90.11644192222953",
    "latitude": "29.940882837900297",
    "geocoded_column": {
      "latitude": "29.940882837900297",
      "longitude": "-90.11644192222953"
    }
  },
  {
    "service_request": "2025-1167477",
    "request_type": "Property Maintenance",
    "request_reason": "Property Maintenance",
    "date_created": "2025-02-07T15:58:23.000",
    "date_modified": "2025-02-07T15:58:36.000",
    "request_status": "Pending",
    "responsible_agency": "Department of Code Enforcement",
    "final_address": "2318 Touro St",
    "address_councildis": "D",
    "status": "Pending",
    "rowid": "1167477",
    "final_x": "3683829.88751",
    "final_y": "540834.154187",
    "longitude": "-90.06038665420785",
    "latitude": "29.981035437419283",
    "geocoded_column": {
      "latitude": "29.981035437419283",
      "longitude": "-90.06038665420785"
    }
  },
  {
    "service_request": "2025-1167476",
    "request_type": "Trash/Recycling",
    "request_reason": "Repair Trash Cart",
    "date_created": "2025-02-07T15:48:52.000",
    "date_modified": "2025-02-07T15:48:53.000",
    "request_status": "Pending",
    "responsible_agency": "Department of Sanitation",
    "final_address": "4605 St Charles Ave",
    "address_councildis": "B",
    "status": "Assigned to Contractor",
    "contractor": "IV Waste",
    "rowid": "1167476",
    "final_x": "3670032.34862",
    "final_y": "520848.572025",
    "longitude": "-90.10464246628632",
    "latitude": "29.926495919227023",
    "geocoded_column": {
      "latitude": "29.926495919227023",
      "longitude": "-90.10464246628632"
    }
  },
  {
    "service_request": "2025-1167475",
    "request_type": "Trash/Recycling",
    "request_reason": "Request a Large Item Pick Up",
    "date_created": "2025-02-07T15:45:01.000",
    "date_modified": "2025-02-07T15:45:02.000",
    "request_status": "Pending",
    "responsible_agency": "Department of Sanitation",
    "final_address": "7660 Arbor Dr",
    "address_councildis": "E",
    "status": "Assigned to Contractor",
    "contractor": "Waste Pro",
    "rowid": "1167475",
    "final_x": "3702355.9546",
    "final_y": "558332.316764",
    "longitude": "-90.00123094569753",
    "latitude": "30.028569874305187",
    "geocoded_column": {
      "latitude": "30.028569874305187",
      "longitude": "-90.00123094569753"
    }
  },
  {
    "service_request": "2025-1167474",
    "request_type": "Trash/Recycling",
    "request_reason": "Request a Large Item Pick Up",
    "date_created": "2025-02-07T15:38:03.000",
    "date_modified": "2025-02-07T15:38:05.000",
    "request_status": "Pending",
    "responsible_agency": "Department of Sanitation",
    "final_address": "4710 Charlmark Dr",
    "address_councildis": "E",
    "status": "Assigned to Contractor",
    "contractor": "Waste Pro",
    "rowid": "1167474",
    "final_x": "3711372.93746",
    "final_y": "555779.343705",
    "longitude": "-89.97283377069996",
    "latitude": "30.021258884729072",
    "geocoded_column": {
      "latitude": "30.021258884729072",
      "longitude": "-89.97283377069996"
    }
  },
  {
    "service_request": "2025-1167473",
    "request_type": "Trash/Recycling",
    "request_reason": "Request a Large Item Pick Up",
    "date_created": "2025-02-07T15:29:40.000",
    "date_modified": "2025-02-07T15:29:43.000",
    "request_status": "Pending",
    "responsible_agency": "Department of Sanitation",
    "final_address": "4310 Fort Macomb Rd",
    "address_councildis": "E",
    "status": "Assigned to Contractor",
    "contractor": "Waste Pro",
    "rowid": "1167473",
    "final_x": "3763751.9745",
    "final_y": "572949.337065",
    "longitude": "-89.80661236029201",
    "latitude": "30.06665456481649",
    "geocoded_column": {
      "latitude": "30.06665456481649",
      "longitude": "-89.80661236029201"
    }
  },
  {
    "service_request": "2025-1167472",
    "request_type": "Trash/Recycling",
    "request_reason": "Missed Trash Pick-Up",
    "date_created": "2025-02-07T15:24:49.000",
    "date_modified": "2025-02-07T15:47:58.000",
    "case_close_date": "2025-02-07T09:47:57.000",
    "request_status": "Closed",
    "responsible_agency": "Department of Sanitation",
    "final_address": "821 Adams St",
    "address_councildis": "A",
    "status": "Invalid Request",
    "contractor": "IV Waste",
    "contractor_action": "Invalid",
    "rowid": "1167472",
    "final_x": "3662262.81376",
    "final_y": "526456.062398",
    "longitude": "-90.12898280316344",
    "latitude": "29.942141546394677",
    "geocoded_column": {
      "latitude": "29.942141546394677",
      "longitude": "-90.12898280316344"
    }
  },
  {
    "service_request": "2025-1167471",
    "request_type": "Trash/Recycling",
    "request_reason": "Illegal Dumping",
    "date_created": "2025-02-07T15:22:33.000",
    "date_modified": "2025-02-07T15:22:35.000",
    "request_status": "Pending",
    "responsible_agency": "Department of Sanitation",
    "final_address": "1623 Painters St",
    "address_councildis": "D",
    "status": "Pending",
    "rowid": "1167471",
    "final_x": "3687428.79401",
    "final_y": "538547.266057",
    "longitude": "-90.04910067679349",
    "latitude": "29.974636876563075",
    "geocoded_column": {
      "latitude": "29.974636876563075",
      "longitude": "-90.04910067679349"
    }
  },
  {
    "service_request": "2025-1167470",
    "request_type": "Drainage",
    "request_reason": "Drainage Manhole Cover Missing or Damaged",
    "date_created": "2025-02-07T15:21:38.000",
    "date_modified": "2025-02-07T15:21:39.000",
    "request_status": "Pending",
    "responsible_agency": "Sewerage & Water Board ",
    "final_address": "818 Mandeville St",
    "address_councildis": "C",
    "status": "Pending",
    "rowid": "1167470",
    "final_x": "3685824.09436",
    "final_y": "535451.594694",
    "longitude": "-90.05427783774243",
    "latitude": "29.96617421454272",
    "geocoded_column": {
      "latitude": "29.96617421454272",
      "longitude": "-90.05427783774243"
    }
  },
  {
    "service_request": "2025-1167469",
    "request_type": "Property Maintenance",
    "request_reason": "Property Maintenance",
    "date_created": "2025-02-07T15:16:29.000",
    "date_modified": "2025-02-07T15:30:30.000",
    "case_close_date": "2025-02-07T09:30:30.000",
    "request_status": "Closed",
    "responsible_agency": "Department of Code Enforcement",
    "final_address": "4401 Macarthur Blvd",
    "address_councildis": "C",
    "status": "Referred to Code Enforcement",
    "rowid": "1167469",
    "final_x": "3700130.49642",
    "final_y": "520210.059128",
    "longitude": "-90.00965485347274",
    "latitude": "29.92381847627654",
    "geocoded_column": {
      "latitude": "29.92381847627654",
      "longitude": "-90.00965485347274"
    }
  },
  {
    "service_request": "2025-1167468",
    "request_type": "Trash/Recycling",
    "request_reason": "Request a Large Item Pick Up",
    "date_created": "2025-02-07T15:15:13.000",
    "date_modified": "2025-02-07T15:15:15.000",
    "request_status": "Pending",
    "responsible_agency": "Department of Sanitation",
    "final_address": "9916 E Wheaton Cir",
    "address_councildis": "E",
    "status": "Assigned to Contractor",
    "contractor": "Waste Pro",
    "rowid": "1167468",
    "final_x": "3709220.69445",
    "final_y": "562478.446239",
    "longitude": "-89.97938407963579",
    "latitude": "30.039748864963762",
    "geocoded_column": {
      "latitude": "30.039748864963762",
      "longitude": "-89.97938407963579"
    }
  },
  {
    "service_request": "2025-1167467",
    "request_type": "Trash/Recycling",
    "request_reason": "Illegal Dumping",
    "date_created": "2025-02-07T15:09:04.000",
    "date_modified": "2025-02-07T15:09:05.000",
    "request_status": "Pending",
    "responsible_agency": "Department of Sanitation",
    "final_address": "1219 Tricou St",
    "address_councildis": "E",
    "status": "Pending",
    "rowid": "1167467",
    "final_x": "3700356.68164",
    "final_y": "533515.79034",
    "longitude": "-90.00845523350972",
    "latitude": "29.96039739066716",
    "geocoded_column": {
      "latitude": "29.96039739066716",
      "longitude": "-90.00845523350972"
    }
  },
  {
    "service_request": "2025-1167466",
    "request_type": "Abandoned Vehicles",
    "request_reason": "Abandoned/Junk Vehicles",
    "date_created": "2025-02-07T15:07:50.000",
    "date_modified": "2025-02-07T15:07:51.000",
    "request_status": "Pending",
    "responsible_agency": "Department of Public Works",
    "final_address": "308 N Dupre St",
    "address_councildis": "B",
    "status": "Pending",
    "rowid": "1167466",
    "final_x": "3675196.7067",
    "final_y": "536376.933959",
    "longitude": "-90.08780716883933",
    "latitude": "29.969040494626686",
    "geocoded_column": {
      "latitude": "29.969040494626686",
      "longitude": "-90.08780716883933"
    }
  },
  {
    "service_request": "2025-1167465",
    "request_type": "Roads and Streets",
    "request_reason": "Pothole",
    "date_created": "2025-02-07T15:05:03.000",
    "date_modified": "2025-02-07T15:05:47.000",
    "case_close_date": "2025-02-07T09:05:46.000",
    "request_status": "Closed",
    "responsible_agency": "Department of Public Works",
    "final_address": "7100 BLK Broad Pl",
    "address_councildis": "A",
    "status": "Resolved",
    "rowid": "1167465",
    "final_x": "3667050.57695",
    "final_y": "530856.732694",
    "longitude": "-90.1137188548928",
    "latitude": "29.954102723728532",
    "geocoded_column": {
      "latitude": "29.954102723728532",
      "longitude": "-90.1137188548928"
    }
  },
  {
    "service_request": "2025-1167464",
    "request_type": "Trash/Recycling",
    "request_reason": "Request a Large Item Pick Up",
    "date_created": "2025-02-07T15:03:33.000",
    "date_modified": "2025-02-07T15:03:35.000",
    "request_status": "Pending",
    "responsible_agency": "Department of Sanitation",
    "final_address": "803 Spain St",
    "address_councildis": "C",
    "status": "Assigned to Contractor",
    "contractor": "IV Waste",
    "rowid": "1167464",
    "final_x": "3686244.69001",
    "final_y": "535364.705606",
    "longitude": "-90.05295267498212",
    "latitude": "29.965922383540036",
    "geocoded_column": {
      "latitude": "29.965922383540036",
      "longitude": "-90.05295267498212"
    }
  },
  {
    "service_request": "2025-1167463",
    "request_type": "Trash/Recycling",
    "request_reason": "Request a Large Item Pick Up",
    "date_created": "2025-02-07T15:01:52.000",
    "date_modified": "2025-02-07T15:01:54.000",
    "request_status": "Pending",
    "responsible_agency": "Department of Sanitation",
    "final_address": "1306 Felicity St",
    "address_councildis": "B",
    "status": "Assigned to Contractor",
    "contractor": "IV Waste",
    "rowid": "1167463",
    "final_x": "3679413.50703",
    "final_y": "523591.990075",
    "longitude": "-90.0749336441885",
    "latitude": "29.93375948352876",
    "geocoded_column": {
      "latitude": "29.93375948352876",
      "longitude": "-90.0749336441885"
    }
  },
  {
    "service_request": "2025-1167462",
    "request_type": "Trash/Recycling",
    "request_reason": "Order Second Trash Cart",
    "date_created": "2025-02-07T15:01:49.000",
    "date_modified": "2025-02-07T15:01:51.000",
    "request_status": "Pending",
    "responsible_agency": "Department of Sanitation",
    "final_address": "5611 Holley Ln",
    "address_councildis": "E",
    "status": "Assigned to Contractor",
    "contractor": "Waste Pro",
    "rowid": "1167462",
    "final_x": "3703424.83127",
    "final_y": "556579.221722",
    "longitude": "-89.99791793242247",
    "latitude": "30.023715330674086",
    "geocoded_column": {
      "latitude": "30.023715330674086",
      "longitude": "-89.99791793242247"
    }
  },
  {
    "service_request": "2025-1167461",
    "request_type": "Trash/Recycling",
    "request_reason": "Order Recycling Cart",
    "date_created": "2025-02-07T14:56:20.000",
    "date_modified": "2025-02-07T14:56:21.000",
    "request_status": "Pending",
    "responsible_agency": "Department of Sanitation",
    "final_address": "822 Valmont St",
    "address_councildis": "B",
    "status": "Pending",
    "rowid": "1167461",
    "final_x": "3667409.36071",
    "final_y": "518456.696886",
    "longitude": "-90.1130029540767",
    "latitude": "29.919996095484482",
    "geocoded_column": {
      "latitude": "29.919996095484482",
      "longitude": "-90.1130029540767"
    }
  },
  {
    "service_request": "2025-1167460",
    "request_type": "Trash/Recycling",
    "request_reason": "Repair Trash Cart",
    "date_created": "2025-02-07T14:50:34.000",
    "date_modified": "2025-02-07T14:50:36.000",
    "request_status": "Pending",
    "responsible_agency": "Department of Sanitation",
    "final_address": "2400 Bedford Dr",
    "address_councildis": "C",
    "status": "Assigned to Contractor",
    "contractor": "Richards Disposal",
    "rowid": "1167460",
    "final_x": "3705461.20427",
    "final_y": "522170.54361",
    "longitude": "-89.99275547427945",
    "latitude": "29.929038722393376",
    "geocoded_column": {
      "latitude": "29.929038722393376",
      "longitude": "-89.99275547427945"
    }
  },
  {
    "service_request": "2025-1167459",
    "request_type": "Parks & Parkways",
    "request_reason": "Request Tree Service (Right of Way/Public Property)",
    "date_created": "2025-02-07T14:44:37.000",
    "date_modified": "2025-02-07T15:51:33.000",
    "request_status": "Pending",
    "responsible_agency": "Department of Parks & Parkway",
    "final_address": "4714 Stemway Dr",
    "address_councildis": "D",
    "status": "Pending",
    "rowid": "1167459",
    "final_x": "3696873.50576",
    "final_y": "554005.311384",
    "longitude": "-90.0187120074843",
    "latitude": "30.01684636533421",
    "geocoded_column": {
      "latitude": "30.01684636533421",
      "longitude": "-90.0187120074843"
    }
  },
  {
    "service_request": "2025-1167458",
    "request_type": "Trash/Recycling",
    "request_reason": "Missed Trash Pick-Up",
    "date_created": "2025-02-07T14:44:24.000",
    "date_modified": "2025-02-07T14:58:25.000",
    "case_close_date": "2025-02-07T08:58:23.000",
    "request_status": "Closed",
    "responsible_agency": "Department of Sanitation",
    "final_address": "2320 Dante St",
    "address_councildis": "A",
    "status": "Invalid Request",
    "contractor": "IV Waste",
    "contractor_action": "Invalid",
    "rowid": "1167458",
    "final_x": "3664118.34285",
    "final_y": "531880.121091",
    "longitude": "-90.12294357158558",
    "latitude": "29.957002201341144",
    "geocoded_column": {
      "latitude": "29.957002201341144",
      "longitude": "-90.12294357158558"
    }
  },
  {
    "service_request": "2025-1167457",
    "request_type": "Trash/Recycling",
    "request_reason": "Request a Large Item Pick Up",
    "date_created": "2025-02-07T14:37:48.000",
    "date_modified": "2025-02-07T14:37:50.000",
    "request_status": "Pending",
    "responsible_agency": "Department of Sanitation",
    "final_address": "1221 Desire St",
    "address_councildis": "C",
    "status": "Assigned to Contractor",
    "contractor": "IV Waste",
    "rowid": "1167457",
    "final_x": "3690352.39312",
    "final_y": "536245.861895",
    "longitude": "-90.03994930710036",
    "latitude": "29.968218405074",
    "geocoded_column": {
      "latitude": "29.968218405074",
      "longitude": "-90.03994930710036"
    }
  },
  {
    "service_request": "2025-1167456",
    "request_type": "Trash/Recycling",
    "request_reason": "Order Recycling Cart",
    "date_created": "2025-02-07T14:37:44.000",
    "date_modified": "2025-02-07T14:37:45.000",
    "request_status": "Pending",
    "responsible_agency": "Department of Sanitation",
    "final_address": "3142 N Rampart St",
    "address_councildis": "C",
    "status": "Pending",
    "rowid": "1167456",
    "final_x": "3689228.42377",
    "final_y": "535455.125702",
    "longitude": "-90.04352694846584",
    "latitude": "29.96607899432585",
    "geocoded_column": {
      "latitude": "29.96607899432585",
      "longitude": "-90.04352694846584"
    }
  },
  {
    "service_request": "2025-1167455",
    "request_type": "Trash/Recycling",
    "request_reason": "Order Recycling Cart",
    "date_created": "2025-02-07T14:36:10.000",
    "date_modified": "2025-02-07T14:36:13.000",
    "request_status": "Pending",
    "responsible_agency": "Department of Sanitation",
    "final_address": "4524 Chantilly Dr",
    "address_councildis": "E",
    "status": "Pending",
    "rowid": "1167455",
    "final_x": "3700908.41194",
    "final_y": "553047.073495",
    "longitude": "-90.00599854716094",
    "latitude": "30.014083671127256",
    "geocoded_column": {
      "latitude": "30.014083671127256",
      "longitude": "-90.00599854716094"
    }
  },
  {
    "service_request": "2025-1167454",
    "request_type": "Trash/Recycling",
    "request_reason": "Request a Large Item Pick Up",
    "date_created": "2025-02-07T14:35:50.000",
    "date_modified": "2025-02-07T14:35:53.000",
    "request_status": "Pending",
    "responsible_agency": "Department of Sanitation",
    "final_address": "7433 Kenyon Rd",
    "address_councildis": "E",
    "status": "Assigned to Contractor",
    "contractor": "Waste Pro",
    "rowid": "1167454",
    "final_x": "3704493.42161",
    "final_y": "561928.307359",
    "longitude": "-89.99434391662696",
    "latitude": "30.038388941897963",
    "geocoded_column": {
      "latitude": "30.038388941897963",
      "longitude": "-89.99434391662696"
    }
  },
  {
    "service_request": "2025-1167453",
    "request_type": "Property Maintenance",
    "request_reason": "Property Maintenance",
    "date_created": "2025-02-07T14:31:33.000",
    "date_modified": "2025-02-07T15:09:44.000",
    "case_close_date": "2025-02-07T09:09:43.000",
    "request_status": "Closed",
    "responsible_agency": "Department of Code Enforcement",
    "final_address": "143 Westpark Ct",
    "address_councildis": "C",
    "status": "Referred to Code Enforcement",
    "rowid": "1167453",
    "final_x": "3695801.48426",
    "final_y": "522111.410682",
    "longitude": "-90.02325128574934",
    "latitude": "29.929183343696053",
    "geocoded_column": {
      "latitude": "29.929183343696053",
      "longitude": "-90.02325128574934"
    }
  },
  {
    "service_request": "2025-1167452",
    "request_type": "Safety & Permits",
    "request_reason": "Licenses & Permits",
    "date_created": "2025-02-07T14:30:47.000",
    "date_modified": "2025-02-07T14:42:10.000",
    "case_close_date": "2025-02-07T08:42:09.000",
    "request_status": "Closed",
    "responsible_agency": "Safety and Permits",
    "final_address": "5519 Spain St",
    "address_councildis": "D",
    "status": "Resolved",
    "rowid": "1167452",
    "final_x": "3684826.04847",
    "final_y": "553297.613463",
    "longitude": "-90.05680178652828",
    "latitude": "30.015275008704933",
    "geocoded_column": {
      "latitude": "30.015275008704933",
      "longitude": "-90.05680178652828"
    }
  },
  {
    "service_request": "2025-1167451",
    "request_type": "Trash/Recycling",
    "request_reason": "Request a Large Item Pick Up",
    "date_created": "2025-02-07T14:29:49.000",
    "date_modified": "2025-02-07T14:29:53.000",
    "request_status": "Pending",
    "responsible_agency": "Department of Sanitation",
    "final_address": "1104 Marengo St",
    "address_councildis": "B",
    "status": "Assigned to Contractor",
    "contractor": "IV Waste",
    "rowid": "1167451",
    "final_x": "3672029.40231",
    "final_y": "519693.14412",
    "longitude": "-90.09837761855651",
    "latitude": "29.923259828088167",
    "geocoded_column": {
      "latitude": "29.923259828088167",
      "longitude": "-90.09837761855651"
    }
  },
  {
    "service_request": "2025-1167450",
    "request_type": "Abandoned Vehicles",
    "request_reason": "Abandoned/Junk Vehicles",
    "date_created": "2025-02-07T14:27:37.000",
    "date_modified": "2025-02-07T14:27:39.000",
    "request_status": "Pending",
    "responsible_agency": "Department of Public Works",
    "final_address": "3446 Piety St",
    "address_councildis": "D",
    "status": "Pending",
    "rowid": "1167450",
    "final_x": "3692070.52707",
    "final_y": "545193.386127",
    "longitude": "-90.03420302089171",
    "latitude": "29.992767456593285",
    "geocoded_column": {
      "latitude": "29.992767456593285",
      "longitude": "-90.03420302089171"
    }
  },
  {
    "service_request": "2025-1167449",
    "request_type": "Trash/Recycling",
    "request_reason": "Request a Large Item Pick Up",
    "date_created": "2025-02-07T14:24:34.000",
    "date_modified": "2025-02-07T14:24:36.000",
    "request_status": "Pending",
    "responsible_agency": "Department of Sanitation",
    "final_address": "2458 Benefit St",
    "address_councildis": "D",
    "status": "Assigned to Contractor",
    "contractor": "IV Waste",
    "rowid": "1167449",
    "final_x": "3686407.86998",
    "final_y": "544526.387855",
    "longitude": "-90.0521138527654",
    "latitude": "29.991108767501682",
    "geocoded_column": {
      "latitude": "29.991108767501682",
      "longitude": "-90.0521138527654"
    }
  },
  {
    "service_request": "2025-1167448",
    "request_type": "Trash/Recycling",
    "request_reason": "Request a Large Item Pick Up",
    "date_created": "2025-02-07T14:22:09.000",
    "date_modified": "2025-02-07T14:22:45.000",
    "request_status": "Pending",
    "responsible_agency": "Department of Sanitation",
    "final_address": "1620 Fern St",
    "address_councildis": "A",
    "status": "Assigned to Contractor",
    "contractor": "IV Waste",
    "rowid": "1167448",
    "final_x": "3663564.00506",
    "final_y": "529039.906944",
    "longitude": "-90.1247885983787",
    "latitude": "29.949208620708152",
    "geocoded_column": {
      "latitude": "29.949208620708152",
      "longitude": "-90.1247885983787"
    }
  },
  {
    "service_request": "2025-1167447",
    "request_type": "General Services",
    "request_reason": "General Service Request",
    "date_created": "2025-02-07T14:19:52.000",
    "date_modified": "2025-02-07T14:46:21.000",
    "case_close_date": "2025-02-07T08:46:20.000",
    "request_status": "Closed",
    "responsible_agency": "Orleans Parish Communication District",
    "final_address": "CHICKASAW ST & ALVAR ST",
    "address_councildis": "D",
    "status": "Wrong Agency",
    "rowid": "1167447",
    "final_x": "3693393.7",
    "final_y": "547391.88",
    "longitude": "-90.02994437957409",
    "latitude": "29.99877119549668",
    "geocoded_column": {
      "latitude": "29.99877119549668",
      "longitude": "-90.02994437957409"
    }
  },
  {
    "service_request": "2025-1167446",
    "request_type": "Abandoned Vehicles",
    "request_reason": "Abandoned/Junk Vehicles",
    "date_created": "2025-02-07T14:19:41.000",
    "date_modified": "2025-02-07T14:19:43.000",
    "request_status": "Pending",
    "responsible_agency": "Department of Public Works",
    "final_address": "2763 Conti St",
    "address_councildis": "B",
    "status": "Pending",
    "rowid": "1167446",
    "final_x": "3675635.53435",
    "final_y": "536400.337607",
    "longitude": "-90.08642051525764",
    "latitude": "29.969091723414998",
    "geocoded_column": {
      "latitude": "29.969091723414998",
      "longitude": "-90.08642051525764"
    }
  },
  {
    "service_request": "2025-1167445",
    "request_type": "Roads and Streets",
    "request_reason": "Pothole",
    "date_created": "2025-02-07T14:18:55.000",
    "date_modified": "2025-02-07T14:19:55.000",
    "case_close_date": "2025-02-07T08:19:54.000",
    "request_status": "Closed",
    "responsible_agency": "Department of Public Works",
    "final_address": "5900 BLK Pines Blvd",
    "address_councildis": "D",
    "status": "Resolved",
    "rowid": "1167445",
    "final_x": "3695649.24941",
    "final_y": "555941.254375",
    "longitude": "-90.02251015172438",
    "latitude": "30.022208042086174",
    "geocoded_column": {
      "latitude": "30.022208042086174",
      "longitude": "-90.02251015172438"
    }
  },
  {
    "service_request": "2025-1167444",
    "request_type": "Trash/Recycling",
    "request_reason": "Illegal Dumping",
    "date_created": "2025-02-07T14:18:16.000",
    "date_modified": "2025-02-07T14:18:17.000",
    "request_status": "Pending",
    "responsible_agency": "Department of Sanitation",
    "final_address": "3324 Feliciana St",
    "address_councildis": "D",
    "status": "Pending",
    "rowid": "1167444",
    "final_x": "3690932.10595",
    "final_y": "544974.218831",
    "longitude": "-90.03780690244321",
    "latitude": "29.992200266880257",
    "geocoded_column": {
      "latitude": "29.992200266880257",
      "longitude": "-90.03780690244321"
    }
  },
  {
    "service_request": "2025-1167443",
    "request_type": "Trash/Recycling",
    "request_reason": "Repair Recycling Cart",
    "date_created": "2025-02-07T14:16:19.000",
    "date_modified": "2025-02-07T14:18:10.000",
    "request_status": "Pending",
    "responsible_agency": "Department of Sanitation",
    "final_address": "6212 Berkley Dr",
    "address_councildis": "C",
    "status": "Pending",
    "rowid": "1167443",
    "final_x": "3707185.18872",
    "final_y": "518143.100406",
    "longitude": "-89.98746257525312",
    "latitude": "29.917909088064444",
    "geocoded_column": {
      "latitude": "29.917909088064444",
      "longitude": "-89.98746257525312"
    }
  },
  {
    "service_request": "2025-1167442",
    "request_type": "Trash/Recycling",
    "request_reason": "Request a Large Item Pick Up",
    "date_created": "2025-02-07T14:13:48.000",
    "date_modified": "2025-02-07T14:13:51.000",
    "request_status": "Pending",
    "responsible_agency": "Department of Sanitation",
    "final_address": "11950 Lakeland Ct",
    "address_councildis": "E",
    "status": "Assigned to Contractor",
    "contractor": "Waste Pro",
    "rowid": "1167442",
    "final_x": "3712531.13189",
    "final_y": "568580.983589",
    "longitude": "-89.96869250295619",
    "latitude": "30.056420398155236",
    "geocoded_column": {
      "latitude": "30.056420398155236",
      "longitude": "-89.96869250295619"
    }
  },
  {
    "service_request": "2025-1167441",
    "request_type": "Trash/Recycling",
    "request_reason": "Order Trash Cart",
    "date_created": "2025-02-07T14:10:35.000",
    "date_modified": "2025-02-07T14:10:37.000",
    "request_status": "Pending",
    "responsible_agency": "Department of Sanitation",
    "final_address": "2623 General Taylor St",
    "address_councildis": "B",
    "status": "Assigned to Contractor",
    "contractor": "IV Waste",
    "rowid": "1167441",
    "final_x": "3671809.07911",
    "final_y": "524703.50118",
    "longitude": "-90.09890271078372",
    "latitude": "29.937043225973163",
    "geocoded_column": {
      "latitude": "29.937043225973163",
      "longitude": "-90.09890271078372"
    }
  },
  {
    "service_request": "2025-1167440",
    "request_type": "Trash/Recycling",
    "request_reason": "Repair Trash Cart",
    "date_created": "2025-02-07T14:05:57.000",
    "date_modified": "2025-02-07T14:06:01.000",
    "request_status": "Pending",
    "responsible_agency": "Department of Sanitation",
    "final_address": "1420 Harmony St",
    "address_councildis": "B",
    "status": "Assigned to Contractor",
    "contractor": "IV Waste",
    "rowid": "1167440",
    "final_x": "3675206.1028",
    "final_y": "521036.817593",
    "longitude": "-90.08830388312604",
    "latitude": "29.926859972147003",
    "geocoded_column": {
      "latitude": "29.926859972147003",
      "longitude": "-90.08830388312604"
    }
  },
  {
    "service_request": "2025-1167439",
    "request_type": "Safety & Permits",
    "request_reason": "Licenses & Permits",
    "date_created": "2025-02-07T14:03:02.000",
    "date_modified": "2025-02-07T14:28:23.000",
    "case_close_date": "2025-02-07T08:28:22.000",
    "request_status": "Closed",
    "responsible_agency": "Safety and Permits",
    "final_address": "1943 N Rampart St",
    "address_councildis": "C",
    "status": "Resolved",
    "rowid": "1167439",
    "final_x": "3684229.0758",
    "final_y": "535901.470151",
    "longitude": "-90.05929906686211",
    "latitude": "29.967460076499936",
    "geocoded_column": {
      "latitude": "29.967460076499936",
      "longitude": "-90.05929906686211"
    }
  },
  {
    "service_request": "2025-1167438",
    "request_type": "Trash/Recycling",
    "request_reason": "Request a Large Item Pick Up",
    "date_created": "2025-02-07T14:01:58.000",
    "date_modified": "2025-02-07T14:02:00.000",
    "request_status": "Pending",
    "responsible_agency": "Department of Sanitation",
    "final_address": "15001 Emory Rd",
    "address_councildis": "E",
    "status": "Assigned to Contractor",
    "contractor": "Waste Pro",
    "rowid": "1167438",
    "final_x": "3720915.04601",
    "final_y": "574138.401898",
    "longitude": "-89.94197937600815",
    "latitude": "30.071423753550658",
    "geocoded_column": {
      "latitude": "30.071423753550658",
      "longitude": "-89.94197937600815"
    }
  },
  {
    "service_request": "2025-1167437",
    "request_type": "Property Maintenance",
    "request_reason": "Property Maintenance",
    "date_created": "2025-02-07T14:01:16.000",
    "date_modified": "2025-02-07T15:34:29.000",
    "case_close_date": "2025-02-07T09:34:29.000",
    "request_status": "Closed",
    "responsible_agency": "Department of Code Enforcement",
    "final_address": "2426 LaSalle St",
    "address_councildis": "B",
    "status": "Wrong Agency",
    "rowid": "1167437",
    "final_x": "3675290.09352",
    "final_y": "525431.377853",
    "longitude": "-90.08788796284745",
    "latitude": "29.938941072830243",
    "geocoded_column": {
      "latitude": "29.938941072830243",
      "longitude": "-90.08788796284745"
    }
  },
  {
    "service_request": "2025-1167436",
    "request_type": "Trash/Recycling",
    "request_reason": "Request a Large Item Pick Up",
    "date_created": "2025-02-07T14:00:03.000",
    "date_modified": "2025-02-07T14:00:05.000",
    "request_status": "Pending",
    "responsible_agency": "Department of Sanitation",
    "final_address": "7743 Tricia Ct",
    "address_councildis": "E",
    "status": "Assigned to Contractor",
    "contractor": "Waste Pro",
    "rowid": "1167436",
    "final_x": "3717275.87967",
    "final_y": "571690.848936",
    "longitude": "-89.95357694823247",
    "latitude": "30.064815008471452",
    "geocoded_column": {
      "latitude": "30.064815008471452",
      "longitude": "-89.95357694823247"
    }
  },
  {
    "service_request": "2025-1167435",
    "request_type": "Trash/Recycling",
    "request_reason": "Request a Large Item Pick Up",
    "date_created": "2025-02-07T13:57:15.000",
    "date_modified": "2025-02-07T13:57:18.000",
    "request_status": "Pending",
    "responsible_agency": "Department of Sanitation",
    "final_address": "7 Yellowstone Dr",
    "address_councildis": "C",
    "status": "Assigned to Contractor",
    "contractor": "Richards Disposal",
    "rowid": "1167435",
    "final_x": "3699519.01616",
    "final_y": "518010.857206",
    "longitude": "-90.01166513631459",
    "latitude": "29.917790831521174",
    "geocoded_column": {
      "latitude": "29.917790831521174",
      "longitude": "-90.01166513631459"
    }
  },
  {
    "service_request": "2025-1167434",
    "request_type": "Safety & Permits",
    "request_reason": "Licenses & Permits",
    "date_created": "2025-02-07T13:55:08.000",
    "date_modified": "2025-02-07T14:36:26.000",
    "case_close_date": "2025-02-07T08:36:25.000",
    "request_status": "Closed",
    "responsible_agency": "Safety and Permits",
    "final_address": "2644 Lepage St",
    "address_councildis": "A",
    "status": "Resolved",
    "rowid": "1167434",
    "final_x": "3678178.55458",
    "final_y": "539551.966666",
    "longitude": "-90.07828045941193",
    "latitude": "29.977681284099212",
    "geocoded_column": {
      "latitude": "29.977681284099212",
      "longitude": "-90.07828045941193"
    }
  },
  {
    "service_request": "2025-1167433",
    "request_type": "Streetlights",
    "request_reason": "Streetlight Outage/Malfunction",
    "date_created": "2025-02-07T13:54:33.000",
    "date_modified": "2025-02-07T13:54:34.000",
    "request_status": "Pending",
    "responsible_agency": "Department of Public Works",
    "final_address": "3011 Sullen Pl",
    "address_councildis": "C",
    "status": "Pending",
    "contractor": "Legacy Professional Services",
    "rowid": "1167433",
    "final_x": "3707785.08331",
    "final_y": "519617.937592",
    "longitude": "-89.98551429608008",
    "latitude": "29.921944987773887",
    "geocoded_column": {
      "latitude": "29.921944987773887",
      "longitude": "-89.98551429608008"
    }
  },
  {
    "service_request": "2025-1167432",
    "request_type": "Traffic Signals",
    "request_reason": "Traffic Signal Malfunctioning or Damaged",
    "date_created": "2025-02-07T13:52:52.000",
    "date_modified": "2025-02-07T13:52:53.000",
    "request_status": "Pending",
    "responsible_agency": "Department of Public Works",
    "final_address": "2900 S Claiborne Ave",
    "address_councildis": "B",
    "status": "Pending",
    "rowid": "1167432",
    "final_x": "3672768.75572",
    "final_y": "526286.092734",
    "longitude": "-90.09581899130944",
    "latitude": "29.941366374248226",
    "geocoded_column": {
      "latitude": "29.941366374248226",
      "longitude": "-90.09581899130944"
    }
  },
  {
    "service_request": "2025-1167431",
    "request_type": "Trash/Recycling",
    "request_reason": "Repair Trash Cart",
    "date_created": "2025-02-07T13:52:28.000",
    "date_modified": "2025-02-07T13:52:31.000",
    "request_status": "Pending",
    "responsible_agency": "Department of Sanitation",
    "final_address": "3531 Rue Denise",
    "address_councildis": "C",
    "status": "Assigned to Contractor",
    "contractor": "Richards Disposal",
    "rowid": "1167431",
    "final_x": "3704214.22846",
    "final_y": "517616.865462",
    "longitude": "-89.99685956659681",
    "latitude": "29.916557741550136",
    "geocoded_column": {
      "latitude": "29.916557741550136",
      "longitude": "-89.99685956659681"
    }
  },
  {
    "service_request": "2025-1167430",
    "request_type": "Trash/Recycling",
    "request_reason": "Request a Large Item Pick Up",
    "date_created": "2025-02-07T13:50:28.000",
    "date_modified": "2025-02-07T13:50:29.000",
    "request_status": "Pending",
    "responsible_agency": "Department of Sanitation",
    "final_address": "1224 Riviera Ave",
    "address_councildis": "D",
    "status": "Assigned to Contractor",
    "contractor": "IV Waste",
    "rowid": "1167430",
    "final_x": "3676930.94146",
    "final_y": "550762.593557",
    "longitude": "-90.08183413187048",
    "latitude": "30.008544096382458",
    "geocoded_column": {
      "latitude": "30.008544096382458",
      "longitude": "-90.08183413187048"
    }
  },
  {
    "service_request": "2025-1167429",
    "request_type": "Street and Traffic Signs",
    "request_reason": "Traffic or Parking Sign Damaged or Missing",
    "date_created": "2025-02-07T13:48:02.000",
    "date_modified": "2025-02-07T13:48:04.000",
    "request_status": "Pending",
    "responsible_agency": "Department of Public Works",
    "final_address": "1001 S Norman C Francis Prkwy",
    "address_councildis": "B",
    "status": "Pending",
    "rowid": "1167429",
    "final_x": "3670526.47265",
    "final_y": "533341.458372",
    "longitude": "-90.10265908632039",
    "latitude": "29.9608327106646",
    "geocoded_column": {
      "latitude": "29.9608327106646",
      "longitude": "-90.10265908632039"
    }
  },
  {
    "service_request": "2025-1167428",
    "request_type": "Trash/Recycling",
    "request_reason": "Request a Large Item Pick Up",
    "date_created": "2025-02-07T13:45:53.000",
    "date_modified": "2025-02-07T13:45:55.000",
    "request_status": "Pending",
    "responsible_agency": "Department of Sanitation",
    "final_address": "202 Finland Pl",
    "address_councildis": "C",
    "status": "Assigned to Contractor",
    "contractor": "Richards Disposal",
    "rowid": "1167428",
    "final_x": "3706202.10257",
    "final_y": "520819.455417",
    "longitude": "-89.99046660892148",
    "latitude": "29.925299847243352",
    "geocoded_column": {
      "latitude": "29.925299847243352",
      "longitude": "-89.99046660892148"
    }
  },
  {
    "service_request": "2025-1167427",
    "request_type": "Trash/Recycling",
    "request_reason": "Request a Large Item Pick Up",
    "date_created": "2025-02-07T13:45:48.000",
    "date_modified": "2025-02-07T13:45:51.000",
    "request_status": "Pending",
    "responsible_agency": "Department of Sanitation",
    "final_address": "1624 Erie St",
    "address_councildis": "C",
    "status": "Assigned to Contractor",
    "contractor": "Richards Disposal",
    "rowid": "1167427",
    "final_x": "3690144.4879",
    "final_y": "522316.091258",
    "longitude": "-90.04110198799137",
    "latitude": "29.92992277880065",
    "geocoded_column": {
      "latitude": "29.92992277880065",
      "longitude": "-90.04110198799137"
    }
  },
  {
    "service_request": "2025-1167426",
    "request_type": "Trash/Recycling",
    "request_reason": "Repair Recycling Cart",
    "date_created": "2025-02-07T13:38:39.000",
    "date_modified": "2025-02-07T13:38:41.000",
    "request_status": "Pending",
    "responsible_agency": "Department of Sanitation",
    "final_address": "6320 S Prieur St",
    "address_councildis": "A",
    "status": "Pending",
    "rowid": "1167426",
    "final_x": "3666536.29037",
    "final_y": "527289.434239",
    "longitude": "-90.11546249209756",
    "latitude": "29.94430885185046",
    "geocoded_column": {
      "latitude": "29.94430885185046",
      "longitude": "-90.11546249209756"
    }
  },
  {
    "service_request": "2025-1167425",
    "request_type": "Roads and Streets",
    "request_reason": "Pothole",
    "date_created": "2025-02-07T13:35:29.000",
    "date_modified": "2025-02-07T13:36:07.000",
    "case_close_date": "2025-02-07T07:36:07.000",
    "request_status": "Closed",
    "responsible_agency": "Department of Public Works",
    "final_address": "3231 Jackson Ave",
    "address_councildis": "B",
    "status": "Resolved",
    "rowid": "1167425",
    "final_x": "3673823.405",
    "final_y": "528710.883648",
    "longitude": "-90.09240634649098",
    "latitude": "29.948002390796503",
    "geocoded_column": {
      "latitude": "29.948002390796503",
      "longitude": "-90.09240634649098"
    }
  },
  {
    "service_request": "2025-1167424",
    "request_type": "Trash/Recycling",
    "request_reason": "Request a Large Item Pick Up",
    "date_created": "2025-02-07T13:33:40.000",
    "date_modified": "2025-02-07T13:33:42.000",
    "request_status": "Pending",
    "responsible_agency": "Department of Sanitation",
    "final_address": "6739 Wuerpel St",
    "address_councildis": "A",
    "status": "Assigned to Contractor",
    "contractor": "IV Waste",
    "rowid": "1167424",
    "final_x": "3667231.34151",
    "final_y": "552494.579478",
    "longitude": "-90.11242007086793",
    "latitude": "30.01359418251041",
    "geocoded_column": {
      "latitude": "30.01359418251041",
      "longitude": "-90.11242007086793"
    }
  },
  {
    "service_request": "2025-1167423",
    "request_type": "Trash/Recycling",
    "request_reason": "Request a Large Item Pick Up",
    "date_created": "2025-02-07T13:27:51.000",
    "date_modified": "2025-02-07T13:27:55.000",
    "request_status": "Pending",
    "responsible_agency": "Department of Sanitation",
    "final_address": "4514 America St",
    "address_councildis": "E",
    "status": "Assigned to Contractor",
    "contractor": "Waste Pro",
    "rowid": "1167423",
    "final_x": "3699787.06128",
    "final_y": "553775.058391",
    "longitude": "-90.00951485288522",
    "latitude": "30.016121022742922",
    "geocoded_column": {
      "latitude": "30.016121022742922",
      "longitude": "-90.00951485288522"
    }
  },
  {
    "service_request": "2025-1167422",
    "request_type": "Trash/Recycling",
    "request_reason": "Replace Trash Cart",
    "date_created": "2025-02-07T13:26:17.000",
    "date_modified": "2025-02-07T13:26:19.000",
    "request_status": "Pending",
    "responsible_agency": "Department of Sanitation",
    "final_address": "4832 Viola St",
    "address_councildis": "E",
    "status": "Assigned to Contractor",
    "contractor": "Waste Pro",
    "rowid": "1167422",
    "final_x": "3703844.10679",
    "final_y": "555772.991577",
    "longitude": "-89.99662283461716",
    "latitude": "30.02148506639742",
    "geocoded_column": {
      "latitude": "30.02148506639742",
      "longitude": "-89.99662283461716"
    }
  },
  {
    "service_request": "2025-1167421",
    "request_type": "Trash/Recycling",
    "request_reason": "Replace Trash Cart",
    "date_created": "2025-02-07T13:21:59.000",
    "date_modified": "2025-02-07T13:22:01.000",
    "request_status": "Pending",
    "responsible_agency": "Department of Sanitation",
    "final_address": "34 Lake Breeze Dr",
    "address_councildis": "E",
    "status": "Assigned to Contractor",
    "contractor": "Waste Pro",
    "rowid": "1167421",
    "final_x": "3763121.63395",
    "final_y": "572001.038824",
    "longitude": "-89.80864480044966",
    "latitude": "30.06407026031545",
    "geocoded_column": {
      "latitude": "30.06407026031545",
      "longitude": "-89.80864480044966"
    }
  },
  {
    "service_request": "2025-1167420",
    "request_type": "Trash/Recycling",
    "request_reason": "Request a Large Item Pick Up",
    "date_created": "2025-02-07T13:17:46.000",
    "date_modified": "2025-02-07T13:17:48.000",
    "request_status": "Pending",
    "responsible_agency": "Department of Sanitation",
    "final_address": "14021 Linden St",
    "address_councildis": "E",
    "status": "Assigned to Contractor",
    "contractor": "Waste Pro",
    "rowid": "1167420",
    "final_x": "3718384.33113",
    "final_y": "572516.798633",
    "longitude": "-89.95004154345258",
    "latitude": "30.067049277630513",
    "geocoded_column": {
      "latitude": "30.067049277630513",
      "longitude": "-89.95004154345258"
    }
  },
  {
    "service_request": "2025-1167419",
    "request_type": "Streetlights",
    "request_reason": "Streetlight Knocked Down/Leaning",
    "date_created": "2025-02-07T13:13:36.000",
    "date_modified": "2025-02-07T13:13:37.000",
    "request_status": "Pending",
    "responsible_agency": "Department of Public Works",
    "final_address": "4865 Viola St",
    "address_councildis": "E",
    "status": "Pending",
    "contractor": "Legacy Professional Services",
    "rowid": "1167419",
    "final_x": "3703952.54711",
    "final_y": "556025.107225",
    "longitude": "-89.99627089964137",
    "latitude": "30.022174808355782",
    "geocoded_column": {
      "latitude": "30.022174808355782",
      "longitude": "-89.99627089964137"
    }
  },
  {
    "service_request": "2025-1167418",
    "request_type": "Traffic Safety",
    "request_reason": "Request for Traffic Calming due to Speeding",
    "date_created": "2025-02-07T13:11:42.000",
    "date_modified": "2025-02-07T13:11:44.000",
    "request_status": "Pending",
    "responsible_agency": "Department of Public Works",
    "final_address": "4865 Viola St",
    "address_councildis": "E",
    "status": "Pending",
    "rowid": "1167418",
    "final_x": "3703952.54711",
    "final_y": "556025.107225",
    "longitude": "-89.99627089964137",
    "latitude": "30.022174808355782",
    "geocoded_column": {
      "latitude": "30.022174808355782",
      "longitude": "-89.99627089964137"
    }
  },
  {
    "service_request": "2025-1167417",
    "request_type": "Trash/Recycling",
    "request_reason": "Request a Large Item Pick Up",
    "date_created": "2025-02-07T13:11:12.000",
    "date_modified": "2025-02-07T13:11:15.000",
    "request_status": "Pending",
    "responsible_agency": "Department of Sanitation",
    "final_address": "11006 S Hardy St",
    "address_councildis": "E",
    "status": "Assigned to Contractor",
    "contractor": "Waste Pro",
    "rowid": "1167417",
    "final_x": "3713322.46194",
    "final_y": "561784.576927",
    "longitude": "-89.96644752914594",
    "latitude": "30.03770709834258",
    "geocoded_column": {
      "latitude": "30.03770709834258",
      "longitude": "-89.96644752914594"
    }
  },
  {
    "service_request": "2025-1167416",
    "request_type": "Trash/Recycling",
    "request_reason": "Request a Large Item Pick Up",
    "date_created": "2025-02-07T13:09:11.000",
    "date_modified": "2025-02-07T13:09:13.000",
    "request_status": "Pending",
    "responsible_agency": "Department of Sanitation",
    "final_address": "442 Abalon Ct",
    "address_councildis": "C",
    "status": "Assigned to Contractor",
    "contractor": "Richards Disposal",
    "rowid": "1167416",
    "final_x": "3689240.62153",
    "final_y": "529973.388545",
    "longitude": "-90.04368326658664",
    "latitude": "29.951005740673313",
    "geocoded_column": {
      "latitude": "29.951005740673313",
      "longitude": "-90.04368326658664"
    }
  },
  {
    "service_request": "2025-1167415",
    "request_type": "Trash/Recycling",
    "request_reason": "Illegal Dumping",
    "date_created": "2025-02-07T13:04:47.000",
    "date_modified": "2025-02-07T13:04:50.000",
    "request_status": "Pending",
    "responsible_agency": "Department of Sanitation",
    "final_address": "3404 Feliciana St",
    "address_councildis": "D",
    "status": "Pending",
    "rowid": "1167415",
    "final_x": "3690992.5199",
    "final_y": "545197.055375",
    "longitude": "-90.03760810774033",
    "latitude": "29.99281110842221",
    "geocoded_column": {
      "latitude": "29.99281110842221",
      "longitude": "-90.03760810774033"
    }
  },
  {
    "service_request": "2025-1167414",
    "request_type": "Trash/Recycling",
    "request_reason": "Missed Trash Pick-Up",
    "date_created": "2025-02-07T13:02:09.000",
    "date_modified": "2025-02-07T14:34:10.000",
    "case_close_date": "2025-02-07T08:34:08.000",
    "request_status": "Closed",
    "responsible_agency": "Department of Sanitation",
    "final_address": "5318 Douglass St",
    "address_councildis": "E",
    "status": "Duplicate Request",
    "contractor": "Waste Pro",
    "contractor_action": "Duplicate",
    "rowid": "1167414",
    "final_x": "3696359.11863",
    "final_y": "531834.396483",
    "longitude": "-90.02113945438074",
    "latitude": "29.955900639359342",
    "geocoded_column": {
      "latitude": "29.955900639359342",
      "longitude": "-90.02113945438074"
    }
  },
  {
    "service_request": "2025-1167413",
    "request_type": "Trash/Recycling",
    "request_reason": "Repair Trash Cart",
    "date_created": "2025-02-07T12:54:59.000",
    "date_modified": "2025-02-07T12:55:01.000",
    "request_status": "Pending",
    "responsible_agency": "Department of Sanitation",
    "final_address": "5620 Brighton Pl",
    "address_councildis": "C",
    "status": "Assigned to Contractor",
    "contractor": "Richards Disposal",
    "rowid": "1167413",
    "final_x": "3704389.11492",
    "final_y": "520448.570744",
    "longitude": "-89.99620325659035",
    "latitude": "29.924338341721008",
    "geocoded_column": {
      "latitude": "29.924338341721008",
      "longitude": "-89.99620325659035"
    }
  },
  {
    "service_request": "2025-1167412",
    "request_type": "Trash/Recycling",
    "request_reason": "Request a Large Item Pick Up",
    "date_created": "2025-02-07T12:53:20.000",
    "date_modified": "2025-02-07T12:53:22.000",
    "request_status": "Pending",
    "responsible_agency": "Department of Sanitation",
    "final_address": "6757 Deanne St",
    "address_councildis": "D",
    "status": "Assigned to Contractor",
    "contractor": "Waste Pro",
    "rowid": "1167412",
    "final_x": "3695975.38294",
    "final_y": "555687.789593",
    "longitude": "-90.02148882506809",
    "latitude": "30.02150084725312",
    "geocoded_column": {
      "latitude": "30.02150084725312",
      "longitude": "-90.02148882506809"
    }
  },
  {
    "service_request": "2025-1167411",
    "request_type": "Trash/Recycling",
    "request_reason": "Request a Large Item Pick Up",
    "date_created": "2025-02-07T12:51:22.000",
    "date_modified": "2025-02-07T12:51:24.000",
    "request_status": "Pending",
    "responsible_agency": "Department of Sanitation",
    "final_address": "7920 Lady Gray St",
    "address_councildis": "E",
    "status": "Assigned to Contractor",
    "contractor": "Waste Pro",
    "rowid": "1167411",
    "final_x": "3709237.38827",
    "final_y": "566412.791139",
    "longitude": "-89.97918438159117",
    "latitude": "30.05056619381556",
    "geocoded_column": {
      "latitude": "30.05056619381556",
      "longitude": "-89.97918438159117"
    }
  },
  {
    "service_request": "2025-1167410",
    "request_type": "Trash/Recycling",
    "request_reason": "Request a Large Item Pick Up",
    "date_created": "2025-02-07T12:50:34.000",
    "date_modified": "2025-02-07T12:50:36.000",
    "request_status": "Pending",
    "responsible_agency": "Department of Sanitation",
    "final_address": "1534 Harrison Ave",
    "address_councildis": "D",
    "status": "Assigned to Contractor",
    "contractor": "IV Waste",
    "rowid": "1167410",
    "final_x": "3679046.91016",
    "final_y": "547637.37813",
    "longitude": "-90.07525751741039",
    "latitude": "29.999887152457447",
    "geocoded_column": {
      "latitude": "29.999887152457447",
      "longitude": "-90.07525751741039"
    }
  },
  {
    "service_request": "2025-1167409",
    "request_type": "Health Related Request",
    "request_reason": "Noise Ordinance Complaint",
    "date_created": "2025-02-07T12:50:25.000",
    "date_modified": "2025-02-07T12:50:27.000",
    "request_status": "Pending",
    "responsible_agency": "Health Department",
    "final_address": "N PETERS ST & BIENVILLE ST",
    "address_councildis": "C",
    "status": "Pending",
    "rowid": "1167409",
    "final_x": "3682447.3",
    "final_y": "530707.28",
    "longitude": "-90.06510749596413",
    "latitude": "29.953232182373185",
    "geocoded_column": {
      "latitude": "29.953232182373185",
      "longitude": "-90.06510749596413"
    }
  },
  {
    "service_request": "2025-1167408",
    "request_type": "Trash/Recycling",
    "request_reason": "Repair Trash Cart",
    "date_created": "2025-02-07T12:48:15.000",
    "date_modified": "2025-02-07T12:48:18.000",
    "request_status": "Pending",
    "responsible_agency": "Department of Sanitation",
    "final_address": "2800 St Andrew St",
    "address_councildis": "B",
    "status": "Assigned to Contractor",
    "contractor": "IV Waste",
    "rowid": "1167408",
    "final_x": "3675423.55278",
    "final_y": "527387.825279",
    "longitude": "-90.08739945303422",
    "latitude": "29.944316670604497",
    "geocoded_column": {
      "latitude": "29.944316670604497",
      "longitude": "-90.08739945303422"
    }
  },
  {
    "service_request": "2025-1167407",
    "request_type": "Trash/Recycling",
    "request_reason": "Missed Trash Pick-Up",
    "date_created": "2025-02-07T12:46:45.000",
    "date_modified": "2025-02-07T14:07:53.000",
    "case_close_date": "2025-02-07T08:07:51.000",
    "request_status": "Closed",
    "responsible_agency": "Department of Sanitation",
    "final_address": "2800 St Andrew St",
    "address_councildis": "B",
    "status": "Invalid Request",
    "contractor": "IV Waste",
    "contractor_action": "Invalid",
    "rowid": "1167407",
    "final_x": "3675423.55278",
    "final_y": "527387.825279",
    "longitude": "-90.08739945303422",
    "latitude": "29.944316670604497",
    "geocoded_column": {
      "latitude": "29.944316670604497",
      "longitude": "-90.08739945303422"
    }
  },
  {
    "service_request": "2025-1167406",
    "request_type": "Safety & Permits",
    "request_reason": "Construction permit",
    "date_created": "2025-02-07T12:33:39.000",
    "date_modified": "2025-02-07T13:27:58.000",
    "case_close_date": "2025-02-07T07:27:57.000",
    "request_status": "Closed",
    "responsible_agency": "Safety and Permits",
    "final_address": "1442 Nashville Ave",
    "address_councildis": "A",
    "status": "Resolved",
    "rowid": "1167406",
    "final_x": "3665990.33383",
    "final_y": "521392.020729",
    "longitude": "-90.11738383096645",
    "latitude": "29.928108791183938",
    "geocoded_column": {
      "latitude": "29.928108791183938",
      "longitude": "-90.11738383096645"
    }
  },
  {
    "service_request": "2025-1167405",
    "request_type": "Safety & Permits",
    "request_reason": "Zoning Enforcement",
    "date_created": "2025-02-07T12:30:50.000",
    "date_modified": "2025-02-07T13:30:22.000",
    "case_close_date": "2025-02-07T07:30:21.000",
    "request_status": "Closed",
    "responsible_agency": "Safety and Permits",
    "final_address": "1442 Nashville Ave",
    "address_councildis": "A",
    "status": "Resolved",
    "rowid": "1167405",
    "final_x": "3665990.33383",
    "final_y": "521392.020729",
    "longitude": "-90.11738383096645",
    "latitude": "29.928108791183938",
    "geocoded_column": {
      "latitude": "29.928108791183938",
      "longitude": "-90.11738383096645"
    }
  },
  {
    "service_request": "2025-1167404",
    "request_type": "Mosquito, Termite & Rodent Control",
    "request_reason": "Rodent Complaint (Rats)",
    "date_created": "2025-02-07T12:30:44.000",
    "date_modified": "2025-02-07T12:30:47.000",
    "request_status": "Pending",
    "responsible_agency": "Mosquito, Termite & Rodent Control Board",
    "final_address": "6608 Brunswick Ct",
    "address_councildis": "C",
    "status": "Pending",
    "rowid": "1167404",
    "final_x": "3708335.25163",
    "final_y": "516980.003637",
    "longitude": "-89.98387572738848",
    "latitude": "29.914673783129636",
    "geocoded_column": {
      "latitude": "29.914673783129636",
      "longitude": "-89.98387572738848"
    }
  },
  {
    "service_request": "2025-1167403",
    "request_type": "Abandoned Vehicles",
    "request_reason": "Abandoned/Junk Vehicles",
    "date_created": "2025-02-07T12:27:23.000",
    "date_modified": "2025-02-07T12:27:25.000",
    "request_status": "Pending",
    "responsible_agency": "Department of Public Works",
    "final_address": "930 Mandeville St",
    "address_councildis": "C",
    "status": "Pending",
    "rowid": "1167403",
    "final_x": "3685785.82863",
    "final_y": "535898.451463",
    "longitude": "-90.05438292887895",
    "latitude": "29.967404090013485",
    "geocoded_column": {
      "latitude": "29.967404090013485",
      "longitude": "-90.05438292887895"
    }
  },
  {
    "service_request": "2025-1167402",
    "request_type": "Trash/Recycling",
    "request_reason": "Request a Large Item Pick Up",
    "date_created": "2025-02-07T12:24:29.000",
    "date_modified": "2025-02-07T15:01:15.000",
    "request_status": "Pending",
    "responsible_agency": "Department of Sanitation",
    "final_address": "312 S Genois St",
    "address_councildis": "B",
    "status": "Assigned to Contractor",
    "contractor": "IV Waste",
    "rowid": "1167402",
    "final_x": "3672061.14561",
    "final_y": "536426.030791",
    "longitude": "-90.09770783487232",
    "latitude": "29.969268839802982",
    "geocoded_column": {
      "latitude": "29.969268839802982",
      "longitude": "-90.09770783487232"
    }
  },
  {
    "service_request": "2025-1167401",
    "request_type": "Trash/Recycling",
    "request_reason": "Request a Large Item Pick Up",
    "date_created": "2025-02-07T12:14:04.000",
    "date_modified": "2025-02-07T15:00:46.000",
    "request_status": "Pending",
    "responsible_agency": "Department of Sanitation",
    "final_address": "400 BLK S Genois St",
    "address_councildis": "B",
    "status": "Assigned to Contractor",
    "contractor": "IV Waste",
    "rowid": "1167401",
    "final_x": "3671742.46422",
    "final_y": "536069.822989",
    "longitude": "-90.09872637788645",
    "latitude": "29.968298833521548",
    "geocoded_column": {
      "latitude": "29.968298833521548",
      "longitude": "-90.09872637788645"
    }
  },
  {
    "service_request": "2025-1167400",
    "request_type": "Abandoned Vehicles",
    "request_reason": "Abandoned/Junk Vehicles",
    "date_created": "2025-02-07T12:00:06.000",
    "date_modified": "2025-02-07T12:00:57.000",
    "request_status": "Pending",
    "responsible_agency": "Department of Public Works",
    "final_address": "2634 St Ann St",
    "address_councildis": "D",
    "status": "Pending",
    "rowid": "1167400",
    "final_x": "3677107.89813",
    "final_y": "537029.296264",
    "longitude": "-90.08174898819907",
    "latitude": "29.9707770070046",
    "geocoded_column": {
      "latitude": "29.9707770070046",
      "longitude": "-90.08174898819907"
    }
  },
  {
    "service_request": "2025-1167399",
    "request_type": "Trash/Recycling",
    "request_reason": "Request a Large Item Pick Up",
    "date_created": "2025-02-07T11:56:14.000",
    "date_modified": "2025-02-07T11:56:16.000",
    "request_status": "Pending",
    "responsible_agency": "Department of Sanitation",
    "final_address": "1911 Governor Nicholls St",
    "address_councildis": "D",
    "status": "Assigned to Contractor",
    "contractor": "IV Waste",
    "rowid": "1167399",
    "final_x": "3680252.19957",
    "final_y": "536597.265223",
    "longitude": "-90.07183392035122",
    "latitude": "29.969494259273375",
    "geocoded_column": {
      "latitude": "29.969494259273375",
      "longitude": "-90.07183392035122"
    }
  },
  {
    "service_request": "2025-1167398",
    "request_type": "Abandoned Vehicles",
    "request_reason": "Abandoned/Junk Vehicles",
    "date_created": "2025-02-07T11:55:53.000",
    "date_modified": "2025-02-07T11:55:54.000",
    "request_status": "Pending",
    "responsible_agency": "Department of Public Works",
    "final_address": "2410 Lavender St",
    "address_councildis": "D",
    "status": "Pending",
    "rowid": "1167398",
    "final_x": "3686136.42927",
    "final_y": "546814.488721",
    "longitude": "-90.05289050295042",
    "latitude": "29.99740856733705",
    "geocoded_column": {
      "latitude": "29.99740856733705",
      "longitude": "-90.05289050295042"
    }
  },
  {
    "service_request": "2025-1167397",
    "request_type": "Trash/Recycling",
    "request_reason": "Request a Large Item Pick Up",
    "date_created": "2025-02-07T11:44:51.000",
    "date_modified": "2025-02-07T11:44:53.000",
    "request_status": "Pending",
    "responsible_agency": "Department of Sanitation",
    "final_address": "2110 Burdette St",
    "address_councildis": "A",
    "status": "Assigned to Contractor",
    "contractor": "IV Waste",
    "rowid": "1167397",
    "final_x": "3664978.48954",
    "final_y": "530062.440577",
    "longitude": "-90.12028824870116",
    "latitude": "29.951979159403212",
    "geocoded_column": {
      "latitude": "29.951979159403212",
      "longitude": "-90.12028824870116"
    }
  },
  {
    "service_request": "2025-1167396",
    "request_type": "Drainage",
    "request_reason": "Catch Basin Damaged",
    "date_created": "2025-02-07T11:39:21.000",
    "date_modified": "2025-02-07T11:39:23.000",
    "request_status": "Pending",
    "responsible_agency": "Sewerage & Water Board ",
    "final_address": "1440 N Roman St",
    "address_councildis": "D",
    "status": "Pending",
    "rowid": "1167396",
    "final_x": "3680942.19631",
    "final_y": "537281.48084",
    "longitude": "-90.06963102388809",
    "latitude": "29.971354710922242",
    "geocoded_column": {
      "latitude": "29.971354710922242",
      "longitude": "-90.06963102388809"
    }
  },
  {
    "service_request": "2025-1167395",
    "request_type": "Property Maintenance",
    "request_reason": "Property Maintenance",
    "date_created": "2025-02-07T11:37:36.000",
    "date_modified": "2025-02-07T11:55:15.000",
    "case_close_date": "2025-02-07T05:55:15.000",
    "request_status": "Closed",
    "responsible_agency": "Department of Code Enforcement",
    "final_address": "2110 Royal St",
    "address_councildis": "C",
    "status": "Referred to Code Enforcement",
    "rowid": "1167395",
    "final_x": "3684809.73826",
    "final_y": "534800.66823",
    "longitude": "-90.05750403441212",
    "latitude": "29.96441548673089",
    "geocoded_column": {
      "latitude": "29.96441548673089",
      "longitude": "-90.05750403441212"
    }
  },
  {
    "service_request": "2025-1167394",
    "request_type": "Healthy Homes",
    "request_reason": "Healthy Homes",
    "date_created": "2025-02-07T11:37:23.000",
    "date_modified": "2025-02-07T13:05:07.000",
    "case_close_date": "2025-02-07T07:05:05.000",
    "request_status": "Closed",
    "responsible_agency": "Department of Code Enforcement",
    "final_address": "2110 Royal St",
    "address_councildis": "C",
    "status": "Referred to Code Enforcement",
    "rowid": "1167394",
    "final_x": "3684809.73826",
    "final_y": "534800.66823",
    "longitude": "-90.05750403441212",
    "latitude": "29.96441548673089",
    "geocoded_column": {
      "latitude": "29.96441548673089",
      "longitude": "-90.05750403441212"
    }
  },
  {
    "service_request": "2025-1167393",
    "request_type": "Trash/Recycling",
    "request_reason": "Request a Large Item Pick Up",
    "date_created": "2025-02-07T11:32:45.000",
    "date_modified": "2025-02-07T11:32:47.000",
    "request_status": "Pending",
    "responsible_agency": "Department of Sanitation",
    "final_address": "4414 Werner Dr",
    "address_councildis": "E",
    "status": "Assigned to Contractor",
    "contractor": "Waste Pro",
    "rowid": "1167393",
    "final_x": "3704874.28452",
    "final_y": "553400.018967",
    "longitude": "-89.99345545435297",
    "latitude": "30.01492722037077",
    "geocoded_column": {
      "latitude": "30.01492722037077",
      "longitude": "-89.99345545435297"
    }
  },
  {
    "service_request": "2025-1167392",
    "request_type": "Trash/Recycling",
    "request_reason": "Repair Recycling Cart",
    "date_created": "2025-02-07T11:30:19.000",
    "date_modified": "2025-02-07T11:30:21.000",
    "request_status": "Pending",
    "responsible_agency": "Department of Sanitation",
    "final_address": "2513 Robert St",
    "address_councildis": "B",
    "status": "Pending",
    "rowid": "1167392",
    "final_x": "3668908.01134",
    "final_y": "524731.733948",
    "longitude": "-90.10806061969005",
    "latitude": "29.937206475416225",
    "geocoded_column": {
      "latitude": "29.937206475416225",
      "longitude": "-90.10806061969005"
    }
  },
  {
    "service_request": "2025-1167391",
    "request_type": "Trash/Recycling",
    "request_reason": "Repair Trash Cart",
    "date_created": "2025-02-07T11:29:44.000",
    "date_modified": "2025-02-07T11:29:46.000",
    "request_status": "Pending",
    "responsible_agency": "Department of Sanitation",
    "final_address": "2513 Robert St",
    "address_councildis": "B",
    "status": "Assigned to Contractor",
    "contractor": "IV Waste",
    "rowid": "1167391",
    "final_x": "3668908.01134",
    "final_y": "524731.733948",
    "longitude": "-90.10806061969005",
    "latitude": "29.937206475416225",
    "geocoded_column": {
      "latitude": "29.937206475416225",
      "longitude": "-90.10806061969005"
    }
  },
  {
    "service_request": "2025-1167390",
    "request_type": "Trash/Recycling",
    "request_reason": "Repair Recycling Cart",
    "date_created": "2025-02-07T11:28:14.000",
    "date_modified": "2025-02-07T11:28:17.000",
    "request_status": "Pending",
    "responsible_agency": "Department of Sanitation",
    "final_address": "5310 Macarthur Blvd",
    "address_councildis": "C",
    "status": "Pending",
    "rowid": "1167390",
    "final_x": "3703674.43537",
    "final_y": "519839.5054",
    "longitude": "-89.99848163316105",
    "latitude": "29.922686535558444",
    "geocoded_column": {
      "latitude": "29.922686535558444",
      "longitude": "-89.99848163316105"
    }
  },
  {
    "service_request": "2025-1167389",
    "request_type": "Trash/Recycling",
    "request_reason": "Repair Trash Cart",
    "date_created": "2025-02-07T11:27:32.000",
    "date_modified": "2025-02-07T11:27:34.000",
    "request_status": "Pending",
    "responsible_agency": "Department of Sanitation",
    "final_address": "5310 Macarthur Blvd",
    "address_councildis": "C",
    "status": "Assigned to Contractor",
    "contractor": "Richards Disposal",
    "rowid": "1167389",
    "final_x": "3703674.43537",
    "final_y": "519839.5054",
    "longitude": "-89.99848163316105",
    "latitude": "29.922686535558444",
    "geocoded_column": {
      "latitude": "29.922686535558444",
      "longitude": "-89.99848163316105"
    }
  },
  {
    "service_request": "2025-1167388",
    "request_type": "Streetlights",
    "request_reason": "Streetlight Outage/Malfunction",
    "date_created": "2025-02-07T11:23:25.000",
    "date_modified": "2025-02-07T11:23:26.000",
    "request_status": "Pending",
    "responsible_agency": "Department of Public Works",
    "final_address": "117 Wren St",
    "address_councildis": "D",
    "status": "Pending",
    "contractor": "Legacy Professional Services",
    "rowid": "1167388",
    "final_x": "3673166.17947",
    "final_y": "556034.811097",
    "longitude": "-90.09354801585236",
    "latitude": "30.023153338788436",
    "geocoded_column": {
      "latitude": "30.023153338788436",
      "longitude": "-90.09354801585236"
    }
  },
  {
    "service_request": "2025-1167387",
    "request_type": "Trash/Recycling",
    "request_reason": "Request a Large Item Pick Up",
    "date_created": "2025-02-07T11:22:50.000",
    "date_modified": "2025-02-07T11:22:51.000",
    "request_status": "Pending",
    "responsible_agency": "Department of Sanitation",
    "final_address": "3110 De Soto St A",
    "address_councildis": "A",
    "status": "Assigned to Contractor",
    "contractor": "IV Waste",
    "rowid": "1167387",
    "final_x": "3676291.47291",
    "final_y": "539816.124298",
    "longitude": "-90.08423141914655",
    "latitude": "29.978464325671307",
    "geocoded_column": {
      "latitude": "29.978464325671307",
      "longitude": "-90.08423141914655"
    }
  },
  {
    "service_request": "2025-1167386",
    "request_type": "Trash/Recycling",
    "request_reason": "Request a Large Item Pick Up",
    "date_created": "2025-02-07T11:18:33.000",
    "date_modified": "2025-02-07T11:18:35.000",
    "request_status": "Pending",
    "responsible_agency": "Department of Sanitation",
    "final_address": "5864 Bellaire Dr",
    "address_councildis": "A",
    "status": "Assigned to Contractor",
    "contractor": "IV Waste",
    "rowid": "1167386",
    "final_x": "3664191.33543",
    "final_y": "547254.302673",
    "longitude": "-90.12219995019073",
    "latitude": "29.99927394755181",
    "geocoded_column": {
      "latitude": "29.99927394755181",
      "longitude": "-90.12219995019073"
    }
  },
  {
    "service_request": "2025-1167385",
    "request_type": "Trash/Recycling",
    "request_reason": "Replace Trash Cart",
    "date_created": "2025-02-07T11:11:28.000",
    "date_modified": "2025-02-07T11:11:31.000",
    "request_status": "Pending",
    "responsible_agency": "Department of Sanitation",
    "final_address": "8222 S Claiborne Ave",
    "address_councildis": "A",
    "status": "Assigned to Contractor",
    "contractor": "IV Waste",
    "rowid": "1167385",
    "final_x": "3664399.2281",
    "final_y": "531803.114179",
    "longitude": "-90.12205919032418",
    "latitude": "29.95678229592399",
    "geocoded_column": {
      "latitude": "29.95678229592399",
      "longitude": "-90.12205919032418"
    }
  },
  {
    "service_request": "2025-1167384",
    "request_type": "Trash/Recycling",
    "request_reason": "Order Trash Cart",
    "date_created": "2025-02-07T11:10:29.000",
    "date_modified": "2025-02-07T11:10:31.000",
    "request_status": "Pending",
    "responsible_agency": "Department of Sanitation",
    "final_address": "2313 Conti St",
    "address_councildis": "B",
    "status": "Assigned to Contractor",
    "contractor": "IV Waste",
    "rowid": "1167384",
    "final_x": "3677321.32661",
    "final_y": "535111.009862",
    "longitude": "-90.08114115911367",
    "latitude": "29.965495960744025",
    "geocoded_column": {
      "latitude": "29.965495960744025",
      "longitude": "-90.08114115911367"
    }
  },
  {
    "service_request": "2025-1167383",
    "request_type": "Trash/Recycling",
    "request_reason": "Request a Large Item Pick Up",
    "date_created": "2025-02-07T11:09:59.000",
    "date_modified": "2025-02-07T11:10:01.000",
    "request_status": "Pending",
    "responsible_agency": "Department of Sanitation",
    "final_address": "9032 Bunker Hill Rd",
    "address_councildis": "E",
    "status": "Assigned to Contractor",
    "contractor": "Waste Pro",
    "rowid": "1167383",
    "final_x": "3706904.48433",
    "final_y": "560175.191069",
    "longitude": "-89.98678949304302",
    "latitude": "30.033490873299222",
    "geocoded_column": {
      "latitude": "30.033490873299222",
      "longitude": "-89.98678949304302"
    }
  },
  {
    "service_request": "2025-1167382",
    "request_type": "Drainage",
    "request_reason": "Catch Basin Clogged",
    "date_created": "2025-02-07T11:09:32.000",
    "date_modified": "2025-02-07T11:09:35.000",
    "request_status": "Pending",
    "responsible_agency": "Sewerage & Water Board ",
    "final_address": "1581 Magazine St",
    "address_councildis": "B",
    "status": "Pending",
    "rowid": "1167382",
    "final_x": "3680017.78408",
    "final_y": "523287.187323",
    "longitude": "-90.07303655448769",
    "latitude": "29.932903114747276",
    "geocoded_column": {
      "latitude": "29.932903114747276",
      "longitude": "-90.07303655448769"
    }
  },
  {
    "service_request": "2025-1167381",
    "request_type": "Safety & Permits",
    "request_reason": "Zoning Enforcement",
    "date_created": "2025-02-07T11:08:17.000",
    "date_modified": "2025-02-07T11:38:09.000",
    "case_close_date": "2025-02-07T05:26:31.000",
    "request_status": "Closed",
    "responsible_agency": "Safety and Permits",
    "final_address": "2314 Harmony St",
    "address_councildis": "B",
    "status": "Resolved",
    "contractor_action": "Reviewed",
    "rowid": "1167381",
    "final_x": "3673639.99822",
    "final_y": "524171.492284",
    "longitude": "-90.09314056551888",
    "latitude": "29.93552601101117",
    "geocoded_column": {
      "latitude": "29.93552601101117",
      "longitude": "-90.09314056551888"
    }
  },
  {
    "service_request": "2025-1167380",
    "request_type": "Trash/Recycling",
    "request_reason": "Request a Large Item Pick Up",
    "date_created": "2025-02-07T11:06:20.000",
    "date_modified": "2025-02-07T11:06:23.000",
    "request_status": "Pending",
    "responsible_agency": "Department of Sanitation",
    "final_address": "52 Martin Dr",
    "address_councildis": "E",
    "status": "Assigned to Contractor",
    "contractor": "Waste Pro",
    "rowid": "1167380",
    "final_x": "3697975.11485",
    "final_y": "560966.629918",
    "longitude": "-90.0149783402892",
    "latitude": "30.035952530925858",
    "geocoded_column": {
      "latitude": "30.035952530925858",
      "longitude": "-90.0149783402892"
    }
  },
  {
    "service_request": "2025-1167379",
    "request_type": "Abandoned Vehicles",
    "request_reason": "Abandoned/Junk Vehicles",
    "date_created": "2025-02-07T11:00:01.000",
    "date_modified": "2025-02-07T11:00:02.000",
    "request_status": "Pending",
    "responsible_agency": "Department of Public Works",
    "final_address": "9030 Bunker Hill Rd",
    "address_councildis": "E",
    "status": "Pending",
    "rowid": "1167379",
    "final_x": "3706889.19979",
    "final_y": "560165.650397",
    "longitude": "-89.98683814773818",
    "latitude": "30.03346513407684",
    "geocoded_column": {
      "latitude": "30.03346513407684",
      "longitude": "-89.98683814773818"
    }
  },
  {
    "service_request": "2025-1167378",
    "request_type": "Trash/Recycling",
    "request_reason": "Request a Large Item Pick Up",
    "date_created": "2025-02-07T10:58:13.000",
    "date_modified": "2025-02-07T10:58:16.000",
    "request_status": "Pending",
    "responsible_agency": "Department of Sanitation",
    "final_address": "1445 Verna St",
    "address_councildis": "A",
    "status": "Assigned to Contractor",
    "contractor": "IV Waste",
    "rowid": "1167378",
    "final_x": "3675786.00046",
    "final_y": "541241.654284",
    "longitude": "-90.0857788680727",
    "latitude": "29.982399184130923",
    "geocoded_column": {
      "latitude": "29.982399184130923",
      "longitude": "-90.0857788680727"
    }
  },
  {
    "service_request": "2025-1167377",
    "request_type": "Abandoned Vehicles",
    "request_reason": "Abandoned/Junk Vehicles",
    "date_created": "2025-02-07T10:57:42.000",
    "date_modified": "2025-02-07T10:57:44.000",
    "request_status": "Pending",
    "responsible_agency": "Department of Public Works",
    "final_address": "3512 Cleveland Ave",
    "address_councildis": "B",
    "status": "Pending",
    "rowid": "1167377",
    "final_x": "3672488.34279",
    "final_y": "536699.663495",
    "longitude": "-90.09634938218831",
    "latitude": "29.970008563685724",
    "geocoded_column": {
      "latitude": "29.970008563685724",
      "longitude": "-90.09634938218831"
    }
  },
  {
    "service_request": "2025-1167376",
    "request_type": "Roads and Streets",
    "request_reason": "Pothole",
    "date_created": "2025-02-07T10:50:25.000",
    "date_modified": "2025-02-07T10:50:28.000",
    "request_status": "Pending",
    "responsible_agency": "Department of Public Works",
    "final_address": "1504 Annette St",
    "address_councildis": "C",
    "status": "Pending",
    "rowid": "1167376",
    "final_x": "3682993.17218",
    "final_y": "537698.245064",
    "longitude": "-90.0631391683503",
    "latitude": "29.97243831306167",
    "geocoded_column": {
      "latitude": "29.97243831306167",
      "longitude": "-90.0631391683503"
    }
  },
  {
    "service_request": "2025-1167375",
    "request_type": "Trash/Recycling",
    "request_reason": "Request a Large Item Pick Up",
    "date_created": "2025-02-07T10:50:20.000",
    "date_modified": "2025-02-07T10:50:22.000",
    "request_status": "Pending",
    "responsible_agency": "Department of Sanitation",
    "final_address": "6016 Annunciation St",
    "address_councildis": "A",
    "status": "Assigned to Contractor",
    "contractor": "IV Waste",
    "rowid": "1167375",
    "final_x": "3664082.12384",
    "final_y": "517863.908982",
    "longitude": "-90.12352523721874",
    "latitude": "29.918463130036713",
    "geocoded_column": {
      "latitude": "29.918463130036713",
      "longitude": "-90.12352523721874"
    }
  },