[
  {
    "service_request": "2021-837045",
    "request_type": "Traffic Signals/Signs/Striping/Streetlights",
    "request_reason": "Traffic Sign Missing/Damaged",
    "date_created": "2021-10-26T00:29:48.000",
    "date_modified": "2021-10-26T00:29:48.000",
    "request_status": "Pending",
    "responsible_agency": "Department of Public Works",
    "final_address": "407 N Broad St",
    "address_councildis": "B",
    "status": "Pending",
    "rowid": "837045",
    "final_x": "3676013.33998",
    "final_y": "536198.288263",
    "longitude": "-90.08523432773565",
    "latitude": "29.9685248462435",
    "geocoded_column": {
      "latitude": "29.9685248462435",
      "longitude": "-90.08523432773565"
    }
  },
  {
    "service_request": "2021-837044",
    "request_type": "Trash/Recycling",
    "request_reason": "Illegal Dumping",
    "date_created": "2021-10-26T00:15:58.000",
    "date_modified": "2021-10-26T00:15:58.000",
    "request_status": "Pending",
    "responsible_agency": "Department of Sanitation",
    "final_address": "2745 S Broad St",
    "address_councildis": "B",
    "status": "Pending",
    "rowid": "837044",
    "final_x": "3671229.40513",
    "final_y": "529823.298177",
    "longitude": "-90.10055888032363",
    "latitude": "29.951138155890437",
    "geocoded_column": {
      "latitude": "29.951138155890437",
      "longitude": "-90.10055888032363"
    }
  },
  {
    "service_request": "2021-837041",
    "request_type": "Trash/Recycling",
    "request_reason": "Order Recycling Cart",
    "date_created": "2021-10-25T22:53:16.000",
    "date_modified": "2021-10-25T22:53:16.000",
    "request_status": "Pending",
    "responsible_agency": "Department of Sanitation",
    "final_address": "3701 Pittari Pl",
    "address_councildis": "C",
    "status": "Pending",
    "rowid": "837041",
    "final_x": "3709497.77265",
    "final_y": "517244.112373",
    "longitude": "-89.9801965961895",
    "latitude": "29.915362293152644",
    "geocoded_column": {
      "latitude": "29.915362293152644",
      "longitude": "-89.9801965961895"
    }
  },
  {
    "service_request": "2021-837040",
    "request_type": "Trash/Recycling",
    "request_reason": "Request a Large Item Pick Up",
    "date_created": "2021-10-25T22:34:43.000",
    "date_modified": "2021-10-25T23:00:53.000",
    "request_status": "Pending",
    "responsible_agency": "Department of Sanitation",
    "final_address": "1331 St Roch Ave",
    "address_councildis": "C",
    "status": "Assigned to Contractor",
    "contractor": "Metro Disposal",
    "rowid": "837040",
    "final_x": "3686491.36028",
    "final_y": "537414.051528",
    "longitude": "-90.05210133478174",
    "latitude": "29.97154978948975",
    "geocoded_column": {
      "latitude": "29.97154978948975",
      "longitude": "-90.05210133478174"
    }
  },
  {
    "service_request": "2021-837039",
    "request_type": "Property Maintenance",
    "request_reason": "Property Maintenance",
    "date_created": "2021-10-25T22:20:40.000",
    "date_modified": "2021-10-25T23:00:55.000",
    "request_status": "Pending",
    "responsible_agency": "Department of Code Enforcement",
    "final_address": "420 Julia St",
    "address_councildis": "B",
    "status": "Pending",
    "rowid": "837039",
    "final_x": "3681541.45269",
    "final_y": "527696.448767",
    "longitude": "-90.06807274587679",
    "latitude": "29.944980947221936",
    "geocoded_column": {
      "latitude": "29.944980947221936",
      "longitude": "-90.06807274587679"
    }
  },
  {
    "service_request": "2021-837038",
    "request_type": "Abandoned Vehicles",
    "request_reason": "Abandoned/Junk Vehicles",
    "date_created": "2021-10-25T22:17:42.000",
    "date_modified": "2021-10-25T23:00:56.000",
    "request_status": "Pending",
    "responsible_agency": "Department of Public Works",
    "final_address": "937 France St",
    "address_councildis": "C",
    "status": "Pending",
    "rowid": "837038",
    "final_x": "3692288.57814",
    "final_y": "534642.14119",
    "longitude": "-90.033892212322",
    "latitude": "29.963748502443654",
    "geocoded_column": {
      "latitude": "29.963748502443654",
      "longitude": "-90.033892212322"
    }
  },
  {
    "service_request": "2021-837037",
    "request_type": "Trash/Recycling",
    "request_reason": "Order Trash Cart",
    "date_created": "2021-10-25T22:10:33.000",
    "date_modified": "2021-10-25T23:00:58.000",
    "request_status": "Pending",
    "responsible_agency": "Department of Sanitation",
    "final_address": "719 Montegut St",
    "address_councildis": "C",
    "status": "Assigned to Contractor",
    "contractor": "Metro Disposal",
    "rowid": "837037",
    "final_x": "3688126.08982",
    "final_y": "534792.454342",
    "longitude": "-90.04703157409163",
    "latitude": "29.964290951596528",
    "geocoded_column": {
      "latitude": "29.964290951596528",
      "longitude": "-90.04703157409163"
    }
  },
  {
    "service_request": "2021-837034",
    "request_type": "Traffic Signals/Signs/Striping/Streetlights",
    "request_reason": "Street Light Outage/Malfunction",
    "date_created": "2021-10-25T20:24:51.000",
    "date_modified": "2021-10-25T20:24:51.000",
    "request_status": "Pending",
    "responsible_agency": "Department of Public Works",
    "final_address": "5603 Rosemary Pl",
    "address_councildis": "A",
    "status": "Pending",
    "contractor": "Royal Engineering",
    "rowid": "837034",
    "final_x": "3667206.98695",
    "final_y": "544733.913999",
    "longitude": "-90.11275820816917",
    "latitude": "29.992255754743415",
    "geocoded_column": {
      "latitude": "29.992255754743415",
      "longitude": "-90.11275820816917"
    }
  },
  {
    "service_request": "2021-837033",
    "request_type": "Trash/Recycling",
    "request_reason": "Illegal Dumping",
    "date_created": "2021-10-25T20:17:49.000",
    "date_modified": "2021-10-25T21:00:58.000",
    "request_status": "Pending",
    "responsible_agency": "Department of Sanitation",
    "final_address": "2700 BLK N Robertson St",
    "address_councildis": "C",
    "status": "Pending",
    "rowid": "837033",
    "final_x": "3687948.04369",
    "final_y": "537845.03499",
    "longitude": "-90.0474856511787",
    "latitude": "29.972689975852433",
    "geocoded_column": {
      "latitude": "29.972689975852433",
      "longitude": "-90.0474856511787"
    }
  },
  {
    "service_request": "2021-837031",
    "request_type": "Traffic Signals/Signs/Striping/Streetlights",
    "request_reason": "Street Light Outage/Malfunction",
    "date_created": "2021-10-25T19:59:15.000",
    "date_modified": "2021-10-25T20:00:49.000",
    "request_status": "Pending",
    "responsible_agency": "Department of Public Works",
    "final_address": "4734 Redwood St",
    "address_councildis": "E",
    "status": "Pending",
    "contractor": "Royal Engineering",
    "rowid": "837031",
    "final_x": "3712416.85842",
    "final_y": "556110.441306",
    "longitude": "-89.96952285331214",
    "latitude": "30.0221351503776",
    "geocoded_column": {
      "latitude": "30.0221351503776",
      "longitude": "-89.96952285331214"
    }
  },
  {
    "service_request": "2021-837030",
    "request_type": "Traffic Signals/Signs/Striping/Streetlights",
    "request_reason": "Street Light Outage/Malfunction",
    "date_created": "2021-10-25T19:53:39.000",
    "date_modified": "2021-10-25T20:00:51.000",
    "request_status": "Pending",
    "responsible_agency": "Department of Public Works",
    "final_address": "3208 Thalia St",
    "address_councildis": "B",
    "status": "Pending",
    "contractor": "Royal Engineering",
    "rowid": "837030",
    "final_x": "3674505.88795",
    "final_y": "528822.1088",
    "longitude": "-90.09024765998348",
    "latitude": "29.948287882271966",
    "geocoded_column": {
      "latitude": "29.948287882271966",
      "longitude": "-90.09024765998348"
    }
  },
  {
    "service_request": "2021-837029",
    "request_type": "Traffic Signals/Signs/Striping/Streetlights",
    "request_reason": "Street Light Outage/Malfunction",
    "date_created": "2021-10-25T19:47:57.000",
    "date_modified": "2021-10-25T20:00:53.000",
    "request_status": "Pending",
    "responsible_agency": "Department of Public Works",
    "final_address": "1331 Desire St",
    "address_councildis": "C",
    "status": "Pending",
    "contractor": "Royal Engineering",
    "rowid": "837029",
    "final_x": "3690474.1238",
    "final_y": "536675.832071",
    "longitude": "-90.03954954596047",
    "latitude": "29.969396893039995",
    "geocoded_column": {
      "latitude": "29.969396893039995",
      "longitude": "-90.03954954596047"
    }
  },
  {
    "service_request": "2021-837028",
    "request_type": "Trash/Recycling",
    "request_reason": "MIssed Recycling Pick-Up",
    "date_created": "2021-10-25T19:47:02.000",
    "date_modified": "2021-10-25T19:47:03.000",
    "request_status": "Pending",
    "responsible_agency": "Department of Sanitation",
    "final_address": "1729 Terpsichore St",
    "address_councildis": "B",
    "status": "Assigned to Contractor",
    "contractor": "Richards Disposal",
    "rowid": "837028",
    "final_x": "3678449.5229",
    "final_y": "525680.650173",
    "longitude": "-90.07790465245449",
    "latitude": "29.939531685636776",
    "geocoded_column": {
      "latitude": "29.939531685636776",
      "longitude": "-90.07790465245449"
    }
  },
  {
    "service_request": "2021-837027",
    "request_type": "Trash/Recycling",
    "request_reason": "Missed Trash Pick-Up",
    "date_created": "2021-10-25T19:46:14.000",
    "date_modified": "2021-10-25T19:46:15.000",
    "request_status": "Pending",
    "responsible_agency": "Department of Sanitation",
    "final_address": "1729 Terpsichore St",
    "address_councildis": "B",
    "status": "Assigned to Contractor",
    "contractor": "Richards Disposal",
    "rowid": "837027",
    "final_x": "3678449.5229",
    "final_y": "525680.650173",
    "longitude": "-90.07790465245449",
    "latitude": "29.939531685636776",
    "geocoded_column": {
      "latitude": "29.939531685636776",
      "longitude": "-90.07790465245449"
    }
  },
  {
    "service_request": "2021-837026",
    "request_type": "Trash/Recycling",
    "request_reason": "Missed Trash Pick-Up",
    "date_created": "2021-10-25T19:38:39.000",
    "date_modified": "2021-10-25T19:38:40.000",
    "request_status": "Pending",
    "responsible_agency": "Department of Sanitation",
    "final_address": "4782 Marque Dr",
    "address_councildis": "E",
    "status": "Assigned to Contractor",
    "contractor": "Metro Disposal",
    "rowid": "837026",
    "final_x": "3709963.21957",
    "final_y": "556011.848153",
    "longitude": "-89.97727935012318",
    "latitude": "30.021944129281856",
    "geocoded_column": {
      "latitude": "30.021944129281856",
      "longitude": "-89.97727935012318"
    }
  },
  {
    "service_request": "2021-837023",
    "request_type": "Traffic Signals/Signs/Striping/Streetlights",
    "request_reason": "Street Light Outage/Malfunction",
    "date_created": "2021-10-25T19:12:38.000",
    "date_modified": "2021-10-25T20:24:12.000",
    "request_status": "Pending",
    "responsible_agency": "Department of Public Works",
    "final_address": "New Orleans,LA",
    "address_councildis": "E",
    "status": "Pending",
    "contractor": "Royal Engineering",
    "rowid": "837023",
    "final_x": "3717796.49663",
    "final_y": "559354.882781",
    "longitude": "-89.95240120176913",
    "latitude": "30.03087891065198",
    "geocoded_column": {
      "latitude": "30.03087891065198",
      "longitude": "-89.95240120176913"
    }
  },
  {
    "service_request": "2021-837022",
    "request_type": "Trash/Recycling",
    "request_reason": "Replace Trash Cart",
    "date_created": "2021-10-25T19:05:11.000",
    "date_modified": "2021-10-25T19:05:11.000",
    "request_status": "Pending",
    "responsible_agency": "Department of Sanitation",
    "final_address": "6211 Wainwright Dr",
    "address_councildis": "D",
    "status": "Assigned to Contractor",
    "contractor": "Metro Disposal",
    "rowid": "837022",
    "final_x": "3681424.4237",
    "final_y": "555774.743129",
    "longitude": "-90.06746285905962",
    "latitude": "30.022189972947547",
    "geocoded_column": {
      "latitude": "30.022189972947547",
      "longitude": "-90.06746285905962"
    }
  },
  {
    "service_request": "2021-837021",
    "request_type": "Trash/Recycling",
    "request_reason": "Missed Trash Pick-Up",
    "date_created": "2021-10-25T18:37:46.000",
    "date_modified": "2021-10-25T18:37:47.000",
    "request_status": "Pending",
    "responsible_agency": "Department of Sanitation",
    "final_address": "4510 S Johnson St",
    "address_councildis": "B",
    "status": "Assigned to Contractor",
    "contractor": "Richards Disposal",
    "rowid": "837021",
    "final_x": "3669718.41652",
    "final_y": "527083.81875",
    "longitude": "-90.10542253816854",
    "latitude": "29.943650094171414",
    "geocoded_column": {
      "latitude": "29.943650094171414",
      "longitude": "-90.10542253816854"
    }
  },
  {
    "service_request": "2021-837020",
    "request_type": "Trash/Recycling",
    "request_reason": "Replace Trash Cart",
    "date_created": "2021-10-25T18:28:38.000",
    "date_modified": "2021-10-25T19:01:20.000",
    "request_status": "Pending",
    "responsible_agency": "Department of Sanitation",
    "final_address": "1118 Dublin St",
    "address_councildis": "A",
    "status": "Assigned to Contractor",
    "contractor": "Richards Disposal",
    "rowid": "837020",
    "final_x": "3661566.59763",
    "final_y": "528509.107904",
    "longitude": "-90.13111291172284",
    "latitude": "29.947806869779694",
    "geocoded_column": {
      "latitude": "29.947806869779694",
      "longitude": "-90.13111291172284"
    }
  },
  {
    "service_request": "2021-837017",
    "request_type": "Trash/Recycling",
    "request_reason": "Request a Large Item Pick Up",
    "date_created": "2021-10-25T18:01:37.000",
    "date_modified": "2021-10-25T18:01:38.000",
    "request_status": "Pending",
    "responsible_agency": "Department of Sanitation",
    "final_address": "6239 Pasteur Blvd",
    "address_councildis": "D",
    "status": "Assigned to Contractor",
    "contractor": "Metro Disposal",
    "rowid": "837017",
    "final_x": "3682780.0484",
    "final_y": "556220.383194",
    "longitude": "-90.06316381742268",
    "latitude": "30.023374070171368",
    "geocoded_column": {
      "latitude": "30.023374070171368",
      "longitude": "-90.06316381742268"
    }
  },
  {
    "service_request": "2021-837016",
    "request_type": "Traffic Signals/Signs/Striping/Streetlights",
    "request_reason": "Street Light Outage/Malfunction",
    "date_created": "2021-10-25T17:57:55.000",
    "date_modified": "2021-10-25T18:01:25.000",
    "request_status": "Pending",
    "responsible_agency": "Department of Public Works",
    "final_address": "11305 Curran Rd",
    "address_councildis": "E",
    "status": "Pending",
    "contractor": "Royal Engineering",
    "rowid": "837016",
    "final_x": "3711163.38821",
    "final_y": "566623.978467",
    "longitude": "-89.97308910559758",
    "latitude": "30.051084147720353",
    "geocoded_column": {
      "latitude": "30.051084147720353",
      "longitude": "-89.97308910559758"
    }
  },
  {
    "service_request": "2021-837015",
    "request_type": "Abandoned Vehicles",
    "request_reason": "Abandoned/Junk Vehicles",
    "date_created": "2021-10-25T17:57:48.000",
    "date_modified": "2021-10-25T17:57:48.000",
    "request_status": "Pending",
    "responsible_agency": "Department of Public Works",
    "final_address": "4132 St Charles Ave",
    "address_councildis": "B",
    "status": "Pending",
    "rowid": "837015",
    "final_x": "3671712.26548",
    "final_y": "520782.789241",
    "longitude": "-90.09934165922358",
    "latitude": "29.926265398527075",
    "geocoded_column": {
      "latitude": "29.926265398527075",
      "longitude": "-90.09934165922358"
    }
  },
  {
    "service_request": "2021-837014",
    "request_type": "Traffic Signals/Signs/Striping/Streetlights",
    "request_reason": "Traffic Sign Missing/Damaged",
    "date_created": "2021-10-25T17:51:45.000",
    "date_modified": "2021-10-25T18:01:29.000",
    "request_status": "Pending",
    "responsible_agency": "Department of Public Works",
    "final_address": "OAK ST & CAMBRONNE ST",
    "address_councildis": "A",
    "status": "Pending",
    "rowid": "837014",
    "final_x": "3661162.8",
    "final_y": "529095.08",
    "longitude": "-90.13236847623061",
    "latitude": "29.949429748845215",
    "geocoded_column": {
      "latitude": "29.949429748845215",
      "longitude": "-90.13236847623061"
    }
  },
  {
    "service_request": "2021-837012",
    "request_type": "Roads/Drainage",
    "request_reason": "Damaged Sidewalk",
    "date_created": "2021-10-25T17:44:33.000",
    "date_modified": "2021-10-25T17:44:33.000",
    "request_status": "Pending",
    "responsible_agency": "Department of Public Works",
    "final_address": "2364 Constance St",
    "address_councildis": "B",
    "status": "Pending",
    "rowid": "837012",
    "final_x": "3678373.51202",
    "final_y": "521221.259897",
    "longitude": "-90.07829883472141",
    "latitude": "29.927272115761223",
    "geocoded_column": {
      "latitude": "29.927272115761223",
      "longitude": "-90.07829883472141"
    }
  },
  {
    "service_request": "2021-837011",
    "request_type": "Traffic Signals/Signs/Striping/Streetlights",
    "request_reason": "Street Light Outage/Malfunction",
    "date_created": "2021-10-25T17:42:00.000",
    "date_modified": "2021-10-25T17:42:00.000",
    "request_status": "Pending",
    "responsible_agency": "Department of Public Works",
    "final_address": "8238 Cohn St",
    "address_councildis": "A",
    "status": "Pending",
    "contractor": "Royal Engineering",
    "rowid": "837011",
    "final_x": "3663084.78887",
    "final_y": "530625.396738",
    "longitude": "-90.12624896575234",
    "latitude": "29.953582095618515",
    "geocoded_column": {
      "latitude": "29.953582095618515",
      "longitude": "-90.12624896575234"
    }
  },
  {
    "service_request": "2021-837010",
    "request_type": "Parks & Parkways",
    "request_reason": "Request Tree Service (Right of Way/Public Property)",
    "date_created": "2021-10-25T17:41:05.000",
    "date_modified": "2021-10-25T18:01:33.000",
    "request_status": "Pending",
    "responsible_agency": "Department of Parks & Parkway",
    "final_address": "1343 Granada Drive",
    "status": "Pending",
    "rowid": "837010",
    "longitude": "0.0",
    "latitude": "0.0",
    "geocoded_column": {
      "latitude": "0.0",
      "longitude": "0.0"
    }
  },
  {
    "service_request": "2021-837008",
    "request_type": "Property Maintenance",
    "request_reason": "Property Maintenance",
    "date_created": "2021-10-25T17:38:27.000",
    "date_modified": "2021-10-25T17:38:27.000",
    "request_status": "Pending",
    "responsible_agency": "Department of Code Enforcement",
    "final_address": "10715 Morrison Rd",
    "address_councildis": "E",
    "status": "Pending",
    "rowid": "837008",
    "final_x": "3710311.52561",
    "final_y": "564608.418849",
    "longitude": "-89.975857004726",
    "latitude": "30.04556994986278",
    "geocoded_column": {
      "latitude": "30.04556994986278",
      "longitude": "-89.975857004726"
    }
  },
  {
    "service_request": "2021-837007",
    "request_type": "Traffic Signals/Signs/Striping/Streetlights",
    "request_reason": "Street Light Outage/Malfunction",
    "date_created": "2021-10-25T17:37:24.000",
    "date_modified": "2021-10-25T17:37:24.000",
    "request_status": "Pending",
    "responsible_agency": "Department of Public Works",
    "final_address": "8226 Cohn St",
    "address_councildis": "A",
    "status": "Pending",
    "contractor": "Royal Engineering",
    "rowid": "837007",
    "final_x": "3663159.40403",
    "final_y": "530550.211074",
    "longitude": "-90.12601586276685",
    "latitude": "29.953373197811594",
    "geocoded_column": {
      "latitude": "29.953373197811594",
      "longitude": "-90.12601586276685"
    }
  },
  {
    "service_request": "2021-837006",
    "request_type": "Mosquito, Termite & Rodent Control",
    "request_reason": "Rodent Complaint (Rats)",
    "date_created": "2021-10-25T17:37:04.000",
    "date_modified": "2021-10-25T17:37:04.000",
    "request_status": "Pending",
    "responsible_agency": "Mosquito, Termite & Rodent Control Board",
    "final_address": "6340 Music St",
    "address_councildis": "D",
    "status": "Pending",
    "rowid": "837006",
    "final_x": "3685152.58882",
    "final_y": "556605.661338",
    "longitude": "-90.05565352893089",
    "latitude": "30.0243609143888",
    "geocoded_column": {
      "latitude": "30.0243609143888",
      "longitude": "-90.05565352893089"
    }
  },
  {
    "service_request": "2021-837005",
    "request_type": "Abandoned Vehicles",
    "request_reason": "Abandoned/Junk Vehicles",
    "date_created": "2021-10-25T17:32:41.000",
    "date_modified": "2021-10-25T17:32:41.000",
    "request_status": "Pending",
    "responsible_agency": "Department of Public Works",
    "final_address": "1439 France St",
    "address_councildis": "D",
    "status": "Pending",
    "rowid": "837005",
    "final_x": "3692776.4815",
    "final_y": "536596.269255",
    "longitude": "-90.03228139996196",
    "latitude": "29.969106441968854",
    "geocoded_column": {
      "latitude": "29.969106441968854",
      "longitude": "-90.03228139996196"
    }
  },
  {
    "service_request": "2021-837004",
    "request_type": "Traffic Signals/Signs/Striping/Streetlights",
    "request_reason": "Traffic Signal Malfunctioning/Damaged",
    "date_created": "2021-10-25T17:28:22.000",
    "date_modified": "2021-10-25T17:28:22.000",
    "request_status": "Pending",
    "responsible_agency": "Department of Public Works",
    "final_address": "CITY PARK AVE & MARCONI DR",
    "address_councildis": "A",
    "status": "Pending",
    "rowid": "837004",
    "final_x": "3670595.2",
    "final_y": "541788.38",
    "longitude": "-90.10215545455618",
    "latitude": "29.9840568710957",
    "geocoded_column": {
      "latitude": "29.9840568710957",
      "longitude": "-90.10215545455618"
    }
  },
  {
    "service_request": "2021-837003",
    "request_type": "Trash/Recycling",
    "request_reason": "Order Trash Cart",
    "date_created": "2021-10-25T17:28:02.000",
    "date_modified": "2021-10-25T18:01:35.000",
    "request_status": "Pending",
    "responsible_agency": "Department of Sanitation",
    "final_address": "607 N Saint Patrick St, #B, New Orleans, Louisiana, 70119",
    "status": "Assigned to Contractor",
    "rowid": "837003",
    "longitude": "0.0",
    "latitude": "0.0",
    "geocoded_column": {
      "latitude": "0.0",
      "longitude": "0.0"
    }
  },
  {
    "service_request": "2021-837001",
    "request_type": "Property Maintenance",
    "request_reason": "Property Maintenance",
    "date_created": "2021-10-25T17:24:53.000",
    "date_modified": "2021-10-25T17:24:53.000",
    "request_status": "Pending",
    "responsible_agency": "Department of Code Enforcement",
    "final_address": "6340 Music St",
    "address_councildis": "D",
    "status": "Pending",
    "rowid": "837001",
    "final_x": "3685152.58882",
    "final_y": "556605.661338",
    "longitude": "-90.05565352893089",
    "latitude": "30.0243609143888",
    "geocoded_column": {
      "latitude": "30.0243609143888",
      "longitude": "-90.05565352893089"
    }
  },
  {
    "service_request": "2021-836999",
    "request_type": "Trash/Recycling",
    "request_reason": "Request a Large Item Pick Up",
    "date_created": "2021-10-25T17:15:07.000",
    "date_modified": "2021-10-25T18:01:40.000",
    "request_status": "Pending",
    "responsible_agency": "Department of Sanitation",
    "final_address": "607 N Saint Patrick St, New Orleans, Louisiana, 70119",
    "status": "Assigned to Contractor",
    "rowid": "836999",
    "longitude": "0.0",
    "latitude": "0.0",
    "geocoded_column": {
      "latitude": "0.0",
      "longitude": "0.0"
    }
  },
  {
    "service_request": "2021-836998",
    "request_type": "Trash/Recycling",
    "request_reason": "Missed Trash Pick-Up",
    "date_created": "2021-10-25T17:13:00.000",
    "date_modified": "2021-10-25T18:01:42.000",
    "request_status": "Pending",
    "responsible_agency": "Department of Sanitation",
    "final_address": "6323 Mandeville St",
    "address_councildis": "D",
    "status": "Assigned to Contractor",
    "contractor": "Metro Disposal",
    "rowid": "836998",
    "final_x": "3684211.62729",
    "final_y": "556376.035034",
    "longitude": "-90.05863486556282",
    "latitude": "30.023758343271112",
    "geocoded_column": {
      "latitude": "30.023758343271112",
      "longitude": "-90.05863486556282"
    }
  },
  {
    "service_request": "2021-836997",
    "request_type": "Property Maintenance",
    "request_reason": "Property Maintenance",
    "date_created": "2021-10-25T17:11:44.000",
    "date_modified": "2021-10-25T17:11:44.000",
    "request_status": "Pending",
    "responsible_agency": "Department of Code Enforcement",
    "final_address": "3615 Gravier St",
    "address_councildis": "B",
    "status": "Pending",
    "rowid": "836997",
    "final_x": "3670798.30241",
    "final_y": "535073.826118",
    "longitude": "-90.10174189891801",
    "latitude": "29.965588114117594",
    "geocoded_column": {
      "latitude": "29.965588114117594",
      "longitude": "-90.10174189891801"
    }
  },
  {
    "service_request": "2021-836996",
    "request_type": "Abandoned Vehicles",
    "request_reason": "Abandoned/Junk Vehicles",
    "date_created": "2021-10-25T17:02:58.000",
    "date_modified": "2021-10-25T18:01:44.000",
    "request_status": "Pending",
    "responsible_agency": "Department of Public Works",
    "final_address": "4900 Constance St",
    "address_councildis": "B",
    "status": "Pending",
    "rowid": "836996",
    "final_x": "3668938.35873",
    "final_y": "518167.990646",
    "longitude": "-90.10818637476068",
    "latitude": "29.91915738019517",
    "geocoded_column": {
      "latitude": "29.91915738019517",
      "longitude": "-90.10818637476068"
    }
  },
  {
    "service_request": "2021-836993",
    "request_type": "Roads/Drainage",
    "request_reason": "Pothole",
    "date_created": "2021-10-25T16:53:54.000",
    "date_modified": "2021-10-25T16:53:54.000",
    "request_status": "Pending",
    "responsible_agency": "Department of Public Works",
    "final_address": "717 Ursulines Ave",
    "address_councildis": "C",
    "status": "Pending",
    "rowid": "836993",
    "final_x": "3683331.14153",
    "final_y": "533739.955397",
    "longitude": "-90.06221048081238",
    "latitude": "29.961544076553984",
    "geocoded_column": {
      "latitude": "29.961544076553984",
      "longitude": "-90.06221048081238"
    }
  },
  {
    "service_request": "2021-836992",
    "request_type": "Traffic Signals/Signs/Striping/Streetlights",
    "request_reason": "Traffic Signal Malfunctioning/Damaged",
    "date_created": "2021-10-25T16:51:55.000",
    "date_modified": "2021-10-25T16:51:55.000",
    "request_status": "Pending",
    "responsible_agency": "Department of Public Works",
    "final_address": "HOLIDAY DR & MACARTHUR BLVD",
    "address_councildis": "C",
    "status": "Pending",
    "rowid": "836992",
    "final_x": "3698736.7",
    "final_y": "520398.98",
    "longitude": "-90.01404767124727",
    "latitude": "29.924382143358752",
    "geocoded_column": {
      "latitude": "29.924382143358752",
      "longitude": "-90.01404767124727"
    }
  },
  {
    "service_request": "2021-836990",
    "request_type": "Trash/Recycling",
    "request_reason": "Missed Trash Pick-Up",
    "date_created": "2021-10-25T16:51:17.000",
    "date_modified": "2021-10-25T16:51:18.000",
    "request_status": "Pending",
    "responsible_agency": "Department of Sanitation",
    "final_address": "1736 Soniat St",
    "address_councildis": "B",
    "status": "Assigned to Contractor",
    "contractor": "Richards Disposal",
    "rowid": "836990",
    "final_x": "3668418.91444",
    "final_y": "522105.609082",
    "longitude": "-90.10969327130485",
    "latitude": "29.929999844534876",
    "geocoded_column": {
      "latitude": "29.929999844534876",
      "longitude": "-90.10969327130485"
    }
  },
  {
    "service_request": "2021-836988",
    "request_type": "Trash/Recycling",
    "request_reason": "Request a Large Item Pick Up",
    "date_created": "2021-10-25T16:43:16.000",
    "date_modified": "2021-10-25T16:43:16.000",
    "request_status": "Pending",
    "responsible_agency": "Department of Sanitation",
    "final_address": "3617 Gravier St",
    "address_councildis": "B",
    "status": "Assigned to Contractor",
    "contractor": "Richards Disposal",
    "rowid": "836988",
    "final_x": "3670774.03451",
    "final_y": "535038.077318",
    "longitude": "-90.10181974949377",
    "latitude": "29.965490534061995",
    "geocoded_column": {
      "latitude": "29.965490534061995",
      "longitude": "-90.10181974949377"
    }
  },
  {
    "service_request": "2021-836987",
    "request_type": "Traffic Signals/Signs/Striping/Streetlights",
    "request_reason": "Street Light Outage/Malfunction",
    "date_created": "2021-10-25T16:38:22.000",
    "date_modified": "2021-10-25T17:01:06.000",
    "request_status": "Pending",
    "responsible_agency": "Department of Public Works",
    "final_address": "5235 Michoud Blvd",
    "address_councildis": "E",
    "status": "Pending",
    "contractor": "Royal Engineering",
    "rowid": "836987",
    "final_x": "3724885.02944",
    "final_y": "562660.764448",
    "longitude": "-89.92987362183602",
    "latitude": "30.0397319258445",
    "geocoded_column": {
      "latitude": "30.0397319258445",
      "longitude": "-89.92987362183602"
    }
  },
  {
    "service_request": "2021-836986",
    "request_type": "Traffic Signals/Signs/Striping/Streetlights",
    "request_reason": "Street Light Outage/Malfunction",
    "date_created": "2021-10-25T16:38:06.000",
    "date_modified": "2021-10-25T17:01:07.000",
    "request_status": "Pending",
    "responsible_agency": "Department of Public Works",
    "final_address": "5235 Michoud Blvd",
    "address_councildis": "E",
    "status": "Pending",
    "contractor": "Royal Engineering",
    "rowid": "836986",
    "final_x": "3724885.02944",
    "final_y": "562660.764448",
    "longitude": "-89.92987362183602",
    "latitude": "30.0397319258445",
    "geocoded_column": {
      "latitude": "30.0397319258445",
      "longitude": "-89.92987362183602"
    }
  },
  {
    "service_request": "2021-836985",
    "request_type": "Traffic Signals/Signs/Striping/Streetlights",
    "request_reason": "Street Light Outage/Malfunction",
    "date_created": "2021-10-25T16:35:29.000",
    "date_modified": "2021-10-25T17:01:08.000",
    "request_status": "Pending",
    "responsible_agency": "Department of Public Works",
    "final_address": "3717 S Prieur St",
    "address_councildis": "B",
    "status": "Pending",
    "contractor": "Royal Engineering",
    "rowid": "836985",
    "final_x": "3671400.56091",
    "final_y": "527081.08787",
    "longitude": "-90.10011164270621",
    "latitude": "29.943592911654996",
    "geocoded_column": {
      "latitude": "29.943592911654996",
      "longitude": "-90.10011164270621"
    }
  },
  {
    "service_request": "2021-836984",
    "request_type": "Roads/Drainage",
    "request_reason": "Street Flooding / Drainage",
    "date_created": "2021-10-25T16:34:41.000",
    "date_modified": "2021-10-25T16:34:41.000",
    "request_status": "Pending",
    "responsible_agency": "Department of Public Works",
    "final_address": "620 Olivier St",
    "address_councildis": "C",
    "status": "Pending",
    "rowid": "836984",
    "final_x": "3687342.23625",
    "final_y": "529308.242625",
    "longitude": "-90.04970092663805",
    "latitude": "29.94923543079633",
    "geocoded_column": {
      "latitude": "29.94923543079633",
      "longitude": "-90.04970092663805"
    }
  },
  {
    "service_request": "2021-836983",
    "request_type": "Trash/Recycling",
    "request_reason": "Replace Trash Cart",
    "date_created": "2021-10-25T16:34:34.000",
    "date_modified": "2021-10-25T17:01:10.000",
    "request_status": "Pending",
    "responsible_agency": "Department of Sanitation",
    "final_address": "7437 Garfield St",
    "address_councildis": "A",
    "status": "Assigned to Contractor",
    "contractor": "Richards Disposal",
    "rowid": "836983",
    "final_x": "3661382.12128",
    "final_y": "523911.462844",
    "longitude": "-90.13184759563414",
    "latitude": "29.935170125925683",
    "geocoded_column": {
      "latitude": "29.935170125925683",
      "longitude": "-90.13184759563414"
    }
  },
  {
    "service_request": "2021-836982",
    "request_type": "Traffic Signals/Signs/Striping/Streetlights",
    "request_reason": "Street Light Outage/Malfunction",
    "date_created": "2021-10-25T16:34:29.000",
    "date_modified": "2021-10-25T16:34:30.000",
    "request_status": "Pending",
    "responsible_agency": "Department of Public Works",
    "final_address": "817 Vallette St",
    "address_councildis": "C",
    "status": "Pending",
    "contractor": "Royal Engineering",
    "rowid": "836982",
    "final_x": "3687428.84412",
    "final_y": "528588.957184",
    "longitude": "-90.04945291501829",
    "latitude": "29.947254973256655",
    "geocoded_column": {
      "latitude": "29.947254973256655",
      "longitude": "-90.04945291501829"
    }
  },
  {
    "service_request": "2021-836981",
    "request_type": "Traffic Signals/Signs/Striping/Streetlights",
    "request_reason": "Street Light Outage/Malfunction",
    "date_created": "2021-10-25T16:32:06.000",
    "date_modified": "2021-10-25T16:32:07.000",
    "request_status": "Pending",
    "responsible_agency": "Department of Public Works",
    "final_address": "817 Vallette St",
    "address_councildis": "C",
    "status": "Pending",
    "contractor": "Royal Engineering",
    "rowid": "836981",
    "final_x": "3687428.84412",
    "final_y": "528588.957184",
    "longitude": "-90.04945291501829",
    "latitude": "29.947254973256655",
    "geocoded_column": {
      "latitude": "29.947254973256655",
      "longitude": "-90.04945291501829"
    }
  },
  {
    "service_request": "2021-836980",
    "request_type": "Traffic Signals/Signs/Striping/Streetlights",
    "request_reason": "Street Light Outage/Malfunction",
    "date_created": "2021-10-25T16:30:16.000",
    "date_modified": "2021-10-25T16:30:17.000",
    "request_status": "Pending",
    "responsible_agency": "Department of Public Works",
    "final_address": "817 Vallette St",
    "address_councildis": "C",
    "status": "Pending",
    "contractor": "Royal Engineering",
    "rowid": "836980",
    "final_x": "3687428.84412",
    "final_y": "528588.957184",
    "longitude": "-90.04945291501829",
    "latitude": "29.947254973256655",
    "geocoded_column": {
      "latitude": "29.947254973256655",
      "longitude": "-90.04945291501829"
    }
  },
  {
    "service_request": "2021-836978",
    "request_type": "Parks & Parkways",
    "request_reason": "Request Tree Service (Right of Way/Public Property)",
    "date_created": "2021-10-25T16:28:30.000",
    "date_modified": "2021-10-25T17:01:13.000",
    "request_status": "Pending",
    "responsible_agency": "Department of Parks & Parkway",
    "final_address": "2634 Dauphine St",
    "address_councildis": "C",
    "status": "Pending",
    "rowid": "836978",
    "final_x": "3687097.92713",
    "final_y": "535227.582022",
    "longitude": "-90.05026303331384",
    "latitude": "29.96551909798164",
    "geocoded_column": {
      "latitude": "29.96551909798164",
      "longitude": "-90.05026303331384"
    }
  },
  {
    "service_request": "2021-836977",
    "request_type": "Roads/Drainage",
    "request_reason": "Catch Basin - Clogged",
    "date_created": "2021-10-25T16:27:54.000",
    "date_modified": "2021-10-25T16:27:54.000",
    "request_status": "Pending",
    "responsible_agency": "Department of Public Works",
    "final_address": "4806 Virgilian St",
    "address_councildis": "D",
    "status": "Pending",
    "rowid": "836977",
    "final_x": "3697370.26122",
    "final_y": "554063.422744",
    "longitude": "-90.01714036751348",
    "latitude": "30.016990469369716",
    "geocoded_column": {
      "latitude": "30.016990469369716",
      "longitude": "-90.01714036751348"
    }
  },
  {
    "service_request": "2021-836975",
    "request_type": "Safety & Permits",
    "request_reason": "Licenses & Permits",
    "date_created": "2021-10-25T16:25:40.000",
    "date_modified": "2021-10-25T16:25:40.000",
    "request_status": "Pending",
    "responsible_agency": "Safety and Permits",
    "final_address": "13901 Chef Menteur Hwy",
    "address_councildis": "E",
    "status": "Pending",
    "rowid": "836975",
    "final_x": "3728045.70144",
    "final_y": "560644.46435",
    "longitude": "-89.91996368167489",
    "latitude": "30.034081111780715",
    "geocoded_column": {
      "latitude": "30.034081111780715",
      "longitude": "-89.91996368167489"
    }
  },
  {
    "service_request": "2021-836974",
    "request_type": "Roads/Drainage",
    "request_reason": "Damaged Sidewalk",
    "date_created": "2021-10-25T16:24:44.000",
    "date_modified": "2021-10-25T16:24:44.000",
    "request_status": "Pending",
    "responsible_agency": "Department of Public Works",
    "final_address": "4806 Virgilian St",
    "address_councildis": "D",
    "status": "Pending",
    "rowid": "836974",
    "final_x": "3697370.26122",
    "final_y": "554063.422744",
    "longitude": "-90.01714036751348",
    "latitude": "30.016990469369716",
    "geocoded_column": {
      "latitude": "30.016990469369716",
      "longitude": "-90.01714036751348"
    }
  },
  {
    "service_request": "2021-836973",
    "request_type": "Trash/Recycling",
    "request_reason": "Start Trash Service",
    "date_created": "2021-10-25T16:19:01.000",
    "date_modified": "2021-10-25T17:01:15.000",
    "request_status": "Pending",
    "responsible_agency": "Department of Sanitation",
    "final_address": "4651 Francis Dr",
    "address_councildis": "D",
    "status": "Assigned to Contractor",
    "contractor": "Metro Disposal",
    "rowid": "836973",
    "final_x": "3698351.90135",
    "final_y": "553924.855512",
    "longitude": "-90.0140438495406",
    "latitude": "30.01657842107615",
    "geocoded_column": {
      "latitude": "30.01657842107615",
      "longitude": "-90.0140438495406"
    }
  },
  {
    "service_request": "2021-836972",
    "request_type": "Traffic Signals/Signs/Striping/Streetlights",
    "request_reason": "Street Light Outage/Malfunction",
    "date_created": "2021-10-25T16:18:12.000",
    "date_modified": "2021-10-25T16:18:12.000",
    "request_status": "Pending",
    "responsible_agency": "Department of Public Works",
    "final_address": "640 Magazine St",
    "address_councildis": "B",
    "status": "Pending",
    "contractor": "Royal Engineering",
    "rowid": "836972",
    "final_x": "3681357.19439",
    "final_y": "528403.4544",
    "longitude": "-90.06862986763258",
    "latitude": "29.946930568855823",
    "geocoded_column": {
      "latitude": "29.946930568855823",
      "longitude": "-90.06862986763258"
    }
  },
  {
    "service_request": "2021-836970",
    "request_type": "Trash/Recycling",
    "request_reason": "Replace Trash Cart",
    "date_created": "2021-10-25T16:17:15.000",
    "date_modified": "2021-10-25T17:01:19.000",
    "request_status": "Pending",
    "responsible_agency": "Department of Sanitation",
    "final_address": "3122 Louisiana Avenue Prkwy",
    "address_councildis": "B",
    "status": "Assigned to Contractor",
    "contractor": "Richards Disposal",
    "rowid": "836970",
    "final_x": "3671946.58215",
    "final_y": "526676.415486",
    "longitude": "-90.09840147610151",
    "latitude": "29.942464024695678",
    "geocoded_column": {
      "latitude": "29.942464024695678",
      "longitude": "-90.09840147610151"
    }
  },
  {
    "service_request": "2021-836968",
    "request_type": "Property Maintenance",
    "request_reason": "Property Maintenance",
    "date_created": "2021-10-25T16:13:44.000",
    "date_modified": "2021-10-25T16:13:44.000",
    "request_status": "Pending",
    "responsible_agency": "Department of Code Enforcement",
    "final_address": "5117 Forest Park Ln",
    "address_councildis": "C",
    "status": "Pending",
    "rowid": "836968",
    "final_x": "3703027.96318",
    "final_y": "510910.392239",
    "longitude": "-90.00085004018709",
    "latitude": "29.89815521290149",
    "geocoded_column": {
      "latitude": "29.89815521290149",
      "longitude": "-90.00085004018709"
    }
  },
  {
    "service_request": "2021-836966",
    "request_type": "Trash/Recycling",
    "request_reason": "Order Trash Cart",
    "date_created": "2021-10-25T16:12:51.000",
    "date_modified": "2021-10-25T17:01:22.000",
    "request_status": "Pending",
    "responsible_agency": "Department of Sanitation",
    "final_address": "2521 N Roman St",
    "address_councildis": "D",
    "status": "Assigned to Contractor",
    "contractor": "Metro Disposal",
    "rowid": "836966",
    "final_x": "3687196.43113",
    "final_y": "539113.656394",
    "longitude": "-90.04981449674487",
    "latitude": "29.97620140959525",
    "geocoded_column": {
      "latitude": "29.97620140959525",
      "longitude": "-90.04981449674487"
    }
  },
  {
    "service_request": "2021-836963",
    "request_type": "Abandoned Vehicles",
    "request_reason": "Abandoned/Junk Vehicles",
    "date_created": "2021-10-25T16:10:40.000",
    "date_modified": "2021-10-25T17:01:27.000",
    "request_status": "Pending",
    "responsible_agency": "Department of Public Works",
    "final_address": "1829 Napoleon Ave",
    "address_councildis": "B",
    "status": "Pending",
    "rowid": "836963",
    "final_x": "3670857.15771",
    "final_y": "521803.632826",
    "longitude": "-90.10200636839537",
    "latitude": "29.92909768560903",
    "geocoded_column": {
      "latitude": "29.92909768560903",
      "longitude": "-90.10200636839537"
    }
  },
  {
    "service_request": "2021-836962",
    "request_type": "Traffic Signals/Signs/Striping/Streetlights",
    "request_reason": "Street Light Outage/Malfunction",
    "date_created": "2021-10-25T16:09:57.000",
    "date_modified": "2021-10-25T16:09:57.000",
    "request_status": "Pending",
    "responsible_agency": "Department of Public Works",
    "final_address": "12330 Hayne Blvd",
    "address_councildis": "E",
    "status": "Pending",
    "contractor": "Royal Engineering",
    "rowid": "836962",
    "final_x": "3713433.09983",
    "final_y": "569605.898214",
    "longitude": "-89.96580289712361",
    "latitude": "30.059208925431566",
    "geocoded_column": {
      "latitude": "30.059208925431566",
      "longitude": "-89.96580289712361"
    }
  },
  {
    "service_request": "2021-836961",
    "request_type": "Traffic Signals/Signs/Striping/Streetlights",
    "request_reason": "Street Light Outage/Malfunction",
    "date_created": "2021-10-25T16:09:27.000",
    "date_modified": "2021-10-25T17:01:28.000",
    "request_status": "Pending",
    "responsible_agency": "Department of Public Works",
    "final_address": "WRIGHT RD & YARDLEY RD",
    "address_councildis": "E",
    "status": "Pending",
    "contractor": "Royal Engineering",
    "rowid": "836961",
    "final_x": "3712365.0",
    "final_y": "563887.28",
    "longitude": "-89.96939421172794",
    "latitude": "30.043520057770056",
    "geocoded_column": {
      "latitude": "30.043520057770056",
      "longitude": "-89.96939421172794"
    }
  },
  {
    "service_request": "2021-836960",
    "request_type": "Traffic Signals/Signs/Striping/Streetlights",
    "request_reason": "Street Light Outage/Malfunction",
    "date_created": "2021-10-25T16:09:11.000",
    "date_modified": "2021-10-25T17:01:29.000",
    "request_status": "Pending",
    "responsible_agency": "Department of Public Works",
    "final_address": "WRIGHT RD & YARDLEY RD",
    "address_councildis": "E",
    "status": "Pending",
    "contractor": "Royal Engineering",
    "rowid": "836960",
    "final_x": "3712365.0",
    "final_y": "563887.28",
    "longitude": "-89.96939421172794",
    "latitude": "30.043520057770056",
    "geocoded_column": {
      "latitude": "30.043520057770056",
      "longitude": "-89.96939421172794"
    }
  },
  {
    "service_request": "2021-836959",
    "request_type": "Traffic Signals/Signs/Striping/Streetlights",
    "request_reason": "Street Light Outage/Malfunction",
    "date_created": "2021-10-25T16:08:52.000",
    "date_modified": "2021-10-25T17:01:30.000",
    "request_status": "Pending",
    "responsible_agency": "Department of Public Works",
    "final_address": "WRIGHT RD & YARDLEY RD",
    "address_councildis": "E",
    "status": "Pending",
    "contractor": "Royal Engineering",
    "rowid": "836959",
    "final_x": "3712365.0",
    "final_y": "563887.28",
    "longitude": "-89.96939421172794",
    "latitude": "30.043520057770056",
    "geocoded_column": {
      "latitude": "30.043520057770056",
      "longitude": "-89.96939421172794"
    }
  },
  {
    "service_request": "2021-836958",
    "request_type": "Traffic Signals/Signs/Striping/Streetlights",
    "request_reason": "Street Light Outage/Malfunction",
    "date_created": "2021-10-25T16:08:35.000",
    "date_modified": "2021-10-25T17:01:31.000",
    "request_status": "Pending",
    "responsible_agency": "Department of Public Works",
    "final_address": "WRIGHT RD & YARDLEY RD",
    "address_councildis": "E",
    "status": "Pending",
    "contractor": "Royal Engineering",
    "rowid": "836958",
    "final_x": "3712365.0",
    "final_y": "563887.28",
    "longitude": "-89.96939421172794",
    "latitude": "30.043520057770056",
    "geocoded_column": {
      "latitude": "30.043520057770056",
      "longitude": "-89.96939421172794"
    }
  },
  {
    "service_request": "2021-836957",
    "request_type": "Traffic Signals/Signs/Striping/Streetlights",
    "request_reason": "Street Light Outage/Malfunction",
    "date_created": "2021-10-25T16:08:05.000",
    "date_modified": "2021-10-25T17:01:33.000",
    "request_status": "Pending",
    "responsible_agency": "Department of Public Works",
    "final_address": "WRIGHT RD & YARDLEY RD",
    "address_councildis": "E",
    "status": "Pending",
    "contractor": "Royal Engineering",
    "rowid": "836957",
    "final_x": "3712365.0",
    "final_y": "563887.28",
    "longitude": "-89.96939421172794",
    "latitude": "30.043520057770056",
    "geocoded_column": {
      "latitude": "30.043520057770056",
      "longitude": "-89.96939421172794"
    }
  },
  {
    "service_request": "2021-836954",
    "request_type": "Trash/Recycling",
    "request_reason": "Repair Recycling Cart",
    "date_created": "2021-10-25T15:56:34.000",
    "date_modified": "2021-10-25T16:01:00.000",
    "request_status": "Pending",
    "responsible_agency": "Department of Sanitation",
    "final_address": "826 Bartholomew St",
    "address_councildis": "C",
    "status": "Pending",
    "rowid": "836954",
    "final_x": "3691539.63158",
    "final_y": "534384.192453",
    "longitude": "-90.03626652330912",
    "latitude": "29.963062566634203",
    "geocoded_column": {
      "latitude": "29.963062566634203",
      "longitude": "-90.03626652330912"
    }
  },
  {
    "service_request": "2021-836953",
    "request_type": "Property Maintenance",
    "request_reason": "Property Maintenance",
    "date_created": "2021-10-25T15:56:32.000",
    "date_modified": "2021-10-25T15:56:32.000",
    "request_status": "Pending",
    "responsible_agency": "Department of Code Enforcement",
    "final_address": "6001 Downman Rd",
    "address_councildis": "D",
    "status": "Pending",
    "rowid": "836953",
    "final_x": "3696112.03299",
    "final_y": "554957.618712",
    "longitude": "-90.02108347211927",
    "latitude": "30.019488851075813",
    "geocoded_column": {
      "latitude": "30.019488851075813",
      "longitude": "-90.02108347211927"
    }
  },
  {
    "service_request": "2021-836951",
    "request_type": "Roads/Drainage",
    "request_reason": "Pothole",
    "date_created": "2021-10-25T15:55:25.000",
    "date_modified": "2021-10-25T15:55:25.000",
    "request_status": "Pending",
    "responsible_agency": "Department of Public Works",
    "final_address": "547 St Ann St",
    "address_councildis": "C",
    "status": "Pending",
    "rowid": "836951",
    "final_x": "3683135.27125",
    "final_y": "532397.960003",
    "longitude": "-90.06287599215777",
    "latitude": "29.957860021455403",
    "geocoded_column": {
      "latitude": "29.957860021455403",
      "longitude": "-90.06287599215777"
    }
  },
  {
    "service_request": "2021-836950",
    "request_type": "Traffic Signals/Signs/Striping/Streetlights",
    "request_reason": "Street Light Outage/Malfunction",
    "date_created": "2021-10-25T15:53:46.000",
    "date_modified": "2021-10-25T16:01:14.000",
    "request_status": "Pending",
    "responsible_agency": "Department of Public Works",
    "final_address": "8810 Morrison Rd",
    "address_councildis": "E",
    "status": "Pending",
    "contractor": "Royal Engineering",
    "rowid": "836950",
    "final_x": "3705513.84235",
    "final_y": "561666.020767",
    "longitude": "-89.9911288527167",
    "latitude": "30.03763493044829",
    "geocoded_column": {
      "latitude": "30.03763493044829",
      "longitude": "-89.9911288527167"
    }
  },
  {
    "service_request": "2021-836949",
    "request_type": "Traffic Signals/Signs/Striping/Streetlights",
    "request_reason": "Street Light Outage/Malfunction",
    "date_created": "2021-10-25T15:52:57.000",
    "date_modified": "2021-10-25T16:01:25.000",
    "request_status": "Pending",
    "responsible_agency": "Department of Public Works",
    "final_address": "8810 Morrison Rd",
    "address_councildis": "E",
    "status": "Pending",
    "contractor": "Royal Engineering",
    "rowid": "836949",
    "final_x": "3705513.84235",
    "final_y": "561666.020767",
    "longitude": "-89.9911288527167",
    "latitude": "30.03763493044829",
    "geocoded_column": {
      "latitude": "30.03763493044829",
      "longitude": "-89.9911288527167"
    }
  },
  {
    "service_request": "2021-836945",
    "request_type": "Trash/Recycling",
    "request_reason": "MIssed Recycling Pick-Up",
    "date_created": "2021-10-25T15:47:40.000",
    "date_modified": "2021-10-25T15:47:40.000",
    "request_status": "Pending",
    "responsible_agency": "Department of Sanitation",
    "final_address": "3735 Fairmont Dr",
    "address_councildis": "D",
    "status": "Assigned to Contractor",
    "contractor": "Metro Disposal",
    "rowid": "836945",
    "final_x": "3685276.99349",
    "final_y": "546359.050448",
    "longitude": "-90.05562146978443",
    "latitude": "29.996182654927082",
    "geocoded_column": {
      "latitude": "29.996182654927082",
      "longitude": "-90.05562146978443"
    }
  },
  {
    "service_request": "2021-836944",
    "request_type": "Trash/Recycling",
    "request_reason": "Replace Trash Cart",
    "date_created": "2021-10-25T15:47:30.000",
    "date_modified": "2021-10-25T15:47:31.000",
    "request_status": "Pending",
    "responsible_agency": "Department of Sanitation",
    "final_address": "1802 Lowerline St",
    "address_councildis": "A",
    "status": "Assigned to Contractor",
    "contractor": "Richards Disposal",
    "rowid": "836944",
    "final_x": "3664864.16525",
    "final_y": "528647.102592",
    "longitude": "-90.12069652739912",
    "latitude": "29.948090765040305",
    "geocoded_column": {
      "latitude": "29.948090765040305",
      "longitude": "-90.12069652739912"
    }
  },
  {
    "service_request": "2021-836941",
    "request_type": "Trash/Recycling",
    "request_reason": "Request a Large Item Pick Up",
    "date_created": "2021-10-25T15:44:08.000",
    "date_modified": "2021-10-25T15:44:09.000",
    "request_status": "Pending",
    "responsible_agency": "Department of Sanitation",
    "final_address": "924 Foucher St",
    "address_councildis": "B",
    "status": "Assigned to Contractor",
    "contractor": "Richards Disposal",
    "rowid": "836941",
    "final_x": "3674301.03656",
    "final_y": "518792.078327",
    "longitude": "-90.0912377538606",
    "latitude": "29.920714670232456",
    "geocoded_column": {
      "latitude": "29.920714670232456",
      "longitude": "-90.0912377538606"
    }
  },
  {
    "service_request": "2021-836940",
    "request_type": "Property Maintenance",
    "request_reason": "Property Maintenance",
    "date_created": "2021-10-25T15:42:24.000",
    "date_modified": "2021-10-25T15:42:24.000",
    "request_status": "Pending",
    "responsible_agency": "Department of Code Enforcement",
    "final_address": "8431 Lomond Rd",
    "address_councildis": "E",
    "status": "Pending",
    "rowid": "836940",
    "final_x": "3703670.10999",
    "final_y": "562135.092575",
    "longitude": "-89.99693815786769",
    "latitude": "30.03898394820195",
    "geocoded_column": {
      "latitude": "30.03898394820195",
      "longitude": "-89.99693815786769"
    }
  },
  {
    "service_request": "2021-836939",
    "request_type": "Abandoned Vehicles",
    "request_reason": "Abandoned/Junk Vehicles",
    "date_created": "2021-10-25T15:41:09.000",
    "date_modified": "2021-10-25T15:41:09.000",
    "request_status": "Pending",
    "responsible_agency": "Department of Public Works",
    "final_address": "6872 Mayo Rd",
    "address_councildis": "E",
    "status": "Pending",
    "rowid": "836939",
    "final_x": "3701796.42244",
    "final_y": "557670.553435",
    "longitude": "-90.0030233069072",
    "latitude": "30.026768154926316",
    "geocoded_column": {
      "latitude": "30.026768154926316",
      "longitude": "-90.0030233069072"
    }
  },
  {
    "service_request": "2021-836938",
    "request_type": "Trash/Recycling",
    "request_reason": "Replace Trash Cart",
    "date_created": "2021-10-25T15:40:34.000",
    "date_modified": "2021-10-25T15:40:35.000",
    "request_status": "Pending",
    "responsible_agency": "Department of Sanitation",
    "final_address": "2613 Fourth St",
    "address_councildis": "B",
    "status": "Assigned to Contractor",
    "contractor": "Richards Disposal",
    "rowid": "836938",
    "final_x": "3674142.75681",
    "final_y": "525851.842045",
    "longitude": "-90.09149585697436",
    "latitude": "29.94013145236807",
    "geocoded_column": {
      "latitude": "29.94013145236807",
      "longitude": "-90.09149585697436"
    }
  },
  {
    "service_request": "2021-836936",
    "request_type": "Abandoned Vehicles",
    "request_reason": "Vehicle Blocking Your Driveway",
    "date_created": "2021-10-25T15:38:32.000",
    "date_modified": "2021-10-25T15:38:32.000",
    "request_status": "Pending",
    "responsible_agency": "Department of Public Works",
    "final_address": "2220 Short St",
    "address_councildis": "A",
    "status": "Pending",
    "rowid": "836936",
    "final_x": "3664746.11552",
    "final_y": "530824.815618",
    "longitude": "-90.12099651024916",
    "latitude": "29.954082205659414",
    "geocoded_column": {
      "latitude": "29.954082205659414",
      "longitude": "-90.12099651024916"
    }
  },
  {
    "service_request": "2021-836931",
    "request_type": "Abandoned Vehicles",
    "request_reason": "Vehicle Blocking Your Driveway",
    "date_created": "2021-10-25T15:32:11.000",
    "date_modified": "2021-10-25T15:32:11.000",
    "request_status": "Pending",
    "responsible_agency": "Department of Public Works",
    "final_address": "2220 Short St",
    "address_councildis": "A",
    "status": "Pending",
    "rowid": "836931",
    "final_x": "3664746.11552",
    "final_y": "530824.815618",
    "longitude": "-90.12099651024916",
    "latitude": "29.954082205659414",
    "geocoded_column": {
      "latitude": "29.954082205659414",
      "longitude": "-90.12099651024916"
    }
  },
  {
    "service_request": "2021-836929",
    "request_type": "Trash/Recycling",
    "request_reason": "Missed Trash Pick-Up",
    "date_created": "2021-10-25T15:32:05.000",
    "date_modified": "2021-10-25T15:32:06.000",
    "request_status": "Pending",
    "responsible_agency": "Department of Sanitation",
    "final_address": "4936 Marque Dr",
    "address_councildis": "E",
    "status": "Assigned to Contractor",
    "contractor": "Metro Disposal",
    "rowid": "836929",
    "final_x": "3709871.33246",
    "final_y": "556941.142938",
    "longitude": "-89.97753494343715",
    "latitude": "30.024502315793235",
    "geocoded_column": {
      "latitude": "30.024502315793235",
      "longitude": "-89.97753494343715"
    }
  },
  {
    "service_request": "2021-836928",
    "request_type": "Trash/Recycling",
    "request_reason": "Request a Large Item Pick Up",
    "date_created": "2021-10-25T15:29:28.000",
    "date_modified": "2021-10-25T15:29:28.000",
    "request_status": "Pending",
    "responsible_agency": "Department of Sanitation",
    "final_address": "1628 Frenchmen St",
    "address_councildis": "D",
    "status": "Assigned to Contractor",
    "contractor": "Metro Disposal",
    "rowid": "836928",
    "final_x": "3684340.42633",
    "final_y": "538333.123657",
    "longitude": "-90.05886200775849",
    "latitude": "29.97414287403678",
    "geocoded_column": {
      "latitude": "29.97414287403678",
      "longitude": "-90.05886200775849"
    }
  },
  {
    "service_request": "2021-836927",
    "request_type": "Trash/Recycling",
    "request_reason": "Missed Trash Pick-Up",
    "date_created": "2021-10-25T15:28:40.000",
    "date_modified": "2021-10-25T15:28:40.000",
    "request_status": "Pending",
    "responsible_agency": "Department of Sanitation",
    "final_address": "100 BLK Dauphine St",
    "address_councildis": "C",
    "status": "Assigned to Contractor",
    "contractor": "Empire Services",
    "rowid": "836927",
    "final_x": "3680760.47998",
    "final_y": "531293.683919",
    "longitude": "-90.0704133348019",
    "latitude": "29.95489582302899",
    "geocoded_column": {
      "latitude": "29.95489582302899",
      "longitude": "-90.0704133348019"
    }
  },
  {
    "service_request": "2021-836926",
    "request_type": "Abandoned Vehicles",
    "request_reason": "Abandoned/Junk Vehicles",
    "date_created": "2021-10-25T15:27:20.000",
    "date_modified": "2021-10-25T15:27:20.000",
    "request_status": "Pending",
    "responsible_agency": "Department of Public Works",
    "final_address": "9200 BLK Colapissa St",
    "address_councildis": "A",
    "status": "Pending",
    "rowid": "836926",
    "final_x": "3663538.00491",
    "final_y": "536125.173272",
    "longitude": "-90.12463470684916",
    "latitude": "29.968691549245836",
    "geocoded_column": {
      "latitude": "29.968691549245836",
      "longitude": "-90.12463470684916"
    }
  },
  {
    "service_request": "2021-836925",
    "request_type": "Trash/Recycling",
    "request_reason": "Request a Large Item Pick Up",
    "date_created": "2021-10-25T15:20:08.000",
    "date_modified": "2021-10-25T15:20:08.000",
    "request_status": "Pending",
    "responsible_agency": "Department of Sanitation",
    "final_address": "3834 S Inwood Ave",
    "address_councildis": "C",
    "status": "Assigned to Contractor",
    "contractor": "Richards Disposal",
    "rowid": "836925",
    "final_x": "3705105.55089",
    "final_y": "514343.170419",
    "longitude": "-89.99416697661597",
    "latitude": "29.90752758884572",
    "geocoded_column": {
      "latitude": "29.90752758884572",
      "longitude": "-89.99416697661597"
    }
  },
  {
    "service_request": "2021-836921",
    "request_type": "Traffic Signals/Signs/Striping/Streetlights",
    "request_reason": "Street Light Outage/Malfunction",
    "date_created": "2021-10-25T15:14:57.000",
    "date_modified": "2021-10-25T15:14:58.000",
    "request_status": "Pending",
    "responsible_agency": "Department of Public Works",
    "final_address": "1915 E Homestead Dr",
    "address_councildis": "C",
    "status": "Pending",
    "contractor": "Royal Engineering",
    "rowid": "836921",
    "final_x": "3697094.73482",
    "final_y": "524868.34662",
    "longitude": "-90.01906894176797",
    "latitude": "29.936723248757378",
    "geocoded_column": {
      "latitude": "29.936723248757378",
      "longitude": "-90.01906894176797"
    }
  },
  {
    "service_request": "2021-836916",
    "request_type": "Mosquito, Termite & Rodent Control",
    "request_reason": "Rodent Complaint (Rats)",
    "date_created": "2021-10-25T15:08:59.000",
    "date_modified": "2021-10-25T15:08:59.000",
    "request_status": "Pending",
    "responsible_agency": "Mosquito, Termite & Rodent Control Board",
    "final_address": "4322 Spain St",
    "address_councildis": "D",
    "status": "Pending",
    "rowid": "836916",
    "final_x": "3685041.33455",
    "final_y": "548706.125779",
    "longitude": "-90.05628326565441",
    "latitude": "30.002643491248982",
    "geocoded_column": {
      "latitude": "30.002643491248982",
      "longitude": "-90.05628326565441"
    }
  },
  {
    "service_request": "2021-836912",
    "request_type": "Trash/Recycling",
    "request_reason": "Replace Trash Cart",
    "date_created": "2021-10-25T15:05:23.000",
    "date_modified": "2021-10-25T15:05:24.000",
    "request_status": "Pending",
    "responsible_agency": "Department of Sanitation",
    "final_address": "6316 Magazine St",
    "address_councildis": "A",
    "status": "Assigned to Contractor",
    "contractor": "Richards Disposal",
    "rowid": "836912",
    "final_x": "3663288.06112",
    "final_y": "519752.075384",
    "longitude": "-90.12596888349337",
    "latitude": "29.923678028683423",
    "geocoded_column": {
      "latitude": "29.923678028683423",
      "longitude": "-90.12596888349337"
    }
  },
  {
    "service_request": "2021-836909",
    "request_type": "Trash/Recycling",
    "request_reason": "Replace Trash Cart",
    "date_created": "2021-10-25T15:02:12.000",
    "date_modified": "2021-10-25T15:02:13.000",
    "request_status": "Pending",
    "responsible_agency": "Department of Sanitation",
    "final_address": "2525 Lapeyrouse St",
    "address_councildis": "D",
    "status": "Assigned to Contractor",
    "contractor": "Metro Disposal",
    "rowid": "836909",
    "final_x": "3679416.77391",
    "final_y": "539962.651018",
    "longitude": "-90.0743554879856",
    "latitude": "29.97877317394535",
    "geocoded_column": {
      "latitude": "29.97877317394535",
      "longitude": "-90.0743554879856"
    }
  },
  {
    "service_request": "2021-836907",
    "request_type": "Trash/Recycling",
    "request_reason": "Replace Trash Cart",
    "date_created": "2021-10-25T14:58:39.000",
    "date_modified": "2021-10-25T14:58:40.000",
    "request_status": "Pending",
    "responsible_agency": "Department of Sanitation",
    "final_address": "1518 Ursulines Ave",
    "address_councildis": "C",
    "status": "Assigned to Contractor",
    "contractor": "Richards Disposal",
    "rowid": "836907",
    "final_x": "3681061.9709",
    "final_y": "535426.941126",
    "longitude": "-90.06931736841857",
    "latitude": "29.966251731772612",
    "geocoded_column": {
      "latitude": "29.966251731772612",
      "longitude": "-90.06931736841857"
    }
  },
  {
    "service_request": "2021-836906",
    "request_type": "Roads/Drainage",
    "request_reason": "Pothole",
    "date_created": "2021-10-25T14:57:59.000",
    "date_modified": "2021-10-25T15:01:21.000",
    "request_status": "Pending",
    "responsible_agency": "Department of Public Works",
    "final_address": "2400 Mistletoe St, New Orleans, Louisiana, 70118",
    "status": "Pending",
    "rowid": "836906",
    "longitude": "0.0",
    "latitude": "0.0",
    "geocoded_column": {
      "latitude": "0.0",
      "longitude": "0.0"
    }
  },
  {
    "service_request": "2021-836905",
    "request_type": "Traffic Signals/Signs/Striping/Streetlights",
    "request_reason": "Street Light Outage/Malfunction",
    "date_created": "2021-10-25T14:57:22.000",
    "date_modified": "2021-10-25T15:14:12.000",
    "request_status": "Pending",
    "responsible_agency": "Department of Public Works",
    "final_address": "5190 Metropolitan Dr, New Orleans, Louisiana, 70126",
    "address_councildis": "D",
    "status": "Pending",
    "contractor": "Royal Engineering",
    "rowid": "836905",
    "final_x": "3690215.94115",
    "final_y": "552708.73711",
    "longitude": "-90.03979330678092",
    "latitude": "30.013489609629787",
    "geocoded_column": {
      "latitude": "30.013489609629787",
      "longitude": "-90.03979330678092"
    }
  },
  {
    "service_request": "2021-836904",
    "request_type": "Trash/Recycling",
    "request_reason": "Replace Trash Cart",
    "date_created": "2021-10-25T14:56:55.000",
    "date_modified": "2021-10-25T14:56:56.000",
    "request_status": "Pending",
    "responsible_agency": "Department of Sanitation",
    "final_address": "1516 Ursulines Ave",
    "address_councildis": "C",
    "status": "Assigned to Contractor",
    "contractor": "Richards Disposal",
    "rowid": "836904",
    "final_x": "3681071.73045",
    "final_y": "535420.822918",
    "longitude": "-90.06928676111335",
    "latitude": "29.96623461276405",
    "geocoded_column": {
      "latitude": "29.96623461276405",
      "longitude": "-90.06928676111335"
    }
  },
  {
    "service_request": "2021-836903",
    "request_type": "Property Maintenance",
    "request_reason": "Property Maintenance",
    "date_created": "2021-10-25T14:55:02.000",
    "date_modified": "2021-10-25T15:01:26.000",
    "request_status": "Pending",
    "responsible_agency": "Department of Code Enforcement",
    "final_address": "6053 Vermillion Blvd, New Orleans, Louisiana, 70122",
    "address_councildis": "D",
    "rowid": "836903",
    "final_x": "3683167.14741",
    "final_y": "555504.733017",
    "longitude": "-90.06196575794591",
    "latitude": "30.02139449115145",
    "geocoded_column": {
      "latitude": "30.02139449115145",
      "longitude": "-90.06196575794591"
    }
  },
  {
    "service_request": "2021-836902",
    "request_type": "Property Maintenance",
    "request_reason": "Property Maintenance",
    "date_created": "2021-10-25T14:54:54.000",
    "date_modified": "2021-10-25T14:54:54.000",
    "request_status": "Pending",
    "responsible_agency": "Department of Code Enforcement",
    "final_address": "2523 Independence St",
    "address_councildis": "D",
    "status": "Pending",
    "rowid": "836902",
    "final_x": "3692383.11081",
    "final_y": "541042.312331",
    "longitude": "-90.03336439173992",
    "latitude": "29.981343753033684",
    "geocoded_column": {
      "latitude": "29.981343753033684",
      "longitude": "-90.03336439173992"
    }
  },
  {
    "service_request": "2021-836901",
    "request_type": "Trash/Recycling",
    "request_reason": "Replace Trash Cart",
    "date_created": "2021-10-25T14:54:49.000",
    "date_modified": "2021-10-25T14:54:50.000",
    "request_status": "Pending",
    "responsible_agency": "Department of Sanitation",
    "final_address": "1522 Ursulines Ave",
    "address_councildis": "C",
    "status": "Assigned to Contractor",
    "contractor": "Richards Disposal",
    "rowid": "836901",
    "final_x": "3681035.83023",
    "final_y": "535448.16007",
    "longitude": "-90.06939918094149",
    "latitude": "29.966310869477123",
    "geocoded_column": {
      "latitude": "29.966310869477123",
      "longitude": "-90.06939918094149"
    }
  },
  {
    "service_request": "2021-836900",
    "request_type": "Trash/Recycling",
    "request_reason": "Request a Large Item Pick Up",
    "date_created": "2021-10-25T14:54:20.000",
    "date_modified": "2021-10-25T14:54:20.000",
    "request_status": "Pending",
    "responsible_agency": "Department of Sanitation",
    "final_address": "3112 Napoleon Ave",
    "address_councildis": "B",
    "status": "Assigned to Contractor",
    "contractor": "Richards Disposal",
    "rowid": "836900",
    "final_x": "3670166.38234",
    "final_y": "526381.639614",
    "longitude": "-90.10403197195019",
    "latitude": "29.94170612225314",
    "geocoded_column": {
      "latitude": "29.94170612225314",
      "longitude": "-90.10403197195019"
    }
  },
  {
    "service_request": "2021-836898",
    "request_type": "Property Maintenance",
    "request_reason": "Property Maintenance",
    "date_created": "2021-10-25T14:53:45.000",
    "date_modified": "2021-10-25T15:01:27.000",
    "request_status": "Pending",
    "responsible_agency": "Department of Code Enforcement",
    "final_address": "6047 Vermillion Blvd, New Orleans, Louisiana, 70122",
    "address_councildis": "D",
    "status": "Pending",
    "rowid": "836898",
    "final_x": "3683176.60194",
    "final_y": "555414.274265",
    "longitude": "-90.06193905569043",
    "latitude": "30.021145474380926",
    "geocoded_column": {
      "latitude": "30.021145474380926",
      "longitude": "-90.06193905569043"
    }
  },
  {
    "service_request": "2021-836897",
    "request_type": "Trash/Recycling",
    "request_reason": "Replace Trash Cart",
    "date_created": "2021-10-25T14:53:41.000",
    "date_modified": "2021-10-25T14:53:42.000",
    "request_status": "Pending",
    "responsible_agency": "Department of Sanitation",
    "final_address": "1520 Ursulines Ave",
    "address_councildis": "C",
    "status": "Assigned to Contractor",
    "contractor": "Richards Disposal",
    "rowid": "836897",
    "final_x": "3681047.18939",
    "final_y": "535442.019974",
    "longitude": "-90.06936352283044",
    "latitude": "29.96629364178509",
    "geocoded_column": {
      "latitude": "29.96629364178509",
      "longitude": "-90.06936352283044"
    }
  },
  {
    "service_request": "2021-836896",
    "request_type": "Abandoned Vehicles",
    "request_reason": "Abandoned/Junk Vehicles",
    "date_created": "2021-10-25T14:50:22.000",
    "date_modified": "2021-10-25T14:50:22.000",
    "request_status": "Pending",
    "responsible_agency": "Department of Public Works",
    "final_address": "722 French St",
    "address_councildis": "A",
    "status": "Pending",
    "rowid": "836896",
    "final_x": "3668856.69863",
    "final_y": "548500.993682",
    "longitude": "-90.10741976683789",
    "latitude": "30.002565499460445",
    "geocoded_column": {
      "latitude": "30.002565499460445",
      "longitude": "-90.10741976683789"
    }
  },
  {
    "service_request": "2021-836895",
    "request_type": "Traffic Signals/Signs/Striping/Streetlights",
    "request_reason": "Street Light Outage/Malfunction",
    "date_created": "2021-10-25T14:46:06.000",
    "date_modified": "2021-10-25T14:46:06.000",
    "request_status": "Pending",
    "responsible_agency": "Department of Public Works",
    "final_address": "1346 Prentiss Ave",
    "address_councildis": "D",
    "status": "Pending",
    "contractor": "Royal Engineering",
    "rowid": "836895",
    "final_x": "3677353.20891",
    "final_y": "553192.775319",
    "longitude": "-90.08041610151096",
    "latitude": "30.01521353659038",
    "geocoded_column": {
      "latitude": "30.01521353659038",
      "longitude": "-90.08041610151096"
    }
  },
  {
    "service_request": "2021-836894",
    "request_type": "Trash/Recycling",
    "request_reason": "Replace Trash Cart",
    "date_created": "2021-10-25T14:45:09.000",
    "date_modified": "2021-10-25T14:45:10.000",
    "request_status": "Pending",
    "responsible_agency": "Department of Sanitation",
    "final_address": "2218 N Rampart St",
    "address_councildis": "C",
    "status": "Assigned to Contractor",
    "contractor": "Metro Disposal",
    "rowid": "836894",
    "final_x": "3685258.58069",
    "final_y": "535933.361223",
    "longitude": "-90.05604675470222",
    "latitude": "29.967516250862936",
    "geocoded_column": {
      "latitude": "29.967516250862936",
      "longitude": "-90.05604675470222"
    }
  },
  {
    "service_request": "2021-836893",
    "request_type": "Mosquito, Termite & Rodent Control",
    "request_reason": "Rodent Complaint (Rats)",
    "date_created": "2021-10-25T14:38:44.000",
    "date_modified": "2021-10-25T15:01:28.000",
    "request_status": "Pending",
    "responsible_agency": "Mosquito, Termite & Rodent Control Board",
    "final_address": "136 S Cortez St",
    "address_councildis": "A",
    "status": "Pending",
    "rowid": "836893",
    "final_x": "3671876.09659",
    "final_y": "537285.358152",
    "longitude": "-90.09826298341869",
    "latitude": "29.97163718611483",
    "geocoded_column": {
      "latitude": "29.97163718611483",
      "longitude": "-90.09826298341869"
    }
  },
  {
    "service_request": "2021-836892",
    "request_type": "Trash/Recycling",
    "request_reason": "Missed Trash Pick-Up",
    "date_created": "2021-10-25T14:36:26.000",
    "date_modified": "2021-10-25T14:36:27.000",
    "request_status": "Pending",
    "responsible_agency": "Department of Sanitation",
    "final_address": "4620 Mirabeau Ave",
    "address_councildis": "D",
    "status": "Assigned to Contractor",
    "contractor": "Metro Disposal",
    "rowid": "836892",
    "final_x": "3691020.983",
    "final_y": "551477.416213",
    "longitude": "-90.03729380838723",
    "latitude": "30.010078919218437",
    "geocoded_column": {
      "latitude": "30.010078919218437",
      "longitude": "-90.03729380838723"
    }
  },
  {
    "service_request": "2021-836891",
    "request_type": "Trash/Recycling",
    "request_reason": "Replace Trash Cart",
    "date_created": "2021-10-25T14:32:28.000",
    "date_modified": "2021-10-25T14:32:30.000",
    "request_status": "Pending",
    "responsible_agency": "Department of Sanitation",
    "final_address": "4620 Mirabeau Ave",
    "address_councildis": "D",
    "status": "Assigned to Contractor",
    "contractor": "Metro Disposal",
    "rowid": "836891",
    "final_x": "3691020.983",
    "final_y": "551477.416213",
    "longitude": "-90.03729380838723",
    "latitude": "30.010078919218437",
    "geocoded_column": {
      "latitude": "30.010078919218437",
      "longitude": "-90.03729380838723"
    }
  },
  {
    "service_request": "2021-836890",
    "request_type": "Parks & Parkways",
    "request_reason": "Request Tree Service (Right of Way/Public Property)",
    "date_created": "2021-10-25T14:31:51.000",
    "date_modified": "2021-10-25T15:01:30.000",
    "request_status": "Pending",
    "responsible_agency": "Department of Parks & Parkway",
    "final_address": "7450 St Charles Ave",
    "address_councildis": "A",
    "status": "Pending",
    "rowid": "836890",
    "final_x": "3662157.86695",
    "final_y": "525239.529853",
    "longitude": "-90.12935450217626",
    "latitude": "29.93879950093089",
    "geocoded_column": {
      "latitude": "29.93879950093089",
      "longitude": "-90.12935450217626"
    }
  },
  {
    "service_request": "2021-836887",
    "request_type": "Traffic Signals/Signs/Striping/Streetlights",
    "request_reason": "Traffic Sign Missing/Damaged",
    "date_created": "2021-10-25T14:23:19.000",
    "date_modified": "2021-10-25T14:23:19.000",
    "request_status": "Pending",
    "responsible_agency": "Department of Public Works",
    "final_address": "1750 Numa St",
    "address_councildis": "C",
    "status": "Pending",
    "rowid": "836887",
    "final_x": "3691754.47523",
    "final_y": "524870.591548",
    "longitude": "-90.0359282419296",
    "latitude": "29.936896764056165",
    "geocoded_column": {
      "latitude": "29.936896764056165",
      "longitude": "-90.0359282419296"
    }
  },
  {
    "service_request": "2021-836886",
    "request_type": "Trash/Recycling",
    "request_reason": "Missed Trash Pick-Up",
    "date_created": "2021-10-25T14:22:15.000",
    "date_modified": "2021-10-25T14:22:16.000",
    "request_status": "Pending",
    "responsible_agency": "Department of Sanitation",
    "final_address": "4003 Iberville St",
    "address_councildis": "A",
    "status": "Assigned to Contractor",
    "contractor": "Richards Disposal",
    "rowid": "836886",
    "final_x": "3671726.17063",
    "final_y": "538457.484105",
    "longitude": "-90.0986965870716",
    "latitude": "29.974864579006994",
    "geocoded_column": {
      "latitude": "29.974864579006994",
      "longitude": "-90.0986965870716"
    }
  },
  {
    "service_request": "2021-836883",
    "request_type": "Property Maintenance",
    "request_reason": "Property Maintenance",
    "date_created": "2021-10-25T14:15:30.000",
    "date_modified": "2021-10-25T14:15:31.000",
    "request_status": "Pending",
    "responsible_agency": "Department of Code Enforcement",
    "final_address": "1516 Murl St",
    "address_councildis": "C",
    "status": "Pending",
    "rowid": "836883",
    "final_x": "3695440.11376",
    "final_y": "525711.989117",
    "longitude": "-90.02426220213154",
    "latitude": "29.939095055360802",
    "geocoded_column": {
      "latitude": "29.939095055360802",
      "longitude": "-90.02426220213154"
    }
  },
  {
    "service_request": "2021-836882",
    "request_type": "Trash/Recycling",
    "request_reason": "Illegal Dumping",
    "date_created": "2021-10-25T14:13:15.000",
    "date_modified": "2021-10-25T15:01:32.000",
    "request_status": "Pending",
    "responsible_agency": "Department of Sanitation",
    "final_address": "1900 BLK Benefit St",
    "address_councildis": "D",
    "status": "Pending",
    "rowid": "836882",
    "final_x": "3682269.38903",
    "final_y": "544106.677322",
    "longitude": "-90.06520101090996",
    "latitude": "29.990081301024595",
    "geocoded_column": {
      "latitude": "29.990081301024595",
      "longitude": "-90.06520101090996"
    }
  },
  {
    "service_request": "2021-836880",
    "request_type": "Abandoned Vehicles",
    "request_reason": "Abandoned/Junk Vehicles",
    "date_created": "2021-10-25T14:12:47.000",
    "date_modified": "2021-10-25T14:18:05.000",
    "request_status": "Pending",
    "responsible_agency": "Department of Public Works",
    "final_address": "5902 Read Blvd",
    "address_councildis": "E",
    "status": "Inspected",
    "rowid": "836880",
    "final_x": "3710244.30904",
    "final_y": "560921.573022",
    "longitude": "-89.97620744814635",
    "latitude": "30.03543478671927",
    "geocoded_column": {
      "latitude": "30.03543478671927",
      "longitude": "-89.97620744814635"
    }
  },
  {
    "service_request": "2021-836879",
    "request_type": "Parks & Parkways",
    "request_reason": "Tree Stump (removal, grind)",
    "date_created": "2021-10-25T14:08:40.000",
    "date_modified": "2021-10-25T14:08:40.000",
    "request_status": "Pending",
    "responsible_agency": "Department of Parks & Parkway",
    "final_address": "1926 Pleasure St",
    "address_councildis": "D",
    "status": "Pending",
    "rowid": "836879",
    "final_x": "3682279.78504",
    "final_y": "544928.907407",
    "longitude": "-90.06513942733544",
    "latitude": "29.992341826356057",
    "geocoded_column": {
      "latitude": "29.992341826356057",
      "longitude": "-90.06513942733544"
    }
  },
  {
    "service_request": "2021-836874",
    "request_type": "Trash/Recycling",
    "request_reason": "Request a Large Item Pick Up",
    "date_created": "2021-10-25T14:00:15.000",
    "date_modified": "2021-10-25T15:01:38.000",
    "request_status": "Pending",
    "responsible_agency": "Department of Sanitation",
    "final_address": "919 Hagan St",
    "address_councildis": "A",
    "status": "Assigned to Contractor",
    "contractor": "Richards Disposal",
    "rowid": "836874",
    "final_x": "3675197.55541",
    "final_y": "539225.452362",
    "longitude": "-90.08770669629075",
    "latitude": "29.976872924464825",
    "geocoded_column": {
      "latitude": "29.976872924464825",
      "longitude": "-90.08770669629075"
    }
  },
  {
    "service_request": "2021-836873",
    "request_type": "Traffic Signals/Signs/Striping/Streetlights",
    "request_reason": "Street Light Outage/Malfunction",
    "date_created": "2021-10-25T13:59:26.000",
    "date_modified": "2021-10-25T13:59:27.000",
    "request_status": "Pending",
    "responsible_agency": "Department of Public Works",
    "final_address": "6045 General Meyer Ave",
    "address_councildis": "C",
    "status": "Pending",
    "contractor": "Royal Engineering",
    "rowid": "836873",
    "final_x": "3706253.46564",
    "final_y": "521040.848505",
    "longitude": "-89.99029628187728",
    "latitude": "29.925906945634736",
    "geocoded_column": {
      "latitude": "29.925906945634736",
      "longitude": "-89.99029628187728"
    }
  },
  {
    "service_request": "2021-836872",
    "request_type": "Traffic Signals/Signs/Striping/Streetlights",
    "request_reason": "Street Light Outage/Malfunction",
    "date_created": "2021-10-25T13:52:11.000",
    "date_modified": "2021-10-25T13:52:12.000",
    "request_status": "Pending",
    "responsible_agency": "Department of Public Works",
    "final_address": "1648 Steeple Chase Ln",
    "address_councildis": "C",
    "status": "Pending",
    "contractor": "Royal Engineering",
    "rowid": "836872",
    "final_x": "3700006.53712",
    "final_y": "524547.043964",
    "longitude": "-90.00988802310609",
    "latitude": "29.93574762370621",
    "geocoded_column": {
      "latitude": "29.93574762370621",
      "longitude": "-90.00988802310609"
    }
  },
  {
    "service_request": "2021-836871",
    "request_type": "Traffic Signals/Signs/Striping/Streetlights",
    "request_reason": "Traffic Signal Malfunctioning/Damaged",
    "date_created": "2021-10-25T13:51:07.000",
    "date_modified": "2021-10-25T13:51:07.000",
    "request_status": "Pending",
    "responsible_agency": "Department of Public Works",
    "final_address": "3008 Holiday Dr",
    "address_councildis": "C",
    "status": "Pending",
    "rowid": "836871",
    "final_x": "3699383.26903",
    "final_y": "520131.050872",
    "longitude": "-90.01201644096636",
    "latitude": "29.92362494461857",
    "geocoded_column": {
      "latitude": "29.92362494461857",
      "longitude": "-90.01201644096636"
    }
  },
  {
    "service_request": "2021-836870",
    "request_type": "Trash/Recycling",
    "request_reason": "Illegal Dumping",
    "date_created": "2021-10-25T13:48:24.000",
    "date_modified": "2021-10-25T13:48:24.000",
    "request_status": "Pending",
    "responsible_agency": "Department of Sanitation",
    "final_address": "I 610 W & ST ANTHONY AVE",
    "address_councildis": "D",
    "status": "Pending",
    "rowid": "836870",
    "final_x": "3682811.4",
    "final_y": "544507.88",
    "longitude": "-90.06347489942519",
    "latitude": "29.991167961178906",
    "geocoded_column": {
      "latitude": "29.991167961178906",
      "longitude": "-90.06347489942519"
    }
  },
  {
    "service_request": "2021-836868",
    "request_type": "Trash/Recycling",
    "request_reason": "Order Trash Cart",
    "date_created": "2021-10-25T13:42:19.000",
    "date_modified": "2021-10-25T15:01:40.000",
    "request_status": "Pending",
    "responsible_agency": "Department of Sanitation",
    "final_address": "15530 Dwyer Blvd",
    "address_councildis": "E",
    "status": "Assigned to Contractor",
    "contractor": "Metro Disposal",
    "rowid": "836868",
    "final_x": "3731043.53171",
    "final_y": "563730.722977",
    "longitude": "-89.91036919488947",
    "latitude": "30.042465018778252",
    "geocoded_column": {
      "latitude": "30.042465018778252",
      "longitude": "-89.91036919488947"
    }
  },
  {
    "service_request": "2021-836867",
    "request_type": "Traffic Signals/Signs/Striping/Streetlights",
    "request_reason": "Street Light Outage/Malfunction",
    "date_created": "2021-10-25T13:41:59.000",
    "date_modified": "2021-10-25T15:01:42.000",
    "request_status": "Pending",
    "responsible_agency": "Department of Public Works",
    "final_address": "3327 Touro St",
    "address_councildis": "D",
    "status": "Pending",
    "contractor": "Royal Engineering",
    "rowid": "836867",
    "final_x": "3683576.51753",
    "final_y": "544931.494223",
    "longitude": "-90.06104321544237",
    "latitude": "29.992309412561642",
    "geocoded_column": {
      "latitude": "29.992309412561642",
      "longitude": "-90.06104321544237"
    }
  },
  {
    "service_request": "2021-836864",
    "request_type": "COVID-19",
    "request_reason": "COVID-19 Business Non-Compliance",
    "date_created": "2021-10-25T13:39:21.000",
    "date_modified": "2021-10-25T15:01:45.000",
    "request_status": "Pending",
    "responsible_agency": "Safety and Permits",
    "final_address": "541 Dumaine St",
    "address_councildis": "C",
    "status": "Pending",
    "rowid": "836864",
    "final_x": "3683357.14812",
    "final_y": "532804.13114",
    "longitude": "-90.06216114059237",
    "latitude": "29.958970087038086",
    "geocoded_column": {
      "latitude": "29.958970087038086",
      "longitude": "-90.06216114059237"
    }
  },
  {
    "service_request": "2021-836863",
    "request_type": "Property Maintenance",
    "request_reason": "Property Maintenance",
    "date_created": "2021-10-25T13:37:18.000",
    "date_modified": "2021-10-25T13:37:18.000",
    "request_status": "Pending",
    "responsible_agency": "Department of Code Enforcement",
    "final_address": "5744 Press Dr",
    "address_councildis": "D",
    "status": "Pending",
    "rowid": "836863",
    "final_x": "3688915.76291",
    "final_y": "554743.286872",
    "longitude": "-90.0438288358989",
    "latitude": "30.019124162549232",
    "geocoded_column": {
      "latitude": "30.019124162549232",
      "longitude": "-90.0438288358989"
    }
  },
  {
    "service_request": "2021-836862",
    "request_type": "Abandoned Vehicles",
    "request_reason": "Abandoned/Junk Vehicles",
    "date_created": "2021-10-25T13:36:44.000",
    "date_modified": "2021-10-25T15:01:47.000",
    "request_status": "Pending",
    "responsible_agency": "Department of Public Works",
    "final_address": "3601 Camp St",
    "address_councildis": "B",
    "status": "Pending",
    "rowid": "836862",
    "final_x": "3673955.17684",
    "final_y": "519672.449016",
    "longitude": "-90.09229937761704",
    "latitude": "29.92314571189189",
    "geocoded_column": {
      "latitude": "29.92314571189189",
      "longitude": "-90.09229937761704"
    }
  },
  {
    "service_request": "2021-836861",
    "request_type": "Safety & Permits",
    "request_reason": "Short term Rental (Enforcement)",
    "date_created": "2021-10-25T13:36:21.000",
    "date_modified": "2021-10-25T13:36:21.000",
    "request_status": "Pending",
    "responsible_agency": "Safety and Permits",
    "final_address": "2470 Royal St",
    "address_councildis": "C",
    "status": "Pending",
    "rowid": "836861",
    "final_x": "3686475.98934",
    "final_y": "534949.956166",
    "longitude": "-90.05223688400359",
    "latitude": "29.96477485780994",
    "geocoded_column": {
      "latitude": "29.96477485780994",
      "longitude": "-90.05223688400359"
    }
  },
  {
    "service_request": "2021-836859",
    "request_type": "Trash/Recycling",
    "request_reason": "Missed Trash Pick-Up",
    "date_created": "2021-10-25T13:34:56.000",
    "date_modified": "2021-10-25T15:01:49.000",
    "request_status": "Pending",
    "responsible_agency": "Department of Sanitation",
    "final_address": "1503 Tchoupitoulas St",
    "address_councildis": "B",
    "status": "Assigned to Contractor",
    "contractor": "Richards Disposal",
    "rowid": "836859",
    "final_x": "3682225.65532",
    "final_y": "523280.484411",
    "longitude": "-90.06606671052575",
    "latitude": "29.93281772597452",
    "geocoded_column": {
      "latitude": "29.93281772597452",
      "longitude": "-90.06606671052575"
    }
  },
  {
    "service_request": "2021-836857",
    "request_type": "Property Maintenance",
    "request_reason": "Property Maintenance",
    "date_created": "2021-10-25T13:33:32.000",
    "date_modified": "2021-10-25T13:38:28.000",
    "request_status": "Pending",
    "responsible_agency": "Department of Code Enforcement",
    "final_address": "4752 Stemway Dr",
    "address_councildis": "D",
    "status": "Pending",
    "rowid": "836857",
    "final_x": "3696832.91613",
    "final_y": "554325.992728",
    "longitude": "-90.01882862946282",
    "latitude": "30.017729398383715",
    "geocoded_column": {
      "latitude": "30.017729398383715",
      "longitude": "-90.01882862946282"
    }
  },
  {
    "service_request": "2021-836855",
    "request_type": "Roads/Drainage",
    "request_reason": "Pothole",
    "date_created": "2021-10-25T13:32:09.000",
    "date_modified": "2021-10-25T13:32:09.000",
    "request_status": "Pending",
    "responsible_agency": "Department of Public Works",
    "final_address": "1461 Annunciation St Unit B",
    "address_councildis": "B",
    "status": "Pending",
    "rowid": "836855",
    "final_x": "3680958.85115",
    "final_y": "523842.661435",
    "longitude": "-90.07004634441836",
    "latitude": "29.93440199046448",
    "geocoded_column": {
      "latitude": "29.93440199046448",
      "longitude": "-90.07004634441836"
    }
  },
  {
    "service_request": "2021-836854",
    "request_type": "Abandoned Vehicles",
    "request_reason": "Abandoned/Junk Vehicles",
    "date_created": "2021-10-25T13:30:30.000",
    "date_modified": "2021-10-25T13:30:30.000",
    "request_status": "Pending",
    "responsible_agency": "Department of Public Works",
    "final_address": "6300 BLK Prentiss Ave",
    "address_councildis": "D",
    "status": "Pending",
    "rowid": "836854",
    "final_x": "3697634.48002",
    "final_y": "554519.307744",
    "longitude": "-90.01628899381723",
    "latitude": "30.018235632869057",
    "geocoded_column": {
      "latitude": "30.018235632869057",
      "longitude": "-90.01628899381723"
    }
  },
  {
    "service_request": "2021-836853",
    "request_type": "Abandoned Vehicles",
    "request_reason": "Abandoned/Junk Vehicles",
    "date_created": "2021-10-25T13:29:13.000",
    "date_modified": "2021-10-25T13:29:13.000",
    "request_status": "Pending",
    "responsible_agency": "Department of Public Works",
    "final_address": "6300 BLK Prentiss Ave",
    "address_councildis": "D",
    "status": "Pending",
    "rowid": "836853",
    "final_x": "3697634.48002",
    "final_y": "554519.307744",
    "longitude": "-90.01628899381723",
    "latitude": "30.018235632869057",
    "geocoded_column": {
      "latitude": "30.018235632869057",
      "longitude": "-90.01628899381723"
    }
  },
  {
    "service_request": "2021-836852",
    "request_type": "Trash/Recycling",
    "request_reason": "Missed Trash Pick-Up",
    "date_created": "2021-10-25T13:28:18.000",
    "date_modified": "2021-10-25T15:01:54.000",
    "request_status": "Pending",
    "responsible_agency": "Department of Sanitation",
    "final_address": "218 Helena St",
    "address_councildis": "A",
    "status": "Assigned to Contractor",
    "contractor": "Richards Disposal",
    "rowid": "836852",
    "final_x": "3668605.84711",
    "final_y": "540949.075787",
    "longitude": "-90.10846727097874",
    "latitude": "29.98180769348527",
    "geocoded_column": {
      "latitude": "29.98180769348527",
      "longitude": "-90.10846727097874"
    }
  },
  {
    "service_request": "2021-836851",
    "request_type": "Traffic Signals/Signs/Striping/Streetlights",
    "request_reason": "Traffic Signal Malfunctioning/Damaged",
    "date_created": "2021-10-25T13:28:11.000",
    "date_modified": "2021-10-25T13:28:11.000",
    "request_status": "Pending",
    "responsible_agency": "Department of Public Works",
    "final_address": "HOLIDAY DR & MACARTHUR BLVD",
    "address_councildis": "C",
    "status": "Pending",
    "rowid": "836851",
    "final_x": "3698736.7",
    "final_y": "520398.98",
    "longitude": "-90.01404767124727",
    "latitude": "29.924382143358752",
    "geocoded_column": {
      "latitude": "29.924382143358752",
      "longitude": "-90.01404767124727"
    }
  },
  {
    "service_request": "2021-836850",
    "request_type": "Property Maintenance",
    "request_reason": "Property Maintenance",
    "date_created": "2021-10-25T13:27:20.000",
    "date_modified": "2021-10-25T13:27:20.000",
    "request_status": "Pending",
    "responsible_agency": "Department of Code Enforcement",
    "final_address": "3339 Allen St",
    "address_councildis": "D",
    "status": "Pending",
    "rowid": "836850",
    "final_x": "3682113.47791",
    "final_y": "544929.860943",
    "longitude": "-90.06566472553969",
    "latitude": "29.992349508345924",
    "geocoded_column": {
      "latitude": "29.992349508345924",
      "longitude": "-90.06566472553969"
    }
  },
  {
    "service_request": "2021-836849",
    "request_type": "Traffic Signals/Signs/Striping/Streetlights",
    "request_reason": "Street Light Outage/Malfunction",
    "date_created": "2021-10-25T13:27:02.000",
    "date_modified": "2021-10-25T15:01:55.000",
    "request_status": "Pending",
    "responsible_agency": "Department of Public Works",
    "final_address": "8910 Tilford Rd",
    "address_councildis": "E",
    "status": "Pending",
    "contractor": "Royal Engineering",
    "rowid": "836849",
    "final_x": "3707928.6899",
    "final_y": "557209.386331",
    "longitude": "-89.98366331459664",
    "latitude": "30.02530294024195",
    "geocoded_column": {
      "latitude": "30.02530294024195",
      "longitude": "-89.98366331459664"
    }
  },
  {
    "service_request": "2021-836847",
    "request_type": "Trash/Recycling",
    "request_reason": "Illegal Dumping",
    "date_created": "2021-10-25T13:25:51.000",
    "date_modified": "2021-10-25T15:01:58.000",
    "request_status": "Pending",
    "responsible_agency": "Department of Sanitation",
    "final_address": "2402 Touro St",
    "address_councildis": "D",
    "status": "Pending",
    "rowid": "836847",
    "final_x": "3683819.51279",
    "final_y": "541072.034892",
    "longitude": "-90.06041107556025",
    "latitude": "29.98168984271762",
    "geocoded_column": {
      "latitude": "29.98168984271762",
      "longitude": "-90.06041107556025"
    }
  },
  {
    "service_request": "2021-836846",
    "request_type": "Abandoned Vehicles",
    "request_reason": "Abandoned/Junk Vehicles",
    "date_created": "2021-10-25T13:24:53.000",
    "date_modified": "2021-10-25T13:24:53.000",
    "request_status": "Pending",
    "responsible_agency": "Department of Public Works",
    "final_address": "417 N White St",
    "address_councildis": "B",
    "status": "Pending",
    "rowid": "836846",
    "final_x": "3675667.10049",
    "final_y": "536544.897671",
    "longitude": "-90.08631585864285",
    "latitude": "29.96948826993826",
    "geocoded_column": {
      "latitude": "29.96948826993826",
      "longitude": "-90.08631585864285"
    }
  },
  {
    "service_request": "2021-836844",
    "request_type": "Parks & Parkways",
    "request_reason": "Request Tree Service (Right of Way/Public Property)",
    "date_created": "2021-10-25T13:23:42.000",
    "date_modified": "2021-10-25T15:02:00.000",
    "request_status": "Pending",
    "responsible_agency": "Department of Parks & Parkway",
    "final_address": "4400 Cerise Ave",
    "address_councildis": "E",
    "status": "Pending",
    "rowid": "836844",
    "final_x": "3708724.39947",
    "final_y": "553798.038615",
    "longitude": "-89.98127620747327",
    "latitude": "30.015897267371766",
    "geocoded_column": {
      "latitude": "30.015897267371766",
      "longitude": "-89.98127620747327"
    }
  },
  {
    "service_request": "2021-836843",
    "request_type": "Property Maintenance",
    "request_reason": "Property Maintenance",
    "date_created": "2021-10-25T13:23:21.000",
    "date_modified": "2021-10-25T13:23:21.000",
    "request_status": "Pending",
    "responsible_agency": "Department of Code Enforcement",
    "final_address": "5400 Milne St",
    "address_councildis": "A",
    "status": "Pending",
    "rowid": "836843",
    "final_x": "3666504.10497",
    "final_y": "543490.855694",
    "longitude": "-90.11502023193452",
    "latitude": "29.988858336562384",
    "geocoded_column": {
      "latitude": "29.988858336562384",
      "longitude": "-90.11502023193452"
    }
  },
  {
    "service_request": "2021-836842",
    "request_type": "Abandoned Vehicles",
    "request_reason": "Abandoned/Junk Vehicles",
    "date_created": "2021-10-25T13:22:02.000",
    "date_modified": "2021-10-25T13:22:02.000",
    "request_status": "Pending",
    "responsible_agency": "Department of Public Works",
    "final_address": "2740 St Louis St",
    "address_councildis": "B",
    "status": "Pending",
    "rowid": "836842",
    "final_x": "3675791.49045",
    "final_y": "536428.817863",
    "longitude": "-90.08592701529538",
    "latitude": "29.969165367005083",
    "geocoded_column": {
      "latitude": "29.969165367005083",
      "longitude": "-90.08592701529538"
    }
  },
  {
    "service_request": "2021-836840",
    "request_type": "Traffic Signals/Signs/Striping/Streetlights",
    "request_reason": "Street Light Outage/Malfunction",
    "date_created": "2021-10-25T13:18:28.000",
    "date_modified": "2021-10-25T15:02:01.000",
    "request_status": "Pending",
    "responsible_agency": "Department of Public Works",
    "final_address": "6401 Paris Ave",
    "address_councildis": "D",
    "status": "Pending",
    "contractor": "Royal Engineering",
    "rowid": "836840",
    "final_x": "3678398.20027",
    "final_y": "557009.746842",
    "longitude": "-90.07698218906815",
    "latitude": "30.025677362141362",
    "geocoded_column": {
      "latitude": "30.025677362141362",
      "longitude": "-90.07698218906815"
    }
  },
  {
    "service_request": "2021-836839",
    "request_type": "Safety & Permits",
    "request_reason": "Licenses & Permits",
    "date_created": "2021-10-25T13:18:16.000",
    "date_modified": "2021-10-25T13:18:16.000",
    "request_status": "Pending",
    "responsible_agency": "Safety and Permits",
    "status": "Pending",
    "rowid": "836839",
    "longitude": "0.0",
    "latitude": "0.0",
    "geocoded_column": {
      "latitude": "0.0",
      "longitude": "0.0"
    }
  },
  {
    "service_request": "2021-836838",
    "request_type": "Property Maintenance",
    "request_reason": "Property Maintenance",
    "date_created": "2021-10-25T13:18:03.000",
    "date_modified": "2021-10-25T13:18:03.000",
    "request_status": "Pending",
    "responsible_agency": "Department of Code Enforcement",
    "final_address": "600 Poland Ave",
    "address_councildis": "C",
    "status": "Pending",
    "rowid": "836838",
    "final_x": "3692531.41104",
    "final_y": "533201.17978",
    "longitude": "-90.03317700551868",
    "latitude": "29.959778789770283",
    "geocoded_column": {
      "latitude": "29.959778789770283",
      "longitude": "-90.03317700551868"
    }
  },