[
  {
    "service_request": "2026-1272827",
    "request_type": "Streetlights",
    "request_reason": "Streetlight Outage/Malfunction",
    "date_created": "2026-04-10T22:43:44.000",
    "date_modified": "2026-04-10T22:43:47.000",
    "request_status": "Pending",
    "responsible_agency": "Department of Public Works",
    "final_address": "1308 N Gayoso St B",
    "address_councildis": "A",
    "status": "Pending",
    "rowid": "1272827",
    "final_x": "3676823.90267",
    "final_y": "539770.750282",
    "longitude": "-90.08255137377422",
    "latitude": "29.978323592689016",
    "geocoded_column": {
      "latitude": "29.978323592689016",
      "longitude": "-90.08255137377422"
    }
  },
  {
    "service_request": "2026-1272826",
    "request_type": "Health Related Request",
    "request_reason": "Noise Ordinance Complaint",
    "date_created": "2026-04-10T22:14:32.000",
    "date_modified": "2026-04-10T22:14:35.000",
    "request_status": "Pending",
    "responsible_agency": "Health Department",
    "final_address": "801 Bourbon St, New Orleans, Louisiana, 70116",
    "address_councildis": "C",
    "status": "Pending",
    "rowid": "1272826",
    "final_x": "3682490.98735",
    "final_y": "533018.672772",
    "longitude": "-90.06488875731978",
    "latitude": "29.959586396383013",
    "geocoded_column": {
      "latitude": "29.959586396383013",
      "longitude": "-90.06488875731978"
    }
  },
  {
    "service_request": "2026-1272825",
    "request_type": "Health Related Request",
    "request_reason": "Noise Ordinance Complaint",
    "date_created": "2026-04-10T22:14:07.000",
    "date_modified": "2026-04-10T22:14:10.000",
    "request_status": "Pending",
    "responsible_agency": "Health Department",
    "final_address": "800 Bourbon St, New Orleans, Louisiana, 70116",
    "address_councildis": "C",
    "status": "Pending",
    "rowid": "1272825",
    "final_x": "3682553.51528",
    "final_y": "533013.631428",
    "longitude": "-90.06469148499534",
    "latitude": "29.95957063099051",
    "geocoded_column": {
      "latitude": "29.95957063099051",
      "longitude": "-90.06469148499534"
    }
  },
  {
    "service_request": "2026-1272824",
    "request_type": "Abandoned Vehicles",
    "request_reason": "Abandoned/Junk Vehicles",
    "date_created": "2026-04-10T22:03:14.000",
    "date_modified": "2026-04-10T22:03:15.000",
    "request_status": "Pending",
    "responsible_agency": "Department of Public Works",
    "final_address": "3938 Franklin Ave",
    "address_councildis": "D",
    "status": "Pending",
    "rowid": "1272824",
    "final_x": "3686974.03196",
    "final_y": "547473.944082",
    "longitude": "-90.05022122266568",
    "latitude": "29.99919606844708",
    "geocoded_column": {
      "latitude": "29.99919606844708",
      "longitude": "-90.05022122266568"
    }
  },
  {
    "service_request": "2026-1272823",
    "request_type": "Health Related Request",
    "request_reason": "Noise Ordinance Complaint",
    "date_created": "2026-04-10T21:27:37.000",
    "date_modified": "2026-04-10T21:27:40.000",
    "request_status": "Pending",
    "responsible_agency": "Health Department",
    "final_address": "2330 Audubon St",
    "address_councildis": "A",
    "status": "Pending",
    "rowid": "1272823",
    "final_x": "3666724.6274",
    "final_y": "529844.042689",
    "longitude": "-90.11478208148004",
    "latitude": "29.95132769178241",
    "geocoded_column": {
      "latitude": "29.95132769178241",
      "longitude": "-90.11478208148004"
    }
  },
  {
    "service_request": "2026-1272822",
    "request_type": "Trash/Recycling",
    "request_reason": "Replace Trash Cart",
    "date_created": "2026-04-10T20:58:41.000",
    "date_modified": "2026-04-10T20:58:43.000",
    "request_status": "Pending",
    "responsible_agency": "Department of Sanitation",
    "final_address": "2131 S Liberty St",
    "address_councildis": "B",
    "status": "Assigned to Contractor",
    "contractor": "IV Waste",
    "rowid": "1272822",
    "final_x": "3676078.14625",
    "final_y": "525892.279933",
    "longitude": "-90.08538413856623",
    "latitude": "29.940184826119726",
    "geocoded_column": {
      "latitude": "29.940184826119726",
      "longitude": "-90.08538413856623"
    }
  },
  {
    "service_request": "2026-1272821",
    "request_type": "Health Related Request",
    "request_reason": "Noise Ordinance Complaint",
    "date_created": "2026-04-10T20:48:38.000",
    "date_modified": "2026-04-10T20:48:39.000",
    "request_status": "Pending",
    "responsible_agency": "Health Department",
    "final_address": "800 Bourbon St, New Orleans, Louisiana, 70116",
    "address_councildis": "C",
    "status": "Pending",
    "rowid": "1272821",
    "final_x": "3682553.51528",
    "final_y": "533013.631428",
    "longitude": "-90.06469148499534",
    "latitude": "29.95957063099051",
    "geocoded_column": {
      "latitude": "29.95957063099051",
      "longitude": "-90.06469148499534"
    }
  },
  {
    "service_request": "2026-1272820",
    "request_type": "Health Related Request",
    "request_reason": "Noise Ordinance Complaint",
    "date_created": "2026-04-10T20:48:09.000",
    "date_modified": "2026-04-10T20:48:11.000",
    "request_status": "Pending",
    "responsible_agency": "Health Department",
    "final_address": "801 Bourbon St, New Orleans, Louisiana, 70116",
    "address_councildis": "C",
    "status": "Pending",
    "rowid": "1272820",
    "final_x": "3682490.98735",
    "final_y": "533018.672772",
    "longitude": "-90.06488875731978",
    "latitude": "29.959586396383013",
    "geocoded_column": {
      "latitude": "29.959586396383013",
      "longitude": "-90.06488875731978"
    }
  },
  {
    "service_request": "2026-1272819",
    "request_type": "General Services",
    "request_reason": "General Service Request",
    "date_created": "2026-04-10T20:44:13.000",
    "date_modified": "2026-04-10T20:44:15.000",
    "request_status": "Pending",
    "responsible_agency": "Orleans Parish Communication District",
    "final_address": "1604 Foucher St",
    "address_councildis": "B",
    "status": "Pending",
    "rowid": "1272819",
    "final_x": "3673366.87547",
    "final_y": "521455.750521",
    "longitude": "-90.09409554237862",
    "latitude": "29.92806672526964",
    "geocoded_column": {
      "latitude": "29.92806672526964",
      "longitude": "-90.09409554237862"
    }
  },
  {
    "service_request": "2026-1272818",
    "request_type": "Trash/Recycling",
    "request_reason": "Request a Large Item Pick Up",
    "date_created": "2026-04-10T20:35:46.000",
    "date_modified": "2026-04-10T20:35:48.000",
    "request_status": "Pending",
    "responsible_agency": "Department of Sanitation",
    "final_address": "1816 Burdette St",
    "address_councildis": "A",
    "status": "Assigned to Contractor",
    "contractor": "IV Waste",
    "rowid": "1272818",
    "final_x": "3664284.19719",
    "final_y": "529320.130689",
    "longitude": "-90.12250527442846",
    "latitude": "29.94995823933573",
    "geocoded_column": {
      "latitude": "29.94995823933573",
      "longitude": "-90.12250527442846"
    }
  },
  {
    "service_request": "2026-1272817",
    "request_type": "Trash/Recycling",
    "request_reason": "Missed Trash Pick-Up",
    "date_created": "2026-04-10T19:11:28.000",
    "date_modified": "2026-04-10T19:11:29.000",
    "request_status": "Pending",
    "responsible_agency": "Department of Sanitation",
    "final_address": "2539 N Rampart St",
    "address_councildis": "C",
    "status": "Assigned to Contractor",
    "contractor": "IV Waste",
    "rowid": "1272817",
    "final_x": "3686836.00809",
    "final_y": "536119.204487",
    "longitude": "-90.05105865080486",
    "latitude": "29.96797881132173",
    "geocoded_column": {
      "latitude": "29.96797881132173",
      "longitude": "-90.05105865080486"
    }
  },
  {
    "service_request": "2026-1272816",
    "request_type": "Trash/Recycling",
    "request_reason": "Replace Trash Cart",
    "date_created": "2026-04-10T18:59:46.000",
    "date_modified": "2026-04-10T18:59:48.000",
    "request_status": "Pending",
    "responsible_agency": "Department of Sanitation",
    "final_address": "2112 Marais St",
    "address_councildis": "C",
    "status": "Assigned to Contractor",
    "contractor": "IV Waste",
    "rowid": "1272816",
    "final_x": "3684693.59977",
    "final_y": "536609.637639",
    "longitude": "-90.05780719882162",
    "latitude": "29.96939308152586",
    "geocoded_column": {
      "latitude": "29.96939308152586",
      "longitude": "-90.05780719882162"
    }
  },
  {
    "service_request": "2026-1272815",
    "request_type": "Tree Service",
    "request_reason": "Street or Sidewalk Blocked",
    "date_created": "2026-04-10T18:34:44.000",
    "date_modified": "2026-04-10T18:34:45.000",
    "request_status": "Pending",
    "responsible_agency": "Department of Parks & Parkways",
    "final_address": "801 Harrison Ave",
    "address_councildis": "A",
    "status": "Pending",
    "rowid": "1272815",
    "final_x": "3669481.99642",
    "final_y": "549397.514643",
    "longitude": "-90.10541401304762",
    "latitude": "30.00501220972178",
    "geocoded_column": {
      "latitude": "30.00501220972178",
      "longitude": "-90.10541401304762"
    }
  },
  {
    "service_request": "2026-1272814",
    "request_type": "Street and Traffic Signs",
    "request_reason": "Additional Signage Request",
    "date_created": "2026-04-10T18:33:33.000",
    "date_modified": "2026-04-10T18:33:35.000",
    "request_status": "Pending",
    "responsible_agency": "Department of Public Works",
    "final_address": "2100 Clio St",
    "address_councildis": "B",
    "status": "Pending",
    "rowid": "1272814",
    "final_x": "3677640.46498",
    "final_y": "527542.827583",
    "longitude": "-90.0803946720938",
    "latitude": "29.94467640674236",
    "geocoded_column": {
      "latitude": "29.94467640674236",
      "longitude": "-90.0803946720938"
    }
  },
  {
    "service_request": "2026-1272813",
    "request_type": "Trash/Recycling",
    "request_reason": "Replace Trash Cart",
    "date_created": "2026-04-10T18:19:24.000",
    "date_modified": "2026-04-10T18:19:26.000",
    "request_status": "Pending",
    "responsible_agency": "Department of Sanitation",
    "final_address": "5813 Elysian Fields Ave",
    "address_councildis": "D",
    "status": "Assigned to Contractor",
    "contractor": "IV Waste",
    "rowid": "1272813",
    "final_x": "3683707.1517",
    "final_y": "554375.81756",
    "longitude": "-90.06029912470235",
    "latitude": "30.018273902512522",
    "geocoded_column": {
      "latitude": "30.018273902512522",
      "longitude": "-90.06029912470235"
    }
  },
  {
    "service_request": "2026-1272812",
    "request_type": "Trash/Recycling",
    "request_reason": "Illegal Dumping",
    "date_created": "2026-04-10T18:16:25.000",
    "date_modified": "2026-04-10T18:16:28.000",
    "request_status": "Pending",
    "responsible_agency": "Department of Sanitation",
    "final_address": "5439 N Peters St",
    "address_councildis": "E",
    "status": "Pending",
    "rowid": "1272812",
    "final_x": "3696828.18122",
    "final_y": "531458.756291",
    "longitude": "-90.01967192431303",
    "latitude": "29.954852982665162",
    "geocoded_column": {
      "latitude": "29.954852982665162",
      "longitude": "-90.01967192431303"
    }
  },
  {
    "service_request": "2026-1272811",
    "request_type": "Trash/Recycling",
    "request_reason": "Request a Large Item Pick Up",
    "date_created": "2026-04-10T18:12:20.000",
    "date_modified": "2026-04-10T18:12:23.000",
    "request_status": "Pending",
    "responsible_agency": "Department of Sanitation",
    "final_address": "5328 Burgundy St",
    "address_councildis": "E",
    "status": "Assigned to Contractor",
    "contractor": "Waste Pro",
    "rowid": "1272811",
    "final_x": "3696830.97219",
    "final_y": "533180.813572",
    "longitude": "-90.01960076829295",
    "latitude": "29.959587944631473",
    "geocoded_column": {
      "latitude": "29.959587944631473",
      "longitude": "-90.01960076829295"
    }
  },
  {
    "service_request": "2026-1272810",
    "request_type": "Property Maintenance",
    "request_reason": "Property Maintenance",
    "date_created": "2026-04-10T17:57:44.000",
    "date_modified": "2026-04-10T17:57:45.000",
    "request_status": "Pending",
    "responsible_agency": "Department of Code Enforcement",
    "final_address": "2100 St Claude Ave",
    "address_councildis": "C",
    "status": "Pending",
    "rowid": "1272810",
    "final_x": "3684658.44489",
    "final_y": "536222.456519",
    "longitude": "-90.057931830602",
    "latitude": "29.968329543766842",
    "geocoded_column": {
      "latitude": "29.968329543766842",
      "longitude": "-90.057931830602"
    }
  },
  {
    "service_request": "2026-1272809",
    "request_type": "Trash/Recycling",
    "request_reason": "Request a Large Item Pick Up",
    "date_created": "2026-04-10T17:56:00.000",
    "date_modified": "2026-04-10T17:56:03.000",
    "request_status": "Pending",
    "responsible_agency": "Department of Sanitation",
    "final_address": "201 S Gayoso St",
    "address_councildis": "B",
    "status": "Assigned to Contractor",
    "contractor": "IV Waste",
    "rowid": "1272809",
    "final_x": "3674008.52878",
    "final_y": "535506.597702",
    "longitude": "-90.09158930832939",
    "latitude": "29.96668282345407",
    "geocoded_column": {
      "latitude": "29.96668282345407",
      "longitude": "-90.09158930832939"
    }
  },
  {
    "service_request": "2026-1272808",
    "request_type": "Streetlights",
    "request_reason": "Streetlight Outage/Malfunction",
    "date_created": "2026-04-10T17:44:34.000",
    "date_modified": "2026-04-10T17:44:36.000",
    "request_status": "Pending",
    "responsible_agency": "Department of Public Works",
    "final_address": "8600 BLK Forshey St",
    "address_councildis": "A",
    "status": "Pending",
    "rowid": "1272808",
    "final_x": "3665566.44212",
    "final_y": "535230.103868",
    "longitude": "-90.11825873430394",
    "latitude": "29.966171413558026",
    "geocoded_column": {
      "latitude": "29.966171413558026",
      "longitude": "-90.11825873430394"
    }
  },
  {
    "service_request": "2026-1272807",
    "request_type": "Streetlights",
    "request_reason": "New Streetlight Request",
    "date_created": "2026-04-10T17:43:26.000",
    "date_modified": "2026-04-10T17:43:27.000",
    "request_status": "Pending",
    "responsible_agency": "Department of Public Works",
    "final_address": "8924 Oleander St",
    "address_councildis": "A",
    "status": "Pending",
    "rowid": "1272807",
    "final_x": "3664515.17562",
    "final_y": "535669.159175",
    "longitude": "-90.12156396191776",
    "latitude": "29.96740928194433",
    "geocoded_column": {
      "latitude": "29.96740928194433",
      "longitude": "-90.12156396191776"
    }
  },
  {
    "service_request": "2026-1272806",
    "request_type": "Streetlights",
    "request_reason": "Streetlight Outage/Malfunction",
    "date_created": "2026-04-10T17:42:41.000",
    "date_modified": "2026-04-10T17:42:43.000",
    "request_status": "Pending",
    "responsible_agency": "Department of Public Works",
    "final_address": "8700 BLK Olive St",
    "address_councildis": "A",
    "status": "Pending",
    "rowid": "1272806",
    "final_x": "3665543.01402",
    "final_y": "535724.106161",
    "longitude": "-90.11831617768523",
    "latitude": "29.967530439742788",
    "geocoded_column": {
      "latitude": "29.967530439742788",
      "longitude": "-90.11831617768523"
    }
  },
  {
    "service_request": "2026-1272805",
    "request_type": "Streetlights",
    "request_reason": "Streetlight Outage/Malfunction",
    "date_created": "2026-04-10T17:38:44.000",
    "date_modified": "2026-04-10T17:38:46.000",
    "request_status": "Pending",
    "responsible_agency": "Department of Public Works",
    "final_address": "3400 BLK Monroe St",
    "address_councildis": "A",
    "status": "Pending",
    "rowid": "1272805",
    "final_x": "3665791.05782",
    "final_y": "535735.994589",
    "longitude": "-90.1175324487313",
    "latitude": "29.967555894530005",
    "geocoded_column": {
      "latitude": "29.967555894530005",
      "longitude": "-90.1175324487313"
    }
  },
  {
    "service_request": "2026-1272804",
    "request_type": "Streetlights",
    "request_reason": "Streetlight Outage/Malfunction",
    "date_created": "2026-04-10T17:36:04.000",
    "date_modified": "2026-04-10T17:36:05.000",
    "request_status": "Pending",
    "responsible_agency": "Department of Public Works",
    "final_address": "3500 BLK Monroe St",
    "address_councildis": "A",
    "status": "Pending",
    "rowid": "1272804",
    "final_x": "3666026.80275",
    "final_y": "535994.208311",
    "longitude": "-90.11677930054944",
    "latitude": "29.96825901667442",
    "geocoded_column": {
      "latitude": "29.96825901667442",
      "longitude": "-90.11677930054944"
    }
  },
  {
    "service_request": "2026-1272803",
    "request_type": "Streetlights",
    "request_reason": "Streetlight Outage/Malfunction",
    "date_created": "2026-04-10T17:28:30.000",
    "date_modified": "2026-04-10T17:28:32.000",
    "request_status": "Pending",
    "responsible_agency": "Department of Public Works",
    "final_address": "8600 Edinburgh St",
    "address_councildis": "A",
    "status": "Pending",
    "rowid": "1272803",
    "final_x": "3666013.02452",
    "final_y": "535719.772167",
    "longitude": "-90.11683201425862",
    "latitude": "29.967504810394338",
    "geocoded_column": {
      "latitude": "29.967504810394338",
      "longitude": "-90.11683201425862"
    }
  },
  {
    "service_request": "2026-1272802",
    "request_type": "Utility Poles",
    "request_reason": "Utility Pole Leaning",
    "date_created": "2026-04-10T17:24:07.000",
    "date_modified": "2026-04-10T17:24:09.000",
    "request_status": "Pending",
    "responsible_agency": "Utility Company Collective",
    "final_address": "3400 Hamilton St",
    "address_councildis": "A",
    "status": "Pending",
    "rowid": "1272802",
    "final_x": "3664779.09408",
    "final_y": "536795.652168",
    "longitude": "-90.1206928505599",
    "latitude": "29.97049908819629",
    "geocoded_column": {
      "latitude": "29.97049908819629",
      "longitude": "-90.1206928505599"
    }
  },
  {
    "service_request": "2026-1272801",
    "request_type": "Utility Poles",
    "request_reason": "Utility Pole Leaning",
    "date_created": "2026-04-10T17:20:56.000",
    "date_modified": "2026-04-10T17:20:59.000",
    "request_status": "Pending",
    "responsible_agency": "Utility Company Collective",
    "final_address": "9127 Colapissa St",
    "address_councildis": "A",
    "status": "Pending",
    "rowid": "1272801",
    "final_x": "3663828.55175",
    "final_y": "535919.721351",
    "longitude": "-90.12372398842662",
    "latitude": "29.96811819367093",
    "geocoded_column": {
      "latitude": "29.96811819367093",
      "longitude": "-90.12372398842662"
    }
  },
  {
    "service_request": "2026-1272800",
    "request_type": "Trash/Recycling",
    "request_reason": "Request a Large Item Pick Up",
    "date_created": "2026-04-10T17:15:20.000",
    "date_modified": "2026-04-10T17:15:22.000",
    "request_status": "Pending",
    "responsible_agency": "Department of Sanitation",
    "final_address": "7541 Vincent Rd",
    "address_councildis": "E",
    "status": "Assigned to Contractor",
    "contractor": "Waste Pro",
    "rowid": "1272800",
    "final_x": "3718824.18034",
    "final_y": "571277.119464",
    "longitude": "-89.94869847641078",
    "latitude": "30.063626071657744",
    "geocoded_column": {
      "latitude": "30.063626071657744",
      "longitude": "-89.94869847641078"
    }
  },
  {
    "service_request": "2026-1272799",
    "request_type": "Utility Poles",
    "request_reason": "Utility Pole Leaning",
    "date_created": "2026-04-10T17:07:37.000",
    "date_modified": "2026-04-10T17:07:39.000",
    "request_status": "Pending",
    "responsible_agency": "Utility Company Collective",
    "final_address": "3225 Cherry St",
    "address_councildis": "A",
    "status": "Pending",
    "rowid": "1272799",
    "final_x": "3663806.12845",
    "final_y": "536622.753479",
    "longitude": "-90.12377136566627",
    "latitude": "29.97005195096284",
    "geocoded_column": {
      "latitude": "29.97005195096284",
      "longitude": "-90.12377136566627"
    }
  },
  {
    "service_request": "2026-1272798",
    "request_type": "Utility Poles",
    "request_reason": "Utility Pole Leaning",
    "date_created": "2026-04-10T17:02:55.000",
    "date_modified": "2026-04-10T17:03:08.000",
    "request_status": "Pending",
    "responsible_agency": "Utility Company Collective",
    "final_address": "9229 Forshey St",
    "address_councildis": "A",
    "status": "Pending",
    "rowid": "1272798",
    "final_x": "3663987.83988",
    "final_y": "536722.150023",
    "longitude": "-90.12319418491288",
    "latitude": "29.97031998305352",
    "geocoded_column": {
      "latitude": "29.97031998305352",
      "longitude": "-90.12319418491288"
    }
  },
  {
    "service_request": "2026-1272797",
    "request_type": "Utility Poles",
    "request_reason": "Utility Pole Leaning",
    "date_created": "2026-04-10T16:55:28.000",
    "date_modified": "2026-04-10T16:55:31.000",
    "request_status": "Pending",
    "responsible_agency": "Utility Company Collective",
    "final_address": "OLIVE ST & HAMILTON ST",
    "address_councildis": "A",
    "status": "Pending",
    "rowid": "1272797",
    "final_x": "3664640.3",
    "final_y": "536553.08",
    "longitude": "-90.12113928441816",
    "latitude": "29.969836133143534",
    "geocoded_column": {
      "latitude": "29.969836133143534",
      "longitude": "-90.12113928441816"
    }
  },
  {
    "service_request": "2026-1272796",
    "request_type": "Trash/Recycling",
    "request_reason": "Repair Trash Cart",
    "date_created": "2026-04-10T16:52:59.000",
    "date_modified": "2026-04-10T16:53:01.000",
    "request_status": "Pending",
    "responsible_agency": "Department of Sanitation",
    "final_address": "4118 N Roman St",
    "address_councildis": "D",
    "status": "Assigned to Contractor",
    "contractor": "IV Waste",
    "rowid": "1272796",
    "final_x": "3692951.8223",
    "final_y": "537764.63604",
    "longitude": "-90.03168574865765",
    "latitude": "29.972313560670244",
    "geocoded_column": {
      "latitude": "29.972313560670244",
      "longitude": "-90.03168574865765"
    }
  },
  {
    "service_request": "2026-1272795",
    "request_type": "Trash/Recycling",
    "request_reason": "Order Recycling Cart",
    "date_created": "2026-04-10T16:51:55.000",
    "date_modified": "2026-04-10T16:51:56.000",
    "request_status": "Pending",
    "responsible_agency": "Department of Sanitation",
    "final_address": "1822 Conti St",
    "address_councildis": "B",
    "status": "Pending",
    "rowid": "1272795",
    "final_x": "3678628.88085",
    "final_y": "534022.818117",
    "longitude": "-90.07704963605727",
    "latitude": "29.962464448299414",
    "geocoded_column": {
      "latitude": "29.962464448299414",
      "longitude": "-90.07704963605727"
    }
  },
  {
    "service_request": "2026-1272794",
    "request_type": "Trash/Recycling",
    "request_reason": "Order Trash Cart",
    "date_created": "2026-04-10T16:51:18.000",
    "date_modified": "2026-04-10T16:51:20.000",
    "request_status": "Pending",
    "responsible_agency": "Department of Sanitation",
    "final_address": "1822 Conti St",
    "address_councildis": "B",
    "status": "Assigned to Contractor",
    "contractor": "IV Waste",
    "rowid": "1272794",
    "final_x": "3678628.88085",
    "final_y": "534022.818117",
    "longitude": "-90.07704963605727",
    "latitude": "29.962464448299414",
    "geocoded_column": {
      "latitude": "29.962464448299414",
      "longitude": "-90.07704963605727"
    }
  },
  {
    "service_request": "2026-1272793",
    "request_type": "Trash/Recycling",
    "request_reason": "Request a Large Item Pick Up",
    "date_created": "2026-04-10T16:49:48.000",
    "date_modified": "2026-04-10T16:49:54.000",
    "request_status": "Pending",
    "responsible_agency": "Department of Sanitation",
    "final_address": "14013 Linden St",
    "address_councildis": "E",
    "status": "Assigned to Contractor",
    "contractor": "Waste Pro",
    "rowid": "1272793",
    "final_x": "3718367.09445",
    "final_y": "572499.204585",
    "longitude": "-89.95009670231593",
    "latitude": "30.067001473520765",
    "geocoded_column": {
      "latitude": "30.067001473520765",
      "longitude": "-89.95009670231593"
    }
  },
  {
    "service_request": "2026-1272792",
    "request_type": "Trash/Recycling",
    "request_reason": "Request a Large Item Pick Up",
    "date_created": "2026-04-10T16:46:23.000",
    "date_modified": "2026-04-10T16:46:25.000",
    "request_status": "Pending",
    "responsible_agency": "Department of Sanitation",
    "final_address": "5043 Michoud Blvd",
    "address_councildis": "E",
    "status": "Assigned to Contractor",
    "contractor": "Waste Pro",
    "rowid": "1272792",
    "final_x": "3724945.05843",
    "final_y": "562052.333087",
    "longitude": "-89.9297074686239",
    "latitude": "30.038056968694846",
    "geocoded_column": {
      "latitude": "30.038056968694846",
      "longitude": "-89.9297074686239"
    }
  },
  {
    "service_request": "2026-1272791",
    "request_type": "Trash/Recycling",
    "request_reason": "Replace Trash Cart",
    "date_created": "2026-04-10T16:40:06.000",
    "date_modified": "2026-04-10T16:40:08.000",
    "request_status": "Pending",
    "responsible_agency": "Department of Sanitation",
    "final_address": "2622 Palmyra St",
    "address_councildis": "B",
    "status": "Assigned to Contractor",
    "contractor": "IV Waste",
    "rowid": "1272791",
    "final_x": "3675132.28552",
    "final_y": "534226.581381",
    "longitude": "-90.08808441679155",
    "latitude": "29.963129676954168",
    "geocoded_column": {
      "latitude": "29.963129676954168",
      "longitude": "-90.08808441679155"
    }
  },
  {
    "service_request": "2026-1272790",
    "request_type": "Trash/Recycling",
    "request_reason": "Repair Trash Cart",
    "date_created": "2026-04-10T16:36:06.000",
    "date_modified": "2026-04-10T16:36:09.000",
    "request_status": "Pending",
    "responsible_agency": "Department of Sanitation",
    "final_address": "3761 Virgil Blvd",
    "address_councildis": "D",
    "status": "Assigned to Contractor",
    "contractor": "IV Waste",
    "rowid": "1272790",
    "final_x": "3680809.36411",
    "final_y": "546391.939984",
    "longitude": "-90.06973323591423",
    "latitude": "29.996409314688435",
    "geocoded_column": {
      "latitude": "29.996409314688435",
      "longitude": "-90.06973323591423"
    }
  },
  {
    "service_request": "2026-1272789",
    "request_type": "Trash/Recycling",
    "request_reason": "Request a Large Item Pick Up",
    "date_created": "2026-04-10T16:30:35.000",
    "date_modified": "2026-04-10T16:30:36.000",
    "request_status": "Pending",
    "responsible_agency": "Department of Sanitation",
    "final_address": "700 Austerlitz St",
    "address_councildis": "B",
    "status": "Assigned to Contractor",
    "contractor": "IV Waste",
    "rowid": "1272789",
    "final_x": "3672898.22555",
    "final_y": "518260.229814",
    "longitude": "-90.09568392413718",
    "latitude": "29.919293994935824",
    "geocoded_column": {
      "latitude": "29.919293994935824",
      "longitude": "-90.09568392413718"
    }
  },
  {
    "service_request": "2026-1272788",
    "request_type": "Drainage",
    "request_reason": "Drainage Manhole Cover Missing or Damaged",
    "date_created": "2026-04-10T16:28:28.000",
    "date_modified": "2026-04-10T16:28:30.000",
    "request_status": "Pending",
    "responsible_agency": "Sewerage & Water Board",
    "final_address": "EASTOVER DR & LAKE FOREST BLVD",
    "address_councildis": "E",
    "status": "Pending",
    "rowid": "1272788",
    "final_x": "3719315.3",
    "final_y": "562453.08",
    "longitude": "-89.94748339309433",
    "latitude": "30.039347279924844",
    "geocoded_column": {
      "latitude": "30.039347279924844",
      "longitude": "-89.94748339309433"
    }
  },
  {
    "service_request": "2026-1272787",
    "request_type": "Trash/Recycling",
    "request_reason": "Replace Trash Cart",
    "date_created": "2026-04-10T16:27:40.000",
    "date_modified": "2026-04-10T16:27:41.000",
    "request_status": "Pending",
    "responsible_agency": "Department of Sanitation",
    "final_address": "339 Vallette St",
    "address_councildis": "C",
    "status": "Assigned to Contractor",
    "contractor": "Richards Disposal",
    "rowid": "1272787",
    "final_x": "3687520.61666",
    "final_y": "530465.13901",
    "longitude": "-90.04909676206873",
    "latitude": "29.95241100386876",
    "geocoded_column": {
      "latitude": "29.95241100386876",
      "longitude": "-90.04909676206873"
    }
  },
  {
    "service_request": "2026-1272786",
    "request_type": "Trash/Recycling",
    "request_reason": "Request a Large Item Pick Up",
    "date_created": "2026-04-10T16:24:10.000",
    "date_modified": "2026-04-10T16:24:12.000",
    "request_status": "Pending",
    "responsible_agency": "Department of Sanitation",
    "final_address": "107 Hathaway Pl",
    "address_councildis": "D",
    "status": "Assigned to Contractor",
    "contractor": "IV Waste",
    "rowid": "1272786",
    "final_x": "3678209.64136",
    "final_y": "543914.100878",
    "longitude": "-90.07803134436402",
    "latitude": "29.989674701152413",
    "geocoded_column": {
      "latitude": "29.989674701152413",
      "longitude": "-90.07803134436402"
    }
  },
  {
    "service_request": "2026-1272785",
    "request_type": "Trash/Recycling",
    "request_reason": "Request a Large Item Pick Up",
    "date_created": "2026-04-10T16:22:20.000",
    "date_modified": "2026-04-10T16:22:22.000",
    "request_status": "Pending",
    "responsible_agency": "Department of Sanitation",
    "final_address": "4734 Shalimar Dr",
    "address_councildis": "D",
    "status": "Assigned to Contractor",
    "contractor": "Waste Pro",
    "rowid": "1272785",
    "final_x": "3697084.43626",
    "final_y": "554219.4182",
    "longitude": "-90.01803779359359",
    "latitude": "30.017428422422352",
    "geocoded_column": {
      "latitude": "30.017428422422352",
      "longitude": "-90.01803779359359"
    }
  },
  {
    "service_request": "2026-1272784",
    "request_type": "Drainage",
    "request_reason": "Drainage Manhole Cover Missing or Damaged",
    "date_created": "2026-04-10T16:21:41.000",
    "date_modified": "2026-04-10T16:21:42.000",
    "request_status": "Pending",
    "responsible_agency": "Sewerage & Water Board",
    "final_address": "EASTOVER DR & LAKE FOREST BLVD",
    "address_councildis": "E",
    "status": "Pending",
    "rowid": "1272784",
    "final_x": "3719315.3",
    "final_y": "562453.08",
    "longitude": "-89.94748339309433",
    "latitude": "30.039347279924844",
    "geocoded_column": {
      "latitude": "30.039347279924844",
      "longitude": "-89.94748339309433"
    }
  },
  {
    "service_request": "2026-1272783",
    "request_type": "Trash/Recycling",
    "request_reason": "Order Second Trash Cart",
    "date_created": "2026-04-10T16:18:31.000",
    "date_modified": "2026-04-10T16:18:33.000",
    "request_status": "Pending",
    "responsible_agency": "Department of Sanitation",
    "final_address": "1019 L. B. Landry Ave",
    "address_councildis": "C",
    "status": "Assigned to Contractor",
    "contractor": "Richards Disposal",
    "rowid": "1272783",
    "final_x": "3690086.18294",
    "final_y": "527697.652799",
    "longitude": "-90.04109445409209",
    "latitude": "29.944722053762902",
    "geocoded_column": {
      "latitude": "29.944722053762902",
      "longitude": "-90.04109445409209"
    }
  },
  {
    "service_request": "2026-1272782",
    "request_type": "Roads and Streets",
    "request_reason": "Push-up/Pavement Expansion",
    "date_created": "2026-04-10T16:17:10.000",
    "date_modified": "2026-04-10T16:17:11.000",
    "request_status": "Pending",
    "responsible_agency": "Department of Public Works",
    "final_address": "1631 S Salcedo St",
    "address_councildis": "B",
    "status": "Pending",
    "rowid": "1272782",
    "final_x": "3670188.77716",
    "final_y": "530541.730434",
    "longitude": "-90.10382033308397",
    "latitude": "29.953144352291094",
    "geocoded_column": {
      "latitude": "29.953144352291094",
      "longitude": "-90.10382033308397"
    }
  },
  {
    "service_request": "2026-1272781",
    "request_type": "Trash/Recycling",
    "request_reason": "Request a Large Item Pick Up",
    "date_created": "2026-04-10T16:14:54.000",
    "date_modified": "2026-04-10T16:14:55.000",
    "request_status": "Pending",
    "responsible_agency": "Department of Sanitation",
    "final_address": "1516 Frankfort St",
    "address_councildis": "D",
    "status": "Assigned to Contractor",
    "contractor": "IV Waste",
    "rowid": "1272781",
    "final_x": "3678584.95675",
    "final_y": "556129.306074",
    "longitude": "-90.07642258170804",
    "latitude": "30.023250839761143",
    "geocoded_column": {
      "latitude": "30.023250839761143",
      "longitude": "-90.07642258170804"
    }
  },
  {
    "service_request": "2026-1272780",
    "request_type": "Roads and Streets",
    "request_reason": "Push-up/Pavement Expansion",
    "date_created": "2026-04-10T16:13:19.000",
    "date_modified": "2026-04-10T16:13:20.000",
    "request_status": "Pending",
    "responsible_agency": "Department of Public Works",
    "final_address": "2818 Cadiz St",
    "address_councildis": "B",
    "status": "Pending",
    "rowid": "1272780",
    "final_x": "3669616.85012",
    "final_y": "525161.307837",
    "longitude": "-90.10580823706286",
    "latitude": "29.938366804098113",
    "geocoded_column": {
      "latitude": "29.938366804098113",
      "longitude": "-90.10580823706286"
    }
  },
  {
    "service_request": "2026-1272779",
    "request_type": "Roads and Streets",
    "request_reason": "Abandoned Service Cut",
    "date_created": "2026-04-10T16:12:47.000",
    "date_modified": "2026-04-10T16:12:49.000",
    "request_status": "Pending",
    "responsible_agency": "Department of Public Works",
    "final_address": "1418 Bordeaux St",
    "address_councildis": "B",
    "status": "Pending",
    "rowid": "1272779",
    "final_x": "3669387.60814",
    "final_y": "520332.974136",
    "longitude": "-90.10669516278797",
    "latitude": "29.925097183422217",
    "geocoded_column": {
      "latitude": "29.925097183422217",
      "longitude": "-90.10669516278797"
    }
  },
  {
    "service_request": "2026-1272778",
    "request_type": "Trash/Recycling",
    "request_reason": "Order Second Trash Cart",
    "date_created": "2026-04-10T16:12:21.000",
    "date_modified": "2026-04-10T16:12:24.000",
    "request_status": "Pending",
    "responsible_agency": "Department of Sanitation",
    "final_address": "5000 Westlake Dr",
    "address_councildis": "E",
    "status": "Assigned to Contractor",
    "contractor": "Waste Pro",
    "rowid": "1272778",
    "final_x": "3699632.72349",
    "final_y": "555668.472409",
    "longitude": "-90.00993339553759",
    "latitude": "30.02133209275905",
    "geocoded_column": {
      "latitude": "30.02133209275905",
      "longitude": "-90.00993339553759"
    }
  },
  {
    "service_request": "2026-1272777",
    "request_type": "Trash/Recycling",
    "request_reason": "Request a Large Item Pick Up",
    "date_created": "2026-04-10T16:10:34.000",
    "date_modified": "2026-04-10T16:10:36.000",
    "request_status": "Pending",
    "responsible_agency": "Department of Sanitation",
    "final_address": "2137 Comet St",
    "address_councildis": "C",
    "status": "Assigned to Contractor",
    "contractor": "Richards Disposal",
    "rowid": "1272777",
    "final_x": "3700163.89367",
    "final_y": "523162.327227",
    "longitude": "-90.00944175787195",
    "latitude": "29.931935134748716",
    "geocoded_column": {
      "latitude": "29.931935134748716",
      "longitude": "-90.00944175787195"
    }
  },
  {
    "service_request": "2026-1272776",
    "request_type": "Streetlights",
    "request_reason": "Streetlight Outage/Malfunction",
    "date_created": "2026-04-10T16:09:46.000",
    "date_modified": "2026-04-10T16:09:48.000",
    "request_status": "Pending",
    "responsible_agency": "Department of Public Works",
    "final_address": "CERISE AVE & CHEF MENTEUR HWY",
    "address_councildis": "E",
    "status": "Pending",
    "rowid": "1272776",
    "final_x": "3708810.5",
    "final_y": "553634.18",
    "longitude": "-89.98101028100184",
    "latitude": "30.015443925851706",
    "geocoded_column": {
      "latitude": "30.015443925851706",
      "longitude": "-89.98101028100184"
    }
  },
  {
    "service_request": "2026-1272775",
    "request_type": "General Services",
    "request_reason": "General Service Request",
    "date_created": "2026-04-10T16:08:18.000",
    "date_modified": "2026-04-10T16:09:55.000",
    "case_close_date": "2026-04-10T11:09:55.000",
    "request_status": "Closed",
    "responsible_agency": "Orleans Parish Communication District",
    "final_address": "4211 S Claiborne Ave",
    "address_councildis": "B",
    "status": "Referred to External Agency",
    "rowid": "1272775",
    "final_x": "3670982.91943",
    "final_y": "526028.11667",
    "longitude": "-90.1014659911468",
    "latitude": "29.940709936350565",
    "geocoded_column": {
      "latitude": "29.940709936350565",
      "longitude": "-90.1014659911468"
    }
  },
  {
    "service_request": "2026-1272774",
    "request_type": "Trash/Recycling",
    "request_reason": "Request a Large Item Pick Up",
    "date_created": "2026-04-10T16:04:05.000",
    "date_modified": "2026-04-10T16:04:07.000",
    "request_status": "Pending",
    "responsible_agency": "Department of Sanitation",
    "final_address": "4754 Deanne St",
    "address_councildis": "D",
    "status": "Assigned to Contractor",
    "contractor": "Waste Pro",
    "rowid": "1272774",
    "final_x": "3696249.49616",
    "final_y": "554285.482264",
    "longitude": "-90.0206734657951",
    "latitude": "30.017636400206975",
    "geocoded_column": {
      "latitude": "30.017636400206975",
      "longitude": "-90.0206734657951"
    }
  },
  {
    "service_request": "2026-1272773",
    "request_type": "Trash/Recycling",
    "request_reason": "Request a Large Item Pick Up",
    "date_created": "2026-04-10T16:02:07.000",
    "date_modified": "2026-04-10T16:02:09.000",
    "request_status": "Pending",
    "responsible_agency": "Department of Sanitation",
    "final_address": "3130 Hudson Pl",
    "address_councildis": "C",
    "status": "Assigned to Contractor",
    "contractor": "Richards Disposal",
    "rowid": "1272773",
    "final_x": "3703058.32849",
    "final_y": "519113.772343",
    "longitude": "-90.00045307088558",
    "latitude": "29.920710741109755",
    "geocoded_column": {
      "latitude": "29.920710741109755",
      "longitude": "-90.00045307088558"
    }
  },
  {
    "service_request": "2026-1272772",
    "request_type": "Abandoned Vehicles",
    "request_reason": "Abandoned/Junk Vehicles",
    "date_created": "2026-04-10T15:59:20.000",
    "date_modified": "2026-04-10T16:02:12.000",
    "request_status": "Pending",
    "responsible_agency": "Department of Public Works",
    "final_address": "8330 Earhart Blvd",
    "address_councildis": "A",
    "status": "Pending",
    "rowid": "1272772",
    "final_x": "3665725.51316",
    "final_y": "533864.851589",
    "longitude": "-90.11780212615253",
    "latitude": "29.962412780542635",
    "geocoded_column": {
      "latitude": "29.962412780542635",
      "longitude": "-90.11780212615253"
    }
  },
  {
    "service_request": "2026-1272771",
    "request_type": "Abandoned Vehicles",
    "request_reason": "Abandoned/Junk Vehicles",
    "date_created": "2026-04-10T15:58:46.000",
    "date_modified": "2026-04-10T15:59:10.000",
    "request_status": "Pending",
    "responsible_agency": "Department of Public Works",
    "final_address": "2227 Peniston St",
    "address_councildis": "B",
    "status": "Pending",
    "rowid": "1272771",
    "final_x": "3672373.94619",
    "final_y": "523446.171323",
    "longitude": "-90.09716221393687",
    "latitude": "29.933569231273243",
    "geocoded_column": {
      "latitude": "29.933569231273243",
      "longitude": "-90.09716221393687"
    }
  },
  {
    "service_request": "2026-1272770",
    "request_type": "Trash/Recycling",
    "request_reason": "Start Trash Service",
    "date_created": "2026-04-10T15:55:55.000",
    "date_modified": "2026-04-10T15:55:57.000",
    "request_status": "Pending",
    "responsible_agency": "Department of Sanitation",
    "final_address": "7818 Star St",
    "address_councildis": "E",
    "status": "Assigned to Contractor",
    "contractor": "Waste Pro",
    "rowid": "1272770",
    "final_x": "3720624.15545",
    "final_y": "574449.507307",
    "longitude": "-89.94288702528745",
    "latitude": "30.072288870462703",
    "geocoded_column": {
      "latitude": "30.072288870462703",
      "longitude": "-89.94288702528745"
    }
  },
  {
    "service_request": "2026-1272769",
    "request_type": "Health Related Request",
    "request_reason": "Noise Ordinance Complaint",
    "date_created": "2026-04-10T15:51:48.000",
    "date_modified": "2026-04-10T15:54:04.000",
    "request_status": "Pending",
    "responsible_agency": "Health Department",
    "final_address": "1739 N Claiborne Ave",
    "address_councildis": "C",
    "status": "Pending",
    "rowid": "1272769",
    "final_x": "3683325.10927",
    "final_y": "538050.812041",
    "longitude": "-90.06207850049601",
    "latitude": "29.973397627928748",
    "geocoded_column": {
      "latitude": "29.973397627928748",
      "longitude": "-90.06207850049601"
    }
  },
  {
    "service_request": "2026-1272768",
    "request_type": "Trash/Recycling",
    "request_reason": "Repair Trash Cart",
    "date_created": "2026-04-10T15:51:20.000",
    "date_modified": "2026-04-10T15:51:22.000",
    "request_status": "Pending",
    "responsible_agency": "Department of Sanitation",
    "final_address": "2130 Simon Bolivar Ave",
    "address_councildis": "B",
    "status": "Assigned to Contractor",
    "contractor": "IV Waste",
    "rowid": "1272768",
    "final_x": "3676379.56008",
    "final_y": "525510.999549",
    "longitude": "-90.08444564759597",
    "latitude": "29.939127400571692",
    "geocoded_column": {
      "latitude": "29.939127400571692",
      "longitude": "-90.08444564759597"
    }
  },
  {
    "service_request": "2026-1272767",
    "request_type": "Roads and Streets",
    "request_reason": "Street Subsidence (Sinking)",
    "date_created": "2026-04-10T15:51:05.000",
    "date_modified": "2026-04-10T15:51:08.000",
    "request_status": "Pending",
    "responsible_agency": "Sewerage & Water Board",
    "final_address": "11117 Winchester Park Dr",
    "address_councildis": "E",
    "status": "Pending",
    "rowid": "1272767",
    "final_x": "3714943.4124",
    "final_y": "561205.90019",
    "longitude": "-89.96134688603617",
    "latitude": "30.036062702468758",
    "geocoded_column": {
      "latitude": "30.036062702468758",
      "longitude": "-89.96134688603617"
    }
  },
  {
    "service_request": "2026-1272766",
    "request_type": "Trash/Recycling",
    "request_reason": "Request a Large Item Pick Up",
    "date_created": "2026-04-10T15:49:35.000",
    "date_modified": "2026-04-10T15:49:37.000",
    "request_status": "Pending",
    "responsible_agency": "Department of Sanitation",
    "final_address": "8301 Palm St",
    "address_councildis": "A",
    "status": "Assigned to Contractor",
    "contractor": "IV Waste",
    "rowid": "1272766",
    "final_x": "3667175.05831",
    "final_y": "535260.380486",
    "longitude": "-90.11317772384159",
    "latitude": "29.96620766209988",
    "geocoded_column": {
      "latitude": "29.96620766209988",
      "longitude": "-90.11317772384159"
    }
  },
  {
    "service_request": "2026-1272765",
    "request_type": "Trash/Recycling",
    "request_reason": "Repair Trash Cart",
    "date_created": "2026-04-10T15:44:23.000",
    "date_modified": "2026-04-10T15:44:25.000",
    "request_status": "Pending",
    "responsible_agency": "Department of Sanitation",
    "final_address": "528 Fourth St",
    "address_councildis": "B",
    "status": "Assigned to Contractor",
    "contractor": "IV Waste",
    "rowid": "1272765",
    "final_x": "3678400.88565",
    "final_y": "519300.212279",
    "longitude": "-90.07827884574881",
    "latitude": "29.92198903484977",
    "geocoded_column": {
      "latitude": "29.92198903484977",
      "longitude": "-90.07827884574881"
    }
  },
  {
    "service_request": "2026-1272764",
    "request_type": "Trash/Recycling",
    "request_reason": "Replace Trash Cart",
    "date_created": "2026-04-10T15:43:32.000",
    "date_modified": "2026-04-10T15:43:34.000",
    "request_status": "Pending",
    "responsible_agency": "Department of Sanitation",
    "final_address": "7348 Canterbury St",
    "address_councildis": "E",
    "status": "Assigned to Contractor",
    "contractor": "Waste Pro",
    "rowid": "1272764",
    "final_x": "3698783.00983",
    "final_y": "559296.323612",
    "longitude": "-90.01248610264079",
    "latitude": "30.031334250668035",
    "geocoded_column": {
      "latitude": "30.031334250668035",
      "longitude": "-90.01248610264079"
    }
  },
  {
    "service_request": "2026-1272762",
    "request_type": "Health Related Request",
    "request_reason": "Noise Ordinance Complaint",
    "date_created": "2026-04-10T15:41:33.000",
    "date_modified": "2026-04-10T15:41:35.000",
    "request_status": "Pending",
    "responsible_agency": "Health Department",
    "final_address": "708 Toulouse St",
    "address_councildis": "C",
    "status": "Pending",
    "rowid": "1272762",
    "final_x": "3682241.76789",
    "final_y": "532181.286403",
    "longitude": "-90.06570498740413",
    "latitude": "29.95729145284784",
    "geocoded_column": {
      "latitude": "29.95729145284784",
      "longitude": "-90.06570498740413"
    }
  },
  {
    "service_request": "2026-1272761",
    "request_type": "Abandoned Vehicles",
    "request_reason": "Abandoned/Junk Vehicles",
    "date_created": "2026-04-10T15:40:42.000",
    "date_modified": "2026-04-10T15:40:44.000",
    "request_status": "Pending",
    "responsible_agency": "Department of Public Works",
    "final_address": "2330 Martin Luther King, Jr. Blvd",
    "address_councildis": "B",
    "status": "Pending",
    "rowid": "1272761",
    "final_x": "3676706.84494",
    "final_y": "527022.649278",
    "longitude": "-90.08336030677167",
    "latitude": "29.943274126305504",
    "geocoded_column": {
      "latitude": "29.943274126305504",
      "longitude": "-90.08336030677167"
    }
  },
  {
    "service_request": "2026-1272760",
    "request_type": "Healthy Homes",
    "request_reason": "Healthy Homes",
    "date_created": "2026-04-10T15:40:05.000",
    "date_modified": "2026-04-10T15:40:07.000",
    "request_status": "Pending",
    "responsible_agency": "Department of Code Enforcement",
    "final_address": "3947 Annunciation St",
    "address_councildis": "B",
    "status": "Pending",
    "rowid": "1272760",
    "final_x": "3672929.11099",
    "final_y": "517971.873334",
    "longitude": "-90.09559626616287",
    "latitude": "29.918500189134363",
    "geocoded_column": {
      "latitude": "29.918500189134363",
      "longitude": "-90.09559626616287"
    }
  },
  {
    "service_request": "2026-1272759",
    "request_type": "Roads and Streets",
    "request_reason": "Pothole",
    "date_created": "2026-04-10T15:39:18.000",
    "date_modified": "2026-04-10T15:39:20.000",
    "request_status": "Pending",
    "responsible_agency": "Department of Public Works",
    "final_address": "3100 BLK Joliet St",
    "address_councildis": "A",
    "status": "Pending",
    "rowid": "1272759",
    "final_x": "3665599.80951",
    "final_y": "534488.436388",
    "longitude": "-90.11817819896525",
    "latitude": "29.96413109960377",
    "geocoded_column": {
      "latitude": "29.96413109960377",
      "longitude": "-90.11817819896525"
    }
  },
  {
    "service_request": "2026-1272758",
    "request_type": "Trash/Recycling",
    "request_reason": "Missed Trash Pick-Up",
    "date_created": "2026-04-10T15:38:51.000",
    "date_modified": "2026-04-10T17:17:07.000",
    "case_close_date": "2026-04-10T12:17:06.000",
    "request_status": "Closed",
    "responsible_agency": "Department of Sanitation",
    "final_address": "2223 Milan St",
    "address_councildis": "B",
    "status": "Invalid Request",
    "contractor": "IV Waste",
    "contractor_action": "Invalid Request",
    "rowid": "1272758",
    "final_x": "3671412.76315",
    "final_y": "523256.320315",
    "longitude": "-90.10020307432222",
    "latitude": "29.933075680138966",
    "geocoded_column": {
      "latitude": "29.933075680138966",
      "longitude": "-90.10020307432222"
    }
  },
  {
    "service_request": "2026-1272757",
    "request_type": "Trash/Recycling",
    "request_reason": "Order Trash Cart",
    "date_created": "2026-04-10T15:38:11.000",
    "date_modified": "2026-04-10T15:38:12.000",
    "request_status": "Pending",
    "responsible_agency": "Department of Sanitation",
    "final_address": "8217 Birch St",
    "address_councildis": "A",
    "status": "Assigned to Contractor",
    "contractor": "IV Waste",
    "rowid": "1272757",
    "final_x": "3662562.19354",
    "final_y": "529790.754369",
    "longitude": "-90.12792683468498",
    "latitude": "29.95130222556222",
    "geocoded_column": {
      "latitude": "29.95130222556222",
      "longitude": "-90.12792683468498"
    }
  },
  {
    "service_request": "2026-1272756",
    "request_type": "Abandoned Vehicles",
    "request_reason": "Abandoned/Junk Vehicles",
    "date_created": "2026-04-10T15:31:49.000",
    "date_modified": "2026-04-10T15:33:53.000",
    "request_status": "Pending",
    "responsible_agency": "Department of Public Works",
    "final_address": "DAUPHINE ST & POLAND AVE",
    "address_councildis": "C",
    "status": "Pending",
    "rowid": "1272756",
    "final_x": "3692749.83",
    "final_y": "533854.96",
    "longitude": "-90.03246385229265",
    "latitude": "29.961569639738006",
    "geocoded_column": {
      "latitude": "29.961569639738006",
      "longitude": "-90.03246385229265"
    }
  },
  {
    "service_request": "2026-1272755",
    "request_type": "Trash/Recycling",
    "request_reason": "Replace Trash Cart",
    "date_created": "2026-04-10T15:29:57.000",
    "date_modified": "2026-04-10T15:29:59.000",
    "request_status": "Pending",
    "responsible_agency": "Department of Sanitation",
    "final_address": "820 Milan St",
    "address_councildis": "B",
    "status": "Assigned to Contractor",
    "contractor": "IV Waste",
    "rowid": "1272755",
    "final_x": "3671786.14574",
    "final_y": "518671.795639",
    "longitude": "-90.09918021381998",
    "latitude": "29.920458651944006",
    "geocoded_column": {
      "latitude": "29.920458651944006",
      "longitude": "-90.09918021381998"
    }
  },
  {
    "service_request": "2026-1272754",
    "request_type": "Trash/Recycling",
    "request_reason": "Request a Large Item Pick Up",
    "date_created": "2026-04-10T15:21:38.000",
    "date_modified": "2026-04-10T15:21:40.000",
    "request_status": "Pending",
    "responsible_agency": "Department of Sanitation",
    "final_address": "3601 Elaine Pl",
    "address_councildis": "A",
    "status": "Assigned to Contractor",
    "contractor": "IV Waste",
    "rowid": "1272754",
    "final_x": "3674336.14926",
    "final_y": "539434.929994",
    "longitude": "-90.09042011702726",
    "latitude": "29.977474636652616",
    "geocoded_column": {
      "latitude": "29.977474636652616",
      "longitude": "-90.09042011702726"
    }
  },
  {
    "service_request": "2026-1272753",
    "request_type": "Utility Poles",
    "request_reason": "Utility Pole Leaning",
    "date_created": "2026-04-10T15:19:20.000",
    "date_modified": "2026-04-10T15:24:21.000",
    "request_status": "Pending",
    "responsible_agency": "Utility Company Collective",
    "final_address": "521 Delaronde St",
    "address_councildis": "C",
    "status": "Pending",
    "rowid": "1272753",
    "final_x": "3686989.80585",
    "final_y": "531155.040066",
    "longitude": "-90.05074843207758",
    "latitude": "29.95432434289932",
    "geocoded_column": {
      "latitude": "29.95432434289932",
      "longitude": "-90.05074843207758"
    }
  },
  {
    "service_request": "2026-1272752",
    "request_type": "Trash/Recycling",
    "request_reason": "Request a Large Item Pick Up",
    "date_created": "2026-04-10T15:06:51.000",
    "date_modified": "2026-04-10T15:06:53.000",
    "request_status": "Pending",
    "responsible_agency": "Department of Sanitation",
    "final_address": "8425 Apple St",
    "address_councildis": "A",
    "status": "Assigned to Contractor",
    "contractor": "IV Waste",
    "rowid": "1272752",
    "final_x": "3664418.60634",
    "final_y": "533006.921604",
    "longitude": "-90.12195781323466",
    "latitude": "29.960091810353944",
    "geocoded_column": {
      "latitude": "29.960091810353944",
      "longitude": "-90.12195781323466"
    }
  },
  {
    "service_request": "2026-1272751",
    "request_type": "Trash/Recycling",
    "request_reason": "Order Recycling Cart",
    "date_created": "2026-04-10T15:03:01.000",
    "date_modified": "2026-04-10T15:03:03.000",
    "request_status": "Pending",
    "responsible_agency": "Department of Sanitation",
    "final_address": "5209 Dauphine St",
    "address_councildis": "E",
    "status": "Pending",
    "rowid": "1272751",
    "final_x": "3696328.65571",
    "final_y": "533006.075588",
    "longitude": "-90.02119327813423",
    "latitude": "29.959123303085068",
    "geocoded_column": {
      "latitude": "29.959123303085068",
      "longitude": "-90.02119327813423"
    }
  },
  {
    "service_request": "2026-1272750",
    "request_type": "Property Maintenance",
    "request_reason": "Property Maintenance",
    "date_created": "2026-04-10T15:01:49.000",
    "date_modified": "2026-04-10T15:01:51.000",
    "request_status": "Pending",
    "responsible_agency": "Department of Code Enforcement",
    "final_address": "2050 Caton St",
    "address_councildis": "D",
    "status": "Pending",
    "rowid": "1272750",
    "final_x": "3683151.97724",
    "final_y": "547240.329041",
    "longitude": "-90.06230335413119",
    "latitude": "29.998670840021934",
    "geocoded_column": {
      "latitude": "29.998670840021934",
      "longitude": "-90.06230335413119"
    }
  },
  {
    "service_request": "2026-1272749",
    "request_type": "Trash/Recycling",
    "request_reason": "Order Trash Cart",
    "date_created": "2026-04-10T14:59:38.000",
    "date_modified": "2026-04-10T14:59:40.000",
    "request_status": "Pending",
    "responsible_agency": "Department of Sanitation",
    "final_address": "5209 Dauphine St",
    "address_councildis": "E",
    "status": "Assigned to Contractor",
    "contractor": "Waste Pro",
    "rowid": "1272749",
    "final_x": "3696328.65571",
    "final_y": "533006.075588",
    "longitude": "-90.02119327813423",
    "latitude": "29.959123303085068",
    "geocoded_column": {
      "latitude": "29.959123303085068",
      "longitude": "-90.02119327813423"
    }
  },
  {
    "service_request": "2026-1272748",
    "request_type": "Roads and Streets",
    "request_reason": "Sidewalk Damaged or Missing",
    "date_created": "2026-04-10T14:55:26.000",
    "date_modified": "2026-04-10T14:55:28.000",
    "request_status": "Pending",
    "responsible_agency": "Department of Public Works",
    "final_address": "4501 Toulouse St",
    "address_councildis": "A",
    "status": "Pending",
    "rowid": "1272748",
    "final_x": "3670777.06164",
    "final_y": "540863.037451",
    "longitude": "-90.10161245309509",
    "latitude": "29.981507120381384",
    "geocoded_column": {
      "latitude": "29.981507120381384",
      "longitude": "-90.10161245309509"
    }
  },
  {
    "service_request": "2026-1272747",
    "request_type": "Street and Traffic Signs",
    "request_reason": "Stop Sign Missing or Damaged",
    "date_created": "2026-04-10T14:54:16.000",
    "date_modified": "2026-04-10T14:54:18.000",
    "request_status": "Pending",
    "responsible_agency": "Department of Public Works",
    "final_address": "1131 Music St",
    "address_councildis": "C",
    "status": "Pending",
    "rowid": "1272747",
    "final_x": "3686854.79695",
    "final_y": "536789.796488",
    "longitude": "-90.05097561443169",
    "latitude": "29.969822127260965",
    "geocoded_column": {
      "latitude": "29.969822127260965",
      "longitude": "-90.05097561443169"
    }
  },
  {
    "service_request": "2026-1272746",
    "request_type": "Trash/Recycling",
    "request_reason": "Damaged Caused By Contractor",
    "date_created": "2026-04-10T14:47:23.000",
    "date_modified": "2026-04-10T14:47:25.000",
    "request_status": "Pending",
    "responsible_agency": "Department of Sanitation",
    "final_address": "5934 Chestnut St",
    "address_councildis": "A",
    "status": "Assigned to Contractor",
    "contractor": "IV Waste",
    "rowid": "1272746",
    "final_x": "3665097.00909",
    "final_y": "519762.619384",
    "longitude": "-90.12025832147393",
    "latitude": "29.923654486460563",
    "geocoded_column": {
      "latitude": "29.923654486460563",
      "longitude": "-90.12025832147393"
    }
  },
  {
    "service_request": "2026-1272745",
    "request_type": "Streetlights",
    "request_reason": "Streetlight Outage/Malfunction",
    "date_created": "2026-04-10T14:43:22.000",
    "date_modified": "2026-04-10T14:43:23.000",
    "request_status": "Pending",
    "responsible_agency": "Department of Public Works",
    "final_address": "1000 BLK Lafayette St",
    "address_councildis": "B",
    "status": "Pending",
    "rowid": "1272745",
    "final_x": "3679337.9054",
    "final_y": "529218.91215",
    "longitude": "-90.07497723241684",
    "latitude": "29.949233933861148",
    "geocoded_column": {
      "latitude": "29.949233933861148",
      "longitude": "-90.07497723241684"
    }
  },
  {
    "service_request": "2026-1272744",
    "request_type": "Abandoned Vehicles",
    "request_reason": "Abandoned/Junk Vehicles",
    "date_created": "2026-04-10T14:41:29.000",
    "date_modified": "2026-04-10T14:41:31.000",
    "request_status": "Pending",
    "responsible_agency": "Department of Public Works",
    "final_address": "940 Canal St",
    "address_councildis": "B",
    "status": "Pending",
    "rowid": "1272744",
    "final_x": "3680293.42639",
    "final_y": "531249.420418",
    "longitude": "-90.07188965118691",
    "latitude": "29.954788259697132",
    "geocoded_column": {
      "latitude": "29.954788259697132",
      "longitude": "-90.07188965118691"
    }
  },
  {
    "service_request": "2026-1272743",
    "request_type": "Trash/Recycling",
    "request_reason": "Repair Recycling Cart",
    "date_created": "2026-04-10T14:40:19.000",
    "date_modified": "2026-04-10T14:40:20.000",
    "request_status": "Pending",
    "responsible_agency": "Department of Sanitation",
    "final_address": "4323 Woodland Dr",
    "address_councildis": "C",
    "status": "Pending",
    "rowid": "1272743",
    "final_x": "3705307.82769",
    "final_y": "514473.042867",
    "longitude": "-89.99352377859117",
    "latitude": "29.907878191722848",
    "geocoded_column": {
      "latitude": "29.907878191722848",
      "longitude": "-89.99352377859117"
    }
  },
  {
    "service_request": "2026-1272742",
    "request_type": "Trash/Recycling",
    "request_reason": "Repair Trash Cart",
    "date_created": "2026-04-10T14:38:27.000",
    "date_modified": "2026-04-10T14:38:29.000",
    "request_status": "Pending",
    "responsible_agency": "Department of Sanitation",
    "final_address": "4323 Woodland Dr",
    "address_councildis": "C",
    "status": "Assigned to Contractor",
    "contractor": "Richards Disposal",
    "rowid": "1272742",
    "final_x": "3705307.82769",
    "final_y": "514473.042867",
    "longitude": "-89.99352377859117",
    "latitude": "29.907878191722848",
    "geocoded_column": {
      "latitude": "29.907878191722848",
      "longitude": "-89.99352377859117"
    }
  },
  {
    "service_request": "2026-1272741",
    "request_type": "Trash/Recycling",
    "request_reason": "Order Recycling Cart",
    "date_created": "2026-04-10T14:34:36.000",
    "date_modified": "2026-04-10T14:34:38.000",
    "request_status": "Pending",
    "responsible_agency": "Department of Sanitation",
    "final_address": "801 Napoleon Ave",
    "address_councildis": "B",
    "status": "Pending",
    "rowid": "1272741",
    "final_x": "3671221.87975",
    "final_y": "518475.804022",
    "longitude": "-90.10096799525334",
    "latitude": "29.919936436497363",
    "geocoded_column": {
      "latitude": "29.919936436497363",
      "longitude": "-90.10096799525334"
    }
  },
  {
    "service_request": "2026-1272740",
    "request_type": "Trash/Recycling",
    "request_reason": "Order Trash Cart",
    "date_created": "2026-04-10T14:32:13.000",
    "date_modified": "2026-04-10T14:32:14.000",
    "request_status": "Pending",
    "responsible_agency": "Department of Sanitation",
    "final_address": "801 Napoleon Ave",
    "address_councildis": "B",
    "status": "Assigned to Contractor",
    "contractor": "IV Waste",
    "rowid": "1272740",
    "final_x": "3671221.87975",
    "final_y": "518475.804022",
    "longitude": "-90.10096799525334",
    "latitude": "29.919936436497363",
    "geocoded_column": {
      "latitude": "29.919936436497363",
      "longitude": "-90.10096799525334"
    }
  },
  {
    "service_request": "2026-1272739",
    "request_type": "Trash/Recycling",
    "request_reason": "Repair Trash Cart",
    "date_created": "2026-04-10T14:31:21.000",
    "date_modified": "2026-04-10T14:31:24.000",
    "request_status": "Pending",
    "responsible_agency": "Department of Sanitation",
    "final_address": "4224 Royal St",
    "address_councildis": "C",
    "status": "Assigned to Contractor",
    "contractor": "IV Waste",
    "rowid": "1272739",
    "final_x": "3692241.78685",
    "final_y": "533576.209797",
    "longitude": "-90.03407814182641",
    "latitude": "29.960819024041495",
    "geocoded_column": {
      "latitude": "29.960819024041495",
      "longitude": "-90.03407814182641"
    }
  },
  {
    "service_request": "2026-1272738",
    "request_type": "Trash/Recycling",
    "request_reason": "Request a Large Item Pick Up",
    "date_created": "2026-04-10T14:30:58.000",
    "date_modified": "2026-04-10T14:30:59.000",
    "request_status": "Pending",
    "responsible_agency": "Department of Sanitation",
    "final_address": "7901 Berg Rd",
    "address_councildis": "E",
    "status": "Assigned to Contractor",
    "contractor": "Waste Pro",
    "rowid": "1272738",
    "final_x": "3711422.64075",
    "final_y": "567571.92298",
    "longitude": "-89.97223411306068",
    "latitude": "30.053682145261206",
    "geocoded_column": {
      "latitude": "30.053682145261206",
      "longitude": "-89.97223411306068"
    }
  },
  {
    "service_request": "2026-1272737",
    "request_type": "Trash/Recycling",
    "request_reason": "Repair Trash Cart",
    "date_created": "2026-04-10T14:23:11.000",
    "date_modified": "2026-04-10T14:23:13.000",
    "request_status": "Pending",
    "responsible_agency": "Department of Sanitation",
    "final_address": "5000 Westlake Dr",
    "address_councildis": "E",
    "status": "Assigned to Contractor",
    "contractor": "Waste Pro",
    "rowid": "1272737",
    "final_x": "3699632.72349",
    "final_y": "555668.472409",
    "longitude": "-90.00993339553759",
    "latitude": "30.02133209275905",
    "geocoded_column": {
      "latitude": "30.02133209275905",
      "longitude": "-90.00993339553759"
    }
  },
  {
    "service_request": "2026-1272736",
    "request_type": "Street and Traffic Signs",
    "request_reason": "Street Name Sign Damaged or Missing",
    "date_created": "2026-04-10T14:20:31.000",
    "date_modified": "2026-04-10T14:20:33.000",
    "request_status": "Pending",
    "responsible_agency": "Department of Public Works",
    "final_address": "OAK PL & N TONTI ST",
    "address_councildis": "B",
    "status": "Pending",
    "rowid": "1272736",
    "final_x": "3677221.0",
    "final_y": "535353.38",
    "longitude": "-90.08144962407",
    "latitude": "29.966165410635927",
    "geocoded_column": {
      "latitude": "29.966165410635927",
      "longitude": "-90.08144962407"
    }
  },
  {
    "service_request": "2026-1272735",
    "request_type": "Trash/Recycling",
    "request_reason": "Request a Large Item Pick Up",
    "date_created": "2026-04-10T14:16:34.000",
    "date_modified": "2026-04-10T14:16:36.000",
    "request_status": "Pending",
    "responsible_agency": "Department of Sanitation",
    "final_address": "7020 Manchester St",
    "address_councildis": "E",
    "status": "Assigned to Contractor",
    "contractor": "Waste Pro",
    "rowid": "1272735",
    "final_x": "3699071.8314",
    "final_y": "559982.714973",
    "longitude": "-90.01154839941755",
    "latitude": "30.03321240434012",
    "geocoded_column": {
      "latitude": "30.03321240434012",
      "longitude": "-90.01154839941755"
    }
  },
  {
    "service_request": "2026-1272734",
    "request_type": "Trash/Recycling",
    "request_reason": "Repair Trash Cart",
    "date_created": "2026-04-10T14:14:33.000",
    "date_modified": "2026-04-10T14:14:36.000",
    "request_status": "Pending",
    "responsible_agency": "Department of Sanitation",
    "final_address": "619 Nashville Ave",
    "address_councildis": "A",
    "status": "Assigned to Contractor",
    "contractor": "IV Waste",
    "rowid": "1272734",
    "final_x": "3665499.86407",
    "final_y": "518462.692598",
    "longitude": "-90.11903013677679",
    "latitude": "29.92006836205396",
    "geocoded_column": {
      "latitude": "29.92006836205396",
      "longitude": "-90.11903013677679"
    }
  },
  {
    "service_request": "2026-1272733",
    "request_type": "Trash/Recycling",
    "request_reason": "Request a Large Item Pick Up",
    "date_created": "2026-04-10T14:11:17.000",
    "date_modified": "2026-04-10T14:11:19.000",
    "request_status": "Pending",
    "responsible_agency": "Department of Sanitation",
    "final_address": "3261 Derby Pl",
    "address_councildis": "A",
    "status": "Assigned to Contractor",
    "contractor": "IV Waste",
    "rowid": "1272733",
    "final_x": "3677406.94606",
    "final_y": "542972.868301",
    "longitude": "-90.08059934131343",
    "latitude": "29.987110795160465",
    "geocoded_column": {
      "latitude": "29.987110795160465",
      "longitude": "-90.08059934131343"
    }
  },
  {
    "service_request": "2026-1272732",
    "request_type": "Trash/Recycling",
    "request_reason": "Illegal Dumping",
    "date_created": "2026-04-10T14:07:38.000",
    "date_modified": "2026-04-10T15:23:10.000",
    "request_status": "Pending",
    "responsible_agency": "Department of Sanitation",
    "final_address": "1228 Murl St",
    "address_councildis": "C",
    "status": "Pending",
    "rowid": "1272732",
    "final_x": "3695489.45136",
    "final_y": "526761.93619",
    "longitude": "-90.02406856239014",
    "latitude": "29.94198049724484",
    "geocoded_column": {
      "latitude": "29.94198049724484",
      "longitude": "-90.02406856239014"
    }
  },
  {
    "service_request": "2026-1272731",
    "request_type": "Trash/Recycling",
    "request_reason": "Request a Large Item Pick Up",
    "date_created": "2026-04-10T14:05:46.000",
    "date_modified": "2026-04-10T14:05:47.000",
    "request_status": "Pending",
    "responsible_agency": "Department of Sanitation",
    "final_address": "14140 Kingswood Dr",
    "address_councildis": "E",
    "status": "Assigned to Contractor",
    "contractor": "Waste Pro",
    "rowid": "1272731",
    "final_x": "3719978.9566",
    "final_y": "568893.800293",
    "longitude": "-89.94513947345125",
    "latitude": "30.057034519962514",
    "geocoded_column": {
      "latitude": "30.057034519962514",
      "longitude": "-89.94513947345125"
    }
  },
  {
    "service_request": "2026-1272730",
    "request_type": "Trash/Recycling",
    "request_reason": "Damaged Caused By Contractor",
    "date_created": "2026-04-10T14:03:58.000",
    "date_modified": "2026-04-10T14:04:00.000",
    "request_status": "Pending",
    "responsible_agency": "Department of Sanitation",
    "final_address": "425 36Th St",
    "address_councildis": "A",
    "status": "Assigned to Contractor",
    "contractor": "IV Waste",
    "rowid": "1272730",
    "final_x": "3664753.50804",
    "final_y": "551986.396694",
    "longitude": "-90.1202657660126",
    "latitude": "30.012269219734886",
    "geocoded_column": {
      "latitude": "30.012269219734886",
      "longitude": "-90.1202657660126"
    }
  },
  {
    "service_request": "2026-1272729",
    "request_type": "Trash/Recycling",
    "request_reason": "Order Recycling Cart",
    "date_created": "2026-04-10T14:02:11.000",
    "date_modified": "2026-04-10T14:02:12.000",
    "request_status": "Pending",
    "responsible_agency": "Department of Sanitation",
    "final_address": "2613 Dauphine St",
    "address_councildis": "C",
    "status": "Pending",
    "rowid": "1272729",
    "final_x": "3686972.79926",
    "final_y": "535377.019846",
    "longitude": "-90.05065289806113",
    "latitude": "29.9659338520946",
    "geocoded_column": {
      "latitude": "29.9659338520946",
      "longitude": "-90.05065289806113"
    }
  },
  {
    "service_request": "2026-1272728",
    "request_type": "Trash/Recycling",
    "request_reason": "Order Second Trash Cart",
    "date_created": "2026-04-10T13:57:02.000",
    "date_modified": "2026-04-10T13:57:04.000",
    "request_status": "Pending",
    "responsible_agency": "Department of Sanitation",
    "final_address": "916 Whitney Ave",
    "address_councildis": "C",
    "status": "Assigned to Contractor",
    "contractor": "Richards Disposal",
    "rowid": "1272728",
    "final_x": "3690255.15446",
    "final_y": "528084.409727",
    "longitude": "-90.04054718524343",
    "latitude": "29.945780261964885",
    "geocoded_column": {
      "latitude": "29.945780261964885",
      "longitude": "-90.04054718524343"
    }
  },
  {
    "service_request": "2026-1272727",
    "request_type": "Mosquito, Termite & Rodent Control",
    "request_reason": "Rodent Complaint (Mice & Rats)",
    "date_created": "2026-04-10T13:53:51.000",
    "date_modified": "2026-04-10T14:02:06.000",
    "case_close_date": "2026-04-10T09:02:05.000",
    "request_status": "Closed",
    "responsible_agency": "Department of Code Enforcement",
    "final_address": "2460 Hyman Pl",
    "address_councildis": "C",
    "status": "Referred",
    "rowid": "1272727",
    "final_x": "3701121.44305",
    "final_y": "521915.150458",
    "longitude": "-90.00646448822268",
    "latitude": "29.92847537530055",
    "geocoded_column": {
      "latitude": "29.92847537530055",
      "longitude": "-90.00646448822268"
    }
  },
  {
    "service_request": "2026-1272726",
    "request_type": "Tree Service",
    "request_reason": "Tree Trim",
    "date_created": "2026-04-10T13:53:16.000",
    "date_modified": "2026-04-10T13:53:18.000",
    "request_status": "Pending",
    "responsible_agency": "Department of Parks & Parkways",
    "final_address": "453 Audubon Blvd",
    "address_councildis": "B",
    "status": "Pending",
    "rowid": "1272726",
    "final_x": "3667692.22023",
    "final_y": "530654.810626",
    "longitude": "-90.11169959542475",
    "latitude": "29.95352870950375",
    "geocoded_column": {
      "latitude": "29.95352870950375",
      "longitude": "-90.11169959542475"
    }
  },
  {
    "service_request": "2026-1272725",
    "request_type": "Trash/Recycling",
    "request_reason": "Repair Trash Cart",
    "date_created": "2026-04-10T13:47:25.000",
    "date_modified": "2026-04-10T13:47:27.000",
    "request_status": "Pending",
    "responsible_agency": "Department of Sanitation",
    "final_address": "4419 Eastview Dr",
    "address_councildis": "E",
    "status": "Assigned to Contractor",
    "contractor": "Waste Pro",
    "rowid": "1272725",
    "final_x": "3705331.78827",
    "final_y": "553497.404823",
    "longitude": "-89.99200637137268",
    "latitude": "30.015180276232794",
    "geocoded_column": {
      "latitude": "30.015180276232794",
      "longitude": "-89.99200637137268"
    }
  },
  {
    "service_request": "2026-1272724",
    "request_type": "Health Related Request",
    "request_reason": "Noise Ordinance Complaint",
    "date_created": "2026-04-10T13:46:17.000",
    "date_modified": "2026-04-10T13:56:41.000",
    "request_status": "Pending",
    "responsible_agency": "Health Department",
    "final_address": "8200 Willow St",
    "address_councildis": "A",
    "status": "Pending",
    "rowid": "1272724",
    "final_x": "3662101.86599",
    "final_y": "529136.635328",
    "longitude": "-90.12940203059486",
    "latitude": "29.949516915823203",
    "geocoded_column": {
      "latitude": "29.949516915823203",
      "longitude": "-90.12940203059486"
    }
  },
  {
    "service_request": "2026-1272723",
    "request_type": "Trash/Recycling",
    "request_reason": "Request a Large Item Pick Up",
    "date_created": "2026-04-10T13:43:07.000",
    "date_modified": "2026-04-10T13:43:09.000",
    "request_status": "Pending",
    "responsible_agency": "Department of Sanitation",
    "final_address": "4947 Pecan St",
    "address_councildis": "E",
    "status": "Assigned to Contractor",
    "contractor": "Waste Pro",
    "rowid": "1272723",
    "final_x": "3701774.28906",
    "final_y": "555464.100313",
    "longitude": "-90.00317418241202",
    "latitude": "30.0207019640139",
    "geocoded_column": {
      "latitude": "30.0207019640139",
      "longitude": "-90.00317418241202"
    }
  },
  {
    "service_request": "2026-1272722",
    "request_type": "Trash/Recycling",
    "request_reason": "Missed Trash Pick-Up",
    "date_created": "2026-04-10T13:41:50.000",
    "date_modified": "2026-04-10T14:12:03.000",
    "case_close_date": "2026-04-10T09:12:02.000",
    "request_status": "Closed",
    "responsible_agency": "Department of Sanitation",
    "final_address": "1431 N Prieur St",
    "address_councildis": "D",
    "status": "Invalid Request",
    "contractor": "IV Waste",
    "contractor_action": "Invalid Request",
    "rowid": "1272722",
    "final_x": "3680560.18651",
    "final_y": "537477.252744",
    "longitude": "-90.07083065225876",
    "latitude": "29.97190459506695",
    "geocoded_column": {
      "latitude": "29.97190459506695",
      "longitude": "-90.07083065225876"
    }
  },
  {
    "service_request": "2026-1272721",
    "request_type": "Trash/Recycling",
    "request_reason": "Repair Recycling Cart",
    "date_created": "2026-04-10T13:40:24.000",
    "date_modified": "2026-04-10T13:40:26.000",
    "request_status": "Pending",
    "responsible_agency": "Department of Sanitation",
    "final_address": "4635 Baronne St",
    "address_councildis": "B",
    "status": "Pending",
    "rowid": "1272721",
    "final_x": "3669753.30945",
    "final_y": "521537.544953",
    "longitude": "-90.10550001274727",
    "latitude": "29.92839859950663",
    "geocoded_column": {
      "latitude": "29.92839859950663",
      "longitude": "-90.10550001274727"
    }
  },
  {
    "service_request": "2026-1272720",
    "request_type": "Abandoned Vehicles",
    "request_reason": "Abandoned/Junk Vehicles",
    "date_created": "2026-04-10T13:38:44.000",
    "date_modified": "2026-04-10T13:41:24.000",
    "request_status": "Pending",
    "responsible_agency": "Department of Public Works",
    "final_address": "105 Liberty Terrace Dr",
    "address_councildis": "D",
    "status": "Pending",
    "rowid": "1272720",
    "final_x": "3689522.51567",
    "final_y": "545479.465168",
    "longitude": "-90.04224152169553",
    "latitude": "29.99363325865209",
    "geocoded_column": {
      "latitude": "29.99363325865209",
      "longitude": "-90.04224152169553"
    }
  },
  {
    "service_request": "2026-1272719",
    "request_type": "Trash/Recycling",
    "request_reason": "Request a Large Item Pick Up",
    "date_created": "2026-04-10T13:36:27.000",
    "date_modified": "2026-04-10T13:36:30.000",
    "request_status": "Pending",
    "responsible_agency": "Department of Sanitation",
    "final_address": "1019 L. B. Landry Ave",
    "address_councildis": "C",
    "status": "Assigned to Contractor",
    "contractor": "Richards Disposal",
    "rowid": "1272719",
    "final_x": "3690086.18294",
    "final_y": "527697.652799",
    "longitude": "-90.04109445409209",
    "latitude": "29.944722053762902",
    "geocoded_column": {
      "latitude": "29.944722053762902",
      "longitude": "-90.04109445409209"
    }
  },
  {
    "service_request": "2026-1272718",
    "request_type": "Trash/Recycling",
    "request_reason": "Missed Trash Pick-Up",
    "date_created": "2026-04-10T13:36:12.000",
    "date_modified": "2026-04-10T13:36:14.000",
    "request_status": "Pending",
    "responsible_agency": "Department of Sanitation",
    "final_address": "1019 L. B. Landry Ave",
    "address_councildis": "C",
    "status": "Assigned to Contractor",
    "contractor": "Richards Disposal",
    "rowid": "1272718",
    "final_x": "3690086.18294",
    "final_y": "527697.652799",
    "longitude": "-90.04109445409209",
    "latitude": "29.944722053762902",
    "geocoded_column": {
      "latitude": "29.944722053762902",
      "longitude": "-90.04109445409209"
    }
  },
  {
    "service_request": "2026-1272717",
    "request_type": "Trash/Recycling",
    "request_reason": "Request a Large Item Pick Up",
    "date_created": "2026-04-10T13:35:10.000",
    "date_modified": "2026-04-10T13:35:12.000",
    "request_status": "Pending",
    "responsible_agency": "Department of Sanitation",
    "final_address": "5131 Wentworth Dr",
    "address_councildis": "E",
    "status": "Assigned to Contractor",
    "contractor": "Waste Pro",
    "rowid": "1272717",
    "final_x": "3704837.39115",
    "final_y": "556859.361242",
    "longitude": "-89.99344421070309",
    "latitude": "30.024440264073835",
    "geocoded_column": {
      "latitude": "30.024440264073835",
      "longitude": "-89.99344421070309"
    }
  },
  {
    "service_request": "2026-1272716",
    "request_type": "Trash/Recycling",
    "request_reason": "Missed Trash Pick-Up",
    "date_created": "2026-04-10T13:32:51.000",
    "date_modified": "2026-04-10T14:56:18.000",
    "case_close_date": "2026-04-10T09:56:17.000",
    "request_status": "Closed",
    "responsible_agency": "Department of Sanitation",
    "final_address": "6831 Rugby Ct",
    "address_councildis": "E",
    "status": "Assigned to Contractor",
    "contractor": "Waste Pro",
    "contractor_action": "Completed",
    "rowid": "1272716",
    "final_x": "3701451.67735",
    "final_y": "557421.870363",
    "longitude": "-90.0041217738793",
    "latitude": "30.026095373112646",
    "geocoded_column": {
      "latitude": "30.026095373112646",
      "longitude": "-90.0041217738793"
    }
  },
  {
    "service_request": "2026-1272715",
    "request_type": "Trash/Recycling",
    "request_reason": "Return Trash Cart",
    "date_created": "2026-04-10T13:32:35.000",
    "date_modified": "2026-04-10T13:32:36.000",
    "request_status": "Pending",
    "responsible_agency": "Department of Sanitation",
    "final_address": "1733 N Rampart St",
    "address_councildis": "C",
    "status": "Assigned to Contractor",
    "contractor": "IV Waste",
    "rowid": "1272715",
    "final_x": "3683445.53813",
    "final_y": "535845.258183",
    "longitude": "-90.06177546008864",
    "latitude": "29.967329444691483",
    "geocoded_column": {
      "latitude": "29.967329444691483",
      "longitude": "-90.06177546008864"
    }
  },
  {
    "service_request": "2026-1272714",
    "request_type": "Trash/Recycling",
    "request_reason": "Order Trash Cart",
    "date_created": "2026-04-10T13:30:22.000",
    "date_modified": "2026-04-10T13:30:25.000",
    "request_status": "Pending",
    "responsible_agency": "Department of Sanitation",
    "final_address": "1731 N Rampart St",
    "address_councildis": "C",
    "status": "Assigned to Contractor",
    "contractor": "IV Waste",
    "rowid": "1272714",
    "final_x": "3683427.06473",
    "final_y": "535845.258183",
    "longitude": "-90.06183379927654",
    "latitude": "29.967330008364662",
    "geocoded_column": {
      "latitude": "29.967330008364662",
      "longitude": "-90.06183379927654"
    }
  },
  {
    "service_request": "2026-1272713",
    "request_type": "Safety & Permits",
    "request_reason": "Zoning Enforcement",
    "date_created": "2026-04-10T13:24:49.000",
    "date_modified": "2026-04-10T13:24:51.000",
    "request_status": "Pending",
    "responsible_agency": "Safety and Permits",
    "final_address": "2903 Pocahontas St",
    "address_councildis": "D",
    "status": "Pending",
    "rowid": "1272713",
    "final_x": "3688927.11132",
    "final_y": "548390.964434",
    "longitude": "-90.04401882184649",
    "latitude": "30.00165726028263",
    "geocoded_column": {
      "latitude": "30.00165726028263",
      "longitude": "-90.04401882184649"
    }
  },
  {
    "service_request": "2026-1272712",
    "request_type": "Trash/Recycling",
    "request_reason": "Request a Large Item Pick Up",
    "date_created": "2026-04-10T13:18:06.000",
    "date_modified": "2026-04-10T13:33:36.000",
    "request_status": "Pending",
    "responsible_agency": "Department of Sanitation",
    "final_address": "7101 Beauvoir Ct",
    "address_councildis": "E",
    "status": "Assigned to Contractor",
    "contractor": "Waste Pro",
    "rowid": "1272712",
    "final_x": "3716568.63935",
    "final_y": "567430.69994",
    "longitude": "-89.95597445786655",
    "latitude": "30.05312475938883",
    "geocoded_column": {
      "latitude": "30.05312475938883",
      "longitude": "-89.95597445786655"
    }
  },
  {
    "service_request": "2026-1272711",
    "request_type": "Trash/Recycling",
    "request_reason": "Request a Large Item Pick Up",
    "date_created": "2026-04-10T13:15:32.000",
    "date_modified": "2026-04-10T13:15:33.000",
    "request_status": "Pending",
    "responsible_agency": "Department of Sanitation",
    "final_address": "1629 Lakeshore Dr",
    "address_councildis": "D",
    "status": "Assigned to Contractor",
    "contractor": "IV Waste",
    "rowid": "1272711",
    "final_x": "3677943.24309",
    "final_y": "557962.067163",
    "longitude": "-90.07838683421123",
    "latitude": "30.028309603095668",
    "geocoded_column": {
      "latitude": "30.028309603095668",
      "longitude": "-90.07838683421123"
    }
  },
  {
    "service_request": "2026-1272710",
    "request_type": "Trash/Recycling",
    "request_reason": "Request a Large Item Pick Up",
    "date_created": "2026-04-10T13:11:02.000",
    "date_modified": "2026-04-10T13:11:03.000",
    "request_status": "Pending",
    "responsible_agency": "Department of Sanitation",
    "final_address": "4550 Veronese Rd",
    "address_councildis": "E",
    "status": "Assigned to Contractor",
    "contractor": "Waste Pro",
    "rowid": "1272710",
    "final_x": "3763006.62819",
    "final_y": "573907.270122",
    "longitude": "-89.80892816783741",
    "latitude": "30.069315722501546",
    "geocoded_column": {
      "latitude": "30.069315722501546",
      "longitude": "-89.80892816783741"
    }
  },
  {
    "service_request": "2026-1272709",
    "request_type": "Trash/Recycling",
    "request_reason": "Illegal Dumping",
    "date_created": "2026-04-10T13:05:51.000",
    "date_modified": "2026-04-10T13:05:53.000",
    "request_status": "Pending",
    "responsible_agency": "Department of Sanitation",
    "final_address": "N ROCHEBLAVE ST & ST ROCH AVE",
    "address_councildis": "D",
    "status": "Pending",
    "rowid": "1272709",
    "final_x": "3686064.3",
    "final_y": "541204.18",
    "longitude": "-90.05331633724236",
    "latitude": "29.98198443469543",
    "geocoded_column": {
      "latitude": "29.98198443469543",
      "longitude": "-90.05331633724236"
    }
  },
  {
    "service_request": "2026-1272708",
    "request_type": "Tree Service",
    "request_reason": "Tree Trim",
    "date_created": "2026-04-10T13:05:47.000",
    "date_modified": "2026-04-10T13:05:48.000",
    "request_status": "Pending",
    "responsible_agency": "Department of Parks & Parkways",
    "final_address": "N ROCHEBLAVE ST & ST ROCH AVE",
    "address_councildis": "D",
    "status": "Pending",
    "rowid": "1272708",
    "final_x": "3686064.3",
    "final_y": "541204.18",
    "longitude": "-90.05331633724236",
    "latitude": "29.98198443469543",
    "geocoded_column": {
      "latitude": "29.98198443469543",
      "longitude": "-90.05331633724236"
    }
  },
  {
    "service_request": "2026-1272707",
    "request_type": "Trash/Recycling",
    "request_reason": "Repair Recycling Cart",
    "date_created": "2026-04-10T13:03:52.000",
    "date_modified": "2026-04-10T13:03:54.000",
    "request_status": "Pending",
    "responsible_agency": "Department of Sanitation",
    "final_address": "927 Foucher St",
    "address_councildis": "B",
    "status": "Pending",
    "rowid": "1272707",
    "final_x": "3674374.13396",
    "final_y": "518842.953207",
    "longitude": "-90.09100527756176",
    "latitude": "29.920852380865426",
    "geocoded_column": {
      "latitude": "29.920852380865426",
      "longitude": "-90.09100527756176"
    }
  },
  {
    "service_request": "2026-1272706",
    "request_type": "Trash/Recycling",
    "request_reason": "Dead Animal Pick Up",
    "date_created": "2026-04-10T12:59:26.000",
    "date_modified": "2026-04-10T12:59:27.000",
    "request_status": "Pending",
    "responsible_agency": "Department of Sanitation",
    "final_address": "6220 Douglass St",
    "address_councildis": "E",
    "status": "Assigned to Contractor",
    "contractor": "Waste Pro",
    "rowid": "1272706",
    "final_x": "3699167.61917",
    "final_y": "531014.146242",
    "longitude": "-90.01230110053719",
    "latitude": "29.953556507065066",
    "geocoded_column": {
      "latitude": "29.953556507065066",
      "longitude": "-90.01230110053719"
    }
  },
  {
    "service_request": "2026-1272705",
    "request_type": "Trash/Recycling",
    "request_reason": "Request a Large Item Pick Up",
    "date_created": "2026-04-10T12:55:07.000",
    "date_modified": "2026-04-10T12:55:09.000",
    "request_status": "Pending",
    "responsible_agency": "Department of Sanitation",
    "final_address": "5312 Wildair Dr",
    "address_councildis": "D",
    "status": "Assigned to Contractor",
    "contractor": "IV Waste",
    "rowid": "1272705",
    "final_x": "3681632.32732",
    "final_y": "552447.361174",
    "longitude": "-90.06692213573317",
    "latitude": "30.01303456875389",
    "geocoded_column": {
      "latitude": "30.01303456875389",
      "longitude": "-90.06692213573317"
    }
  },
  {
    "service_request": "2026-1272704",
    "request_type": "Abandoned Vehicles",
    "request_reason": "Abandoned/Junk Vehicles",
    "date_created": "2026-04-10T12:51:49.000",
    "date_modified": "2026-04-10T12:53:36.000",
    "request_status": "Pending",
    "responsible_agency": "Department of Public Works",
    "final_address": "3074 Sullen Pl",
    "address_councildis": "C",
    "status": "Inspected",
    "rowid": "1272704",
    "final_x": "3707853.14174",
    "final_y": "519162.005111",
    "longitude": "-89.98531639739093",
    "latitude": "29.92068913125304",
    "geocoded_column": {
      "latitude": "29.92068913125304",
      "longitude": "-89.98531639739093"
    }
  },
  {
    "service_request": "2026-1272703",
    "request_type": "Trash/Recycling",
    "request_reason": "Request a Large Item Pick Up",
    "date_created": "2026-04-10T12:50:09.000",
    "date_modified": "2026-04-10T12:50:11.000",
    "request_status": "Pending",
    "responsible_agency": "Department of Sanitation",
    "final_address": "4927 Michoud Blvd",
    "address_councildis": "E",
    "status": "Assigned to Contractor",
    "contractor": "Waste Pro",
    "rowid": "1272703",
    "final_x": "3725047.27776",
    "final_y": "561331.327774",
    "longitude": "-89.92941235180632",
    "latitude": "30.036071057509417",
    "geocoded_column": {
      "latitude": "30.036071057509417",
      "longitude": "-89.92941235180632"
    }
  },
  {
    "service_request": "2026-1272702",
    "request_type": "Streetlights",
    "request_reason": "Streetlight Outage/Malfunction",
    "date_created": "2026-04-10T12:48:05.000",
    "date_modified": "2026-04-10T12:48:06.000",
    "request_status": "Pending",
    "responsible_agency": "Department of Public Works",
    "final_address": "2144 Law St",
    "address_councildis": "D",
    "status": "Pending",
    "rowid": "1272702",
    "final_x": "3683898.14729",
    "final_y": "541746.069004",
    "longitude": "-90.0601390559715",
    "latitude": "29.98354079719278",
    "geocoded_column": {
      "latitude": "29.98354079719278",
      "longitude": "-90.0601390559715"
    }
  },
  {
    "service_request": "2026-1272701",
    "request_type": "Tree Service",
    "request_reason": "Tree Trim",
    "date_created": "2026-04-10T12:45:40.000",
    "date_modified": "2026-04-10T12:45:43.000",
    "request_status": "Pending",
    "responsible_agency": "Department of Parks & Parkways",
    "final_address": "LAFAYE ST & GENTILLY BLVD",
    "address_councildis": "D",
    "status": "Pending",
    "rowid": "1272701",
    "final_x": "3687572.54",
    "final_y": "548888.33",
    "longitude": "-90.04828041753437",
    "latitude": "30.003066674969364",
    "geocoded_column": {
      "latitude": "30.003066674969364",
      "longitude": "-90.04828041753437"
    }
  },
  {
    "service_request": "2026-1272700",
    "request_type": "Trash/Recycling",
    "request_reason": "Missed Trash Pick-Up",
    "date_created": "2026-04-10T12:45:08.000",
    "date_modified": "2026-04-10T13:16:14.000",
    "case_close_date": "2026-04-10T08:16:13.000",
    "request_status": "Closed",
    "responsible_agency": "Department of Sanitation",
    "final_address": "4416 Gawain Dr",
    "address_councildis": "E",
    "status": "Invalid Request",
    "contractor": "Waste Pro",
    "contractor_action": "Invalid",
    "rowid": "1272700",
    "final_x": "3707142.0275",
    "final_y": "553541.527447",
    "longitude": "-89.98628527831734",
    "latitude": "30.015243205449607",
    "geocoded_column": {
      "latitude": "30.015243205449607",
      "longitude": "-89.98628527831734"
    }
  },
  {
    "service_request": "2026-1272699",
    "request_type": "Trash/Recycling",
    "request_reason": "Illegal Dumping",
    "date_created": "2026-04-10T12:44:13.000",
    "date_modified": "2026-04-10T12:44:15.000",
    "request_status": "Pending",
    "responsible_agency": "Department of Sanitation",
    "final_address": "1724 N Derbigny St",
    "address_councildis": "C",
    "status": "Pending",
    "rowid": "1272699",
    "final_x": "3682814.1732",
    "final_y": "538254.800713",
    "longitude": "-90.06368500183227",
    "latitude": "29.973974102704698",
    "geocoded_column": {
      "latitude": "29.973974102704698",
      "longitude": "-90.06368500183227"
    }
  },
  {
    "service_request": "2026-1272698",
    "request_type": "Tree Service",
    "request_reason": "Tree Trim",
    "date_created": "2026-04-10T12:40:34.000",
    "date_modified": "2026-04-10T12:40:36.000",
    "request_status": "Pending",
    "responsible_agency": "Department of Parks & Parkways",
    "final_address": "4713 Duplessis St",
    "address_councildis": "D",
    "status": "Pending",
    "rowid": "1272698",
    "final_x": "3678250.6973",
    "final_y": "549914.19586",
    "longitude": "-90.07769397256278",
    "latitude": "30.0061716051311",
    "geocoded_column": {
      "latitude": "30.0061716051311",
      "longitude": "-90.07769397256278"
    }
  },
  {
    "service_request": "2026-1272697",
    "request_type": "Trash/Recycling",
    "request_reason": "Repair Recycling Cart",
    "date_created": "2026-04-10T12:38:34.000",
    "date_modified": "2026-04-10T12:42:04.000",
    "request_status": "Pending",
    "responsible_agency": "Department of Sanitation",
    "final_address": "1829 General Collins Ave",
    "address_councildis": "C",
    "status": "Pending",
    "rowid": "1272697",
    "final_x": "3698453.57802",
    "final_y": "524087.747388",
    "longitude": "-90.01480739460936",
    "latitude": "29.93453394549043",
    "geocoded_column": {
      "latitude": "29.93453394549043",
      "longitude": "-90.01480739460936"
    }
  },
  {
    "service_request": "2026-1272696",
    "request_type": "Abandoned Vehicles",
    "request_reason": "Abandoned/Junk Vehicles",
    "date_created": "2026-04-10T12:35:31.000",
    "date_modified": "2026-04-10T12:35:34.000",
    "request_status": "Pending",
    "responsible_agency": "Department of Public Works",
    "final_address": "1016 Leboeuf St",
    "address_councildis": "C",
    "status": "Pending",
    "rowid": "1272696",
    "final_x": "3689806.48291",
    "final_y": "527689.181311",
    "longitude": "-90.041977849298",
    "latitude": "29.944707430532457",
    "geocoded_column": {
      "latitude": "29.944707430532457",
      "longitude": "-90.041977849298"
    }
  },
  {
    "service_request": "2026-1272695",
    "request_type": "Trash/Recycling",
    "request_reason": "Request a Large Item Pick Up",
    "date_created": "2026-04-10T12:17:57.000",
    "date_modified": "2026-04-10T12:17:59.000",
    "request_status": "Pending",
    "responsible_agency": "Department of Sanitation",
    "final_address": "4830 Sherwood Dr",
    "address_councildis": "E",
    "status": "Assigned to Contractor",
    "contractor": "Waste Pro",
    "rowid": "1272695",
    "final_x": "3717884.20722",
    "final_y": "557405.639259",
    "longitude": "-89.95219828233175",
    "latitude": "30.025516365886922",
    "geocoded_column": {
      "latitude": "30.025516365886922",
      "longitude": "-89.95219828233175"
    }
  },
  {
    "service_request": "2026-1272694",
    "request_type": "Abandoned Vehicles",
    "request_reason": "Abandoned/Junk Vehicles",
    "date_created": "2026-04-10T12:11:04.000",
    "date_modified": "2026-04-10T12:11:05.000",
    "request_status": "Pending",
    "responsible_agency": "Department of Public Works",
    "final_address": "1015 Louisa St",
    "address_councildis": "C",
    "status": "Pending",
    "rowid": "1272694",
    "final_x": "3689516.8454",
    "final_y": "535556.081158",
    "longitude": "-90.0426125318504",
    "latitude": "29.966347656321545",
    "geocoded_column": {
      "latitude": "29.966347656321545",
      "longitude": "-90.0426125318504"
    }
  },
  {
    "service_request": "2026-1272693",
    "request_type": "Trash/Recycling",
    "request_reason": "Request a Large Item Pick Up",
    "date_created": "2026-04-10T12:07:23.000",
    "date_modified": "2026-04-10T12:07:25.000",
    "request_status": "Pending",
    "responsible_agency": "Department of Sanitation",
    "final_address": "5302 Wickfield Dr",
    "address_councildis": "D",
    "status": "Assigned to Contractor",
    "contractor": "IV Waste",
    "rowid": "1272693",
    "final_x": "3681156.81756",
    "final_y": "552133.070806",
    "longitude": "-90.06843545128585",
    "latitude": "30.012184826055407",
    "geocoded_column": {
      "latitude": "30.012184826055407",
      "longitude": "-90.06843545128585"
    }
  },
  {
    "service_request": "2026-1272692",
    "request_type": "Trash/Recycling",
    "request_reason": "Damaged Caused By Contractor",
    "date_created": "2026-04-10T12:07:21.000",
    "date_modified": "2026-04-10T12:07:27.000",
    "request_status": "Pending",
    "responsible_agency": "Department of Sanitation",
    "final_address": "722 Sixth St",
    "address_councildis": "B",
    "status": "Assigned to Contractor",
    "contractor": "IV Waste",
    "rowid": "1272692",
    "final_x": "3677311.45582",
    "final_y": "519427.583607",
    "longitude": "-90.08171332846042",
    "latitude": "29.922372030845487",
    "geocoded_column": {
      "latitude": "29.922372030845487",
      "longitude": "-90.08171332846042"
    }
  },
  {
    "service_request": "2026-1272691",
    "request_type": "Trash/Recycling",
    "request_reason": "Return Recycling Cart",
    "date_created": "2026-04-10T11:57:06.000",
    "date_modified": "2026-04-10T11:57:08.000",
    "request_status": "Pending",
    "responsible_agency": "Department of Sanitation",
    "final_address": "1702 Painters St",
    "address_councildis": "D",
    "status": "Pending",
    "rowid": "1272691",
    "final_x": "3687344.18063",
    "final_y": "538762.108617",
    "longitude": "-90.0493603027479",
    "latitude": "29.9752302253624",
    "geocoded_column": {
      "latitude": "29.9752302253624",
      "longitude": "-90.0493603027479"
    }
  },
  {
    "service_request": "2026-1272690",
    "request_type": "Health Related Request",
    "request_reason": "Homeless Encampment Complaint",
    "date_created": "2026-04-10T11:55:38.000",
    "date_modified": "2026-04-10T11:57:58.000",
    "request_status": "Pending",
    "responsible_agency": "Office Of Homeless Services And Strategy",
    "final_address": "3520 Holiday Dr",
    "address_councildis": "C",
    "status": "Pending",
    "rowid": "1272690",
    "final_x": "3698321.97565",
    "final_y": "518446.428278",
    "longitude": "-90.01542769617502",
    "latitude": "29.919026415077997",
    "geocoded_column": {
      "latitude": "29.919026415077997",
      "longitude": "-90.01542769617502"
    }
  },
  {
    "service_request": "2026-1272689",
    "request_type": "Traffic Signals",
    "request_reason": "Traffic Signal Malfunctioning or Damaged",
    "date_created": "2026-04-10T11:52:59.000",
    "date_modified": "2026-04-10T11:53:03.000",
    "request_status": "Pending",
    "responsible_agency": "Department of Public Works",
    "final_address": "EARHART BLVD & WASHINGTON AVE",
    "address_councildis": "B",
    "status": "Pending",
    "rowid": "1272689",
    "final_x": "3670169.7",
    "final_y": "531931.18",
    "longitude": "-90.10383349459518",
    "latitude": "29.95696544353101",
    "geocoded_column": {
      "latitude": "29.95696544353101",
      "longitude": "-90.10383349459518"
    }
  },
  {
    "service_request": "2026-1272688",
    "request_type": "Trash/Recycling",
    "request_reason": "Request a Large Item Pick Up",
    "date_created": "2026-04-10T11:43:04.000",
    "date_modified": "2026-04-10T11:43:05.000",
    "request_status": "Pending",
    "responsible_agency": "Department of Sanitation",
    "final_address": "4663 Read Blvd",
    "address_councildis": "E",
    "status": "Assigned to Contractor",
    "contractor": "Waste Pro",
    "rowid": "1272688",
    "final_x": "3712908.58315",
    "final_y": "555778.032985",
    "longitude": "-89.96798165805949",
    "latitude": "30.02120505659953",
    "geocoded_column": {
      "latitude": "30.02120505659953",
      "longitude": "-89.96798165805949"
    }
  },