[
  {
    "service_request": "2024-1154633",
    "request_type": "Streetlights",
    "request_reason": "New Streetlight Request",
    "date_created": "2024-12-11T22:56:59.000",
    "date_modified": "2024-12-11T22:57:01.000",
    "request_status": "Pending",
    "responsible_agency": "Department of Public Works",
    "final_address": "535 Madison St",
    "address_councildis": "C",
    "status": "Pending",
    "contractor": "Legacy Professional Services",
    "rowid": "1154633",
    "final_x": "3683291.09045",
    "final_y": "532639.222596",
    "longitude": "-90.06237550993669",
    "latitude": "29.958518659782698",
    "geocoded_column": {
      "latitude": "29.958518659782698",
      "longitude": "-90.06237550993669"
    }
  },
  {
    "service_request": "2024-1154632",
    "request_type": "Streetlights",
    "request_reason": "Streetlight Outage/Malfunction",
    "date_created": "2024-12-11T22:52:07.000",
    "date_modified": "2024-12-11T22:52:08.000",
    "request_status": "Pending",
    "responsible_agency": "Department of Public Works",
    "final_address": "535 Madison St",
    "address_councildis": "C",
    "status": "Pending",
    "contractor": "Legacy Professional Services",
    "rowid": "1154632",
    "final_x": "3683291.09045",
    "final_y": "532639.222596",
    "longitude": "-90.06237550993669",
    "latitude": "29.958518659782698",
    "geocoded_column": {
      "latitude": "29.958518659782698",
      "longitude": "-90.06237550993669"
    }
  },
  {
    "service_request": "2024-1154631",
    "request_type": "Trash/Recycling",
    "request_reason": "Repair Trash Cart",
    "date_created": "2024-12-11T22:15:30.000",
    "date_modified": "2024-12-11T22:15:31.000",
    "request_status": "Pending",
    "responsible_agency": "Department of Sanitation",
    "final_address": "408 State St",
    "address_councildis": "A",
    "status": "Assigned to Contractor",
    "contractor": "IV Waste",
    "rowid": "1154631",
    "final_x": "3664230.96084",
    "final_y": "517956.978998",
    "longitude": "-90.1230523328726",
    "latitude": "29.9187147217496",
    "geocoded_column": {
      "latitude": "29.9187147217496",
      "longitude": "-90.1230523328726"
    }
  },
  {
    "service_request": "2024-1154630",
    "request_type": "General Services",
    "request_reason": "General Service Request",
    "date_created": "2024-12-11T21:48:05.000",
    "date_modified": "2024-12-11T21:48:05.000",
    "request_status": "Pending",
    "responsible_agency": "Orleans Parish Communication District",
    "final_address": "New Orleans,LA",
    "status": "Pending",
    "rowid": "1154630",
    "longitude": "0.0",
    "latitude": "0.0",
    "geocoded_column": {
      "latitude": "0.0",
      "longitude": "0.0"
    }
  },
  {
    "service_request": "2024-1154629",
    "request_type": "Trash/Recycling",
    "request_reason": "Request a Large Item Pick Up",
    "date_created": "2024-12-11T21:40:21.000",
    "date_modified": "2024-12-11T21:40:21.000",
    "request_status": "Pending",
    "responsible_agency": "Department of Sanitation",
    "final_address": "2000 S Carrollton Ave",
    "address_councildis": "A",
    "status": "Assigned to Contractor",
    "contractor": "IV Waste",
    "rowid": "1154629",
    "final_x": "3663869.15655",
    "final_y": "530500.026242",
    "longitude": "-90.12377643009548",
    "latitude": "29.953214623781495",
    "geocoded_column": {
      "latitude": "29.953214623781495",
      "longitude": "-90.12377643009548"
    }
  },
  {
    "service_request": "2024-1154628",
    "request_type": "Trash/Recycling",
    "request_reason": "Replace Trash Cart",
    "date_created": "2024-12-11T21:29:37.000",
    "date_modified": "2024-12-11T21:29:38.000",
    "request_status": "Pending",
    "responsible_agency": "Department of Sanitation",
    "final_address": "324 N Lopez St",
    "address_councildis": "B",
    "status": "Assigned to Contractor",
    "contractor": "IV Waste",
    "rowid": "1154628",
    "final_x": "3674516.97198",
    "final_y": "537005.445064",
    "longitude": "-90.08993228187892",
    "latitude": "29.970788986061788",
    "geocoded_column": {
      "latitude": "29.970788986061788",
      "longitude": "-90.08993228187892"
    }
  },
  {
    "service_request": "2024-1154627",
    "request_type": "Streetlights",
    "request_reason": "Streetlight Outage/Malfunction",
    "date_created": "2024-12-11T21:26:22.000",
    "date_modified": "2024-12-11T21:26:23.000",
    "request_status": "Pending",
    "responsible_agency": "Department of Public Works",
    "final_address": "5658 Marshal Foch St",
    "address_councildis": "A",
    "status": "Pending",
    "contractor": "Legacy Professional Services",
    "rowid": "1154627",
    "final_x": "3669498.00686",
    "final_y": "544714.393295",
    "longitude": "-90.10552196625923",
    "latitude": "29.99213477682971",
    "geocoded_column": {
      "latitude": "29.99213477682971",
      "longitude": "-90.10552196625923"
    }
  },
  {
    "service_request": "2024-1154626",
    "request_type": "Trash/Recycling",
    "request_reason": "Order Second Trash Cart",
    "date_created": "2024-12-11T21:11:04.000",
    "date_modified": "2024-12-11T21:11:05.000",
    "request_status": "Pending",
    "responsible_agency": "Department of Sanitation",
    "final_address": "1803 Fats Domino Ave",
    "address_councildis": "E",
    "status": "Assigned to Contractor",
    "contractor": "Waste Pro",
    "rowid": "1154626",
    "final_x": "3698791.39479",
    "final_y": "536415.597511",
    "longitude": "-90.0132925674498",
    "latitude": "29.96842049636947",
    "geocoded_column": {
      "latitude": "29.96842049636947",
      "longitude": "-90.0132925674498"
    }
  },
  {
    "service_request": "2024-1154625",
    "request_type": "Abandoned Vehicles",
    "request_reason": "Vehicle Blocking Your Driveway",
    "date_created": "2024-12-11T21:08:33.000",
    "date_modified": "2024-12-11T21:08:33.000",
    "request_status": "Pending",
    "responsible_agency": "Department of Public Works",
    "final_address": "2103 Baronne St",
    "address_councildis": "B",
    "status": "Pending",
    "rowid": "1154625",
    "final_x": "3677259.61998",
    "final_y": "524722.60198",
    "longitude": "-90.08169437831921",
    "latitude": "29.93693316231773",
    "geocoded_column": {
      "latitude": "29.93693316231773",
      "longitude": "-90.08169437831921"
    }
  },
  {
    "service_request": "2024-1154624",
    "request_type": "Trash/Recycling",
    "request_reason": "Order Trash Cart",
    "date_created": "2024-12-11T20:49:50.000",
    "date_modified": "2024-12-11T20:49:51.000",
    "request_status": "Pending",
    "responsible_agency": "Department of Sanitation",
    "final_address": "2403 Felicity St",
    "address_councildis": "B",
    "status": "Assigned to Contractor",
    "contractor": "IV Waste",
    "rowid": "1154624",
    "final_x": "3676138.93998",
    "final_y": "526972.010238",
    "longitude": "-90.0851550698029",
    "latitude": "29.94315190805746",
    "geocoded_column": {
      "latitude": "29.94315190805746",
      "longitude": "-90.0851550698029"
    }
  },
  {
    "service_request": "2024-1154623",
    "request_type": "Trash/Recycling",
    "request_reason": "Replace Trash Cart",
    "date_created": "2024-12-11T19:46:27.000",
    "date_modified": "2024-12-11T19:46:28.000",
    "request_status": "Pending",
    "responsible_agency": "Department of Sanitation",
    "final_address": "522 S Telemachus St",
    "address_councildis": "B",
    "status": "Assigned to Contractor",
    "contractor": "IV Waste",
    "rowid": "1154623",
    "final_x": "3671269.68231",
    "final_y": "535924.859591",
    "longitude": "-90.10022437469222",
    "latitude": "29.96791423132383",
    "geocoded_column": {
      "latitude": "29.96791423132383",
      "longitude": "-90.10022437469222"
    }
  },
  {
    "service_request": "2024-1154622",
    "request_type": "Trash/Recycling",
    "request_reason": "Request a Large Item Pick Up",
    "date_created": "2024-12-11T19:44:37.000",
    "date_modified": "2024-12-11T19:44:38.000",
    "request_status": "Pending",
    "responsible_agency": "Department of Sanitation",
    "final_address": "7440 Alabama St",
    "address_councildis": "D",
    "status": "Assigned to Contractor",
    "contractor": "Waste Pro",
    "rowid": "1154622",
    "final_x": "3695001.17603",
    "final_y": "558056.641883",
    "longitude": "-90.02448154306744",
    "latitude": "30.028044924776378",
    "geocoded_column": {
      "latitude": "30.028044924776378",
      "longitude": "-90.02448154306744"
    }
  },
  {
    "service_request": "2024-1154621",
    "request_type": "Streetlights",
    "request_reason": "Streetlight Outage/Malfunction",
    "date_created": "2024-12-11T19:25:54.000",
    "date_modified": "2024-12-11T19:25:55.000",
    "request_status": "Pending",
    "responsible_agency": "Department of Public Works",
    "final_address": "SHORT ST & JEANNETTE ST",
    "address_councildis": "A",
    "status": "Pending",
    "contractor": "Legacy Professional Services",
    "rowid": "1154621",
    "final_x": "3663006.7",
    "final_y": "528848.78",
    "longitude": "-90.12655462033501",
    "latitude": "29.948699233920145",
    "geocoded_column": {
      "latitude": "29.948699233920145",
      "longitude": "-90.12655462033501"
    }
  },
  {
    "service_request": "2024-1154620",
    "request_type": "Streetlights",
    "request_reason": "Streetlight Outage/Malfunction",
    "date_created": "2024-12-11T18:51:57.000",
    "date_modified": "2024-12-11T18:51:58.000",
    "request_status": "Pending",
    "responsible_agency": "Department of Public Works",
    "final_address": "318 N Lopez St",
    "address_councildis": "B",
    "status": "Pending",
    "contractor": "Legacy Professional Services",
    "rowid": "1154620",
    "final_x": "3674493.29499",
    "final_y": "536974.166024",
    "longitude": "-90.09000812872539",
    "latitude": "29.970703685758362",
    "geocoded_column": {
      "latitude": "29.970703685758362",
      "longitude": "-90.09000812872539"
    }
  },
  {
    "service_request": "2024-1154619",
    "request_type": "Trash/Recycling",
    "request_reason": "Request a Large Item Pick Up",
    "date_created": "2024-12-11T18:47:43.000",
    "date_modified": "2024-12-11T18:47:43.000",
    "request_status": "Pending",
    "responsible_agency": "Department of Sanitation",
    "final_address": "1311 Flanders St",
    "address_councildis": "C",
    "status": "Assigned to Contractor",
    "contractor": "Richards Disposal",
    "rowid": "1154619",
    "final_x": "3696684.48791",
    "final_y": "526505.941374",
    "longitude": "-90.0203048602097",
    "latitude": "29.941239000146606",
    "geocoded_column": {
      "latitude": "29.941239000146606",
      "longitude": "-90.0203048602097"
    }
  },
  {
    "service_request": "2024-1154618",
    "request_type": "Roads and Streets",
    "request_reason": "Abandoned Service Cut",
    "date_created": "2024-12-11T18:20:31.000",
    "date_modified": "2024-12-11T18:20:31.000",
    "request_status": "Pending",
    "responsible_agency": "Department of Public Works",
    "final_address": "3127 Dauphine St",
    "address_councildis": "C",
    "status": "Pending",
    "rowid": "1154618",
    "final_x": "3688938.95657",
    "final_y": "534828.517254",
    "longitude": "-90.04446333403554",
    "latitude": "29.964364996072092",
    "geocoded_column": {
      "latitude": "29.964364996072092",
      "longitude": "-90.04446333403554"
    }
  },
  {
    "service_request": "2024-1154617",
    "request_type": "Healthy Homes",
    "request_reason": "Healthy Homes",
    "date_created": "2024-12-11T18:13:54.000",
    "date_modified": "2024-12-11T18:13:54.000",
    "request_status": "Pending",
    "responsible_agency": "Department of Code Enforcement",
    "final_address": "1704 Frenchmen St",
    "address_councildis": "D",
    "status": "Pending",
    "rowid": "1154617",
    "final_x": "3684377.68066",
    "final_y": "538545.761417",
    "longitude": "-90.05873687999602",
    "latitude": "29.974726414273828",
    "geocoded_column": {
      "latitude": "29.974726414273828",
      "longitude": "-90.05873687999602"
    }
  },
  {
    "service_request": "2024-1154616",
    "request_type": "Streetlights",
    "request_reason": "Streetlight Outage/Malfunction",
    "date_created": "2024-12-11T17:52:36.000",
    "date_modified": "2024-12-11T17:52:37.000",
    "request_status": "Pending",
    "responsible_agency": "Department of Public Works",
    "final_address": "JULIA ST & HOWARD AVE & LEROUGE ST",
    "address_councildis": "B",
    "status": "Pending",
    "contractor": "Legacy Professional Services",
    "rowid": "1154616",
    "final_x": "3677366.34",
    "final_y": "528975.48",
    "longitude": "-90.08121073801966",
    "latitude": "29.948623964026755",
    "geocoded_column": {
      "latitude": "29.948623964026755",
      "longitude": "-90.08121073801966"
    }
  },
  {
    "service_request": "2024-1154615",
    "request_type": "Trash/Recycling",
    "request_reason": "Request a Large Item Pick Up",
    "date_created": "2024-12-11T17:45:14.000",
    "date_modified": "2024-12-11T17:45:15.000",
    "request_status": "Pending",
    "responsible_agency": "Department of Sanitation",
    "final_address": "821 Deslonde St",
    "address_councildis": "E",
    "status": "Assigned to Contractor",
    "contractor": "Waste Pro",
    "rowid": "1154615",
    "final_x": "3695145.12214",
    "final_y": "533464.989956",
    "longitude": "-90.02491402093004",
    "latitude": "29.96042236902675",
    "geocoded_column": {
      "latitude": "29.96042236902675",
      "longitude": "-90.02491402093004"
    }
  },
  {
    "service_request": "2024-1154614",
    "request_type": "Trash/Recycling",
    "request_reason": "Replace Trash Cart",
    "date_created": "2024-12-11T17:31:52.000",
    "date_modified": "2024-12-11T17:31:53.000",
    "request_status": "Pending",
    "responsible_agency": "Department of Sanitation",
    "final_address": "1700 Fern St",
    "address_councildis": "A",
    "status": "Assigned to Contractor",
    "contractor": "IV Waste",
    "rowid": "1154614",
    "final_x": "3663710.84243",
    "final_y": "529199.635968",
    "longitude": "-90.12431964450678",
    "latitude": "29.949643564749703",
    "geocoded_column": {
      "latitude": "29.949643564749703",
      "longitude": "-90.12431964450678"
    }
  },
  {
    "service_request": "2024-1154613",
    "request_type": "Trash/Recycling",
    "request_reason": "Order Recycling Cart",
    "date_created": "2024-12-11T17:24:53.000",
    "date_modified": "2024-12-11T17:24:53.000",
    "request_status": "Pending",
    "responsible_agency": "Department of Sanitation",
    "final_address": "5111 Mandeville St",
    "address_councildis": "D",
    "status": "Pending",
    "rowid": "1154613",
    "final_x": "3684702.44578",
    "final_y": "551515.995093",
    "longitude": "-90.05725500146931",
    "latitude": "30.010379994395716",
    "geocoded_column": {
      "latitude": "30.010379994395716",
      "longitude": "-90.05725500146931"
    }
  },
  {
    "service_request": "2024-1154612",
    "request_type": "Abandoned Vehicles",
    "request_reason": "Abandoned/Junk Vehicles",
    "date_created": "2024-12-11T16:56:25.000",
    "date_modified": "2024-12-11T16:56:25.000",
    "request_status": "Pending",
    "responsible_agency": "Department of Public Works",
    "final_address": "2617 Republic St",
    "address_councildis": "D",
    "status": "Pending",
    "rowid": "1154612",
    "final_x": "3680798.07394",
    "final_y": "541750.905484",
    "longitude": "-90.06993054984088",
    "latitude": "29.983648446893113",
    "geocoded_column": {
      "latitude": "29.983648446893113",
      "longitude": "-90.06993054984088"
    }
  },
  {
    "service_request": "2024-1154611",
    "request_type": "Streetlights",
    "request_reason": "Streetlight Outage/Malfunction",
    "date_created": "2024-12-11T16:53:42.000",
    "date_modified": "2024-12-11T16:53:43.000",
    "request_status": "Pending",
    "responsible_agency": "Department of Public Works",
    "final_address": "2646 Eton St",
    "address_councildis": "C",
    "status": "Pending",
    "contractor": "Legacy Professional Services",
    "rowid": "1154611",
    "final_x": "3704022.11063",
    "final_y": "521056.501817",
    "longitude": "-89.99733937844161",
    "latitude": "29.926021712067428",
    "geocoded_column": {
      "latitude": "29.926021712067428",
      "longitude": "-89.99733937844161"
    }
  },
  {
    "service_request": "2024-1154610",
    "request_type": "Trash/Recycling",
    "request_reason": "Request a Large Item Pick Up",
    "date_created": "2024-12-11T16:45:16.000",
    "date_modified": "2024-12-11T16:45:18.000",
    "request_status": "Pending",
    "responsible_agency": "Department of Sanitation",
    "final_address": "2258 Urquhart St",
    "address_councildis": "C",
    "status": "Assigned to Contractor",
    "contractor": "IV Waste",
    "rowid": "1154610",
    "final_x": "3685570.81718",
    "final_y": "536986.82836",
    "longitude": "-90.05502359261119",
    "latitude": "29.970403345146195",
    "geocoded_column": {
      "latitude": "29.970403345146195",
      "longitude": "-90.05502359261119"
    }
  },
  {
    "service_request": "2024-1154609",
    "request_type": "Trash/Recycling",
    "request_reason": "Request a Large Item Pick Up",
    "date_created": "2024-12-11T16:43:42.000",
    "date_modified": "2024-12-11T16:43:43.000",
    "request_status": "Pending",
    "responsible_agency": "Department of Sanitation",
    "final_address": "254 Audubon Blvd",
    "address_councildis": "A",
    "status": "Assigned to Contractor",
    "contractor": "IV Waste",
    "rowid": "1154609",
    "final_x": "3666675.19757",
    "final_y": "529337.915713",
    "longitude": "-90.11495514984976",
    "latitude": "29.94993745242734",
    "geocoded_column": {
      "latitude": "29.94993745242734",
      "longitude": "-90.11495514984976"
    }
  },
  {
    "service_request": "2024-1154608",
    "request_type": "Trash/Recycling",
    "request_reason": "Replace Trash Cart",
    "date_created": "2024-12-11T16:43:35.000",
    "date_modified": "2024-12-11T16:43:36.000",
    "request_status": "Pending",
    "responsible_agency": "Department of Sanitation",
    "final_address": "1433 Mazant St",
    "address_councildis": "D",
    "status": "Assigned to Contractor",
    "contractor": "IV Waste",
    "rowid": "1154608",
    "final_x": "3692481.24899",
    "final_y": "536542.693191",
    "longitude": "-90.03321568104525",
    "latitude": "29.968968340928054",
    "geocoded_column": {
      "latitude": "29.968968340928054",
      "longitude": "-90.03321568104525"
    }
  },
  {
    "service_request": "2024-1154607",
    "request_type": "Trash/Recycling",
    "request_reason": "Order Recycling Cart",
    "date_created": "2024-12-11T16:42:42.000",
    "date_modified": "2024-12-11T16:42:44.000",
    "request_status": "Pending",
    "responsible_agency": "Department of Sanitation",
    "final_address": "2352 St Claude Ave",
    "address_councildis": "C",
    "status": "Pending",
    "rowid": "1154607",
    "final_x": "3686260.53577",
    "final_y": "536373.622791",
    "longitude": "-90.05286702996962",
    "latitude": "29.96869606815051",
    "geocoded_column": {
      "latitude": "29.96869606815051",
      "longitude": "-90.05286702996962"
    }
  },
  {
    "service_request": "2024-1154606",
    "request_type": "Trash/Recycling",
    "request_reason": "Request a Large Item Pick Up",
    "date_created": "2024-12-11T16:40:31.000",
    "date_modified": "2024-12-11T16:40:33.000",
    "request_status": "Pending",
    "responsible_agency": "Department of Sanitation",
    "final_address": "4004 Baronne St",
    "address_councildis": "B",
    "status": "Assigned to Contractor",
    "contractor": "IV Waste",
    "rowid": "1154606",
    "final_x": "3672189.6706",
    "final_y": "521706.031865",
    "longitude": "-90.09780319862007",
    "latitude": "29.928789873776704",
    "geocoded_column": {
      "latitude": "29.928789873776704",
      "longitude": "-90.09780319862007"
    }
  },
  {
    "service_request": "2024-1154605",
    "request_type": "Trash/Recycling",
    "request_reason": "Request a Large Item Pick Up",
    "date_created": "2024-12-11T16:38:17.000",
    "date_modified": "2024-12-11T16:38:18.000",
    "request_status": "Pending",
    "responsible_agency": "Department of Sanitation",
    "final_address": "11021 Lake Forest Blvd",
    "address_councildis": "E",
    "status": "Assigned to Contractor",
    "contractor": "Waste Pro",
    "rowid": "1154605",
    "final_x": "3714405.61515",
    "final_y": "560590.509406",
    "longitude": "-89.96306966566267",
    "latitude": "30.034388319484936",
    "geocoded_column": {
      "latitude": "30.034388319484936",
      "longitude": "-89.96306966566267"
    }
  },
  {
    "service_request": "2024-1154604",
    "request_type": "Trash/Recycling",
    "request_reason": "Request a Large Item Pick Up",
    "date_created": "2024-12-11T16:33:56.000",
    "date_modified": "2024-12-11T16:38:10.000",
    "request_status": "Pending",
    "responsible_agency": "Department of Sanitation",
    "final_address": "6040 Eastover Dr",
    "address_councildis": "E",
    "status": "Assigned to Contractor",
    "contractor": "Waste Pro",
    "rowid": "1154604",
    "final_x": "3718522.2014",
    "final_y": "565757.006243",
    "longitude": "-89.94986372042268",
    "latitude": "30.048458077764",
    "geocoded_column": {
      "latitude": "30.048458077764",
      "longitude": "-89.94986372042268"
    }
  },
  {
    "service_request": "2024-1154603",
    "request_type": "Safety & Permits",
    "request_reason": "Licenses & Permits",
    "date_created": "2024-12-11T16:31:37.000",
    "date_modified": "2024-12-11T16:38:33.000",
    "request_status": "Pending",
    "responsible_agency": "Safety and Permits",
    "final_address": "1400 BLK Touro St",
    "address_councildis": "C",
    "status": "Pending",
    "rowid": "1154603",
    "final_x": "3684128.8361",
    "final_y": "537528.72788",
    "longitude": "-90.05955849849164",
    "latitude": "29.97193753512108",
    "geocoded_column": {
      "latitude": "29.97193753512108",
      "longitude": "-90.05955849849164"
    }
  },
  {
    "service_request": "2024-1154602",
    "request_type": "Safety & Permits",
    "request_reason": "Licenses & Permits",
    "date_created": "2024-12-11T16:29:28.000",
    "date_modified": "2024-12-11T16:35:15.000",
    "request_status": "Pending",
    "responsible_agency": "Safety and Permits",
    "final_address": "1432 Touro St",
    "address_councildis": "C",
    "rowid": "1154602",
    "final_x": "3684097.95157",
    "final_y": "537611.196104",
    "longitude": "-90.05965314158549",
    "latitude": "29.972165238059002",
    "geocoded_column": {
      "latitude": "29.972165238059002",
      "longitude": "-90.05965314158549"
    }
  },
  {
    "service_request": "2024-1154601",
    "request_type": "Trash/Recycling",
    "request_reason": "Repair Recycling Cart",
    "date_created": "2024-12-11T16:28:25.000",
    "date_modified": "2024-12-11T16:28:26.000",
    "request_status": "Pending",
    "responsible_agency": "Department of Sanitation",
    "final_address": "2326 General Pershing St",
    "address_councildis": "B",
    "status": "Pending",
    "rowid": "1154601",
    "final_x": "3670924.64238",
    "final_y": "523624.436731",
    "longitude": "-90.10173155058162",
    "latitude": "29.934102316854904",
    "geocoded_column": {
      "latitude": "29.934102316854904",
      "longitude": "-90.10173155058162"
    }
  },
  {
    "service_request": "2024-1154600",
    "request_type": "Trash/Recycling",
    "request_reason": "Change Size of Trash Cart",
    "date_created": "2024-12-11T16:27:00.000",
    "date_modified": "2024-12-11T16:27:01.000",
    "request_status": "Pending",
    "responsible_agency": "Department of Sanitation",
    "final_address": "3059 Maurepas St",
    "address_councildis": "A",
    "status": "Assigned to Contractor",
    "contractor": "IV Waste",
    "rowid": "1154600",
    "final_x": "3676698.84917",
    "final_y": "540782.707851",
    "longitude": "-90.08291145992182",
    "latitude": "29.98110988013098",
    "geocoded_column": {
      "latitude": "29.98110988013098",
      "longitude": "-90.08291145992182"
    }
  },
  {
    "service_request": "2024-1154599",
    "request_type": "Trash/Recycling",
    "request_reason": "Request a Large Item Pick Up",
    "date_created": "2024-12-11T16:22:44.000",
    "date_modified": "2024-12-11T16:22:46.000",
    "request_status": "Pending",
    "responsible_agency": "Department of Sanitation",
    "final_address": "6516 Harbourview Dr",
    "address_councildis": "E",
    "status": "Assigned to Contractor",
    "contractor": "Waste Pro",
    "rowid": "1154599",
    "final_x": "3698624.75101",
    "final_y": "555879.233561",
    "longitude": "-90.01311061866042",
    "latitude": "30.02194357743642",
    "geocoded_column": {
      "latitude": "30.02194357743642",
      "longitude": "-90.01311061866042"
    }
  },
  {
    "service_request": "2024-1154598",
    "request_type": "Roads and Streets",
    "request_reason": "Sidewalk Damaged or Missing",
    "date_created": "2024-12-11T16:15:39.000",
    "date_modified": "2024-12-11T16:15:39.000",
    "request_status": "Pending",
    "responsible_agency": "Department of Public Works",
    "final_address": "6212 Fontainebleau Dr",
    "address_councildis": "A",
    "status": "Pending",
    "rowid": "1154598",
    "final_x": "3668029.09492",
    "final_y": "529900.578625",
    "longitude": "-90.11066129625628",
    "latitude": "29.951444938079938",
    "geocoded_column": {
      "latitude": "29.951444938079938",
      "longitude": "-90.11066129625628"
    }
  },
  {
    "service_request": "2024-1154597",
    "request_type": "Trash/Recycling",
    "request_reason": "Repair Trash Cart",
    "date_created": "2024-12-11T16:08:25.000",
    "date_modified": "2024-12-11T16:08:26.000",
    "request_status": "Pending",
    "responsible_agency": "Department of Sanitation",
    "final_address": "3451 Hyman Pl",
    "address_councildis": "C",
    "status": "Assigned to Contractor",
    "contractor": "Richards Disposal",
    "rowid": "1154597",
    "final_x": "3700886.28522",
    "final_y": "518354.649398",
    "longitude": "-90.00733689485551",
    "latitude": "29.918692707318417",
    "geocoded_column": {
      "latitude": "29.918692707318417",
      "longitude": "-90.00733689485551"
    }
  },
  {
    "service_request": "2024-1154596",
    "request_type": "Trash/Recycling",
    "request_reason": "Missed Trash Pick-Up",
    "date_created": "2024-12-11T16:07:53.000",
    "date_modified": "2024-12-11T17:24:03.000",
    "case_close_date": "2024-12-11T11:24:03.000",
    "request_status": "Closed",
    "responsible_agency": "Department of Sanitation",
    "final_address": "621 S Lopez St",
    "address_councildis": "B",
    "status": "Invalid Request",
    "contractor": "IV Waste",
    "contractor_action": "Invalid Request",
    "rowid": "1154596",
    "final_x": "3672413.01377",
    "final_y": "534482.266885",
    "longitude": "-90.09666285786656",
    "latitude": "29.96391370391537",
    "geocoded_column": {
      "latitude": "29.96391370391537",
      "longitude": "-90.09666285786656"
    }
  },
  {
    "service_request": "2024-1154595",
    "request_type": "Trash/Recycling",
    "request_reason": "Order Trash Cart",
    "date_created": "2024-12-11T16:02:39.000",
    "date_modified": "2024-12-11T16:02:40.000",
    "request_status": "Pending",
    "responsible_agency": "Department of Sanitation",
    "final_address": "105 Mary Jane Ln",
    "address_councildis": "E",
    "status": "Assigned to Contractor",
    "contractor": "Waste Pro",
    "rowid": "1154595",
    "final_x": "3717937.19353",
    "final_y": "571476.38372",
    "longitude": "-89.95149466868034",
    "latitude": "30.064203406578184",
    "geocoded_column": {
      "latitude": "30.064203406578184",
      "longitude": "-89.95149466868034"
    }
  },
  {
    "service_request": "2024-1154594",
    "request_type": "Streetlights",
    "request_reason": "New Streetlight Request",
    "date_created": "2024-12-11T15:57:21.000",
    "date_modified": "2024-12-11T15:57:22.000",
    "request_status": "Pending",
    "responsible_agency": "Department of Public Works",
    "final_address": "6900 BLK Ridgefield Dr",
    "address_councildis": "E",
    "status": "Pending",
    "contractor": "Legacy Professional Services",
    "rowid": "1154594",
    "final_x": "3719606.20215",
    "final_y": "569300.347407",
    "longitude": "-89.94630212621607",
    "latitude": "30.058164767185836",
    "geocoded_column": {
      "latitude": "30.058164767185836",
      "longitude": "-89.94630212621607"
    }
  },
  {
    "service_request": "2024-1154593",
    "request_type": "Abandoned Vehicles",
    "request_reason": "Abandoned/Junk Vehicles",
    "date_created": "2024-12-11T15:48:27.000",
    "date_modified": "2024-12-11T15:48:27.000",
    "request_status": "Pending",
    "responsible_agency": "Department of Public Works",
    "final_address": "GRAVIER ST & S BROAD AVE & S BROAD ST",
    "address_councildis": "B",
    "status": "Pending",
    "rowid": "1154593",
    "final_x": "3673996.8",
    "final_y": "533346.68",
    "longitude": "-90.09170026029452",
    "latitude": "29.96074412508049",
    "geocoded_column": {
      "latitude": "29.96074412508049",
      "longitude": "-90.09170026029452"
    }
  },
  {
    "service_request": "2024-1154592",
    "request_type": "Trash/Recycling",
    "request_reason": "Illegal Dumping",
    "date_created": "2024-12-11T15:48:11.000",
    "date_modified": "2024-12-11T15:48:11.000",
    "request_status": "Pending",
    "responsible_agency": "Department of Sanitation",
    "final_address": "1900 BLK Gallier St",
    "address_councildis": "D",
    "status": "Pending",
    "rowid": "1154592",
    "final_x": "3691281.82311",
    "final_y": "538933.64108",
    "longitude": "-90.03691810327538",
    "latitude": "29.975579967423407",
    "geocoded_column": {
      "latitude": "29.975579967423407",
      "longitude": "-90.03691810327538"
    }
  },
  {
    "service_request": "2024-1154591",
    "request_type": "Roads and Streets",
    "request_reason": "Curb Damage",
    "date_created": "2024-12-11T15:47:16.000",
    "date_modified": "2024-12-11T15:47:16.000",
    "request_status": "Pending",
    "responsible_agency": "Department of Public Works",
    "final_address": "6900 BLK Ridgefield Dr",
    "address_councildis": "E",
    "status": "Pending",
    "rowid": "1154591",
    "final_x": "3719606.20215",
    "final_y": "569300.347407",
    "longitude": "-89.94630212621607",
    "latitude": "30.058164767185836",
    "geocoded_column": {
      "latitude": "30.058164767185836",
      "longitude": "-89.94630212621607"
    }
  },
  {
    "service_request": "2024-1154590",
    "request_type": "Roads and Streets",
    "request_reason": "Sidewalk Damaged or Missing",
    "date_created": "2024-12-11T15:44:28.000",
    "date_modified": "2024-12-11T15:44:28.000",
    "request_status": "Pending",
    "responsible_agency": "Department of Public Works",
    "final_address": "6900 BLK Ridgefield Dr",
    "address_councildis": "E",
    "status": "Pending",
    "rowid": "1154590",
    "final_x": "3719606.20215",
    "final_y": "569300.347407",
    "longitude": "-89.94630212621607",
    "latitude": "30.058164767185836",
    "geocoded_column": {
      "latitude": "30.058164767185836",
      "longitude": "-89.94630212621607"
    }
  },
  {
    "service_request": "2024-1154589",
    "request_type": "Streetlights",
    "request_reason": "Streetlight Outage/Malfunction",
    "date_created": "2024-12-11T15:43:12.000",
    "date_modified": "2024-12-11T15:43:13.000",
    "request_status": "Pending",
    "responsible_agency": "Department of Public Works",
    "final_address": "1701 S Dupre St",
    "address_councildis": "B",
    "status": "Pending",
    "contractor": "Legacy Professional Services",
    "rowid": "1154589",
    "final_x": "3670715.78868",
    "final_y": "530125.390145",
    "longitude": "-90.10217038059034",
    "latitude": "29.951983993737848",
    "geocoded_column": {
      "latitude": "29.951983993737848",
      "longitude": "-90.10217038059034"
    }
  },
  {
    "service_request": "2024-1154588",
    "request_type": "Trash/Recycling",
    "request_reason": "Repair Recycling Cart",
    "date_created": "2024-12-11T15:42:00.000",
    "date_modified": "2024-12-11T15:42:00.000",
    "request_status": "Pending",
    "responsible_agency": "Department of Sanitation",
    "final_address": "917 Solomon Pl",
    "address_councildis": "A",
    "status": "Pending",
    "rowid": "1154588",
    "final_x": "3672454.67297",
    "final_y": "541275.15438",
    "longitude": "-90.09629971628976",
    "latitude": "29.98259060847472",
    "geocoded_column": {
      "latitude": "29.98259060847472",
      "longitude": "-90.09629971628976"
    }
  },
  {
    "service_request": "2024-1154587",
    "request_type": "Trash/Recycling",
    "request_reason": "Request a Large Item Pick Up",
    "date_created": "2024-12-11T15:40:59.000",
    "date_modified": "2024-12-11T15:41:00.000",
    "request_status": "Pending",
    "responsible_agency": "Department of Sanitation",
    "final_address": "4719 Virgilian St",
    "address_councildis": "D",
    "status": "Assigned to Contractor",
    "contractor": "Waste Pro",
    "rowid": "1154587",
    "final_x": "3697573.29437",
    "final_y": "553614.334103",
    "longitude": "-90.0165151768813",
    "latitude": "30.01574923102479",
    "geocoded_column": {
      "latitude": "30.01574923102479",
      "longitude": "-90.0165151768813"
    }
  },
  {
    "service_request": "2024-1154586",
    "request_type": "Trash/Recycling",
    "request_reason": "Request a Large Item Pick Up",
    "date_created": "2024-12-11T15:37:09.000",
    "date_modified": "2024-12-11T15:37:10.000",
    "request_status": "Pending",
    "responsible_agency": "Department of Sanitation",
    "final_address": "928 John Churchill Chase St",
    "address_councildis": "B",
    "status": "Assigned to Contractor",
    "contractor": "Empire Services",
    "rowid": "1154586",
    "final_x": "3681340.43055",
    "final_y": "526135.096062",
    "longitude": "-90.06876183889936",
    "latitude": "29.94069385101347",
    "geocoded_column": {
      "latitude": "29.94069385101347",
      "longitude": "-90.06876183889936"
    }
  },
  {
    "service_request": "2024-1154585",
    "request_type": "Trash/Recycling",
    "request_reason": "Request a Large Item Pick Up",
    "date_created": "2024-12-11T15:34:46.000",
    "date_modified": "2024-12-11T15:34:47.000",
    "request_status": "Pending",
    "responsible_agency": "Department of Sanitation",
    "final_address": "7521 Alabama St",
    "address_councildis": "D",
    "status": "Assigned to Contractor",
    "contractor": "Waste Pro",
    "rowid": "1154585",
    "final_x": "3695040.99216",
    "final_y": "558305.13462",
    "longitude": "-90.02434675700846",
    "latitude": "30.028726934574166",
    "geocoded_column": {
      "latitude": "30.028726934574166",
      "longitude": "-90.02434675700846"
    }
  },
  {
    "service_request": "2024-1154584",
    "request_type": "Streetlights",
    "request_reason": "Streetlight Outage/Malfunction",
    "date_created": "2024-12-11T15:34:13.000",
    "date_modified": "2024-12-11T15:34:14.000",
    "request_status": "Pending",
    "responsible_agency": "Department of Public Works",
    "final_address": "4801 Cardenas Dr",
    "address_councildis": "E",
    "status": "Pending",
    "contractor": "Legacy Professional Services",
    "rowid": "1154584",
    "final_x": "3713735.63864",
    "final_y": "556539.511962",
    "longitude": "-89.96533969716495",
    "latitude": "30.02327169989071",
    "geocoded_column": {
      "latitude": "30.02327169989071",
      "longitude": "-89.96533969716495"
    }
  },
  {
    "service_request": "2024-1154583",
    "request_type": "Trash/Recycling",
    "request_reason": "Repair Trash Cart",
    "date_created": "2024-12-11T15:31:35.000",
    "date_modified": "2024-12-11T15:31:36.000",
    "request_status": "Pending",
    "responsible_agency": "Department of Sanitation",
    "final_address": "2616 State St",
    "address_councildis": "A",
    "status": "Assigned to Contractor",
    "contractor": "IV Waste",
    "rowid": "1154583",
    "final_x": "3666910.1097",
    "final_y": "526262.61395",
    "longitude": "-90.11431672333512",
    "latitude": "29.941474496789382",
    "geocoded_column": {
      "latitude": "29.941474496789382",
      "longitude": "-90.11431672333512"
    }
  },
  {
    "service_request": "2024-1154582",
    "request_type": "Trash/Recycling",
    "request_reason": "Request a Large Item Pick Up",
    "date_created": "2024-12-11T15:29:32.000",
    "date_modified": "2024-12-11T15:29:33.000",
    "request_status": "Pending",
    "responsible_agency": "Department of Sanitation",
    "final_address": "3430 Bacchus Dr",
    "address_councildis": "C",
    "status": "Assigned to Contractor",
    "contractor": "Richards Disposal",
    "rowid": "1154582",
    "final_x": "3710207.33489",
    "final_y": "518029.561526",
    "longitude": "-89.97792765085347",
    "latitude": "29.91749894434082",
    "geocoded_column": {
      "latitude": "29.91749894434082",
      "longitude": "-89.97792765085347"
    }
  },
  {
    "service_request": "2024-1154581",
    "request_type": "Roads and Streets",
    "request_reason": "Pothole",
    "date_created": "2024-12-11T15:28:21.000",
    "date_modified": "2024-12-11T15:28:21.000",
    "request_status": "Pending",
    "responsible_agency": "Department of Public Works",
    "final_address": "6100 BLK General Haig St",
    "address_councildis": "A",
    "status": "Pending",
    "rowid": "1154581",
    "final_x": "3670617.17349",
    "final_y": "548074.315712",
    "longitude": "-90.1018726701945",
    "latitude": "30.00134037680728",
    "geocoded_column": {
      "latitude": "30.00134037680728",
      "longitude": "-90.1018726701945"
    }
  },
  {
    "service_request": "2024-1154580",
    "request_type": "Abandoned Vehicles",
    "request_reason": "Abandoned/Junk Vehicles",
    "date_created": "2024-12-11T15:26:52.000",
    "date_modified": "2024-12-11T15:26:53.000",
    "request_status": "Pending",
    "responsible_agency": "Department of Public Works",
    "final_address": "7341 Onyx St",
    "address_councildis": "D",
    "status": "Pending",
    "rowid": "1154580",
    "final_x": "3668999.64622",
    "final_y": "555892.057561",
    "longitude": "-90.106718222054",
    "latitude": "30.022884116753144",
    "geocoded_column": {
      "latitude": "30.022884116753144",
      "longitude": "-90.106718222054"
    }
  },
  {
    "service_request": "2024-1154579",
    "request_type": "Trash/Recycling",
    "request_reason": "Damaged Caused By Contractor",
    "date_created": "2024-12-11T15:26:26.000",
    "date_modified": "2024-12-11T15:26:27.000",
    "request_status": "Pending",
    "responsible_agency": "Department of Sanitation",
    "final_address": "2616 State St",
    "address_councildis": "A",
    "status": "Assigned to Contractor",
    "contractor": "IV Waste",
    "rowid": "1154579",
    "final_x": "3666910.1097",
    "final_y": "526262.61395",
    "longitude": "-90.11431672333512",
    "latitude": "29.941474496789382",
    "geocoded_column": {
      "latitude": "29.941474496789382",
      "longitude": "-90.11431672333512"
    }
  },
  {
    "service_request": "2024-1154578",
    "request_type": "Trash/Recycling",
    "request_reason": "Missed Trash Pick-Up",
    "date_created": "2024-12-11T15:21:53.000",
    "date_modified": "2024-12-11T15:22:12.000",
    "request_status": "Pending",
    "responsible_agency": "Department of Sanitation",
    "final_address": "2026 Egania St",
    "address_councildis": "E",
    "status": "Assigned to Contractor",
    "contractor": "Waste Pro",
    "rowid": "1154578",
    "final_x": "3697773.40803",
    "final_y": "537669.896584",
    "longitude": "-90.01646187714186",
    "latitude": "29.971901576179786",
    "geocoded_column": {
      "latitude": "29.971901576179786",
      "longitude": "-90.01646187714186"
    }
  },
  {
    "service_request": "2024-1154577",
    "request_type": "Trash/Recycling",
    "request_reason": "Request a Large Item Pick Up",
    "date_created": "2024-12-11T15:21:31.000",
    "date_modified": "2024-12-11T15:21:32.000",
    "request_status": "Pending",
    "responsible_agency": "Department of Sanitation",
    "final_address": "7145 Downman Rd",
    "address_councildis": "D",
    "status": "Assigned to Contractor",
    "contractor": "Waste Pro",
    "rowid": "1154577",
    "final_x": "3695294.48867",
    "final_y": "556839.897242",
    "longitude": "-90.02359864589498",
    "latitude": "30.024690123887616",
    "geocoded_column": {
      "latitude": "30.024690123887616",
      "longitude": "-90.02359864589498"
    }
  },
  {
    "service_request": "2024-1154576",
    "request_type": "Trash/Recycling",
    "request_reason": "Repair Trash Cart",
    "date_created": "2024-12-11T15:17:55.000",
    "date_modified": "2024-12-11T15:17:56.000",
    "request_status": "Pending",
    "responsible_agency": "Department of Sanitation",
    "final_address": "1008 Flanders St",
    "address_councildis": "C",
    "status": "Assigned to Contractor",
    "contractor": "Richards Disposal",
    "rowid": "1154576",
    "final_x": "3696827.75779",
    "final_y": "527693.486975",
    "longitude": "-90.01980955285966",
    "latitude": "29.944499823008446",
    "geocoded_column": {
      "latitude": "29.944499823008446",
      "longitude": "-90.01980955285966"
    }
  },
  {
    "service_request": "2024-1154575",
    "request_type": "Drainage",
    "request_reason": "Catch Basin Clogged",
    "date_created": "2024-12-11T15:16:52.000",
    "date_modified": "2024-12-11T15:16:52.000",
    "request_status": "Pending",
    "responsible_agency": "Department of Public Works",
    "final_address": "1415 Nashville Ave",
    "address_councildis": "A",
    "status": "Pending",
    "rowid": "1154575",
    "final_x": "3666063.34528",
    "final_y": "521127.906745",
    "longitude": "-90.11716219868727",
    "latitude": "29.927380430600902",
    "geocoded_column": {
      "latitude": "29.927380430600902",
      "longitude": "-90.11716219868727"
    }
  },
  {
    "service_request": "2024-1154574",
    "request_type": "Trash/Recycling",
    "request_reason": "Repair Trash Cart",
    "date_created": "2024-12-11T15:16:51.000",
    "date_modified": "2024-12-11T15:16:52.000",
    "request_status": "Pending",
    "responsible_agency": "Department of Sanitation",
    "final_address": "41 E Blue Ridge Ct",
    "address_councildis": "E",
    "status": "Assigned to Contractor",
    "contractor": "Waste Pro",
    "rowid": "1154574",
    "final_x": "3714171.97611",
    "final_y": "567522.141924",
    "longitude": "-89.96354612923466",
    "latitude": "30.05345518347854",
    "geocoded_column": {
      "latitude": "30.05345518347854",
      "longitude": "-89.96354612923466"
    }
  },
  {
    "service_request": "2024-1154573",
    "request_type": "Street and Traffic Signs",
    "request_reason": "Street Name Sign Damaged or Missing",
    "date_created": "2024-12-11T15:15:14.000",
    "date_modified": "2024-12-11T15:15:15.000",
    "request_status": "Pending",
    "responsible_agency": "Department of Public Works",
    "final_address": "BAUDIN ST & S PIERCE ST",
    "address_councildis": "A",
    "status": "Pending",
    "rowid": "1154573",
    "final_x": "3670508.1",
    "final_y": "536774.98",
    "longitude": "-90.10260064679383",
    "latitude": "29.9702742912356",
    "geocoded_column": {
      "latitude": "29.9702742912356",
      "longitude": "-90.10260064679383"
    }
  },
  {
    "service_request": "2024-1154572",
    "request_type": "Abandoned Vehicles",
    "request_reason": "Abandoned/Junk Vehicles",
    "date_created": "2024-12-11T15:15:08.000",
    "date_modified": "2024-12-11T15:17:16.000",
    "request_status": "Pending",
    "responsible_agency": "Department of Public Works",
    "final_address": "1600 BLK Saint Thomas St",
    "address_councildis": "B",
    "status": "Pending",
    "rowid": "1154572",
    "final_x": "3681398.10075",
    "final_y": "522214.000635",
    "longitude": "-90.06871639249725",
    "latitude": "29.929910387989512",
    "geocoded_column": {
      "latitude": "29.929910387989512",
      "longitude": "-90.06871639249725"
    }
  },
  {
    "service_request": "2024-1154571",
    "request_type": "Road Striping",
    "request_reason": "Lane Striping or other Pavement Markings",
    "date_created": "2024-12-11T15:13:50.000",
    "date_modified": "2024-12-11T15:13:51.000",
    "request_status": "Pending",
    "responsible_agency": "Department of Public Works",
    "final_address": "MOSS ST & GRAND ROUTE ST JOHN",
    "address_councildis": "A",
    "status": "Pending",
    "rowid": "1154571",
    "final_x": "3675385.8",
    "final_y": "540337.48",
    "longitude": "-90.08707396030022",
    "latitude": "29.97992499086232",
    "geocoded_column": {
      "latitude": "29.97992499086232",
      "longitude": "-90.08707396030022"
    }
  },
  {
    "service_request": "2024-1154570",
    "request_type": "Trash/Recycling",
    "request_reason": "Replace Recycling Cart",
    "date_created": "2024-12-11T15:11:00.000",
    "date_modified": "2024-12-11T15:11:00.000",
    "request_status": "Pending",
    "responsible_agency": "Department of Sanitation",
    "final_address": "3724 Laurel St",
    "address_councildis": "B",
    "status": "Pending",
    "rowid": "1154570",
    "final_x": "3673646.20148",
    "final_y": "518316.643126",
    "longitude": "-90.09332101098882",
    "latitude": "29.91942687751849",
    "geocoded_column": {
      "latitude": "29.91942687751849",
      "longitude": "-90.09332101098882"
    }
  },
  {
    "service_request": "2024-1154569",
    "request_type": "Trash/Recycling",
    "request_reason": "Order Recycling Cart",
    "date_created": "2024-12-11T15:10:54.000",
    "date_modified": "2024-12-11T15:10:55.000",
    "request_status": "Pending",
    "responsible_agency": "Department of Sanitation",
    "final_address": "8236 Willow St",
    "address_councildis": "A",
    "status": "Pending",
    "rowid": "1154569",
    "final_x": "3661922.39047",
    "final_y": "529307.745985",
    "longitude": "-90.12996304460407",
    "latitude": "29.94999259917115",
    "geocoded_column": {
      "latitude": "29.94999259917115",
      "longitude": "-90.12996304460407"
    }
  },
  {
    "service_request": "2024-1154568",
    "request_type": "Trash/Recycling",
    "request_reason": "MIssed Recycling Pick-Up",
    "date_created": "2024-12-11T15:10:27.000",
    "date_modified": "2024-12-11T17:19:10.000",
    "case_close_date": "2024-12-11T11:19:10.000",
    "request_status": "Closed",
    "responsible_agency": "Department of Sanitation",
    "final_address": "2045 Mirabeau Ave",
    "address_councildis": "D",
    "status": "Invalid Request",
    "contractor": "IV Waste",
    "contractor_action": "Invalid Request",
    "rowid": "1154568",
    "final_x": "3682757.66882",
    "final_y": "550720.759061",
    "longitude": "-90.0634271242006",
    "latitude": "30.008252792131966",
    "geocoded_column": {
      "latitude": "30.008252792131966",
      "longitude": "-90.0634271242006"
    }
  },
  {
    "service_request": "2024-1154567",
    "request_type": "Trash/Recycling",
    "request_reason": "Repair Trash Cart",
    "date_created": "2024-12-11T15:06:49.000",
    "date_modified": "2024-12-11T15:06:51.000",
    "request_status": "Pending",
    "responsible_agency": "Department of Sanitation",
    "final_address": "411 S Hennessey St",
    "address_councildis": "A",
    "status": "Assigned to Contractor",
    "contractor": "IV Waste",
    "rowid": "1154567",
    "final_x": "3669396.6939",
    "final_y": "537859.338121",
    "longitude": "-90.10607391854374",
    "latitude": "29.973288689484594",
    "geocoded_column": {
      "latitude": "29.973288689484594",
      "longitude": "-90.10607391854374"
    }
  },
  {
    "service_request": "2024-1154566",
    "request_type": "Drainage",
    "request_reason": "Drainage Manhole Cover Missing or Damaged",
    "date_created": "2024-12-11T15:05:14.000",
    "date_modified": "2024-12-11T15:06:56.000",
    "request_status": "Pending",
    "responsible_agency": "Department of Public Works",
    "final_address": "N GAYOSO ST & ORLEANS AVE",
    "address_councildis": "A",
    "status": "Pending",
    "rowid": "1154566",
    "final_x": "3675791.6",
    "final_y": "537780.18",
    "longitude": "-90.08588020773782",
    "latitude": "29.972881149612476",
    "geocoded_column": {
      "latitude": "29.972881149612476",
      "longitude": "-90.08588020773782"
    }
  },
  {
    "service_request": "2024-1154565",
    "request_type": "Abandoned Vehicles",
    "request_reason": "Abandoned/Junk Vehicles",
    "date_created": "2024-12-11T15:01:42.000",
    "date_modified": "2024-12-11T15:01:42.000",
    "request_status": "Pending",
    "responsible_agency": "Department of Public Works",
    "final_address": "BRUXELLES ST & FLORIDA AVE",
    "address_councildis": "D",
    "status": "Pending",
    "rowid": "1154565",
    "final_x": "3680303.7",
    "final_y": "544010.58",
    "longitude": "-90.07141344178635",
    "latitude": "29.989876738827977",
    "geocoded_column": {
      "latitude": "29.989876738827977",
      "longitude": "-90.07141344178635"
    }
  },
  {
    "service_request": "2024-1154564",
    "request_type": "Abandoned Vehicles",
    "request_reason": "Abandoned/Junk Vehicles",
    "date_created": "2024-12-11T14:58:16.000",
    "date_modified": "2024-12-11T14:58:16.000",
    "request_status": "Pending",
    "responsible_agency": "Department of Public Works",
    "final_address": "REPUBLIC ST & FLORIDA AVE",
    "address_councildis": "D",
    "status": "Pending",
    "rowid": "1154564",
    "final_x": "3680599.0",
    "final_y": "543896.88",
    "longitude": "-90.07048462798147",
    "latitude": "29.98955515825678",
    "geocoded_column": {
      "latitude": "29.98955515825678",
      "longitude": "-90.07048462798147"
    }
  },
  {
    "service_request": "2024-1154563",
    "request_type": "Trash/Recycling",
    "request_reason": "Request a Large Item Pick Up",
    "date_created": "2024-12-11T14:45:32.000",
    "date_modified": "2024-12-11T14:45:34.000",
    "request_status": "Pending",
    "responsible_agency": "Department of Sanitation",
    "final_address": "4164 St Ann St",
    "address_councildis": "A",
    "status": "Assigned to Contractor",
    "contractor": "IV Waste",
    "rowid": "1154563",
    "final_x": "3672229.53806",
    "final_y": "540720.091915",
    "longitude": "-90.09702972157375",
    "latitude": "29.981071057597585",
    "geocoded_column": {
      "latitude": "29.981071057597585",
      "longitude": "-90.09702972157375"
    }
  },
  {
    "service_request": "2024-1154562",
    "request_type": "Street and Traffic Signs",
    "request_reason": "Stop Sign Missing or Damaged",
    "date_created": "2024-12-11T14:41:14.000",
    "date_modified": "2024-12-11T14:41:14.000",
    "request_status": "Pending",
    "responsible_agency": "Department of Public Works",
    "final_address": "7400 BLK Hampson St",
    "address_councildis": "A",
    "status": "Pending",
    "rowid": "1154562",
    "final_x": "3662535.41407",
    "final_y": "525510.517992",
    "longitude": "-90.12815353939237",
    "latitude": "29.93953371884251",
    "geocoded_column": {
      "latitude": "29.93953371884251",
      "longitude": "-90.12815353939237"
    }
  },
  {
    "service_request": "2024-1154561",
    "request_type": "Trash/Recycling",
    "request_reason": "Dead Animal Pick Up",
    "date_created": "2024-12-11T14:35:05.000",
    "date_modified": "2024-12-11T14:35:07.000",
    "request_status": "Pending",
    "responsible_agency": "Department of Sanitation",
    "final_address": "1717 Third St",
    "address_councildis": "B",
    "status": "Assigned to Contractor",
    "contractor": "IV Waste",
    "rowid": "1154561",
    "final_x": "3676168.58779",
    "final_y": "523349.677179",
    "longitude": "-90.0851860415332",
    "latitude": "29.933190792724414",
    "geocoded_column": {
      "latitude": "29.933190792724414",
      "longitude": "-90.0851860415332"
    }
  },
  {
    "service_request": "2024-1154560",
    "request_type": "Street and Traffic Signs",
    "request_reason": "Disabled Parking Sign Missing or Damaged",
    "date_created": "2024-12-11T14:31:22.000",
    "date_modified": "2024-12-11T14:31:22.000",
    "request_status": "Pending",
    "responsible_agency": "Department of Public Works",
    "final_address": "517 Dumaine St",
    "address_councildis": "C",
    "status": "Pending",
    "rowid": "1154560",
    "final_x": "3683496.66537",
    "final_y": "532696.095108",
    "longitude": "-90.06172436654981",
    "latitude": "29.95866876830608",
    "geocoded_column": {
      "latitude": "29.95866876830608",
      "longitude": "-90.06172436654981"
    }
  },
  {
    "service_request": "2024-1154559",
    "request_type": "Streetlights",
    "request_reason": "Streetlight Outage/Malfunction",
    "date_created": "2024-12-11T14:30:49.000",
    "date_modified": "2024-12-11T14:30:50.000",
    "request_status": "Pending",
    "responsible_agency": "Department of Public Works",
    "final_address": "7617 Dominican St",
    "address_councildis": "A",
    "status": "Pending",
    "contractor": "Legacy Professional Services",
    "rowid": "1154559",
    "final_x": "3661293.55437",
    "final_y": "525238.644861",
    "longitude": "-90.13208327728184",
    "latitude": "29.93882201080379",
    "geocoded_column": {
      "latitude": "29.93882201080379",
      "longitude": "-90.13208327728184"
    }
  },
  {
    "service_request": "2024-1154558",
    "request_type": "Streetlights",
    "request_reason": "Streetlight Outage/Malfunction",
    "date_created": "2024-12-11T14:30:00.000",
    "date_modified": "2024-12-11T14:30:02.000",
    "request_status": "Pending",
    "responsible_agency": "Department of Public Works",
    "final_address": "118 Atlantic Ave",
    "address_councildis": "C",
    "status": "Pending",
    "contractor": "Legacy Professional Services",
    "rowid": "1154558",
    "final_x": "3688910.20316",
    "final_y": "531096.87437",
    "longitude": "-90.044686663638",
    "latitude": "29.954105161487973",
    "geocoded_column": {
      "latitude": "29.954105161487973",
      "longitude": "-90.044686663638"
    }
  },
  {
    "service_request": "2024-1154557",
    "request_type": "Trash/Recycling",
    "request_reason": "Request a Large Item Pick Up",
    "date_created": "2024-12-11T14:28:33.000",
    "date_modified": "2024-12-11T14:28:34.000",
    "request_status": "Pending",
    "responsible_agency": "Department of Sanitation",
    "final_address": "5169 Cameron Blvd",
    "address_councildis": "D",
    "status": "Assigned to Contractor",
    "contractor": "IV Waste",
    "rowid": "1154557",
    "final_x": "3682702.57423",
    "final_y": "552036.17391",
    "longitude": "-90.06355513184043",
    "latitude": "30.011871385263714",
    "geocoded_column": {
      "latitude": "30.011871385263714",
      "longitude": "-90.06355513184043"
    }
  },
  {
    "service_request": "2024-1154556",
    "request_type": "Roads and Streets",
    "request_reason": "Street Subsidence (Sinking)",
    "date_created": "2024-12-11T14:28:05.000",
    "date_modified": "2024-12-11T14:28:05.000",
    "request_status": "Pending",
    "responsible_agency": "Department of Public Works",
    "final_address": "118 Atlantic Ave",
    "address_councildis": "C",
    "status": "Pending",
    "rowid": "1154556",
    "final_x": "3688910.20316",
    "final_y": "531096.87437",
    "longitude": "-90.044686663638",
    "latitude": "29.954105161487973",
    "geocoded_column": {
      "latitude": "29.954105161487973",
      "longitude": "-90.044686663638"
    }
  },
  {
    "service_request": "2024-1154555",
    "request_type": "Roads and Streets",
    "request_reason": "Pothole",
    "date_created": "2024-12-11T14:27:46.000",
    "date_modified": "2024-12-11T14:27:46.000",
    "request_status": "Pending",
    "responsible_agency": "Department of Public Works",
    "final_address": "1504 Music St",
    "address_councildis": "C",
    "status": "Pending",
    "rowid": "1154555",
    "final_x": "3686690.25641",
    "final_y": "537997.277385",
    "longitude": "-90.05145258687577",
    "latitude": "29.973147339786614",
    "geocoded_column": {
      "latitude": "29.973147339786614",
      "longitude": "-90.05145258687577"
    }
  },
  {
    "service_request": "2024-1154554",
    "request_type": "Property Maintenance",
    "request_reason": "Property Maintenance",
    "date_created": "2024-12-11T14:27:09.000",
    "date_modified": "2024-12-11T14:27:09.000",
    "request_status": "Pending",
    "responsible_agency": "Department of Code Enforcement",
    "final_address": "2132 Second St",
    "address_councildis": "B",
    "status": "Pending",
    "rowid": "1154554",
    "final_x": "3675541.91822",
    "final_y": "524731.476028",
    "longitude": "-90.0871169545331",
    "latitude": "29.93700904339676",
    "geocoded_column": {
      "latitude": "29.93700904339676",
      "longitude": "-90.0871169545331"
    }
  },
  {
    "service_request": "2024-1154553",
    "request_type": "Trash/Recycling",
    "request_reason": "Replace Trash Cart",
    "date_created": "2024-12-11T14:23:12.000",
    "date_modified": "2024-12-11T14:23:13.000",
    "request_status": "Pending",
    "responsible_agency": "Department of Sanitation",
    "final_address": "3101 Behrman Hwy",
    "address_councildis": "C",
    "status": "Assigned to Contractor",
    "contractor": "Richards Disposal",
    "rowid": "1154553",
    "final_x": "3694536.37827",
    "final_y": "519039.719415",
    "longitude": "-90.02735548200847",
    "latitude": "29.920776945359993",
    "geocoded_column": {
      "latitude": "29.920776945359993",
      "longitude": "-90.02735548200847"
    }
  },
  {
    "service_request": "2024-1154552",
    "request_type": "Trash/Recycling",
    "request_reason": "Request a Large Item Pick Up",
    "date_created": "2024-12-11T14:22:54.000",
    "date_modified": "2024-12-11T14:22:55.000",
    "request_status": "Pending",
    "responsible_agency": "Department of Sanitation",
    "final_address": "2115 Peniston St",
    "address_councildis": "B",
    "status": "Assigned to Contractor",
    "contractor": "IV Waste",
    "rowid": "1154552",
    "final_x": "3672471.85179",
    "final_y": "523000.174075",
    "longitude": "-90.09686832407532",
    "latitude": "29.9323399783098",
    "geocoded_column": {
      "latitude": "29.9323399783098",
      "longitude": "-90.09686832407532"
    }
  },
  {
    "service_request": "2024-1154551",
    "request_type": "Trash/Recycling",
    "request_reason": "Request a Large Item Pick Up",
    "date_created": "2024-12-11T14:21:18.000",
    "date_modified": "2024-12-11T14:21:19.000",
    "request_status": "Pending",
    "responsible_agency": "Department of Sanitation",
    "final_address": "5210 Dauphine St",
    "address_councildis": "E",
    "status": "Assigned to Contractor",
    "contractor": "Waste Pro",
    "rowid": "1154551",
    "final_x": "3696305.27485",
    "final_y": "532947.271172",
    "longitude": "-90.02126923503452",
    "latitude": "29.95896234788071",
    "geocoded_column": {
      "latitude": "29.95896234788071",
      "longitude": "-90.02126923503452"
    }
  },
  {
    "service_request": "2024-1154550",
    "request_type": "Trash/Recycling",
    "request_reason": "Request a Large Item Pick Up",
    "date_created": "2024-12-11T14:18:45.000",
    "date_modified": "2024-12-11T14:18:46.000",
    "request_status": "Pending",
    "responsible_agency": "Department of Sanitation",
    "final_address": "4900 Marque Dr",
    "address_councildis": "E",
    "status": "Assigned to Contractor",
    "contractor": "Waste Pro",
    "rowid": "1154550",
    "final_x": "3709894.0924",
    "final_y": "556691.806618",
    "longitude": "-89.97747234933159",
    "latitude": "30.023815998153285",
    "geocoded_column": {
      "latitude": "30.023815998153285",
      "longitude": "-89.97747234933159"
    }
  },
  {
    "service_request": "2024-1154549",
    "request_type": "Trash/Recycling",
    "request_reason": "Replace Recycling Cart",
    "date_created": "2024-12-11T14:18:14.000",
    "date_modified": "2024-12-11T14:18:14.000",
    "request_status": "Pending",
    "responsible_agency": "Department of Sanitation",
    "final_address": "5326 Wildair Dr",
    "address_councildis": "D",
    "status": "Pending",
    "rowid": "1154549",
    "final_x": "3681601.68124",
    "final_y": "552815.263254",
    "longitude": "-90.0670061148007",
    "latitude": "30.014047097277228",
    "geocoded_column": {
      "latitude": "30.014047097277228",
      "longitude": "-90.0670061148007"
    }
  },
  {
    "service_request": "2024-1154548",
    "request_type": "Trash/Recycling",
    "request_reason": "Request a Large Item Pick Up",
    "date_created": "2024-12-11T14:15:41.000",
    "date_modified": "2024-12-11T14:15:42.000",
    "request_status": "Pending",
    "responsible_agency": "Department of Sanitation",
    "final_address": "4818 Charmes Ct",
    "address_councildis": "E",
    "status": "Assigned to Contractor",
    "contractor": "Waste Pro",
    "rowid": "1154548",
    "final_x": "3726315.15046",
    "final_y": "561261.125726",
    "longitude": "-89.9254084178399",
    "latitude": "30.03583525627198",
    "geocoded_column": {
      "latitude": "30.03583525627198",
      "longitude": "-89.9254084178399"
    }
  },
  {
    "service_request": "2024-1154547",
    "request_type": "Trash/Recycling",
    "request_reason": "Illegal Dumping",
    "date_created": "2024-12-11T14:15:27.000",
    "date_modified": "2024-12-11T14:16:33.000",
    "request_status": "Pending",
    "responsible_agency": "Department of Sanitation",
    "final_address": "4432 Duplessis St",
    "address_councildis": "D",
    "status": "Pending",
    "rowid": "1154547",
    "final_x": "3678165.95579",
    "final_y": "548765.104531",
    "longitude": "-90.07800146328995",
    "latitude": "30.003014566299086",
    "geocoded_column": {
      "latitude": "30.003014566299086",
      "longitude": "-90.07800146328995"
    }
  },
  {
    "service_request": "2024-1154546",
    "request_type": "Trash/Recycling",
    "request_reason": "Illegal Dumping",
    "date_created": "2024-12-11T14:09:56.000",
    "date_modified": "2024-12-11T14:09:56.000",
    "request_status": "Pending",
    "responsible_agency": "Department of Sanitation",
    "final_address": "6TH ST & DRYADES ST",
    "address_councildis": "B",
    "status": "Pending",
    "rowid": "1154546",
    "final_x": "3674899.2",
    "final_y": "523158.98",
    "longitude": "-90.08919995720501",
    "latitude": "29.932704396878684",
    "geocoded_column": {
      "latitude": "29.932704396878684",
      "longitude": "-90.08919995720501"
    }
  },
  {
    "service_request": "2024-1154545",
    "request_type": "Abandoned Vehicles",
    "request_reason": "Abandoned/Junk Vehicles",
    "date_created": "2024-12-11T14:09:54.000",
    "date_modified": "2024-12-11T14:09:54.000",
    "request_status": "Pending",
    "responsible_agency": "Department of Public Works",
    "final_address": "404 Millaudon St",
    "address_councildis": "A",
    "status": "Pending",
    "rowid": "1154545",
    "final_x": "3661922.85747",
    "final_y": "524705.322492",
    "longitude": "-90.13011416725678",
    "latitude": "29.937337387568945",
    "geocoded_column": {
      "latitude": "29.937337387568945",
      "longitude": "-90.13011416725678"
    }
  },
  {
    "service_request": "2024-1154544",
    "request_type": "Roads and Streets",
    "request_reason": "Street Subsidence (Sinking)",
    "date_created": "2024-12-11T14:09:30.000",
    "date_modified": "2024-12-11T14:31:57.000",
    "request_status": "Pending",
    "responsible_agency": "Department of Public Works",
    "final_address": "800 BLK Tchoupitoulas St",
    "address_councildis": "B",
    "status": "Inspected",
    "rowid": "1154544",
    "final_x": "3681715.43542",
    "final_y": "527400.465",
    "longitude": "-90.06753375282509",
    "latitude": "29.94416180737785",
    "geocoded_column": {
      "latitude": "29.94416180737785",
      "longitude": "-90.06753375282509"
    }
  },
  {
    "service_request": "2024-1154543",
    "request_type": "Streetlights",
    "request_reason": "Streetlight Outage/Malfunction",
    "date_created": "2024-12-11T14:08:34.000",
    "date_modified": "2024-12-11T14:08:35.000",
    "request_status": "Pending",
    "responsible_agency": "Department of Public Works",
    "final_address": "7670 Morel St",
    "address_councildis": "E",
    "status": "Pending",
    "contractor": "Legacy Professional Services",
    "rowid": "1154543",
    "final_x": "3718585.41689",
    "final_y": "572016.121",
    "longitude": "-89.94942500002938",
    "latitude": "30.06566594768728",
    "geocoded_column": {
      "latitude": "30.06566594768728",
      "longitude": "-89.94942500002938"
    }
  },
  {
    "service_request": "2024-1154542",
    "request_type": "Property Maintenance",
    "request_reason": "Property Maintenance",
    "date_created": "2024-12-11T14:08:10.000",
    "date_modified": "2024-12-11T14:08:11.000",
    "request_status": "Pending",
    "responsible_agency": "Department of Code Enforcement",
    "final_address": "1768 Gentilly Blvd",
    "address_councildis": "D",
    "status": "Pending",
    "rowid": "1154542",
    "final_x": "3678732.7421",
    "final_y": "541956.710924",
    "longitude": "-90.07644683488815",
    "latitude": "29.98427679455081",
    "geocoded_column": {
      "latitude": "29.98427679455081",
      "longitude": "-90.07644683488815"
    }
  },
  {
    "service_request": "2024-1154541",
    "request_type": "Trash/Recycling",
    "request_reason": "Order Trash Cart",
    "date_created": "2024-12-11T14:06:02.000",
    "date_modified": "2024-12-11T14:06:03.000",
    "request_status": "Pending",
    "responsible_agency": "Department of Sanitation",
    "final_address": "6024 Royal St",
    "address_councildis": "E",
    "status": "Assigned to Contractor",
    "contractor": "Waste Pro",
    "rowid": "1154541",
    "final_x": "3698763.35268",
    "final_y": "531915.380227",
    "longitude": "-90.01354481885078",
    "latitude": "29.95604739118185",
    "geocoded_column": {
      "latitude": "29.95604739118185",
      "longitude": "-90.01354481885078"
    }
  },
  {
    "service_request": "2024-1154540",
    "request_type": "Trash/Recycling",
    "request_reason": "Request a Large Item Pick Up",
    "date_created": "2024-12-11T14:04:27.000",
    "date_modified": "2024-12-11T14:29:08.000",
    "request_status": "Pending",
    "responsible_agency": "Department of Sanitation",
    "final_address": "817 Montegut St",
    "address_councildis": "C",
    "status": "Assigned to Contractor",
    "contractor": "IV Waste",
    "rowid": "1154540",
    "final_x": "3688216.0223",
    "final_y": "535147.994822",
    "longitude": "-90.04673496855628",
    "latitude": "29.965265787796472",
    "geocoded_column": {
      "latitude": "29.965265787796472",
      "longitude": "-90.04673496855628"
    }
  },
  {
    "service_request": "2024-1154539",
    "request_type": "Abandoned Vehicles",
    "request_reason": "Abandoned/Junk Vehicles",
    "date_created": "2024-12-11T14:03:08.000",
    "date_modified": "2024-12-11T14:03:08.000",
    "request_status": "Pending",
    "responsible_agency": "Department of Public Works",
    "final_address": "408 Millaudon St",
    "address_councildis": "A",
    "status": "Pending",
    "rowid": "1154539",
    "final_x": "3661940.74592",
    "final_y": "524723.758012",
    "longitude": "-90.13005708076412",
    "latitude": "29.937387562900504",
    "geocoded_column": {
      "latitude": "29.937387562900504",
      "longitude": "-90.13005708076412"
    }
  },
  {
    "service_request": "2024-1154538",
    "request_type": "Trash/Recycling",
    "request_reason": "Request a Large Item Pick Up",
    "date_created": "2024-12-11T14:02:57.000",
    "date_modified": "2024-12-11T14:02:58.000",
    "request_status": "Pending",
    "responsible_agency": "Department of Sanitation",
    "final_address": "6525 Brunswick Ct",
    "address_councildis": "C",
    "status": "Assigned to Contractor",
    "contractor": "Richards Disposal",
    "rowid": "1154538",
    "final_x": "3708116.91422",
    "final_y": "516882.534197",
    "longitude": "-89.98456849146216",
    "latitude": "29.914412844590277",
    "geocoded_column": {
      "latitude": "29.914412844590277",
      "longitude": "-89.98456849146216"
    }
  },
  {
    "service_request": "2024-1154537",
    "request_type": "Trash/Recycling",
    "request_reason": "Missed Trash Pick-Up",
    "date_created": "2024-12-11T13:56:46.000",
    "date_modified": "2024-12-11T14:42:15.000",
    "case_close_date": "2024-12-11T08:42:15.000",
    "request_status": "Closed",
    "responsible_agency": "Department of Sanitation",
    "final_address": "1234 Henry Clay Ave",
    "address_councildis": "A",
    "status": "Invalid Request",
    "contractor": "IV Waste",
    "contractor_action": "Invalid",
    "rowid": "1154537",
    "final_x": "3664327.06445",
    "final_y": "521120.367609",
    "longitude": "-90.12264347982506",
    "latitude": "29.92741025864685",
    "geocoded_column": {
      "latitude": "29.92741025864685",
      "longitude": "-90.12264347982506"
    }
  },
  {
    "service_request": "2024-1154536",
    "request_type": "Trash/Recycling",
    "request_reason": "Request a Large Item Pick Up",
    "date_created": "2024-12-11T13:50:23.000",
    "date_modified": "2024-12-11T13:50:25.000",
    "request_status": "Pending",
    "responsible_agency": "Department of Sanitation",
    "final_address": "2804 St Roch Ave",
    "address_councildis": "D",
    "status": "Assigned to Contractor",
    "contractor": "IV Waste",
    "rowid": "1154536",
    "final_x": "3685868.57417",
    "final_y": "543104.253837",
    "longitude": "-90.05386751975456",
    "latitude": "29.987214975129472",
    "geocoded_column": {
      "latitude": "29.987214975129472",
      "longitude": "-90.05386751975456"
    }
  },
  {
    "service_request": "2024-1154535",
    "request_type": "Trash/Recycling",
    "request_reason": "Request a Large Item Pick Up",
    "date_created": "2024-12-11T13:47:53.000",
    "date_modified": "2024-12-11T13:47:54.000",
    "request_status": "Pending",
    "responsible_agency": "Department of Sanitation",
    "final_address": "3624 Napoleon Ave",
    "address_councildis": "B",
    "status": "Assigned to Contractor",
    "contractor": "IV Waste",
    "rowid": "1154535",
    "final_x": "3670040.97562",
    "final_y": "528046.275199",
    "longitude": "-90.10437153909858",
    "latitude": "29.94628702747725",
    "geocoded_column": {
      "latitude": "29.94628702747725",
      "longitude": "-90.10437153909858"
    }
  },
  {
    "service_request": "2024-1154534",
    "request_type": "Trash/Recycling",
    "request_reason": "Request a Large Item Pick Up",
    "date_created": "2024-12-11T13:47:25.000",
    "date_modified": "2024-12-11T13:47:26.000",
    "request_status": "Pending",
    "responsible_agency": "Department of Sanitation",
    "final_address": "4615 Dryades St",
    "address_councildis": "B",
    "status": "Assigned to Contractor",
    "contractor": "IV Waste",
    "rowid": "1154534",
    "final_x": "3669850.70791",
    "final_y": "521909.729658",
    "longitude": "-90.10517995302638",
    "latitude": "29.929419118359128",
    "geocoded_column": {
      "latitude": "29.929419118359128",
      "longitude": "-90.10517995302638"
    }
  },
  {
    "service_request": "2024-1154533",
    "request_type": "Trash/Recycling",
    "request_reason": "Request a Large Item Pick Up",
    "date_created": "2024-12-11T13:44:14.000",
    "date_modified": "2024-12-11T13:44:15.000",
    "request_status": "Pending",
    "responsible_agency": "Department of Sanitation",
    "final_address": "2720 Jefferson Ave",
    "address_councildis": "A",
    "status": "Assigned to Contractor",
    "contractor": "IV Waste",
    "rowid": "1154533",
    "final_x": "3668122.00935",
    "final_y": "525462.555581",
    "longitude": "-90.11051746188517",
    "latitude": "29.939239087188394",
    "geocoded_column": {
      "latitude": "29.939239087188394",
      "longitude": "-90.11051746188517"
    }
  },
  {
    "service_request": "2024-1154532",
    "request_type": "Property Maintenance",
    "request_reason": "Property Maintenance",
    "date_created": "2024-12-11T13:43:24.000",
    "date_modified": "2024-12-11T13:43:26.000",
    "request_status": "Pending",
    "responsible_agency": "Department of Code Enforcement",
    "final_address": "1301 S Derbigny St",
    "address_councildis": "B",
    "status": "Pending",
    "rowid": "1154532",
    "final_x": "3675024.21384",
    "final_y": "528848.295616",
    "longitude": "-90.08861019143582",
    "latitude": "29.948344415377107",
    "geocoded_column": {
      "latitude": "29.948344415377107",
      "longitude": "-90.08861019143582"
    }
  },
  {
    "service_request": "2024-1154531",
    "request_type": "Property Maintenance",
    "request_reason": "Property Maintenance",
    "date_created": "2024-12-11T13:38:08.000",
    "date_modified": "2024-12-11T13:38:08.000",
    "request_status": "Pending",
    "responsible_agency": "Department of Code Enforcement",
    "final_address": "5506 Wickfield Dr",
    "address_councildis": "D",
    "status": "Pending",
    "rowid": "1154531",
    "final_x": "3681087.71567",
    "final_y": "552992.509527",
    "longitude": "-90.06862380378088",
    "latitude": "30.0145500684368",
    "geocoded_column": {
      "latitude": "30.0145500684368",
      "longitude": "-90.06862380378088"
    }
  },
  {
    "service_request": "2024-1154530",
    "request_type": "Trash/Recycling",
    "request_reason": "Request a Large Item Pick Up",
    "date_created": "2024-12-11T13:37:36.000",
    "date_modified": "2024-12-11T13:37:37.000",
    "request_status": "Pending",
    "responsible_agency": "Department of Sanitation",
    "final_address": "2343 Chippewa St",
    "address_councildis": "B",
    "status": "Assigned to Contractor",
    "contractor": "IV Waste",
    "rowid": "1154530",
    "final_x": "3679095.84527",
    "final_y": "520464.238776",
    "longitude": "-90.07604483278882",
    "latitude": "29.925168780310987",
    "geocoded_column": {
      "latitude": "29.925168780310987",
      "longitude": "-90.07604483278882"
    }
  },
  {
    "service_request": "2024-1154529",
    "request_type": "Trash/Recycling",
    "request_reason": "Missed Trash Pick-Up",
    "date_created": "2024-12-11T13:35:46.000",
    "date_modified": "2024-12-11T13:35:47.000",
    "request_status": "Pending",
    "responsible_agency": "Department of Sanitation",
    "final_address": "11211 N Idlewood Ct, New Orleans, Louisiana, 70128",
    "address_councildis": "E",
    "status": "Assigned to Contractor",
    "contractor": "Waste Pro",
    "rowid": "1154529",
    "final_x": "3716025.86207",
    "final_y": "560277.469149",
    "longitude": "-89.9579613954362",
    "latitude": "30.03347420878148",
    "geocoded_column": {
      "latitude": "30.03347420878148",
      "longitude": "-89.9579613954362"
    }
  },
  {
    "service_request": "2024-1154528",
    "request_type": "Trash/Recycling",
    "request_reason": "Repair Recycling Cart",
    "date_created": "2024-12-11T13:33:25.000",
    "date_modified": "2024-12-11T13:33:26.000",
    "request_status": "Pending",
    "responsible_agency": "Department of Sanitation",
    "final_address": "1217 Sumner St",
    "address_councildis": "C",
    "status": "Pending",
    "rowid": "1154528",
    "final_x": "3691020.15708",
    "final_y": "526854.454846",
    "longitude": "-90.03817572057089",
    "latitude": "29.94237455293828",
    "geocoded_column": {
      "latitude": "29.94237455293828",
      "longitude": "-90.03817572057089"
    }
  },
  {
    "service_request": "2024-1154527",
    "request_type": "Trash/Recycling",
    "request_reason": "Repair Trash Cart",
    "date_created": "2024-12-11T13:32:57.000",
    "date_modified": "2024-12-11T13:32:58.000",
    "request_status": "Pending",
    "responsible_agency": "Department of Sanitation",
    "final_address": "1217 Sumner St",
    "address_councildis": "C",
    "status": "Assigned to Contractor",
    "contractor": "Richards Disposal",
    "rowid": "1154527",
    "final_x": "3691020.15708",
    "final_y": "526854.454846",
    "longitude": "-90.03817572057089",
    "latitude": "29.94237455293828",
    "geocoded_column": {
      "latitude": "29.94237455293828",
      "longitude": "-90.03817572057089"
    }
  },
  {
    "service_request": "2024-1154526",
    "request_type": "Abandoned Vehicles",
    "request_reason": "Abandoned/Junk Vehicles",
    "date_created": "2024-12-11T13:30:59.000",
    "date_modified": "2024-12-11T13:31:00.000",
    "request_status": "Pending",
    "responsible_agency": "Department of Public Works",
    "final_address": "2600 BLK Charbonnet St",
    "address_councildis": "E",
    "status": "Pending",
    "rowid": "1154526",
    "final_x": "3700191.43357",
    "final_y": "539428.360235",
    "longitude": "-90.00876122016615",
    "latitude": "29.97666008104162",
    "geocoded_column": {
      "latitude": "29.97666008104162",
      "longitude": "-90.00876122016615"
    }
  },
  {
    "service_request": "2024-1154525",
    "request_type": "Abandoned Vehicles",
    "request_reason": "Abandoned/Junk Vehicles",
    "date_created": "2024-12-11T13:28:20.000",
    "date_modified": "2024-12-11T13:28:21.000",
    "request_status": "Pending",
    "responsible_agency": "Department of Public Works",
    "final_address": "2600 BLK Charbonnet St",
    "address_councildis": "E",
    "status": "Pending",
    "rowid": "1154525",
    "final_x": "3700191.43357",
    "final_y": "539428.360235",
    "longitude": "-90.00876122016615",
    "latitude": "29.97666008104162",
    "geocoded_column": {
      "latitude": "29.97666008104162",
      "longitude": "-90.00876122016615"
    }
  },
  {
    "service_request": "2024-1154524",
    "request_type": "Drainage",
    "request_reason": "Catch Basin Clogged",
    "date_created": "2024-12-11T13:27:04.000",
    "date_modified": "2024-12-11T13:27:05.000",
    "request_status": "Pending",
    "responsible_agency": "Department of Public Works",
    "final_address": "3625 St Charles Ave",
    "address_councildis": "B",
    "status": "Pending",
    "rowid": "1154524",
    "final_x": "3673202.58856",
    "final_y": "521201.762425",
    "longitude": "-90.09462282734651",
    "latitude": "29.927373224305274",
    "geocoded_column": {
      "latitude": "29.927373224305274",
      "longitude": "-90.09462282734651"
    }
  },
  {
    "service_request": "2024-1154523",
    "request_type": "Trash/Recycling",
    "request_reason": "Order Trash Cart",
    "date_created": "2024-12-11T13:26:06.000",
    "date_modified": "2024-12-11T13:26:07.000",
    "request_status": "Pending",
    "responsible_agency": "Department of Sanitation",
    "final_address": "2513 St Andrew St",
    "address_councildis": "B",
    "status": "Assigned to Contractor",
    "contractor": "IV Waste",
    "rowid": "1154523",
    "final_x": "3676012.14721",
    "final_y": "526796.713534",
    "longitude": "-90.08556141348032",
    "latitude": "29.942673697077264",
    "geocoded_column": {
      "latitude": "29.942673697077264",
      "longitude": "-90.08556141348032"
    }
  },
  {
    "service_request": "2024-1154522",
    "request_type": "Abandoned Vehicles",
    "request_reason": "Abandoned/Junk Vehicles",
    "date_created": "2024-12-11T13:25:43.000",
    "date_modified": "2024-12-11T13:25:44.000",
    "request_status": "Pending",
    "responsible_agency": "Department of Public Works",
    "final_address": "2600 BLK Charbonnet St",
    "address_councildis": "E",
    "status": "Pending",
    "rowid": "1154522",
    "final_x": "3700191.43357",
    "final_y": "539428.360235",
    "longitude": "-90.00876122016615",
    "latitude": "29.97666008104162",
    "geocoded_column": {
      "latitude": "29.97666008104162",
      "longitude": "-90.00876122016615"
    }
  },
  {
    "service_request": "2024-1154521",
    "request_type": "Trash/Recycling",
    "request_reason": "Request a Large Item Pick Up",
    "date_created": "2024-12-11T13:25:10.000",
    "date_modified": "2024-12-11T13:25:11.000",
    "request_status": "Pending",
    "responsible_agency": "Department of Sanitation",
    "final_address": "600 Ursulines Ave",
    "address_councildis": "C",
    "status": "Assigned to Contractor",
    "contractor": "Empire Services",
    "rowid": "1154521",
    "final_x": "3683661.1798",
    "final_y": "533413.18106",
    "longitude": "-90.06117973355101",
    "latitude": "29.960635487949617",
    "geocoded_column": {
      "latitude": "29.960635487949617",
      "longitude": "-90.06117973355101"
    }
  },
  {
    "service_request": "2024-1154520",
    "request_type": "Trash/Recycling",
    "request_reason": "MIssed Recycling Pick-Up",
    "date_created": "2024-12-11T13:24:14.000",
    "date_modified": "2024-12-11T13:24:15.000",
    "request_status": "Pending",
    "responsible_agency": "Department of Sanitation",
    "final_address": "7823 Means Ave",
    "address_councildis": "E",
    "status": "Assigned to Contractor",
    "contractor": "Waste Pro",
    "rowid": "1154520",
    "final_x": "3707768.98654",
    "final_y": "565367.631778",
    "longitude": "-89.98386434947577",
    "latitude": "30.047740058798034",
    "geocoded_column": {
      "latitude": "30.047740058798034",
      "longitude": "-89.98386434947577"
    }
  },
  {
    "service_request": "2024-1154519",
    "request_type": "Abandoned Vehicles",
    "request_reason": "Abandoned/Junk Vehicles",
    "date_created": "2024-12-11T13:19:05.000",
    "date_modified": "2024-12-11T13:19:06.000",
    "request_status": "Pending",
    "responsible_agency": "Department of Public Works",
    "final_address": "3937 Camp St",
    "address_councildis": "B",
    "status": "Pending",
    "rowid": "1154519",
    "final_x": "3672683.17889",
    "final_y": "519378.176759",
    "longitude": "-90.09632462350969",
    "latitude": "29.922374377512295",
    "geocoded_column": {
      "latitude": "29.922374377512295",
      "longitude": "-90.09632462350969"
    }
  },
  {
    "service_request": "2024-1154518",
    "request_type": "Abandoned Vehicles",
    "request_reason": "Abandoned/Junk Vehicles",
    "date_created": "2024-12-11T13:16:56.000",
    "date_modified": "2024-12-11T13:16:57.000",
    "request_status": "Pending",
    "responsible_agency": "Department of Public Works",
    "final_address": "906 N Rampart St",
    "address_councildis": "C",
    "status": "Pending",
    "rowid": "1154518",
    "final_x": "3681922.30159",
    "final_y": "533969.117509",
    "longitude": "-90.0666513562608",
    "latitude": "29.96221709262543",
    "geocoded_column": {
      "latitude": "29.96221709262543",
      "longitude": "-90.0666513562608"
    }
  },
  {
    "service_request": "2024-1154517",
    "request_type": "Trash/Recycling",
    "request_reason": "Replace Trash Cart",
    "date_created": "2024-12-11T13:12:52.000",
    "date_modified": "2024-12-11T13:12:53.000",
    "request_status": "Pending",
    "responsible_agency": "Department of Sanitation",
    "final_address": "1028 St Maurice Ave",
    "address_councildis": "E",
    "status": "Assigned to Contractor",
    "contractor": "Waste Pro",
    "rowid": "1154517",
    "final_x": "3699710.708",
    "final_y": "532960.922692",
    "longitude": "-90.01051530065085",
    "latitude": "29.958892223874308",
    "geocoded_column": {
      "latitude": "29.958892223874308",
      "longitude": "-90.01051530065085"
    }
  },
  {
    "service_request": "2024-1154516",
    "request_type": "Alley Ways",
    "request_reason": "Alley Way Regrading",
    "date_created": "2024-12-11T13:12:10.000",
    "date_modified": "2024-12-11T13:12:11.000",
    "request_status": "Pending",
    "responsible_agency": "Department of Public Works",
    "final_address": "6464 Canal Blvd",
    "address_councildis": "A",
    "status": "Pending",
    "rowid": "1154516",
    "final_x": "3668612.18145",
    "final_y": "550567.877716",
    "longitude": "-90.10812241228263",
    "latitude": "30.00825590088546",
    "geocoded_column": {
      "latitude": "30.00825590088546",
      "longitude": "-90.10812241228263"
    }
  },
  {
    "service_request": "2024-1154515",
    "request_type": "Trash/Recycling",
    "request_reason": "Request a Large Item Pick Up",
    "date_created": "2024-12-11T13:11:01.000",
    "date_modified": "2024-12-11T13:11:02.000",
    "request_status": "Pending",
    "responsible_agency": "Department of Sanitation",
    "final_address": "5439 Royal St",
    "address_councildis": "E",
    "status": "Assigned to Contractor",
    "contractor": "Waste Pro",
    "rowid": "1154515",
    "final_x": "3696992.39127",
    "final_y": "532472.374212",
    "longitude": "-90.01911670500233",
    "latitude": "29.957634897024995",
    "geocoded_column": {
      "latitude": "29.957634897024995",
      "longitude": "-90.01911670500233"
    }
  },
  {
    "service_request": "2024-1154514",
    "request_type": "Trash/Recycling",
    "request_reason": "Order Trash Cart",
    "date_created": "2024-12-11T13:08:06.000",
    "date_modified": "2024-12-11T13:08:07.000",
    "request_status": "Pending",
    "responsible_agency": "Department of Sanitation",
    "final_address": "3012 St Roch Ave",
    "address_councildis": "D",
    "status": "Assigned to Contractor",
    "contractor": "IV Waste",
    "rowid": "1154514",
    "final_x": "3685778.29052",
    "final_y": "543887.295246",
    "longitude": "-90.054125080802",
    "latitude": "29.989370832147866",
    "geocoded_column": {
      "latitude": "29.989370832147866",
      "longitude": "-90.054125080802"
    }
  },
  {
    "service_request": "2024-1154513",
    "request_type": "Trash/Recycling",
    "request_reason": "Repair Trash Cart",
    "date_created": "2024-12-11T13:07:31.000",
    "date_modified": "2024-12-11T13:07:32.000",
    "request_status": "Pending",
    "responsible_agency": "Department of Sanitation",
    "final_address": "1535 Octavia St",
    "address_councildis": "A",
    "status": "Assigned to Contractor",
    "contractor": "IV Waste",
    "rowid": "1154513",
    "final_x": "3667038.77991",
    "final_y": "521320.761017",
    "longitude": "-90.1140765057204",
    "latitude": "29.9278822151392",
    "geocoded_column": {
      "latitude": "29.9278822151392",
      "longitude": "-90.1140765057204"
    }
  },
  {
    "service_request": "2024-1154512",
    "request_type": "Abandoned Vehicles",
    "request_reason": "Abandoned/Junk Vehicles",
    "date_created": "2024-12-11T13:06:19.000",
    "date_modified": "2024-12-11T13:06:20.000",
    "request_status": "Pending",
    "responsible_agency": "Department of Public Works",
    "final_address": "900 Bartholomew St",
    "address_councildis": "C",
    "status": "Pending",
    "rowid": "1154512",
    "final_x": "3691580.30179",
    "final_y": "534565.215429",
    "longitude": "-90.03613162057597",
    "latitude": "29.963559050399382",
    "geocoded_column": {
      "latitude": "29.963559050399382",
      "longitude": "-90.03613162057597"
    }
  },
  {
    "service_request": "2024-1154511",
    "request_type": "Trash/Recycling",
    "request_reason": "Order Trash Cart",
    "date_created": "2024-12-11T13:04:50.000",
    "date_modified": "2024-12-11T13:04:51.000",
    "request_status": "Pending",
    "responsible_agency": "Department of Sanitation",
    "final_address": "4412 Canal St",
    "address_councildis": "A",
    "status": "Assigned to Contractor",
    "contractor": "IV Waste",
    "rowid": "1154511",
    "final_x": "3669837.80526",
    "final_y": "539190.04865",
    "longitude": "-90.10463572985543",
    "latitude": "29.976934696532883",
    "geocoded_column": {
      "latitude": "29.976934696532883",
      "longitude": "-90.10463572985543"
    }
  },
  {
    "service_request": "2024-1154510",
    "request_type": "Trash/Recycling",
    "request_reason": "Repair Trash Cart",
    "date_created": "2024-12-11T13:04:30.000",
    "date_modified": "2024-12-11T13:04:31.000",
    "request_status": "Pending",
    "responsible_agency": "Department of Sanitation",
    "final_address": "7229 Cohn St",
    "address_councildis": "A",
    "status": "Assigned to Contractor",
    "contractor": "IV Waste",
    "rowid": "1154510",
    "final_x": "3665375.67341",
    "final_y": "528764.663488",
    "longitude": "-90.1190775485147",
    "latitude": "29.948399124923053",
    "geocoded_column": {
      "latitude": "29.948399124923053",
      "longitude": "-90.1190775485147"
    }
  },
  {
    "service_request": "2024-1154509",
    "request_type": "Trash/Recycling",
    "request_reason": "Request a Large Item Pick Up",
    "date_created": "2024-12-11T13:03:25.000",
    "date_modified": "2024-12-11T14:34:13.000",
    "case_close_date": "2024-12-11T08:34:13.000",
    "request_status": "Closed",
    "responsible_agency": "Department of Sanitation",
    "final_address": "2540 pauger",
    "address_councildis": "D",
    "status": "Duplicate Request",
    "contractor": "IV Waste",
    "contractor_action": "Invalid Request",
    "rowid": "1154509",
    "final_x": "3683597.74697",
    "final_y": "539110.115658",
    "longitude": "-90.06118031259548",
    "latitude": "29.97630202386948",
    "geocoded_column": {
      "latitude": "29.97630202386948",
      "longitude": "-90.06118031259548"
    }
  },
  {
    "service_request": "2024-1154508",
    "request_type": "Abandoned Vehicles",
    "request_reason": "Abandoned/Junk Vehicles",
    "date_created": "2024-12-11T13:02:44.000",
    "date_modified": "2024-12-11T13:02:45.000",
    "request_status": "Pending",
    "responsible_agency": "Department of Public Works",
    "final_address": "1500 BLK Desire St",
    "address_councildis": "D",
    "status": "Pending",
    "rowid": "1154508",
    "final_x": "3690599.09711",
    "final_y": "537384.946999",
    "longitude": "-90.03912957764216",
    "latitude": "29.97134282847214",
    "geocoded_column": {
      "latitude": "29.97134282847214",
      "longitude": "-90.03912957764216"
    }
  },
  {
    "service_request": "2024-1154507",
    "request_type": "Streetlights",
    "request_reason": "Streetlight Outage/Malfunction",
    "date_created": "2024-12-11T13:01:59.000",
    "date_modified": "2024-12-11T13:02:00.000",
    "request_status": "Pending",
    "responsible_agency": "Department of Public Works",
    "final_address": "224 Jane Pl",
    "address_councildis": "B",
    "status": "Pending",
    "contractor": "Legacy Professional Services",
    "rowid": "1154507",
    "final_x": "3674737.99425",
    "final_y": "534758.542598",
    "longitude": "-90.08931130544461",
    "latitude": "29.964604167546714",
    "geocoded_column": {
      "latitude": "29.964604167546714",
      "longitude": "-90.08931130544461"
    }
  },
  {
    "service_request": "2024-1154506",
    "request_type": "Roads and Streets",
    "request_reason": "Debris in Driving Lanes",
    "date_created": "2024-12-11T12:58:44.000",
    "date_modified": "2024-12-11T13:23:22.000",
    "request_status": "Pending",
    "responsible_agency": "Department of Public Works",
    "final_address": "1000 Dauphine St",
    "address_councildis": "C",
    "rowid": "1154506",
    "final_x": "3682687.10677",
    "final_y": "533793.019013",
    "longitude": "-90.06424237587893",
    "latitude": "29.961709612590717",
    "geocoded_column": {
      "latitude": "29.961709612590717",
      "longitude": "-90.06424237587893"
    }
  },
  {
    "service_request": "2024-1154505",
    "request_type": "Trash/Recycling",
    "request_reason": "Request a Large Item Pick Up",
    "date_created": "2024-12-11T12:57:28.000",
    "date_modified": "2024-12-11T12:58:03.000",
    "request_status": "Pending",
    "responsible_agency": "Department of Sanitation",
    "final_address": "4711 Gabriel Dr",
    "address_councildis": "E",
    "status": "Assigned to Contractor",
    "contractor": "Waste Pro",
    "rowid": "1154505",
    "final_x": "3708969.75537",
    "final_y": "555536.927001",
    "longitude": "-89.98043613104295",
    "latitude": "30.020670571884907",
    "geocoded_column": {
      "latitude": "30.020670571884907",
      "longitude": "-89.98043613104295"
    }
  },
  {
    "service_request": "2024-1154504",
    "request_type": "Trash/Recycling",
    "request_reason": "Request a Large Item Pick Up",
    "date_created": "2024-12-11T12:56:44.000",
    "date_modified": "2024-12-11T13:21:32.000",
    "request_status": "Pending",
    "responsible_agency": "Department of Sanitation",
    "final_address": "2540 Pauger St",
    "address_councildis": "D",
    "status": "Assigned to Contractor",
    "contractor": "IV Waste",
    "rowid": "1154504",
    "final_x": "3683597.74697",
    "final_y": "539110.115658",
    "longitude": "-90.06118031259548",
    "latitude": "29.97630202386948",
    "geocoded_column": {
      "latitude": "29.97630202386948",
      "longitude": "-90.06118031259548"
    }
  },
  {
    "service_request": "2024-1154503",
    "request_type": "Trash/Recycling",
    "request_reason": "Replace Trash Cart",
    "date_created": "2024-12-11T12:54:33.000",
    "date_modified": "2024-12-11T12:54:35.000",
    "request_status": "Pending",
    "responsible_agency": "Department of Sanitation",
    "final_address": "1026 St Maurice Ave",
    "address_councildis": "E",
    "status": "Assigned to Contractor",
    "contractor": "Waste Pro",
    "rowid": "1154503",
    "final_x": "3699701.7226",
    "final_y": "532943.680452",
    "longitude": "-90.0105443026389",
    "latitude": "29.958845099076424",
    "geocoded_column": {
      "latitude": "29.958845099076424",
      "longitude": "-90.0105443026389"
    }
  },
  {
    "service_request": "2024-1154502",
    "request_type": "Drainage",
    "request_reason": "Ditch and Culvert Maintenance",
    "date_created": "2024-12-11T12:53:00.000",
    "date_modified": "2024-12-11T12:53:00.000",
    "request_status": "Pending",
    "responsible_agency": "Department of Public Works",
    "final_address": "1203 Numa St",
    "address_councildis": "C",
    "status": "Pending",
    "rowid": "1154502",
    "final_x": "3691759.49244",
    "final_y": "526961.179134",
    "longitude": "-90.03583766616293",
    "latitude": "29.942645009040188",
    "geocoded_column": {
      "latitude": "29.942645009040188",
      "longitude": "-90.03583766616293"
    }
  },
  {
    "service_request": "2024-1154501",
    "request_type": "Drainage",
    "request_reason": "Ditch and Culvert Maintenance",
    "date_created": "2024-12-11T12:50:17.000",
    "date_modified": "2024-12-11T12:50:17.000",
    "request_status": "Pending",
    "responsible_agency": "Department of Public Works",
    "final_address": "1203 Numa St",
    "address_councildis": "C",
    "status": "Pending",
    "rowid": "1154501",
    "final_x": "3691759.49244",
    "final_y": "526961.179134",
    "longitude": "-90.03583766616293",
    "latitude": "29.942645009040188",
    "geocoded_column": {
      "latitude": "29.942645009040188",
      "longitude": "-90.03583766616293"
    }
  },
  {
    "service_request": "2024-1154500",
    "request_type": "Street and Traffic Signs",
    "request_reason": "Additional Signage Request",
    "date_created": "2024-12-11T12:38:35.000",
    "date_modified": "2024-12-11T12:39:12.000",
    "request_status": "Pending",
    "responsible_agency": "Department of Public Works",
    "final_address": "4765 America St",
    "address_councildis": "E",
    "status": "Pending",
    "rowid": "1154500",
    "final_x": "3699791.54807",
    "final_y": "554680.965528",
    "longitude": "-90.00946760708683",
    "latitude": "30.01861178052029",
    "geocoded_column": {
      "latitude": "30.01861178052029",
      "longitude": "-90.00946760708683"
    }
  },
  {
    "service_request": "2024-1154499",
    "request_type": "Streetlights",
    "request_reason": "Streetlight Outage/Malfunction",
    "date_created": "2024-12-11T12:37:28.000",
    "date_modified": "2024-12-11T12:37:29.000",
    "request_status": "Pending",
    "responsible_agency": "Department of Public Works",
    "final_address": "925 Frenchmen St",
    "address_councildis": "C",
    "status": "Pending",
    "contractor": "Legacy Professional Services",
    "rowid": "1154499",
    "final_x": "3684659.35196",
    "final_y": "535773.665223",
    "longitude": "-90.05794474146106",
    "latitude": "29.96709549543897",
    "geocoded_column": {
      "latitude": "29.96709549543897",
      "longitude": "-90.05794474146106"
    }
  },
  {
    "service_request": "2024-1154498",
    "request_type": "Trash/Recycling",
    "request_reason": "Request a Large Item Pick Up",
    "date_created": "2024-12-11T12:34:07.000",
    "date_modified": "2024-12-11T12:34:08.000",
    "request_status": "Pending",
    "responsible_agency": "Department of Sanitation",
    "final_address": "13100 Biscay St",
    "address_councildis": "E",
    "status": "Assigned to Contractor",
    "contractor": "Waste Pro",
    "rowid": "1154498",
    "final_x": "3724189.92582",
    "final_y": "561628.294047",
    "longitude": "-89.93211023277556",
    "latitude": "30.036916448454324",
    "geocoded_column": {
      "latitude": "30.036916448454324",
      "longitude": "-89.93211023277556"
    }
  },
  {
    "service_request": "2024-1154497",
    "request_type": "Trash/Recycling",
    "request_reason": "Illegal Dumping",
    "date_created": "2024-12-11T12:32:22.000",
    "date_modified": "2024-12-11T12:32:59.000",
    "case_close_date": "2024-12-11T06:32:59.000",
    "request_status": "Closed",
    "responsible_agency": "Department of Sanitation",
    "final_address": "1900 BLK N Johnson St",
    "address_councildis": "D",
    "status": "Resolved",
    "rowid": "1154497",
    "final_x": "3683065.06723",
    "final_y": "539481.116035",
    "longitude": "-90.06284968028763",
    "latitude": "29.97733839621652",
    "geocoded_column": {
      "latitude": "29.97733839621652",
      "longitude": "-90.06284968028763"
    }
  },
  {
    "service_request": "2024-1154496",
    "request_type": "Abandoned Vehicles",
    "request_reason": "Abandoned/Junk Vehicles",
    "date_created": "2024-12-11T12:26:49.000",
    "date_modified": "2024-12-11T12:26:49.000",
    "request_status": "Pending",
    "responsible_agency": "Department of Public Works",
    "final_address": "1031 N Claiborne Ave",
    "address_councildis": "D",
    "status": "Pending",
    "rowid": "1154496",
    "final_x": "3680526.29519",
    "final_y": "535780.014855",
    "longitude": "-90.07099673746013",
    "latitude": "29.96723880102201",
    "geocoded_column": {
      "latitude": "29.96723880102201",
      "longitude": "-90.07099673746013"
    }
  },