[
  {
    "service_request": "2023-1044043",
    "request_type": "Roads/Drainage",
    "request_reason": "Street Subsidence (Sinking)",
    "date_created": "2023-10-18T01:29:15.000",
    "date_modified": "2023-10-18T01:29:15.000",
    "request_status": "Pending",
    "responsible_agency": "Department of Public Works",
    "final_address": "1503 Valence St",
    "address_councildis": "B",
    "status": "Pending",
    "rowid": "1044043",
    "final_x": "3669815.40481",
    "final_y": "520519.79692",
    "longitude": "-90.10533842228018",
    "latitude": "29.92559828720276",
    "geocoded_column": {
      "latitude": "29.92559828720276",
      "longitude": "-90.10533842228018"
    }
  },
  {
    "service_request": "2023-1044042",
    "request_type": "Roads/Drainage",
    "request_reason": "Pothole",
    "date_created": "2023-10-17T23:41:22.000",
    "date_modified": "2023-10-17T23:41:22.000",
    "request_status": "Pending",
    "responsible_agency": "Department of Public Works",
    "final_address": "1407 Valence St",
    "address_councildis": "B",
    "status": "Pending",
    "rowid": "1044042",
    "final_x": "3669839.25287",
    "final_y": "520292.863992",
    "longitude": "-90.10527081865904",
    "latitude": "29.924973591096933",
    "geocoded_column": {
      "latitude": "29.924973591096933",
      "longitude": "-90.10527081865904"
    }
  },
  {
    "service_request": "2023-1044041",
    "request_type": "Roads/Drainage",
    "request_reason": "Street Subsidence (Sinking)",
    "date_created": "2023-10-17T22:49:59.000",
    "date_modified": "2023-10-17T22:49:59.000",
    "request_status": "Pending",
    "responsible_agency": "Department of Public Works",
    "final_address": "GENERAL PERSHING ST & S BROAD ST",
    "address_councildis": "B",
    "status": "Pending",
    "rowid": "1044041",
    "final_x": "3670340.5",
    "final_y": "529196.68",
    "longitude": "-90.10338684530373",
    "latitude": "29.9494414277523",
    "geocoded_column": {
      "latitude": "29.9494414277523",
      "longitude": "-90.10338684530373"
    }
  },
  {
    "service_request": "2023-1044040",
    "request_type": "Traffic Signals/Signs/Striping/Streetlights",
    "request_reason": "Street Light Outage/Malfunction",
    "date_created": "2023-10-17T21:44:26.000",
    "date_modified": "2023-10-17T21:44:27.000",
    "request_status": "Pending",
    "responsible_agency": "Department of Public Works",
    "final_address": "7551 Forest Glen Rd",
    "address_councildis": "E",
    "status": "Assigned to Contractor",
    "contractor": "Legacy Professional Services",
    "rowid": "1044040",
    "final_x": "3709905.66795",
    "final_y": "564693.881698",
    "longitude": "-89.97713650553536",
    "latitude": "30.045818152802273",
    "geocoded_column": {
      "latitude": "30.045818152802273",
      "longitude": "-89.97713650553536"
    }
  },
  {
    "service_request": "2023-1044039",
    "request_type": "Roads/Drainage",
    "request_reason": "Road Shoulder Repair",
    "date_created": "2023-10-17T21:38:14.000",
    "date_modified": "2023-10-17T21:38:14.000",
    "request_status": "Pending",
    "responsible_agency": "Department of Public Works",
    "final_address": "3900 BLK Pitt St",
    "address_councildis": "B",
    "status": "Pending",
    "rowid": "1044039",
    "final_x": "3672519.83603",
    "final_y": "520734.901231",
    "longitude": "-90.09679401515201",
    "latitude": "29.926109783282126",
    "geocoded_column": {
      "latitude": "29.926109783282126",
      "longitude": "-90.09679401515201"
    }
  },
  {
    "service_request": "2023-1044038",
    "request_type": "Trash/Recycling",
    "request_reason": "Order Recycling Cart",
    "date_created": "2023-10-17T21:30:11.000",
    "date_modified": "2023-10-17T21:30:11.000",
    "request_status": "Pending",
    "responsible_agency": "Department of Sanitation",
    "final_address": "1636 Mandeville St",
    "address_councildis": "D",
    "status": "Pending",
    "rowid": "1044038",
    "final_x": "3685576.41161",
    "final_y": "538507.718281",
    "longitude": "-90.05495233760229",
    "latitude": "29.974585089801366",
    "geocoded_column": {
      "latitude": "29.974585089801366",
      "longitude": "-90.05495233760229"
    }
  },
  {
    "service_request": "2023-1044037",
    "request_type": "Traffic Signals/Signs/Striping/Streetlights",
    "request_reason": "Street Name Sign Damaged or Missing",
    "date_created": "2023-10-17T21:25:46.000",
    "date_modified": "2023-10-17T21:25:46.000",
    "request_status": "Pending",
    "responsible_agency": "Department of Public Works",
    "final_address": "1131 General Pershing St",
    "address_councildis": "B",
    "status": "Pending",
    "rowid": "1044037",
    "final_x": "3671416.3778",
    "final_y": "519794.4046",
    "longitude": "-90.10030926903697",
    "latitude": "29.923556415029356",
    "geocoded_column": {
      "latitude": "29.923556415029356",
      "longitude": "-90.10030926903697"
    }
  },
  {
    "service_request": "2023-1044036",
    "request_type": "Roads/Drainage",
    "request_reason": "Pothole",
    "date_created": "2023-10-17T21:20:20.000",
    "date_modified": "2023-10-17T21:20:20.000",
    "request_status": "Pending",
    "responsible_agency": "Department of Public Works",
    "final_address": "1423 Dufossat St",
    "address_councildis": "B",
    "status": "Pending",
    "rowid": "1044036",
    "final_x": "3668174.01178",
    "final_y": "520369.628984",
    "longitude": "-90.11052487395027",
    "latitude": "29.925233639881142",
    "geocoded_column": {
      "latitude": "29.925233639881142",
      "longitude": "-90.11052487395027"
    }
  },
  {
    "service_request": "2023-1044035",
    "request_type": "Trash/Recycling",
    "request_reason": "Request a Large Item Pick Up",
    "date_created": "2023-10-17T21:01:44.000",
    "date_modified": "2023-10-17T21:01:45.000",
    "request_status": "Pending",
    "responsible_agency": "Department of Sanitation",
    "final_address": "4612 Crowder Blvd",
    "address_councildis": "E",
    "status": "Assigned to Contractor",
    "contractor": "Waste Pro",
    "rowid": "1044035",
    "final_x": "3706413.55543",
    "final_y": "554756.88796",
    "longitude": "-89.98854182228388",
    "latitude": "30.01860850550658",
    "geocoded_column": {
      "latitude": "30.01860850550658",
      "longitude": "-89.98854182228388"
    }
  },
  {
    "service_request": "2023-1044034",
    "request_type": "Trash/Recycling",
    "request_reason": "Order Recycling Cart",
    "date_created": "2023-10-17T20:55:59.000",
    "date_modified": "2023-10-17T20:55:59.000",
    "request_status": "Pending",
    "responsible_agency": "Department of Sanitation",
    "final_address": "3129 Constance St",
    "address_councildis": "B",
    "status": "Pending",
    "rowid": "1044034",
    "final_x": "3676109.14933",
    "final_y": "519788.985464",
    "longitude": "-90.08549609979676",
    "latitude": "29.923401826085453",
    "geocoded_column": {
      "latitude": "29.923401826085453",
      "longitude": "-90.08549609979676"
    }
  },
  {
    "service_request": "2023-1044033",
    "request_type": "Trash/Recycling",
    "request_reason": "Order Recycling Cart",
    "date_created": "2023-10-17T20:55:52.000",
    "date_modified": "2023-10-17T20:55:52.000",
    "request_status": "Pending",
    "responsible_agency": "Department of Sanitation",
    "final_address": "3129 Constance St",
    "address_councildis": "B",
    "status": "Pending",
    "rowid": "1044033",
    "final_x": "3676109.14933",
    "final_y": "519788.985464",
    "longitude": "-90.08549609979676",
    "latitude": "29.923401826085453",
    "geocoded_column": {
      "latitude": "29.923401826085453",
      "longitude": "-90.08549609979676"
    }
  },
  {
    "service_request": "2023-1044032",
    "request_type": "Trash/Recycling",
    "request_reason": "Order Recycling Cart",
    "date_created": "2023-10-17T20:55:05.000",
    "date_modified": "2023-10-17T20:55:05.000",
    "request_status": "Pending",
    "responsible_agency": "Department of Sanitation",
    "final_address": "3129 Constance St",
    "address_councildis": "B",
    "status": "Pending",
    "rowid": "1044032",
    "final_x": "3676109.14933",
    "final_y": "519788.985464",
    "longitude": "-90.08549609979676",
    "latitude": "29.923401826085453",
    "geocoded_column": {
      "latitude": "29.923401826085453",
      "longitude": "-90.08549609979676"
    }
  },
  {
    "service_request": "2023-1044031",
    "request_type": "Traffic Signals/Signs/Striping/Streetlights",
    "request_reason": "Street Light Outage/Malfunction",
    "date_created": "2023-10-17T20:52:22.000",
    "date_modified": "2023-10-17T20:52:23.000",
    "request_status": "Pending",
    "responsible_agency": "Department of Public Works",
    "final_address": "5436 Bellaire Dr",
    "address_councildis": "A",
    "status": "Assigned to Contractor",
    "contractor": "Legacy Professional Services",
    "rowid": "1044031",
    "final_x": "3663960.08992",
    "final_y": "543824.903182",
    "longitude": "-90.12304489315862",
    "latitude": "29.989850984824354",
    "geocoded_column": {
      "latitude": "29.989850984824354",
      "longitude": "-90.12304489315862"
    }
  },
  {
    "service_request": "2023-1044030",
    "request_type": "Traffic Signals/Signs/Striping/Streetlights",
    "request_reason": "Street Light Outage/Malfunction",
    "date_created": "2023-10-17T20:27:08.000",
    "date_modified": "2023-10-17T20:27:09.000",
    "request_status": "Pending",
    "responsible_agency": "Department of Public Works",
    "final_address": "PEMBROOK DR & SHETLAND DR",
    "address_councildis": "C",
    "status": "Assigned to Contractor",
    "contractor": "Legacy Professional Services",
    "rowid": "1044030",
    "final_x": "3705408.5",
    "final_y": "520639.68",
    "longitude": "-89.99297837984678",
    "latitude": "29.924831077224113",
    "geocoded_column": {
      "latitude": "29.924831077224113",
      "longitude": "-89.99297837984678"
    }
  },
  {
    "service_request": "2023-1044029",
    "request_type": "Trash/Recycling",
    "request_reason": "Replace Trash Cart",
    "date_created": "2023-10-17T20:07:41.000",
    "date_modified": "2023-10-17T20:07:42.000",
    "request_status": "Pending",
    "responsible_agency": "Department of Sanitation",
    "final_address": "5023 S Johnson St",
    "address_councildis": "B",
    "status": "Assigned to Contractor",
    "contractor": "Richards Disposal",
    "rowid": "1044029",
    "final_x": "3668720.14382",
    "final_y": "527045.801278",
    "longitude": "-90.10857564261143",
    "latitude": "29.94357493593448",
    "geocoded_column": {
      "latitude": "29.94357493593448",
      "longitude": "-90.10857564261143"
    }
  },
  {
    "service_request": "2023-1044028",
    "request_type": "Traffic Signals/Signs/Striping/Streetlights",
    "request_reason": "Street Light Outage/Malfunction",
    "date_created": "2023-10-17T19:46:38.000",
    "date_modified": "2023-10-17T19:46:38.000",
    "request_status": "Pending",
    "responsible_agency": "Department of Public Works",
    "final_address": "Yup",
    "address_councildis": "D",
    "status": "Assigned to Contractor",
    "contractor": "Legacy Professional Services",
    "rowid": "1044028",
    "final_x": "3675640.67669",
    "final_y": "544107.871822",
    "longitude": "-90.08613933554462",
    "latitude": "29.99028463920635",
    "geocoded_column": {
      "latitude": "29.99028463920635",
      "longitude": "-90.08613933554462"
    }
  },
  {
    "service_request": "2023-1044027",
    "request_type": "Trash/Recycling",
    "request_reason": "Request a Large Item Pick Up",
    "date_created": "2023-10-17T19:00:27.000",
    "date_modified": "2023-10-17T19:00:28.000",
    "request_status": "Pending",
    "responsible_agency": "Department of Sanitation",
    "final_address": "1100 Dufossat St",
    "address_councildis": "B",
    "status": "Assigned to Contractor",
    "contractor": "Richards Disposal",
    "rowid": "1044027",
    "final_x": "3668009.44564",
    "final_y": "519435.945271",
    "longitude": "-90.11107579784193",
    "latitude": "29.922671132979715",
    "geocoded_column": {
      "latitude": "29.922671132979715",
      "longitude": "-90.11107579784193"
    }
  },
  {
    "service_request": "2023-1044026",
    "request_type": "Trash/Recycling",
    "request_reason": "Start Trash Service",
    "date_created": "2023-10-17T18:41:13.000",
    "date_modified": "2023-10-17T18:41:14.000",
    "request_status": "Pending",
    "responsible_agency": "Department of Sanitation",
    "final_address": "2400 BLK Saint Claude Ave",
    "address_councildis": "C",
    "status": "Assigned to Contractor",
    "contractor": "IV Waste",
    "rowid": "1044026",
    "final_x": "3686684.36774",
    "final_y": "536509.386415",
    "longitude": "-90.05152375098332",
    "latitude": "29.969056340826484",
    "geocoded_column": {
      "latitude": "29.969056340826484",
      "longitude": "-90.05152375098332"
    }
  },
  {
    "service_request": "2023-1044025",
    "request_type": "Trash/Recycling",
    "request_reason": "Request a Large Item Pick Up",
    "date_created": "2023-10-17T18:37:18.000",
    "date_modified": "2023-10-17T18:37:18.000",
    "request_status": "Pending",
    "responsible_agency": "Department of Sanitation",
    "final_address": "2509 Sage St",
    "address_councildis": "D",
    "status": "Assigned to Contractor",
    "contractor": "IV Waste",
    "rowid": "1044025",
    "final_x": "3686811.4509",
    "final_y": "545487.539664",
    "longitude": "-90.05080505533851",
    "latitude": "29.993739176293598",
    "geocoded_column": {
      "latitude": "29.993739176293598",
      "longitude": "-90.05080505533851"
    }
  },
  {
    "service_request": "2023-1044024",
    "request_type": "Property Maintenance",
    "request_reason": "Property Maintenance",
    "date_created": "2023-10-17T18:17:06.000",
    "date_modified": "2023-10-17T18:17:06.000",
    "request_status": "Pending",
    "responsible_agency": "Department of Code Enforcement",
    "final_address": "5727 N Claiborne Ave",
    "address_councildis": "E",
    "status": "Pending",
    "rowid": "1044024",
    "final_x": "3699100.10852",
    "final_y": "535555.632518",
    "longitude": "-90.01234894962609",
    "latitude": "29.96604611843337",
    "geocoded_column": {
      "latitude": "29.96604611843337",
      "longitude": "-90.01234894962609"
    }
  },
  {
    "service_request": "2023-1044023",
    "request_type": "Traffic Signals/Signs/Striping/Streetlights",
    "request_reason": "Traffic Sign Missing/Damaged",
    "date_created": "2023-10-17T18:13:22.000",
    "date_modified": "2023-10-17T18:13:22.000",
    "request_status": "Pending",
    "responsible_agency": "Department of Public Works",
    "final_address": "6030 Louis Xiv St",
    "address_councildis": "A",
    "status": "Pending",
    "rowid": "1044023",
    "final_x": "3668007.90893",
    "final_y": "547575.26645",
    "longitude": "-90.11013243218272",
    "latitude": "30.00004501261659",
    "geocoded_column": {
      "latitude": "30.00004501261659",
      "longitude": "-90.11013243218272"
    }
  },
  {
    "service_request": "2023-1044022",
    "request_type": "Parks & Parkways",
    "request_reason": "Tree Stump (removal, grind)",
    "date_created": "2023-10-17T18:10:58.000",
    "date_modified": "2023-10-17T18:10:58.000",
    "request_status": "Pending",
    "responsible_agency": "Department of Parks & Parkway",
    "final_address": "7501 Jonlee Dr",
    "address_councildis": "E",
    "status": "Pending",
    "rowid": "1044022",
    "final_x": "3717604.06962",
    "final_y": "569965.811366",
    "longitude": "-89.952605226929",
    "latitude": "30.060061003473713",
    "geocoded_column": {
      "latitude": "30.060061003473713",
      "longitude": "-89.952605226929"
    }
  },
  {
    "service_request": "2023-1044021",
    "request_type": "Trash/Recycling",
    "request_reason": "Order Trash Cart",
    "date_created": "2023-10-17T18:02:23.000",
    "date_modified": "2023-10-17T18:02:24.000",
    "request_status": "Pending",
    "responsible_agency": "Department of Sanitation",
    "final_address": "1813 St Philip St",
    "address_councildis": "D",
    "status": "Assigned to Contractor",
    "contractor": "Richards Disposal",
    "rowid": "1044021",
    "final_x": "3680076.92968",
    "final_y": "535824.617351",
    "longitude": "-90.07241428852328",
    "latitude": "29.96737504719397",
    "geocoded_column": {
      "latitude": "29.96737504719397",
      "longitude": "-90.07241428852328"
    }
  },
  {
    "service_request": "2023-1044020",
    "request_type": "Trash/Recycling",
    "request_reason": "Missed Trash Pick-Up",
    "date_created": "2023-10-17T17:54:06.000",
    "date_modified": "2023-10-17T17:54:07.000",
    "request_status": "Pending",
    "responsible_agency": "Department of Sanitation",
    "final_address": "7832 Lafourche St",
    "address_councildis": "E",
    "status": "Assigned to Contractor",
    "contractor": "Waste Pro",
    "rowid": "1044020",
    "final_x": "3709685.13803",
    "final_y": "566299.272355",
    "longitude": "-89.97777345907953",
    "latitude": "30.050239505840572",
    "geocoded_column": {
      "latitude": "30.050239505840572",
      "longitude": "-89.97777345907953"
    }
  },
  {
    "service_request": "2023-1044019",
    "request_type": "Trash/Recycling",
    "request_reason": "Missed Trash Pick-Up",
    "date_created": "2023-10-17T17:50:11.000",
    "date_modified": "2023-10-17T17:50:12.000",
    "request_status": "Pending",
    "responsible_agency": "Department of Sanitation",
    "final_address": "7430 Camberley Dr",
    "address_councildis": "E",
    "status": "Assigned to Contractor",
    "contractor": "Waste Pro",
    "rowid": "1044019",
    "final_x": "3712692.96523",
    "final_y": "565553.582626",
    "longitude": "-89.96829497604182",
    "latitude": "30.04809097801865",
    "geocoded_column": {
      "latitude": "30.04809097801865",
      "longitude": "-89.96829497604182"
    }
  },
  {
    "service_request": "2023-1044018",
    "request_type": "Abandoned Vehicles",
    "request_reason": "Abandoned/Junk Vehicles",
    "date_created": "2023-10-17T17:41:55.000",
    "date_modified": "2023-10-17T17:41:55.000",
    "request_status": "Pending",
    "responsible_agency": "Department of Public Works",
    "final_address": "1128 N White St",
    "address_councildis": "A",
    "status": "Pending",
    "rowid": "1044018",
    "final_x": "3677422.16462",
    "final_y": "538990.059658",
    "longitude": "-90.08068880005509",
    "latitude": "29.97615899191659",
    "geocoded_column": {
      "latitude": "29.97615899191659",
      "longitude": "-90.08068880005509"
    }
  },
  {
    "service_request": "2023-1044017",
    "request_type": "Trash/Recycling",
    "request_reason": "Request a Large Item Pick Up",
    "date_created": "2023-10-17T17:38:13.000",
    "date_modified": "2023-10-17T17:38:13.000",
    "request_status": "Pending",
    "responsible_agency": "Department of Sanitation",
    "final_address": "11341 N Parkwood Ct",
    "address_councildis": "E",
    "status": "Assigned to Contractor",
    "contractor": "Waste Pro",
    "rowid": "1044017",
    "final_x": "3716932.57445",
    "final_y": "559625.744285",
    "longitude": "-89.95512089138047",
    "latitude": "30.031652271027017",
    "geocoded_column": {
      "latitude": "30.031652271027017",
      "longitude": "-89.95512089138047"
    }
  },
  {
    "service_request": "2023-1044016",
    "request_type": "Traffic Signals/Signs/Striping/Streetlights",
    "request_reason": "Street Light Knocked Down/Leaning",
    "date_created": "2023-10-17T17:31:02.000",
    "date_modified": "2023-10-17T17:31:03.000",
    "request_status": "Pending",
    "responsible_agency": "Department of Public Works",
    "final_address": "824 City Park Ave",
    "address_councildis": "A",
    "status": "Pending",
    "contractor": "Legacy Professional Services",
    "rowid": "1044016",
    "final_x": "3671232.56622",
    "final_y": "541628.94382",
    "longitude": "-90.1001477203174",
    "latitude": "29.9835996301176",
    "geocoded_column": {
      "latitude": "29.9835996301176",
      "longitude": "-90.1001477203174"
    }
  },
  {
    "service_request": "2023-1044015",
    "request_type": "Roads/Drainage",
    "request_reason": "Pothole",
    "date_created": "2023-10-17T17:26:10.000",
    "date_modified": "2023-10-17T17:26:10.000",
    "request_status": "Pending",
    "responsible_agency": "Department of Public Works",
    "final_address": "1234 Henry Clay Ave",
    "address_councildis": "A",
    "status": "Pending",
    "rowid": "1044015",
    "final_x": "3664327.06445",
    "final_y": "521120.367609",
    "longitude": "-90.12264347982506",
    "latitude": "29.92741025864685",
    "geocoded_column": {
      "latitude": "29.92741025864685",
      "longitude": "-90.12264347982506"
    }
  },
  {
    "service_request": "2023-1044013",
    "request_type": "Traffic Signals/Signs/Striping/Streetlights",
    "request_reason": "Street Light Outage/Malfunction",
    "date_created": "2023-10-17T17:16:18.000",
    "date_modified": "2023-10-17T17:16:19.000",
    "request_status": "Pending",
    "responsible_agency": "Department of Public Works",
    "final_address": "826 Cherokee St",
    "address_councildis": "A",
    "status": "Assigned to Contractor",
    "contractor": "Legacy Professional Services",
    "rowid": "1044013",
    "final_x": "3662721.02771",
    "final_y": "526106.689342",
    "longitude": "-90.12754772258246",
    "latitude": "29.94116763107228",
    "geocoded_column": {
      "latitude": "29.94116763107228",
      "longitude": "-90.12754772258246"
    }
  },
  {
    "service_request": "2023-1044012",
    "request_type": "Roads/Drainage",
    "request_reason": "Pothole",
    "date_created": "2023-10-17T17:05:21.000",
    "date_modified": "2023-10-17T17:05:21.000",
    "request_status": "Pending",
    "responsible_agency": "Department of Public Works",
    "final_address": "1502 Eleonore St",
    "address_councildis": "A",
    "status": "Pending",
    "rowid": "1044012",
    "final_x": "3665786.09434",
    "final_y": "521795.186042",
    "longitude": "-90.11801507263215",
    "latitude": "29.92922332626592",
    "geocoded_column": {
      "latitude": "29.92922332626592",
      "longitude": "-90.11801507263215"
    }
  },
  {
    "service_request": "2023-1044011",
    "request_type": "Roads/Drainage",
    "request_reason": "Pothole",
    "date_created": "2023-10-17T17:00:32.000",
    "date_modified": "2023-10-17T17:00:32.000",
    "request_status": "Pending",
    "responsible_agency": "Department of Public Works",
    "final_address": "1516 Eleonore St",
    "address_councildis": "A",
    "status": "Pending",
    "rowid": "1044011",
    "final_x": "3665795.25588",
    "final_y": "521919.094394",
    "longitude": "-90.11798200244233",
    "latitude": "29.929563767827943",
    "geocoded_column": {
      "latitude": "29.929563767827943",
      "longitude": "-90.11798200244233"
    }
  },
  {
    "service_request": "2023-1044010",
    "request_type": "Traffic Signals/Signs/Striping/Streetlights",
    "request_reason": "Street Light Outage/Malfunction",
    "date_created": "2023-10-17T16:56:37.000",
    "date_modified": "2023-10-17T16:56:38.000",
    "request_status": "Pending",
    "responsible_agency": "Department of Public Works",
    "final_address": "2201 Burdette St",
    "address_councildis": "A",
    "status": "Assigned to Contractor",
    "contractor": "Legacy Professional Services",
    "rowid": "1044010",
    "final_x": "3665254.1161",
    "final_y": "530191.652481",
    "longitude": "-90.11941362402243",
    "latitude": "29.95232642401367",
    "geocoded_column": {
      "latitude": "29.95232642401367",
      "longitude": "-90.11941362402243"
    }
  },
  {
    "service_request": "2023-1044009",
    "request_type": "Abandoned Vehicles",
    "request_reason": "Abandoned/Junk Vehicles",
    "date_created": "2023-10-17T16:55:52.000",
    "date_modified": "2023-10-17T16:55:52.000",
    "request_status": "Pending",
    "responsible_agency": "Department of Public Works",
    "final_address": "14300 Chef Menteur Hwy",
    "address_councildis": "E",
    "status": "Pending",
    "rowid": "1044009",
    "final_x": "3730117.90202",
    "final_y": "561091.60995",
    "longitude": "-89.9133978588733",
    "latitude": "30.03524013310275",
    "geocoded_column": {
      "latitude": "30.03524013310275",
      "longitude": "-89.9133978588733"
    }
  },
  {
    "service_request": "2023-1044008",
    "request_type": "Traffic Signals/Signs/Striping/Streetlights",
    "request_reason": "Street Light Outage/Malfunction",
    "date_created": "2023-10-17T16:52:23.000",
    "date_modified": "2023-10-17T16:52:24.000",
    "request_status": "Pending",
    "responsible_agency": "Department of Public Works",
    "final_address": "13301 Chef Menteur Hwy",
    "address_councildis": "E",
    "status": "Assigned to Contractor",
    "contractor": "Legacy Professional Services",
    "rowid": "1044008",
    "final_x": "3725700.88537",
    "final_y": "559802.700125",
    "longitude": "-89.92740612968588",
    "latitude": "30.031845923767623",
    "geocoded_column": {
      "latitude": "30.031845923767623",
      "longitude": "-89.92740612968588"
    }
  },
  {
    "service_request": "2023-1044007",
    "request_type": "Trash/Recycling",
    "request_reason": "Request a Large Item Pick Up",
    "date_created": "2023-10-17T16:49:56.000",
    "date_modified": "2023-10-17T16:49:57.000",
    "request_status": "Pending",
    "responsible_agency": "Department of Sanitation",
    "final_address": "1831 Third St",
    "address_councildis": "B",
    "status": "Assigned to Contractor",
    "contractor": "Richards Disposal",
    "rowid": "1044007",
    "final_x": "3675913.87534",
    "final_y": "523726.537083",
    "longitude": "-90.08597720154451",
    "latitude": "29.93423466112569",
    "geocoded_column": {
      "latitude": "29.93423466112569",
      "longitude": "-90.08597720154451"
    }
  },
  {
    "service_request": "2023-1044006",
    "request_type": "Traffic Signals/Signs/Striping/Streetlights",
    "request_reason": "Street Light Outage/Malfunction",
    "date_created": "2023-10-17T16:48:39.000",
    "date_modified": "2023-10-17T16:48:40.000",
    "request_status": "Pending",
    "responsible_agency": "Department of Public Works",
    "final_address": "13311 Chef Menteur Hwy",
    "address_councildis": "E",
    "status": "Assigned to Contractor",
    "contractor": "Legacy Professional Services",
    "rowid": "1044006",
    "final_x": "3725862.06982",
    "final_y": "559871.421725",
    "longitude": "-89.92689411964189",
    "latitude": "30.032029441065504",
    "geocoded_column": {
      "latitude": "30.032029441065504",
      "longitude": "-89.92689411964189"
    }
  },
  {
    "service_request": "2023-1044005",
    "request_type": "Traffic Signals/Signs/Striping/Streetlights",
    "request_reason": "Street Light Outage/Malfunction",
    "date_created": "2023-10-17T16:45:30.000",
    "date_modified": "2023-10-17T16:45:31.000",
    "request_status": "Pending",
    "responsible_agency": "Department of Public Works",
    "final_address": "13733 Chef Menteur Hwy",
    "address_councildis": "E",
    "status": "Assigned to Contractor",
    "contractor": "Legacy Professional Services",
    "rowid": "1044005",
    "final_x": "3727514.7175",
    "final_y": "560443.380638",
    "longitude": "-89.92164946180709",
    "latitude": "30.033546212632437",
    "geocoded_column": {
      "latitude": "30.033546212632437",
      "longitude": "-89.92164946180709"
    }
  },
  {
    "service_request": "2023-1044004",
    "request_type": "Trash/Recycling",
    "request_reason": "Repair Trash Cart",
    "date_created": "2023-10-17T16:44:54.000",
    "date_modified": "2023-10-17T16:44:54.000",
    "request_status": "Pending",
    "responsible_agency": "Department of Sanitation",
    "final_address": "8305 Nelson St",
    "address_councildis": "A",
    "status": "Assigned to Contractor",
    "contractor": "Richards Disposal",
    "rowid": "1044004",
    "final_x": "3664562.80391",
    "final_y": "532402.262851",
    "longitude": "-90.12152265943723",
    "latitude": "29.95842500378883",
    "geocoded_column": {
      "latitude": "29.95842500378883",
      "longitude": "-90.12152265943723"
    }
  },
  {
    "service_request": "2023-1044003",
    "request_type": "Trash/Recycling",
    "request_reason": "Replace Trash Cart",
    "date_created": "2023-10-17T16:44:32.000",
    "date_modified": "2023-10-17T16:44:33.000",
    "request_status": "Pending",
    "responsible_agency": "Department of Sanitation",
    "final_address": "210 S Olympia St",
    "address_councildis": "A",
    "status": "Assigned to Contractor",
    "contractor": "Richards Disposal",
    "rowid": "1044003",
    "final_x": "3669124.45978",
    "final_y": "539184.736522",
    "longitude": "-90.10688888837643",
    "latitude": "29.97694110359677",
    "geocoded_column": {
      "latitude": "29.97694110359677",
      "longitude": "-90.10688888837643"
    }
  },
  {
    "service_request": "2023-1044002",
    "request_type": "Traffic Signals/Signs/Striping/Streetlights",
    "request_reason": "Street Light Outage/Malfunction",
    "date_created": "2023-10-17T16:43:16.000",
    "date_modified": "2023-10-17T16:43:17.000",
    "request_status": "Pending",
    "responsible_agency": "Department of Public Works",
    "final_address": "13733 Chef Menteur Hwy",
    "address_councildis": "E",
    "status": "Assigned to Contractor",
    "contractor": "Legacy Professional Services",
    "rowid": "1044002",
    "final_x": "3727514.7175",
    "final_y": "560443.380638",
    "longitude": "-89.92164946180709",
    "latitude": "30.033546212632437",
    "geocoded_column": {
      "latitude": "30.033546212632437",
      "longitude": "-89.92164946180709"
    }
  },
  {
    "service_request": "2023-1044001",
    "request_type": "Trash/Recycling",
    "request_reason": "Request a Large Item Pick Up",
    "date_created": "2023-10-17T16:43:00.000",
    "date_modified": "2023-10-17T16:43:01.000",
    "request_status": "Pending",
    "responsible_agency": "Department of Sanitation",
    "final_address": "4821 Francis Dr",
    "address_councildis": "D",
    "status": "Assigned to Contractor",
    "contractor": "Waste Pro",
    "rowid": "1044001",
    "final_x": "3698242.05904",
    "final_y": "554763.263576",
    "longitude": "-90.01436040975005",
    "latitude": "30.01888720258028",
    "geocoded_column": {
      "latitude": "30.01888720258028",
      "longitude": "-90.01436040975005"
    }
  },
  {
    "service_request": "2023-1044000",
    "request_type": "Property Maintenance",
    "request_reason": "Property Maintenance",
    "date_created": "2023-10-17T16:41:39.000",
    "date_modified": "2023-10-17T16:41:39.000",
    "request_status": "Pending",
    "responsible_agency": "Department of Code Enforcement",
    "final_address": "2512 Governor Nicholls St",
    "address_councildis": "D",
    "status": "Pending",
    "rowid": "1044000",
    "final_x": "3678510.6468",
    "final_y": "537831.975625",
    "longitude": "-90.07729114613075",
    "latitude": "29.97294189511042",
    "geocoded_column": {
      "latitude": "29.97294189511042",
      "longitude": "-90.07729114613075"
    }
  },
  {
    "service_request": "2023-1043999",
    "request_type": "Traffic Signals/Signs/Striping/Streetlights",
    "request_reason": "Street Light Outage/Malfunction",
    "date_created": "2023-10-17T16:41:20.000",
    "date_modified": "2023-10-17T16:41:20.000",
    "request_status": "Pending",
    "responsible_agency": "Department of Public Works",
    "final_address": "13733 Chef Menteur Hwy",
    "address_councildis": "E",
    "status": "Assigned to Contractor",
    "contractor": "Legacy Professional Services",
    "rowid": "1043999",
    "final_x": "3727514.7175",
    "final_y": "560443.380638",
    "longitude": "-89.92164946180709",
    "latitude": "30.033546212632437",
    "geocoded_column": {
      "latitude": "30.033546212632437",
      "longitude": "-89.92164946180709"
    }
  },
  {
    "service_request": "2023-1043998",
    "request_type": "Property Maintenance",
    "request_reason": "Property Maintenance",
    "date_created": "2023-10-17T16:38:42.000",
    "date_modified": "2023-10-17T16:38:42.000",
    "request_status": "Pending",
    "responsible_agency": "Department of Code Enforcement",
    "final_address": "2500 Governor Nicholls St",
    "address_councildis": "D",
    "status": "Pending",
    "rowid": "1043998",
    "final_x": "3678581.73954",
    "final_y": "537784.58356",
    "longitude": "-90.07706826253708",
    "latitude": "29.972809440205925",
    "geocoded_column": {
      "latitude": "29.972809440205925",
      "longitude": "-90.07706826253708"
    }
  },
  {
    "service_request": "2023-1043997",
    "request_type": "Traffic Signals/Signs/Striping/Streetlights",
    "request_reason": "Street Light Outage/Malfunction",
    "date_created": "2023-10-17T16:38:28.000",
    "date_modified": "2023-10-17T16:38:29.000",
    "request_status": "Pending",
    "responsible_agency": "Department of Public Works",
    "final_address": "13733 Chef Menteur Hwy",
    "address_councildis": "E",
    "status": "Assigned to Contractor",
    "contractor": "Legacy Professional Services",
    "rowid": "1043997",
    "final_x": "3727514.7175",
    "final_y": "560443.380638",
    "longitude": "-89.92164946180709",
    "latitude": "30.033546212632437",
    "geocoded_column": {
      "latitude": "30.033546212632437",
      "longitude": "-89.92164946180709"
    }
  },
  {
    "service_request": "2023-1043996",
    "request_type": "Traffic Signals/Signs/Striping/Streetlights",
    "request_reason": "Street Light Outage/Malfunction",
    "date_created": "2023-10-17T16:35:30.000",
    "date_modified": "2023-10-17T16:35:31.000",
    "request_status": "Pending",
    "responsible_agency": "Department of Public Works",
    "final_address": "13900 Chef Menteur Hwy",
    "address_councildis": "E",
    "status": "Assigned to Contractor",
    "contractor": "Legacy Professional Services",
    "rowid": "1043996",
    "final_x": "3728014.31616",
    "final_y": "560176.281693",
    "longitude": "-89.92008110955125",
    "latitude": "30.03279486714193",
    "geocoded_column": {
      "latitude": "30.03279486714193",
      "longitude": "-89.92008110955125"
    }
  },
  {
    "service_request": "2023-1043995",
    "request_type": "Trash/Recycling",
    "request_reason": "Request a Large Item Pick Up",
    "date_created": "2023-10-17T16:33:46.000",
    "date_modified": "2023-10-17T16:33:47.000",
    "request_status": "Pending",
    "responsible_agency": "Department of Sanitation",
    "final_address": "6348 Carlson Dr",
    "address_councildis": "D",
    "status": "Assigned to Contractor",
    "contractor": "IV Waste",
    "rowid": "1043995",
    "final_x": "3679100.85512",
    "final_y": "557130.381402",
    "longitude": "-90.07475770964348",
    "latitude": "30.025987860498343",
    "geocoded_column": {
      "latitude": "30.025987860498343",
      "longitude": "-90.07475770964348"
    }
  },
  {
    "service_request": "2023-1043994",
    "request_type": "Roads/Drainage",
    "request_reason": "Man hole cover issue",
    "date_created": "2023-10-17T16:31:50.000",
    "date_modified": "2023-10-17T16:32:19.000",
    "request_status": "Pending",
    "responsible_agency": "Department of Public Works",
    "final_address": "1700 BLK Shepherd St",
    "address_councildis": "C",
    "status": "Pending",
    "rowid": "1043994",
    "final_x": "3690465.66431",
    "final_y": "523662.029235",
    "longitude": "-90.04004013522983",
    "latitude": "29.933613690102998",
    "geocoded_column": {
      "latitude": "29.933613690102998",
      "longitude": "-90.04004013522983"
    }
  },
  {
    "service_request": "2023-1043993",
    "request_type": "Traffic Signals/Signs/Striping/Streetlights",
    "request_reason": "Street Light Outage/Malfunction",
    "date_created": "2023-10-17T16:31:11.000",
    "date_modified": "2023-10-17T16:31:12.000",
    "request_status": "Pending",
    "responsible_agency": "Department of Public Works",
    "final_address": "13638 Chef Menteur Hwy",
    "address_councildis": "E",
    "status": "Assigned to Contractor",
    "contractor": "Legacy Professional Services",
    "rowid": "1043993",
    "final_x": "3727218.99174",
    "final_y": "559870.358749",
    "longitude": "-89.92260626786887",
    "latitude": "30.03198065289155",
    "geocoded_column": {
      "latitude": "30.03198065289155",
      "longitude": "-89.92260626786887"
    }
  },
  {
    "service_request": "2023-1043991",
    "request_type": "Traffic Signals/Signs/Striping/Streetlights",
    "request_reason": "Street Light Outage/Malfunction",
    "date_created": "2023-10-17T16:28:51.000",
    "date_modified": "2023-10-17T16:28:51.000",
    "request_status": "Pending",
    "responsible_agency": "Department of Public Works",
    "final_address": "13638 Chef Menteur Hwy",
    "address_councildis": "E",
    "status": "Assigned to Contractor",
    "contractor": "Legacy Professional Services",
    "rowid": "1043991",
    "final_x": "3727218.99174",
    "final_y": "559870.358749",
    "longitude": "-89.92260626786887",
    "latitude": "30.03198065289155",
    "geocoded_column": {
      "latitude": "30.03198065289155",
      "longitude": "-89.92260626786887"
    }
  },
  {
    "service_request": "2023-1043989",
    "request_type": "Roads/Drainage",
    "request_reason": "Pothole",
    "date_created": "2023-10-17T16:27:43.000",
    "date_modified": "2023-10-17T16:27:43.000",
    "request_status": "Pending",
    "responsible_agency": "Department of Public Works",
    "final_address": "1579 Henry Clay Ave",
    "address_councildis": "A",
    "status": "Pending",
    "rowid": "1043989",
    "final_x": "3665125.97453",
    "final_y": "522693.49369",
    "longitude": "-90.12006892685164",
    "latitude": "29.931712623369517",
    "geocoded_column": {
      "latitude": "29.931712623369517",
      "longitude": "-90.12006892685164"
    }
  },
  {
    "service_request": "2023-1043988",
    "request_type": "Traffic Signals/Signs/Striping/Streetlights",
    "request_reason": "Street Light Outage/Malfunction",
    "date_created": "2023-10-17T16:27:15.000",
    "date_modified": "2023-10-17T16:27:15.000",
    "request_status": "Pending",
    "responsible_agency": "Department of Public Works",
    "final_address": "13638 Chef Menteur Hwy",
    "address_councildis": "E",
    "status": "Assigned to Contractor",
    "contractor": "Legacy Professional Services",
    "rowid": "1043988",
    "final_x": "3727218.99174",
    "final_y": "559870.358749",
    "longitude": "-89.92260626786887",
    "latitude": "30.03198065289155",
    "geocoded_column": {
      "latitude": "30.03198065289155",
      "longitude": "-89.92260626786887"
    }
  },
  {
    "service_request": "2023-1043987",
    "request_type": "Traffic Signals/Signs/Striping/Streetlights",
    "request_reason": "Street Light Outage/Malfunction",
    "date_created": "2023-10-17T16:23:20.000",
    "date_modified": "2023-10-17T16:23:21.000",
    "request_status": "Pending",
    "responsible_agency": "Department of Public Works",
    "final_address": "13500 Chef Menteur Hwy",
    "address_councildis": "E",
    "status": "Assigned to Contractor",
    "contractor": "Legacy Professional Services",
    "rowid": "1043987",
    "final_x": "3726472.04889",
    "final_y": "559556.663453",
    "longitude": "-89.92497880163609",
    "latitude": "30.031143384341146",
    "geocoded_column": {
      "latitude": "30.031143384341146",
      "longitude": "-89.92497880163609"
    }
  },
  {
    "service_request": "2023-1043986",
    "request_type": "Trash/Recycling",
    "request_reason": "Return Recycling Cart",
    "date_created": "2023-10-17T16:21:44.000",
    "date_modified": "2023-10-17T16:21:45.000",
    "request_status": "Pending",
    "responsible_agency": "Department of Sanitation",
    "final_address": "1125 Dale Ct",
    "address_councildis": "A",
    "status": "Pending",
    "rowid": "1043986",
    "final_x": "3669816.90676",
    "final_y": "545003.185359",
    "longitude": "-90.10450483948009",
    "latitude": "29.992919455824076",
    "geocoded_column": {
      "latitude": "29.992919455824076",
      "longitude": "-90.10450483948009"
    }
  },
  {
    "service_request": "2023-1043984",
    "request_type": "Parks & Parkways",
    "request_reason": "Request Tree Service (Right of Way/Public Property)",
    "date_created": "2023-10-17T16:19:52.000",
    "date_modified": "2023-10-17T16:19:52.000",
    "request_status": "Pending",
    "responsible_agency": "Department of Parks & Parkway",
    "final_address": "609 Napoleon Ave",
    "address_councildis": "B",
    "status": "Pending",
    "rowid": "1043984",
    "final_x": "3671239.28231",
    "final_y": "517852.842422",
    "longitude": "-90.10093421301247",
    "latitude": "29.9182229750496",
    "geocoded_column": {
      "latitude": "29.9182229750496",
      "longitude": "-90.10093421301247"
    }
  },
  {
    "service_request": "2023-1043983",
    "request_type": "Traffic Signals/Signs/Striping/Streetlights",
    "request_reason": "Street Light Outage/Malfunction",
    "date_created": "2023-10-17T16:19:01.000",
    "date_modified": "2023-10-17T16:19:02.000",
    "request_status": "Pending",
    "responsible_agency": "Department of Public Works",
    "final_address": "13400 Chef Menteur Hwy",
    "address_councildis": "E",
    "status": "Assigned to Contractor",
    "contractor": "Legacy Professional Services",
    "rowid": "1043983",
    "final_x": "3726112.68691",
    "final_y": "559545.296605",
    "longitude": "-89.92611482221932",
    "latitude": "30.031124270126387",
    "geocoded_column": {
      "latitude": "30.031124270126387",
      "longitude": "-89.92611482221932"
    }
  },
  {
    "service_request": "2023-1043982",
    "request_type": "Traffic Signals/Signs/Striping/Streetlights",
    "request_reason": "Street Light Outage/Malfunction",
    "date_created": "2023-10-17T16:17:45.000",
    "date_modified": "2023-10-17T16:17:45.000",
    "request_status": "Pending",
    "responsible_agency": "Department of Public Works",
    "final_address": "13400 Chef Menteur Hwy",
    "address_councildis": "E",
    "status": "Assigned to Contractor",
    "contractor": "Legacy Professional Services",
    "rowid": "1043982",
    "final_x": "3726112.68691",
    "final_y": "559545.296605",
    "longitude": "-89.92611482221932",
    "latitude": "30.031124270126387",
    "geocoded_column": {
      "latitude": "30.031124270126387",
      "longitude": "-89.92611482221932"
    }
  },
  {
    "service_request": "2023-1043981",
    "request_type": "Traffic Signals/Signs/Striping/Streetlights",
    "request_reason": "Street Light Outage/Malfunction",
    "date_created": "2023-10-17T16:16:58.000",
    "date_modified": "2023-10-17T16:16:59.000",
    "request_status": "Pending",
    "responsible_agency": "Department of Public Works",
    "final_address": "2000 BLK Hendee St",
    "address_councildis": "C",
    "status": "Assigned to Contractor",
    "contractor": "Legacy Professional Services",
    "rowid": "1043981",
    "final_x": "3690592.57186",
    "final_y": "523252.163257",
    "longitude": "-90.03965410481999",
    "latitude": "29.93248275815667",
    "geocoded_column": {
      "latitude": "29.93248275815667",
      "longitude": "-90.03965410481999"
    }
  },
  {
    "service_request": "2023-1043980",
    "request_type": "Trash/Recycling",
    "request_reason": "Request a Large Item Pick Up",
    "date_created": "2023-10-17T16:16:22.000",
    "date_modified": "2023-10-17T16:16:23.000",
    "request_status": "Pending",
    "responsible_agency": "Department of Sanitation",
    "final_address": "2018 Shalett St",
    "address_councildis": "C",
    "status": "Assigned to Contractor",
    "contractor": "Richards Disposal",
    "rowid": "1043980",
    "final_x": "3694255.69603",
    "final_y": "523034.714683",
    "longitude": "-90.02809781765497",
    "latitude": "29.931770621170113",
    "geocoded_column": {
      "latitude": "29.931770621170113",
      "longitude": "-90.02809781765497"
    }
  },
  {
    "service_request": "2023-1043979",
    "request_type": "Traffic Signals/Signs/Striping/Streetlights",
    "request_reason": "Street Light Outage/Malfunction",
    "date_created": "2023-10-17T16:15:45.000",
    "date_modified": "2023-10-17T16:15:46.000",
    "request_status": "Pending",
    "responsible_agency": "Department of Public Works",
    "final_address": "1700 BLK Vespasian St",
    "address_councildis": "C",
    "status": "Assigned to Contractor",
    "contractor": "Legacy Professional Services",
    "rowid": "1043979",
    "final_x": "3690441.79985",
    "final_y": "523123.620863",
    "longitude": "-90.0401346569656",
    "latitude": "29.932133989778308",
    "geocoded_column": {
      "latitude": "29.932133989778308",
      "longitude": "-90.0401346569656"
    }
  },
  {
    "service_request": "2023-1043978",
    "request_type": "Trash/Recycling",
    "request_reason": "Repair Trash Cart",
    "date_created": "2023-10-17T16:15:43.000",
    "date_modified": "2023-10-17T16:15:43.000",
    "request_status": "Pending",
    "responsible_agency": "Department of Sanitation",
    "final_address": "2315 Jasmine St",
    "address_councildis": "D",
    "status": "Assigned to Contractor",
    "contractor": "IV Waste",
    "rowid": "1043978",
    "final_x": "3685428.10025",
    "final_y": "548003.765522",
    "longitude": "-90.05508617635941",
    "latitude": "30.000700395965506",
    "geocoded_column": {
      "latitude": "30.000700395965506",
      "longitude": "-90.05508617635941"
    }
  },
  {
    "service_request": "2023-1043977",
    "request_type": "Traffic Signals/Signs/Striping/Streetlights",
    "request_reason": "Street Light Outage/Malfunction",
    "date_created": "2023-10-17T16:14:30.000",
    "date_modified": "2023-10-17T16:14:31.000",
    "request_status": "Pending",
    "responsible_agency": "Department of Public Works",
    "final_address": "2000 BLK L. B. Landry Ave",
    "address_councildis": "C",
    "status": "Assigned to Contractor",
    "contractor": "Legacy Professional Services",
    "rowid": "1043977",
    "final_x": "3689987.03502",
    "final_y": "523278.342995",
    "longitude": "-90.04156479324244",
    "latitude": "29.9325735282122",
    "geocoded_column": {
      "latitude": "29.9325735282122",
      "longitude": "-90.04156479324244"
    }
  },
  {
    "service_request": "2023-1043976",
    "request_type": "Traffic Signals/Signs/Striping/Streetlights",
    "request_reason": "Street Light Outage/Malfunction",
    "date_created": "2023-10-17T16:14:28.000",
    "date_modified": "2023-10-17T16:14:29.000",
    "request_status": "Pending",
    "responsible_agency": "Department of Public Works",
    "final_address": "4511 Michoud Blvd",
    "address_councildis": "E",
    "status": "Assigned to Contractor",
    "contractor": "Legacy Professional Services",
    "rowid": "1043976",
    "final_x": "3725772.00025",
    "final_y": "559318.625053",
    "longitude": "-89.92720017781144",
    "latitude": "30.030512516200748",
    "geocoded_column": {
      "latitude": "30.030512516200748",
      "longitude": "-89.92720017781144"
    }
  },
  {
    "service_request": "2023-1043975",
    "request_type": "Traffic Signals/Signs/Striping/Streetlights",
    "request_reason": "Street Light Outage/Malfunction",
    "date_created": "2023-10-17T16:11:58.000",
    "date_modified": "2023-10-17T16:11:58.000",
    "request_status": "Pending",
    "responsible_agency": "Department of Public Works",
    "final_address": "13900 Chef Menteur Hwy",
    "address_councildis": "E",
    "status": "Assigned to Contractor",
    "contractor": "Legacy Professional Services",
    "rowid": "1043975",
    "final_x": "3728014.31616",
    "final_y": "560176.281693",
    "longitude": "-89.92008110955125",
    "latitude": "30.03279486714193",
    "geocoded_column": {
      "latitude": "30.03279486714193",
      "longitude": "-89.92008110955125"
    }
  },
  {
    "service_request": "2023-1043974",
    "request_type": "Abandoned Vehicles",
    "request_reason": "Abandoned/Junk Vehicles",
    "date_created": "2023-10-17T16:11:45.000",
    "date_modified": "2023-10-17T16:11:45.000",
    "request_status": "Pending",
    "responsible_agency": "Department of Public Works",
    "final_address": "11801 W Barrington Dr",
    "address_councildis": "E",
    "status": "Pending",
    "rowid": "1043974",
    "final_x": "3714017.67883",
    "final_y": "565625.386658",
    "longitude": "-89.96410545699075",
    "latitude": "30.04824495089119",
    "geocoded_column": {
      "latitude": "30.04824495089119",
      "longitude": "-89.96410545699075"
    }
  },
  {
    "service_request": "2023-1043973",
    "request_type": "Abandoned Vehicles",
    "request_reason": "Abandoned/Junk Vehicles",
    "date_created": "2023-10-17T16:10:08.000",
    "date_modified": "2023-10-17T16:10:09.000",
    "request_status": "Pending",
    "responsible_agency": "Department of Public Works",
    "final_address": "2446 Jasmine St",
    "address_councildis": "D",
    "status": "Pending",
    "rowid": "1043973",
    "final_x": "3685960.20802",
    "final_y": "547969.996306",
    "longitude": "-90.05340640529406",
    "latitude": "30.000591210335386",
    "geocoded_column": {
      "latitude": "30.000591210335386",
      "longitude": "-90.05340640529406"
    }
  },
  {
    "service_request": "2023-1043972",
    "request_type": "Trash/Recycling",
    "request_reason": "Request a Large Item Pick Up",
    "date_created": "2023-10-17T16:07:18.000",
    "date_modified": "2023-10-17T16:07:19.000",
    "request_status": "Pending",
    "responsible_agency": "Department of Sanitation",
    "final_address": "6352 General Haig St",
    "address_councildis": "A",
    "status": "Assigned to Contractor",
    "contractor": "IV Waste",
    "rowid": "1043972",
    "final_x": "3670684.63387",
    "final_y": "549578.637203",
    "longitude": "-90.10160847123798",
    "latitude": "30.005474741488587",
    "geocoded_column": {
      "latitude": "30.005474741488587",
      "longitude": "-90.10160847123798"
    }
  },
  {
    "service_request": "2023-1043971",
    "request_type": "Trash/Recycling",
    "request_reason": "Illegal Dumping",
    "date_created": "2023-10-17T16:04:09.000",
    "date_modified": "2023-10-17T16:04:09.000",
    "request_status": "Pending",
    "responsible_agency": "Department of Code Enforcement",
    "final_address": "I 10 E & CROWDER EXIT",
    "address_councildis": "E",
    "status": "Pending",
    "rowid": "1043971",
    "final_x": "3703756.3",
    "final_y": "558341.98",
    "longitude": "-89.99680559675423",
    "latitude": "30.028551606788255",
    "geocoded_column": {
      "latitude": "30.028551606788255",
      "longitude": "-89.99680559675423"
    }
  },
  {
    "service_request": "2023-1043970",
    "request_type": "Trash/Recycling",
    "request_reason": "Order Trash Cart",
    "date_created": "2023-10-17T15:59:55.000",
    "date_modified": "2023-10-17T15:59:56.000",
    "request_status": "Pending",
    "responsible_agency": "Department of Sanitation",
    "final_address": "1205 Louisa St",
    "address_councildis": "C",
    "status": "Assigned to Contractor",
    "contractor": "IV Waste",
    "rowid": "1043970",
    "final_x": "3689710.89545",
    "final_y": "536272.817095",
    "longitude": "-90.04197421812543",
    "latitude": "29.968312417064976",
    "geocoded_column": {
      "latitude": "29.968312417064976",
      "longitude": "-90.04197421812543"
    }
  },
  {
    "service_request": "2023-1043969",
    "request_type": "Trash/Recycling",
    "request_reason": "Request a Large Item Pick Up",
    "date_created": "2023-10-17T15:59:29.000",
    "date_modified": "2023-10-17T15:59:30.000",
    "request_status": "Pending",
    "responsible_agency": "Department of Sanitation",
    "final_address": "2018 Shalett St",
    "address_councildis": "C",
    "status": "Assigned to Contractor",
    "contractor": "Richards Disposal",
    "rowid": "1043969",
    "final_x": "3694255.69603",
    "final_y": "523034.714683",
    "longitude": "-90.02809781765497",
    "latitude": "29.931770621170113",
    "geocoded_column": {
      "latitude": "29.931770621170113",
      "longitude": "-90.02809781765497"
    }
  },
  {
    "service_request": "2023-1043968",
    "request_type": "Roads/Drainage",
    "request_reason": "Street Subsidence (Sinking)",
    "date_created": "2023-10-17T15:55:23.000",
    "date_modified": "2023-10-17T15:55:24.000",
    "request_status": "Pending",
    "responsible_agency": "Department of Public Works",
    "final_address": "HICKORY ST & MONROE ST",
    "address_councildis": "A",
    "status": "Pending",
    "rowid": "1043968",
    "final_x": "3661802.7",
    "final_y": "531367.18",
    "longitude": "-90.1302726918523",
    "latitude": "29.955658835389492",
    "geocoded_column": {
      "latitude": "29.955658835389492",
      "longitude": "-90.1302726918523"
    }
  },
  {
    "service_request": "2023-1043967",
    "request_type": "Trash/Recycling",
    "request_reason": "Missed Trash Pick-Up",
    "date_created": "2023-10-17T15:54:18.000",
    "date_modified": "2023-10-17T15:54:19.000",
    "request_status": "Pending",
    "responsible_agency": "Department of Sanitation",
    "final_address": "11511 Morrison Rd",
    "address_councildis": "E",
    "status": "Assigned to Contractor",
    "contractor": "Waste Pro",
    "rowid": "1043967",
    "final_x": "3712545.59979",
    "final_y": "566033.916643",
    "longitude": "-89.96874265081156",
    "latitude": "30.04941652807791",
    "geocoded_column": {
      "latitude": "30.04941652807791",
      "longitude": "-89.96874265081156"
    }
  },
  {
    "service_request": "2023-1043965",
    "request_type": "Trash/Recycling",
    "request_reason": "Order Trash Cart",
    "date_created": "2023-10-17T15:49:49.000",
    "date_modified": "2023-10-17T15:49:50.000",
    "request_status": "Pending",
    "responsible_agency": "Department of Sanitation",
    "final_address": "3213 Louisiana Avenue Prkwy",
    "address_councildis": "B",
    "status": "Assigned to Contractor",
    "contractor": "Richards Disposal",
    "rowid": "1043965",
    "final_x": "3671992.94651",
    "final_y": "527040.202942",
    "longitude": "-90.09824271272085",
    "latitude": "29.94346294735673",
    "geocoded_column": {
      "latitude": "29.94346294735673",
      "longitude": "-90.09824271272085"
    }
  },
  {
    "service_request": "2023-1043964",
    "request_type": "Trash/Recycling",
    "request_reason": "Missed Trash Pick-Up",
    "date_created": "2023-10-17T15:49:27.000",
    "date_modified": "2023-10-17T15:49:28.000",
    "request_status": "Pending",
    "responsible_agency": "Department of Sanitation",
    "final_address": "7860 Unity Dr",
    "address_councildis": "E",
    "status": "Assigned to Contractor",
    "contractor": "Waste Pro",
    "rowid": "1043964",
    "final_x": "3711634.64542",
    "final_y": "567544.285732",
    "longitude": "-89.97156506437292",
    "latitude": "30.053599227966863",
    "geocoded_column": {
      "latitude": "30.053599227966863",
      "longitude": "-89.97156506437292"
    }
  },
  {
    "service_request": "2023-1043963",
    "request_type": "Trash/Recycling",
    "request_reason": "Order Trash Cart",
    "date_created": "2023-10-17T15:46:43.000",
    "date_modified": "2023-10-17T15:46:44.000",
    "request_status": "Pending",
    "responsible_agency": "Department of Sanitation",
    "final_address": "5126 Constance St",
    "address_councildis": "B",
    "status": "Assigned to Contractor",
    "contractor": "Richards Disposal",
    "rowid": "1043963",
    "final_x": "3668086.53575",
    "final_y": "518189.911862",
    "longitude": "-90.11087441664051",
    "latitude": "29.919242672680294",
    "geocoded_column": {
      "latitude": "29.919242672680294",
      "longitude": "-90.11087441664051"
    }
  },
  {
    "service_request": "2023-1043962",
    "request_type": "Traffic Signals/Signs/Striping/Streetlights",
    "request_reason": "Street Light Outage/Malfunction",
    "date_created": "2023-10-17T15:44:56.000",
    "date_modified": "2023-10-17T15:44:57.000",
    "request_status": "Pending",
    "responsible_agency": "Department of Public Works",
    "final_address": "S CLAIBORNE AVE & TOLEDANO ST",
    "address_councildis": "B",
    "status": "Assigned to Contractor",
    "contractor": "Legacy Professional Services",
    "rowid": "1043962",
    "final_x": "3672686.1",
    "final_y": "526316.28",
    "longitude": "-90.09607892276615",
    "latitude": "29.941451833708907",
    "geocoded_column": {
      "latitude": "29.941451833708907",
      "longitude": "-90.09607892276615"
    }
  },
  {
    "service_request": "2023-1043961",
    "request_type": "Trash/Recycling",
    "request_reason": "Request a Large Item Pick Up",
    "date_created": "2023-10-17T15:41:42.000",
    "date_modified": "2023-10-17T15:41:43.000",
    "request_status": "Pending",
    "responsible_agency": "Department of Sanitation",
    "final_address": "2038 Tennessee St",
    "address_councildis": "E",
    "status": "Assigned to Contractor",
    "contractor": "Waste Pro",
    "rowid": "1043961",
    "final_x": "3696658.60509",
    "final_y": "537998.211593",
    "longitude": "-90.01997069857079",
    "latitude": "29.972839506192795",
    "geocoded_column": {
      "latitude": "29.972839506192795",
      "longitude": "-90.01997069857079"
    }
  },
  {
    "service_request": "2023-1043960",
    "request_type": "Property Maintenance",
    "request_reason": "Property Maintenance",
    "date_created": "2023-10-17T15:41:23.000",
    "date_modified": "2023-10-17T15:41:24.000",
    "request_status": "Pending",
    "responsible_agency": "Department of Code Enforcement",
    "final_address": "2501 Somerset Dr",
    "address_councildis": "C",
    "status": "Pending",
    "rowid": "1043960",
    "final_x": "3702831.7505",
    "final_y": "521853.99161",
    "longitude": "-90.00106769948526",
    "latitude": "29.92825264137434",
    "geocoded_column": {
      "latitude": "29.92825264137434",
      "longitude": "-90.00106769948526"
    }
  },
  {
    "service_request": "2023-1043959",
    "request_type": "Roads/Drainage",
    "request_reason": "Street Subsidence (Sinking)",
    "date_created": "2023-10-17T15:39:20.000",
    "date_modified": "2023-10-17T15:39:20.000",
    "request_status": "Pending",
    "responsible_agency": "Department of Public Works",
    "final_address": "6000 BLK Perrier St",
    "address_councildis": "A",
    "status": "Pending",
    "rowid": "1043959",
    "final_x": "3664854.12203",
    "final_y": "520594.26503",
    "longitude": "-90.12099725448553",
    "latitude": "29.925948319039904",
    "geocoded_column": {
      "latitude": "29.925948319039904",
      "longitude": "-90.12099725448553"
    }
  },
  {
    "service_request": "2023-1043958",
    "request_type": "Trash/Recycling",
    "request_reason": "Request a Large Item Pick Up",
    "date_created": "2023-10-17T15:34:29.000",
    "date_modified": "2023-10-17T15:34:30.000",
    "request_status": "Pending",
    "responsible_agency": "Department of Sanitation",
    "final_address": "7330 Shaw Ave",
    "address_councildis": "E",
    "status": "Assigned to Contractor",
    "contractor": "Waste Pro",
    "rowid": "1043958",
    "final_x": "3707663.385",
    "final_y": "563311.915936",
    "longitude": "-89.98427460158726",
    "latitude": "30.042091080437718",
    "geocoded_column": {
      "latitude": "30.042091080437718",
      "longitude": "-89.98427460158726"
    }
  },
  {
    "service_request": "2023-1043957",
    "request_type": "Traffic Signals/Signs/Striping/Streetlights",
    "request_reason": "Traffic Signal Malfunctioning/Damaged",
    "date_created": "2023-10-17T15:34:25.000",
    "date_modified": "2023-10-17T15:34:25.000",
    "request_status": "Pending",
    "responsible_agency": "Department of Public Works",
    "final_address": "1003 Poydras St",
    "address_councildis": "B",
    "status": "Pending",
    "rowid": "1043957",
    "final_x": "3679497.39298",
    "final_y": "529734.364353",
    "longitude": "-90.07445577907251",
    "latitude": "29.950646437632663",
    "geocoded_column": {
      "latitude": "29.950646437632663",
      "longitude": "-90.07445577907251"
    }
  },
  {
    "service_request": "2023-1043956",
    "request_type": "Trash/Recycling",
    "request_reason": "Replace Trash Cart",
    "date_created": "2023-10-17T15:34:14.000",
    "date_modified": "2023-10-17T15:34:15.000",
    "request_status": "Pending",
    "responsible_agency": "Department of Sanitation",
    "final_address": "5124 Constance St",
    "address_councildis": "B",
    "status": "Assigned to Contractor",
    "contractor": "Richards Disposal",
    "rowid": "1043956",
    "final_x": "3668110.81428",
    "final_y": "518190.028982",
    "longitude": "-90.110797777427",
    "latitude": "29.919242282480507",
    "geocoded_column": {
      "latitude": "29.919242282480507",
      "longitude": "-90.110797777427"
    }
  },
  {
    "service_request": "2023-1043955",
    "request_type": "Trash/Recycling",
    "request_reason": "Request a Large Item Pick Up",
    "date_created": "2023-10-17T15:33:27.000",
    "date_modified": "2023-10-17T15:34:12.000",
    "request_status": "Pending",
    "responsible_agency": "Department of Sanitation",
    "final_address": "5018 Loyola Ave",
    "address_councildis": "B",
    "status": "Assigned to Contractor",
    "contractor": "Richards Disposal",
    "rowid": "1043955",
    "final_x": "3668643.9305",
    "final_y": "522813.860475",
    "longitude": "-90.10895904011636",
    "latitude": "29.931940700458362",
    "geocoded_column": {
      "latitude": "29.931940700458362",
      "longitude": "-90.10895904011636"
    }
  },
  {
    "service_request": "2023-1043954",
    "request_type": "Trash/Recycling",
    "request_reason": "Request a Large Item Pick Up",
    "date_created": "2023-10-17T15:32:41.000",
    "date_modified": "2023-10-17T15:32:42.000",
    "request_status": "Pending",
    "responsible_agency": "Department of Sanitation",
    "final_address": "2400 Hudson Pl",
    "address_councildis": "C",
    "status": "Assigned to Contractor",
    "contractor": "Richards Disposal",
    "rowid": "1043954",
    "final_x": "3703670.05591",
    "final_y": "522344.499578",
    "longitude": "-89.99840333602641",
    "latitude": "29.929574539983918",
    "geocoded_column": {
      "latitude": "29.929574539983918",
      "longitude": "-89.99840333602641"
    }
  },
  {
    "service_request": "2023-1043953",
    "request_type": "Roads/Drainage",
    "request_reason": "Pothole",
    "date_created": "2023-10-17T15:32:32.000",
    "date_modified": "2023-10-17T15:32:32.000",
    "request_status": "Pending",
    "responsible_agency": "Department of Public Works",
    "final_address": "4216 Chestnut St",
    "address_councildis": "B",
    "status": "Pending",
    "rowid": "1043953",
    "final_x": "3671574.31393",
    "final_y": "519539.203703",
    "longitude": "-90.09981939416457",
    "latitude": "29.922850019854593",
    "geocoded_column": {
      "latitude": "29.922850019854593",
      "longitude": "-90.09981939416457"
    }
  },
  {
    "service_request": "2023-1043952",
    "request_type": "Roads/Drainage",
    "request_reason": "Street Subsidence (Sinking)",
    "date_created": "2023-10-17T15:31:40.000",
    "date_modified": "2023-10-17T15:31:41.000",
    "request_status": "Pending",
    "responsible_agency": "Department of Public Works",
    "final_address": "3650 Plymouth Pl",
    "address_councildis": "C",
    "status": "Pending",
    "rowid": "1043952",
    "final_x": "3702815.25694",
    "final_y": "517208.281141",
    "longitude": "-90.00129025181778",
    "latitude": "29.915479067522813",
    "geocoded_column": {
      "latitude": "29.915479067522813",
      "longitude": "-90.00129025181778"
    }
  },
  {
    "service_request": "2023-1043951",
    "request_type": "Abandoned Vehicles",
    "request_reason": "Abandoned/Junk Vehicles",
    "date_created": "2023-10-17T15:30:33.000",
    "date_modified": "2023-10-17T15:30:33.000",
    "request_status": "Pending",
    "responsible_agency": "Department of Public Works",
    "final_address": "600 BLK Bartholomew St",
    "address_councildis": "C",
    "status": "Pending",
    "rowid": "1043951",
    "final_x": "3691383.47907",
    "final_y": "533631.489939",
    "longitude": "-90.03678652792337",
    "latitude": "29.960997757554352",
    "geocoded_column": {
      "latitude": "29.960997757554352",
      "longitude": "-90.03678652792337"
    }
  },
  {
    "service_request": "2023-1043950",
    "request_type": "Traffic Signals/Signs/Striping/Streetlights",
    "request_reason": "Traffic Signal Malfunctioning/Damaged",
    "date_created": "2023-10-17T15:30:16.000",
    "date_modified": "2023-10-17T15:30:16.000",
    "request_status": "Pending",
    "responsible_agency": "Department of Public Works",
    "final_address": "901 Poydras St",
    "address_councildis": "B",
    "status": "Pending",
    "rowid": "1043950",
    "final_x": "3679896.88411",
    "final_y": "529657.320385",
    "longitude": "-90.07319706680316",
    "latitude": "29.950422518247198",
    "geocoded_column": {
      "latitude": "29.950422518247198",
      "longitude": "-90.07319706680316"
    }
  },
  {
    "service_request": "2023-1043949",
    "request_type": "Abandoned Vehicles",
    "request_reason": "Abandoned/Junk Vehicles",
    "date_created": "2023-10-17T15:27:16.000",
    "date_modified": "2023-10-17T15:27:16.000",
    "request_status": "Pending",
    "responsible_agency": "Department of Public Works",
    "final_address": "600 BLK Bartholomew St",
    "address_councildis": "C",
    "status": "Pending",
    "rowid": "1043949",
    "final_x": "3691383.47907",
    "final_y": "533631.489939",
    "longitude": "-90.03678652792337",
    "latitude": "29.960997757554352",
    "geocoded_column": {
      "latitude": "29.960997757554352",
      "longitude": "-90.03678652792337"
    }
  },
  {
    "service_request": "2023-1043948",
    "request_type": "Trash/Recycling",
    "request_reason": "Order Trash Cart",
    "date_created": "2023-10-17T15:26:49.000",
    "date_modified": "2023-10-17T15:26:50.000",
    "request_status": "Pending",
    "responsible_agency": "Department of Sanitation",
    "final_address": "7105 Fig St",
    "address_councildis": "B",
    "status": "Assigned to Contractor",
    "contractor": "Richards Disposal",
    "rowid": "1043948",
    "final_x": "3667887.16193",
    "final_y": "531738.229699",
    "longitude": "-90.11104755762793",
    "latitude": "29.956502040670827",
    "geocoded_column": {
      "latitude": "29.956502040670827",
      "longitude": "-90.11104755762793"
    }
  },
  {
    "service_request": "2023-1043947",
    "request_type": "Trash/Recycling",
    "request_reason": "Order Trash Cart",
    "date_created": "2023-10-17T15:26:38.000",
    "date_modified": "2023-10-17T15:26:38.000",
    "request_status": "Pending",
    "responsible_agency": "Department of Sanitation",
    "final_address": "5124 Basinview Dr",
    "address_councildis": "E",
    "status": "Assigned to Contractor",
    "contractor": "Waste Pro",
    "rowid": "1043947",
    "final_x": "3698556.69258",
    "final_y": "556286.451162",
    "longitude": "-90.01331084161747",
    "latitude": "30.023065426564045",
    "geocoded_column": {
      "latitude": "30.023065426564045",
      "longitude": "-90.01331084161747"
    }
  },
  {
    "service_request": "2023-1043946",
    "request_type": "Trash/Recycling",
    "request_reason": "Repair Recycling Cart",
    "date_created": "2023-10-17T15:26:22.000",
    "date_modified": "2023-10-17T15:26:22.000",
    "request_status": "Pending",
    "responsible_agency": "Department of Sanitation",
    "final_address": "5234 Magazine St",
    "address_councildis": "B",
    "status": "Pending",
    "rowid": "1043946",
    "final_x": "3667729.12423",
    "final_y": "518581.865975",
    "longitude": "-90.11198940028763",
    "latitude": "29.920330903150273",
    "geocoded_column": {
      "latitude": "29.920330903150273",
      "longitude": "-90.11198940028763"
    }
  },
  {
    "service_request": "2023-1043945",
    "request_type": "Trash/Recycling",
    "request_reason": "Dead Animal Pick Up",
    "date_created": "2023-10-17T15:26:11.000",
    "date_modified": "2023-10-17T15:26:11.000",
    "request_status": "Pending",
    "responsible_agency": "Department of Sanitation",
    "final_address": "2720 Eagle St",
    "address_councildis": "A",
    "status": "Assigned to Contractor",
    "contractor": "Richards Disposal",
    "rowid": "1043945",
    "final_x": "3663835.67891",
    "final_y": "534198.579781",
    "longitude": "-90.12375885818753",
    "latitude": "29.963385413037205",
    "geocoded_column": {
      "latitude": "29.963385413037205",
      "longitude": "-90.12375885818753"
    }
  },
  {
    "service_request": "2023-1043944",
    "request_type": "Abandoned Vehicles",
    "request_reason": "Abandoned/Junk Vehicles",
    "date_created": "2023-10-17T15:25:15.000",
    "date_modified": "2023-10-17T15:25:15.000",
    "request_status": "Pending",
    "responsible_agency": "Department of Public Works",
    "final_address": "600 BLK Bartholomew St",
    "address_councildis": "C",
    "status": "Pending",
    "rowid": "1043944",
    "final_x": "3691383.47907",
    "final_y": "533631.489939",
    "longitude": "-90.03678652792337",
    "latitude": "29.960997757554352",
    "geocoded_column": {
      "latitude": "29.960997757554352",
      "longitude": "-90.03678652792337"
    }
  },
  {
    "service_request": "2023-1043943",
    "request_type": "Trash/Recycling",
    "request_reason": "Illegal Dumping",
    "date_created": "2023-10-17T15:23:21.000",
    "date_modified": "2023-10-17T15:23:21.000",
    "request_status": "Pending",
    "responsible_agency": "Department of Sanitation",
    "final_address": "3000 BLK First St",
    "address_councildis": "B",
    "status": "Pending",
    "rowid": "1043943",
    "final_x": "3674062.2542",
    "final_y": "527582.500397",
    "longitude": "-90.09169080858054",
    "latitude": "29.94489259391664",
    "geocoded_column": {
      "latitude": "29.94489259391664",
      "longitude": "-90.09169080858054"
    }
  },
  {
    "service_request": "2023-1043942",
    "request_type": "Roads/Drainage",
    "request_reason": "Pothole",
    "date_created": "2023-10-17T15:21:27.000",
    "date_modified": "2023-10-17T15:21:27.000",
    "request_status": "Pending",
    "responsible_agency": "Department of Public Works",
    "final_address": "1421 Constantinople St",
    "address_councildis": "B",
    "status": "Pending",
    "rowid": "1043942",
    "final_x": "3672433.24257",
    "final_y": "520667.657465",
    "longitude": "-90.09706965638372",
    "latitude": "29.925927453713577",
    "geocoded_column": {
      "latitude": "29.925927453713577",
      "longitude": "-90.09706965638372"
    }
  },
  {
    "service_request": "2023-1043941",
    "request_type": "Trash/Recycling",
    "request_reason": "Request a Large Item Pick Up",
    "date_created": "2023-10-17T15:20:32.000",
    "date_modified": "2023-10-17T15:20:33.000",
    "request_status": "Pending",
    "responsible_agency": "Department of Sanitation",
    "final_address": "607 Cherokee St",
    "address_councildis": "A",
    "status": "Assigned to Contractor",
    "contractor": "Richards Disposal",
    "rowid": "1043941",
    "final_x": "3662296.29843",
    "final_y": "525481.780861",
    "longitude": "-90.12890941716816",
    "latitude": "29.939461614078485",
    "geocoded_column": {
      "latitude": "29.939461614078485",
      "longitude": "-90.12890941716816"
    }
  },
  {
    "service_request": "2023-1043940",
    "request_type": "Abandoned Vehicles",
    "request_reason": "Abandoned/Junk Vehicles",
    "date_created": "2023-10-17T15:19:09.000",
    "date_modified": "2023-10-17T15:19:09.000",
    "request_status": "Pending",
    "responsible_agency": "Department of Public Works",
    "final_address": "2900 Johnny Jackson Jr Blvd",
    "address_councildis": "D",
    "status": "Inspected",
    "rowid": "1043940",
    "final_x": "3691309.68291",
    "final_y": "543082.269069",
    "longitude": "-90.03668184475085",
    "latitude": "29.986986344259915",
    "geocoded_column": {
      "latitude": "29.986986344259915",
      "longitude": "-90.03668184475085"
    }
  },
  {
    "service_request": "2023-1043939",
    "request_type": "Trash/Recycling",
    "request_reason": "Request a Large Item Pick Up",
    "date_created": "2023-10-17T15:18:31.000",
    "date_modified": "2023-10-17T15:18:32.000",
    "request_status": "Pending",
    "responsible_agency": "Department of Sanitation",
    "final_address": "804 Greenwood St",
    "address_councildis": "A",
    "status": "Assigned to Contractor",
    "contractor": "IV Waste",
    "rowid": "1043939",
    "final_x": "3668542.50599",
    "final_y": "542823.012941",
    "longitude": "-90.10860406999011",
    "latitude": "29.986962245463204",
    "geocoded_column": {
      "latitude": "29.986962245463204",
      "longitude": "-90.10860406999011"
    }
  },
  {
    "service_request": "2023-1043938",
    "request_type": "Trash/Recycling",
    "request_reason": "Request a Large Item Pick Up",
    "date_created": "2023-10-17T15:16:47.000",
    "date_modified": "2023-10-17T15:16:49.000",
    "request_status": "Pending",
    "responsible_agency": "Department of Sanitation",
    "final_address": "4842 Gabriel Dr",
    "address_councildis": "E",
    "status": "Assigned to Contractor",
    "contractor": "Waste Pro",
    "rowid": "1043938",
    "final_x": "3708759.61144",
    "final_y": "556382.21609",
    "longitude": "-89.98106859726059",
    "latitude": "30.023001607871134",
    "geocoded_column": {
      "latitude": "30.023001607871134",
      "longitude": "-89.98106859726059"
    }
  },
  {
    "service_request": "2023-1043937",
    "request_type": "Roads/Drainage",
    "request_reason": "Pothole",
    "date_created": "2023-10-17T15:15:08.000",
    "date_modified": "2023-10-17T15:15:08.000",
    "request_status": "Pending",
    "responsible_agency": "Department of Public Works",
    "final_address": "1312 Milan St",
    "address_councildis": "B",
    "status": "Pending",
    "rowid": "1043937",
    "final_x": "3671625.82823",
    "final_y": "520286.919608",
    "longitude": "-90.09963137110304",
    "latitude": "29.92490447494246",
    "geocoded_column": {
      "latitude": "29.92490447494246",
      "longitude": "-90.09963137110304"
    }
  },
  {
    "service_request": "2023-1043936",
    "request_type": "Trash/Recycling",
    "request_reason": "Request a Large Item Pick Up",
    "date_created": "2023-10-17T15:11:00.000",
    "date_modified": "2023-10-17T15:11:01.000",
    "request_status": "Pending",
    "responsible_agency": "Department of Sanitation",
    "final_address": "1322 N Lopez St",
    "address_councildis": "A",
    "status": "Assigned to Contractor",
    "contractor": "Richards Disposal",
    "rowid": "1043936",
    "final_x": "3676546.34414",
    "final_y": "539993.933195",
    "longitude": "-90.08342031573724",
    "latitude": "29.978945596859706",
    "geocoded_column": {
      "latitude": "29.978945596859706",
      "longitude": "-90.08342031573724"
    }
  },
  {
    "service_request": "2023-1043935",
    "request_type": "Trash/Recycling",
    "request_reason": "Request a Large Item Pick Up",
    "date_created": "2023-10-17T15:10:01.000",
    "date_modified": "2023-10-17T15:10:02.000",
    "request_status": "Pending",
    "responsible_agency": "Department of Sanitation",
    "final_address": "6070 Wright Rd",
    "address_councildis": "E",
    "status": "Assigned to Contractor",
    "contractor": "Waste Pro",
    "rowid": "1043935",
    "final_x": "3712874.50597",
    "final_y": "562930.13072",
    "longitude": "-89.96782002134972",
    "latitude": "30.040871596930888",
    "geocoded_column": {
      "latitude": "30.040871596930888",
      "longitude": "-89.96782002134972"
    }
  },
  {
    "service_request": "2023-1043934",
    "request_type": "Trash/Recycling",
    "request_reason": "Order Trash Cart",
    "date_created": "2023-10-17T15:06:29.000",
    "date_modified": "2023-10-17T15:06:29.000",
    "request_status": "Pending",
    "responsible_agency": "Department of Sanitation",
    "final_address": "853 Porteous St",
    "address_councildis": "A",
    "status": "Assigned to Contractor",
    "contractor": "IV Waste",
    "rowid": "1043934",
    "final_x": "3670017.41364",
    "final_y": "551310.432149",
    "longitude": "-90.103657659673",
    "latitude": "30.01025627444319",
    "geocoded_column": {
      "latitude": "30.01025627444319",
      "longitude": "-90.103657659673"
    }
  },
  {
    "service_request": "2023-1043933",
    "request_type": "Roads/Drainage",
    "request_reason": "Pothole",
    "date_created": "2023-10-17T15:05:14.000",
    "date_modified": "2023-10-17T15:05:14.000",
    "request_status": "Pending",
    "responsible_agency": "Department of Public Works",
    "final_address": "1315 Peniston St",
    "address_councildis": "B",
    "status": "Pending",
    "rowid": "1043933",
    "final_x": "3673101.31451",
    "final_y": "520423.11276",
    "longitude": "-90.09496908964098",
    "latitude": "29.925235197927364",
    "geocoded_column": {
      "latitude": "29.925235197927364",
      "longitude": "-90.09496908964098"
    }
  },
  {
    "service_request": "2023-1043932",
    "request_type": "Trash/Recycling",
    "request_reason": "Request a Large Item Pick Up",
    "date_created": "2023-10-17T15:03:29.000",
    "date_modified": "2023-10-17T15:03:30.000",
    "request_status": "Pending",
    "responsible_agency": "Department of Sanitation",
    "final_address": "1615 Lisbon St",
    "address_councildis": "D",
    "status": "Assigned to Contractor",
    "contractor": "IV Waste",
    "rowid": "1043932",
    "final_x": "3679069.3661",
    "final_y": "556270.297434",
    "longitude": "-90.07488705930703",
    "latitude": "30.02362389504491",
    "geocoded_column": {
      "latitude": "30.02362389504491",
      "longitude": "-90.07488705930703"
    }
  },
  {
    "service_request": "2023-1043931",
    "request_type": "Trash/Recycling",
    "request_reason": "Repair Recycling Cart",
    "date_created": "2023-10-17T15:01:19.000",
    "date_modified": "2023-10-17T15:01:20.000",
    "request_status": "Pending",
    "responsible_agency": "Department of Sanitation",
    "final_address": "438 S Murat St",
    "address_councildis": "A",
    "status": "Pending",
    "rowid": "1043931",
    "final_x": "3668789.7881",
    "final_y": "538118.737993",
    "longitude": "-90.10798189535947",
    "latitude": "29.974019811701975",
    "geocoded_column": {
      "latitude": "29.974019811701975",
      "longitude": "-90.10798189535947"
    }
  },
  {
    "service_request": "2023-1043930",
    "request_type": "Abandoned Vehicles",
    "request_reason": "Abandoned/Junk Vehicles",
    "date_created": "2023-10-17T14:53:47.000",
    "date_modified": "2023-10-17T14:53:48.000",
    "request_status": "Pending",
    "responsible_agency": "Department of Public Works",
    "final_address": "400 BLK N Claiborne Ave",
    "address_councildis": "B",
    "status": "Pending",
    "rowid": "1043930",
    "final_x": "3679256.15917",
    "final_y": "533800.242883",
    "longitude": "-90.07507649688958",
    "latitude": "29.9618335166283",
    "geocoded_column": {
      "latitude": "29.9618335166283",
      "longitude": "-90.07507649688958"
    }
  },
  {
    "service_request": "2023-1043929",
    "request_type": "Trash/Recycling",
    "request_reason": "Request a Large Item Pick Up",
    "date_created": "2023-10-17T14:53:31.000",
    "date_modified": "2023-10-17T14:53:31.000",
    "request_status": "Pending",
    "responsible_agency": "Department of Sanitation",
    "final_address": "79 Yosemite Dr",
    "address_councildis": "C",
    "status": "Assigned to Contractor",
    "contractor": "Richards Disposal",
    "rowid": "1043929",
    "final_x": "3699384.47965",
    "final_y": "516122.557876",
    "longitude": "-90.01215851446278",
    "latitude": "29.912602915927618",
    "geocoded_column": {
      "latitude": "29.912602915927618",
      "longitude": "-90.01215851446278"
    }
  },
  {
    "service_request": "2023-1043928",
    "request_type": "Trash/Recycling",
    "request_reason": "Order Recycling Cart",
    "date_created": "2023-10-17T14:51:05.000",
    "date_modified": "2023-10-17T14:51:06.000",
    "request_status": "Pending",
    "responsible_agency": "Department of Sanitation",
    "final_address": "9040 Lake Forest Blvd",
    "address_councildis": "E",
    "status": "Pending",
    "rowid": "1043928",
    "final_x": "3707681.63704",
    "final_y": "558355.286684",
    "longitude": "-89.98440133132121",
    "latitude": "30.028461716991384",
    "geocoded_column": {
      "latitude": "30.028461716991384",
      "longitude": "-89.98440133132121"
    }
  },
  {
    "service_request": "2023-1043927",
    "request_type": "Trash/Recycling",
    "request_reason": "Request a Large Item Pick Up",
    "date_created": "2023-10-17T14:48:45.000",
    "date_modified": "2023-10-17T14:48:46.000",
    "request_status": "Pending",
    "responsible_agency": "Department of Sanitation",
    "final_address": "4845 Marque Dr",
    "address_councildis": "E",
    "status": "Assigned to Contractor",
    "contractor": "Waste Pro",
    "rowid": "1043927",
    "final_x": "3710051.95256",
    "final_y": "556527.65545",
    "longitude": "-89.97697968690717",
    "latitude": "30.023359509684283",
    "geocoded_column": {
      "latitude": "30.023359509684283",
      "longitude": "-89.97697968690717"
    }
  },
  {
    "service_request": "2023-1043926",
    "request_type": "Trash/Recycling",
    "request_reason": "Request a Large Item Pick Up",
    "date_created": "2023-10-17T14:46:34.000",
    "date_modified": "2023-10-17T14:46:35.000",
    "request_status": "Pending",
    "responsible_agency": "Department of Sanitation",
    "final_address": "7727 Unity Dr",
    "address_councildis": "E",
    "status": "Assigned to Contractor",
    "contractor": "Waste Pro",
    "rowid": "1043926",
    "final_x": "3711915.46834",
    "final_y": "567341.076644",
    "longitude": "-89.97068510151018",
    "latitude": "30.05303130607755",
    "geocoded_column": {
      "latitude": "30.05303130607755",
      "longitude": "-89.97068510151018"
    }
  },
  {
    "service_request": "2023-1043925",
    "request_type": "Trash/Recycling",
    "request_reason": "Missed Trash Pick-Up",
    "date_created": "2023-10-17T14:45:41.000",
    "date_modified": "2023-10-17T14:45:42.000",
    "request_status": "Pending",
    "responsible_agency": "Department of Sanitation",
    "final_address": "7727 Unity Dr",
    "address_councildis": "E",
    "status": "Assigned to Contractor",
    "contractor": "Waste Pro",
    "rowid": "1043925",
    "final_x": "3711915.46834",
    "final_y": "567341.076644",
    "longitude": "-89.97068510151018",
    "latitude": "30.05303130607755",
    "geocoded_column": {
      "latitude": "30.05303130607755",
      "longitude": "-89.97068510151018"
    }
  },
  {
    "service_request": "2023-1043924",
    "request_type": "Traffic Signals/Signs/Striping/Streetlights",
    "request_reason": "Street Light Outage/Malfunction",
    "date_created": "2023-10-17T14:37:15.000",
    "date_modified": "2023-10-17T14:37:16.000",
    "request_status": "Pending",
    "responsible_agency": "Department of Public Works",
    "final_address": "10101 Deerfield Dr",
    "address_councildis": "E",
    "status": "Assigned to Contractor",
    "contractor": "Legacy Professional Services",
    "rowid": "1043924",
    "final_x": "3709554.35185",
    "final_y": "563314.76784",
    "longitude": "-89.97829837395467",
    "latitude": "30.04203757071828",
    "geocoded_column": {
      "latitude": "30.04203757071828",
      "longitude": "-89.97829837395467"
    }
  },
  {
    "service_request": "2023-1043923",
    "request_type": "Trash/Recycling",
    "request_reason": "Request a Large Item Pick Up",
    "date_created": "2023-10-17T14:35:39.000",
    "date_modified": "2023-10-17T14:35:40.000",
    "request_status": "Pending",
    "responsible_agency": "Department of Sanitation",
    "final_address": "4217 Elba St",
    "address_councildis": "B",
    "status": "Assigned to Contractor",
    "contractor": "Richards Disposal",
    "rowid": "1043923",
    "final_x": "3670233.01754",
    "final_y": "530149.611329",
    "longitude": "-90.10369392773273",
    "latitude": "29.95206484826827",
    "geocoded_column": {
      "latitude": "29.95206484826827",
      "longitude": "-90.10369392773273"
    }
  },
  {
    "service_request": "2023-1043922",
    "request_type": "Roads/Drainage",
    "request_reason": "Accessibility Ramps, Curbs and Sidewalk Repair",
    "date_created": "2023-10-17T14:33:02.000",
    "date_modified": "2023-10-17T14:33:02.000",
    "request_status": "Pending",
    "responsible_agency": "Department of Public Works",
    "final_address": "4626 Good Dr",
    "address_councildis": "E",
    "status": "Pending",
    "rowid": "1043922",
    "final_x": "3714774.9365",
    "final_y": "556204.549146",
    "longitude": "-89.96206844173324",
    "latitude": "30.022316526576475",
    "geocoded_column": {
      "latitude": "30.022316526576475",
      "longitude": "-89.96206844173324"
    }
  },
  {
    "service_request": "2023-1043921",
    "request_type": "Roads/Drainage",
    "request_reason": "Accessibility Ramps, Curbs and Sidewalk Repair",
    "date_created": "2023-10-17T14:30:48.000",
    "date_modified": "2023-10-17T14:30:49.000",
    "request_status": "Pending",
    "responsible_agency": "Department of Public Works",
    "final_address": "11640 Morrison Rd",
    "address_councildis": "E",
    "status": "Pending",
    "rowid": "1043921",
    "final_x": "3713035.9404",
    "final_y": "566157.422307",
    "longitude": "-89.96718823571427",
    "latitude": "30.049740052966136",
    "geocoded_column": {
      "latitude": "30.049740052966136",
      "longitude": "-89.96718823571427"
    }
  },
  {
    "service_request": "2023-1043920",
    "request_type": "Traffic Signals/Signs/Striping/Streetlights",
    "request_reason": "Street Light Outage/Malfunction",
    "date_created": "2023-10-17T14:28:25.000",
    "date_modified": "2023-10-17T14:28:26.000",
    "request_status": "Pending",
    "responsible_agency": "Department of Public Works",
    "final_address": "636 N Broad St",
    "address_councildis": "D",
    "status": "Assigned to Contractor",
    "contractor": "Legacy Professional Services",
    "rowid": "1043920",
    "final_x": "3676604.44891",
    "final_y": "536633.581447",
    "longitude": "-90.08335257723559",
    "latitude": "29.96970403713755",
    "geocoded_column": {
      "latitude": "29.96970403713755",
      "longitude": "-90.08335257723559"
    }
  },
  {
    "service_request": "2023-1043919",
    "request_type": "Trash/Recycling",
    "request_reason": "Missed Trash Pick-Up",
    "date_created": "2023-10-17T14:27:05.000",
    "date_modified": "2023-10-17T14:27:05.000",
    "request_status": "Pending",
    "responsible_agency": "Department of Sanitation",
    "final_address": "4227 Canal St",
    "address_councildis": "A",
    "status": "Assigned to Contractor",
    "contractor": "Richards Disposal",
    "rowid": "1043919",
    "final_x": "3670516.98324",
    "final_y": "538994.401482",
    "longitude": "-90.10249730148217",
    "latitude": "29.976376690047978",
    "geocoded_column": {
      "latitude": "29.976376690047978",
      "longitude": "-90.10249730148217"
    }
  },
  {
    "service_request": "2023-1043918",
    "request_type": "Abandoned Vehicles",
    "request_reason": "Abandoned/Junk Vehicles",
    "date_created": "2023-10-17T14:23:14.000",
    "date_modified": "2023-10-17T14:23:14.000",
    "request_status": "Pending",
    "responsible_agency": "Department of Public Works",
    "final_address": "1401 Canal St",
    "address_councildis": "C",
    "status": "Pending",
    "rowid": "1043918",
    "final_x": "3679468.65333",
    "final_y": "532106.147907",
    "longitude": "-90.07446424816251",
    "latitude": "29.95716891180708",
    "geocoded_column": {
      "latitude": "29.95716891180708",
      "longitude": "-90.07446424816251"
    }
  },
  {
    "service_request": "2023-1043917",
    "request_type": "Trash/Recycling",
    "request_reason": "Request a Large Item Pick Up",
    "date_created": "2023-10-17T14:22:31.000",
    "date_modified": "2023-10-17T14:22:32.000",
    "request_status": "Pending",
    "responsible_agency": "Department of Sanitation",
    "final_address": "3511 Herald St",
    "address_councildis": "C",
    "status": "Assigned to Contractor",
    "contractor": "Richards Disposal",
    "rowid": "1043917",
    "final_x": "3702158.21015",
    "final_y": "518111.247286",
    "longitude": "-90.00333104091969",
    "latitude": "29.91798290123987",
    "geocoded_column": {
      "latitude": "29.91798290123987",
      "longitude": "-90.00333104091969"
    }
  },
  {
    "service_request": "2023-1043916",
    "request_type": "Safety & Permits",
    "request_reason": "Licenses & Permits",
    "date_created": "2023-10-17T14:13:54.000",
    "date_modified": "2023-10-17T14:13:54.000",
    "request_status": "Pending",
    "responsible_agency": "Safety and Permits",
    "final_address": "6260 Louisville St",
    "address_councildis": "A",
    "status": "Pending",
    "rowid": "1043916",
    "final_x": "3667838.98785",
    "final_y": "549142.000915",
    "longitude": "-90.11061324939001",
    "latitude": "30.004357946519885",
    "geocoded_column": {
      "latitude": "30.004357946519885",
      "longitude": "-90.11061324939001"
    }
  },
  {
    "service_request": "2023-1043915",
    "request_type": "Abandoned Vehicles",
    "request_reason": "Abandoned/Junk Vehicles",
    "date_created": "2023-10-17T14:08:23.000",
    "date_modified": "2023-10-17T14:08:23.000",
    "request_status": "Pending",
    "responsible_agency": "Department of Public Works",
    "final_address": "5300 BLK Constance St",
    "address_councildis": "B",
    "status": "Pending",
    "rowid": "1043915",
    "final_x": "3667276.17591",
    "final_y": "518291.386105",
    "longitude": "-90.113428911014",
    "latitude": "29.919545442340482",
    "geocoded_column": {
      "latitude": "29.919545442340482",
      "longitude": "-90.113428911014"
    }
  },
  {
    "service_request": "2023-1043913",
    "request_type": "Traffic Signals/Signs/Striping/Streetlights",
    "request_reason": "Street Light Outage/Malfunction",
    "date_created": "2023-10-17T14:03:49.000",
    "date_modified": "2023-10-17T14:03:50.000",
    "request_status": "Pending",
    "responsible_agency": "Department of Public Works",
    "final_address": "Delgado Drive & Taft Place",
    "address_councildis": "A",
    "status": "Assigned to Contractor",
    "contractor": "Legacy Professional Services",
    "rowid": "1043913",
    "final_x": "3673921.72302",
    "final_y": "540802.784907",
    "longitude": "-90.09168220239715",
    "latitude": "29.981248123769635",
    "geocoded_column": {
      "latitude": "29.981248123769635",
      "longitude": "-90.09168220239715"
    }
  },
  {
    "service_request": "2023-1043911",
    "request_type": "Trash/Recycling",
    "request_reason": "Order Trash Cart",
    "date_created": "2023-10-17T14:01:46.000",
    "date_modified": "2023-10-17T14:01:47.000",
    "request_status": "Pending",
    "responsible_agency": "Department of Sanitation",
    "final_address": "1822 Fats Domino Ave",
    "address_councildis": "E",
    "status": "Assigned to Contractor",
    "contractor": "Waste Pro",
    "rowid": "1043911",
    "final_x": "3698716.56535",
    "final_y": "536565.904647",
    "longitude": "-90.01352341360156",
    "latitude": "29.96883615719035",
    "geocoded_column": {
      "latitude": "29.96883615719035",
      "longitude": "-90.01352341360156"
    }
  },
  {
    "service_request": "2023-1043910",
    "request_type": "Trash/Recycling",
    "request_reason": "Request a Large Item Pick Up",
    "date_created": "2023-10-17T14:00:46.000",
    "date_modified": "2023-10-17T14:00:46.000",
    "request_status": "Pending",
    "responsible_agency": "Department of Sanitation",
    "final_address": "6021 General Haig St",
    "address_councildis": "A",
    "status": "Assigned to Contractor",
    "contractor": "IV Waste",
    "rowid": "1043910",
    "final_x": "3670644.97102",
    "final_y": "547264.235665",
    "longitude": "-90.10181235981547",
    "latitude": "29.99911211718884",
    "geocoded_column": {
      "latitude": "29.99911211718884",
      "longitude": "-90.10181235981547"
    }
  },
  {
    "service_request": "2023-1043909",
    "request_type": "Roads/Drainage",
    "request_reason": "Street Subsidence (Sinking)",
    "date_created": "2023-10-17T13:58:43.000",
    "date_modified": "2023-10-17T13:58:43.000",
    "request_status": "Pending",
    "responsible_agency": "Department of Public Works",
    "final_address": "1735 N Broad St",
    "address_councildis": "D",
    "status": "Pending",
    "rowid": "1043909",
    "final_x": "3679673.24002",
    "final_y": "541014.822731",
    "longitude": "-90.07350893424868",
    "latitude": "29.981658530040605",
    "geocoded_column": {
      "latitude": "29.981658530040605",
      "longitude": "-90.07350893424868"
    }
  },
  {
    "service_request": "2023-1043908",
    "request_type": "Trash/Recycling",
    "request_reason": "Request a Large Item Pick Up",
    "date_created": "2023-10-17T13:58:14.000",
    "date_modified": "2023-10-17T13:58:16.000",
    "request_status": "Pending",
    "responsible_agency": "Department of Sanitation",
    "final_address": "3514 Elysian Fields Ave",
    "address_councildis": "D",
    "status": "Assigned to Contractor",
    "contractor": "IV Waste",
    "rowid": "1043908",
    "final_x": "3684104.42165",
    "final_y": "545644.79048",
    "longitude": "-90.05935062027868",
    "latitude": "29.99425459516148",
    "geocoded_column": {
      "latitude": "29.99425459516148",
      "longitude": "-90.05935062027868"
    }
  },
  {
    "service_request": "2023-1043907",
    "request_type": "Roads/Drainage",
    "request_reason": "Pothole",
    "date_created": "2023-10-17T13:57:49.000",
    "date_modified": "2023-10-17T13:57:49.000",
    "request_status": "Pending",
    "responsible_agency": "Department of Public Works",
    "final_address": "901 Navarre St",
    "address_councildis": "A",
    "status": "Pending",
    "rowid": "1043907",
    "final_x": "3669556.7689",
    "final_y": "543800.72507",
    "longitude": "-90.10536727773662",
    "latitude": "29.989620771418835",
    "geocoded_column": {
      "latitude": "29.989620771418835",
      "longitude": "-90.10536727773662"
    }
  },
  {
    "service_request": "2023-1043906",
    "request_type": "Traffic Signals/Signs/Striping/Streetlights",
    "request_reason": "Street Light Knocked Down/Leaning",
    "date_created": "2023-10-17T13:53:34.000",
    "date_modified": "2023-10-17T13:53:35.000",
    "request_status": "Pending",
    "responsible_agency": "Department of Public Works",
    "final_address": "4238 St Charles Ave",
    "address_councildis": "B",
    "status": "Pending",
    "contractor": "Legacy Professional Services",
    "rowid": "1043906",
    "final_x": "3671334.07195",
    "final_y": "520822.535417",
    "longitude": "-90.10053416144487",
    "latitude": "29.92638588149361",
    "geocoded_column": {
      "latitude": "29.92638588149361",
      "longitude": "-90.10053416144487"
    }
  },
  {
    "service_request": "2023-1043905",
    "request_type": "Trash/Recycling",
    "request_reason": "Repair Trash Cart",
    "date_created": "2023-10-17T13:49:47.000",
    "date_modified": "2023-10-17T13:49:48.000",
    "request_status": "Pending",
    "responsible_agency": "Department of Sanitation",
    "final_address": "708 Thayer St",
    "address_councildis": "C",
    "status": "Assigned to Contractor",
    "contractor": "Richards Disposal",
    "rowid": "1043905",
    "final_x": "3689534.17615",
    "final_y": "528912.367808",
    "longitude": "-90.04279410376016",
    "latitude": "29.94807921014022",
    "geocoded_column": {
      "latitude": "29.94807921014022",
      "longitude": "-90.04279410376016"
    }
  },
  {
    "service_request": "2023-1043904",
    "request_type": "Traffic Signals/Signs/Striping/Streetlights",
    "request_reason": "Traffic Signal Malfunctioning/Damaged",
    "date_created": "2023-10-17T13:46:44.000",
    "date_modified": "2023-10-17T13:46:45.000",
    "request_status": "Pending",
    "responsible_agency": "Department of Public Works",
    "final_address": "ELYSIAN FIELDS AVE & I 610 W",
    "address_councildis": "D",
    "status": "Pending",
    "rowid": "1043904",
    "final_x": "3684394.0",
    "final_y": "544639.28",
    "longitude": "-90.05847122150196",
    "latitude": "29.991480943716812",
    "geocoded_column": {
      "latitude": "29.991480943716812",
      "longitude": "-90.05847122150196"
    }
  },
  {
    "service_request": "2023-1043903",
    "request_type": "Trash/Recycling",
    "request_reason": "Repair Trash Cart",
    "date_created": "2023-10-17T13:46:21.000",
    "date_modified": "2023-10-17T13:46:22.000",
    "request_status": "Pending",
    "responsible_agency": "Department of Sanitation",
    "final_address": "9425 Oleander St",
    "address_councildis": "A",
    "status": "Assigned to Contractor",
    "contractor": "Richards Disposal",
    "rowid": "1043903",
    "final_x": "3663246.97767",
    "final_y": "536921.383944",
    "longitude": "-90.12552728732109",
    "latitude": "29.970889304111214",
    "geocoded_column": {
      "latitude": "29.970889304111214",
      "longitude": "-90.12552728732109"
    }
  },
  {
    "service_request": "2023-1043902",
    "request_type": "Roads/Drainage",
    "request_reason": "Debris in Roadway",
    "date_created": "2023-10-17T13:46:13.000",
    "date_modified": "2023-10-17T13:46:13.000",
    "request_status": "Pending",
    "responsible_agency": "Department of Public Works",
    "final_address": "624 Dumaine St",
    "address_councildis": "C",
    "status": "Pending",
    "rowid": "1043902",
    "final_x": "3683099.89077",
    "final_y": "532936.217348",
    "longitude": "-90.06296886975792",
    "latitude": "29.959341123874445",
    "geocoded_column": {
      "latitude": "29.959341123874445",
      "longitude": "-90.06296886975792"
    }
  },
  {
    "service_request": "2023-1043901",
    "request_type": "Trash/Recycling",
    "request_reason": "Order Recycling Cart",
    "date_created": "2023-10-17T13:44:15.000",
    "date_modified": "2023-10-17T13:44:16.000",
    "request_status": "Pending",
    "responsible_agency": "Department of Sanitation",
    "final_address": "5207 N Rampart St",
    "address_councildis": "E",
    "status": "Pending",
    "rowid": "1043901",
    "final_x": "3696495.02474",
    "final_y": "533708.757893",
    "longitude": "-90.02064250839582",
    "latitude": "29.961050191383666",
    "geocoded_column": {
      "latitude": "29.961050191383666",
      "longitude": "-90.02064250839582"
    }
  },