[
  {
    "service_request": "2025-1212159",
    "request_type": "Trash/Recycling",
    "request_reason": "Order Recycling Cart",
    "date_created": "2025-07-23T22:46:37.000",
    "date_modified": "2025-07-23T22:46:39.000",
    "request_status": "Pending",
    "responsible_agency": "Department of Sanitation",
    "final_address": "3 Admiralty Ct",
    "address_councildis": "C",
    "status": "Pending",
    "rowid": "1212159",
    "final_x": "3703840.19044",
    "final_y": "522665.774778",
    "longitude": "-89.9978544354956",
    "latitude": "29.930452483501654",
    "geocoded_column": {
      "latitude": "29.930452483501654",
      "longitude": "-89.9978544354956"
    }
  },
  {
    "service_request": "2025-1212158",
    "request_type": "Streetlights",
    "request_reason": "Streetlight Outage/Malfunction",
    "date_created": "2025-07-23T22:33:59.000",
    "date_modified": "2025-07-23T22:34:01.000",
    "request_status": "Pending",
    "responsible_agency": "Department of Public Works",
    "final_address": "761 Allen Toussaint Blvd",
    "address_councildis": "D",
    "status": "Pending",
    "contractor": "Legacy Professional Services",
    "rowid": "1212158",
    "final_x": "3669815.87367",
    "final_y": "554760.889368",
    "longitude": "-90.10417746210787",
    "latitude": "30.019749756787952",
    "geocoded_column": {
      "latitude": "30.019749756787952",
      "longitude": "-90.10417746210787"
    }
  },
  {
    "service_request": "2025-1212157",
    "request_type": "Abandoned Vehicles",
    "request_reason": "Abandoned/Junk Vehicles",
    "date_created": "2025-07-23T21:51:46.000",
    "date_modified": "2025-07-23T21:51:49.000",
    "request_status": "Pending",
    "responsible_agency": "Department of Public Works",
    "final_address": "7401 West End Blvd",
    "address_councildis": "D",
    "status": "Pending",
    "rowid": "1212157",
    "final_x": "3667121.19201",
    "final_y": "555929.937625",
    "longitude": "-90.11265245837201",
    "latitude": "30.023043431453477",
    "geocoded_column": {
      "latitude": "30.023043431453477",
      "longitude": "-90.11265245837201"
    }
  },
  {
    "service_request": "2025-1212156",
    "request_type": "General Services",
    "request_reason": "General Service Request",
    "date_created": "2025-07-23T21:33:23.000",
    "date_modified": "2025-07-23T21:33:25.000",
    "request_status": "Pending",
    "responsible_agency": "Orleans Parish Communication District",
    "final_address": "101 Allen Toussaint Blvd",
    "address_councildis": "D",
    "status": "Pending",
    "rowid": "1212156",
    "final_x": "3667078.52308",
    "final_y": "555294.448409",
    "longitude": "-90.11280867210165",
    "latitude": "30.02129731128112",
    "geocoded_column": {
      "latitude": "30.02129731128112",
      "longitude": "-90.11280867210165"
    }
  },
  {
    "service_request": "2025-1212155",
    "request_type": "Streetlights",
    "request_reason": "Streetlight Outage/Malfunction",
    "date_created": "2025-07-23T21:28:17.000",
    "date_modified": "2025-07-23T21:28:18.000",
    "request_status": "Pending",
    "responsible_agency": "Department of Public Works",
    "final_address": "4345 St Bernard Ave",
    "address_councildis": "D",
    "status": "Pending",
    "contractor": "Legacy Professional Services",
    "rowid": "1212155",
    "final_x": "3676907.5405",
    "final_y": "548717.937619",
    "longitude": "-90.0819786086643",
    "latitude": "30.002922722331938",
    "geocoded_column": {
      "latitude": "30.002922722331938",
      "longitude": "-90.0819786086643"
    }
  },
  {
    "service_request": "2025-1212154",
    "request_type": "Streetlights",
    "request_reason": "Streetlight Outage/Malfunction",
    "date_created": "2025-07-23T21:27:43.000",
    "date_modified": "2025-07-23T21:27:45.000",
    "request_status": "Pending",
    "responsible_agency": "Department of Public Works",
    "final_address": "4345 St Bernard Ave",
    "address_councildis": "D",
    "status": "Pending",
    "contractor": "Legacy Professional Services",
    "rowid": "1212154",
    "final_x": "3676907.5405",
    "final_y": "548717.937619",
    "longitude": "-90.0819786086643",
    "latitude": "30.002922722331938",
    "geocoded_column": {
      "latitude": "30.002922722331938",
      "longitude": "-90.0819786086643"
    }
  },
  {
    "service_request": "2025-1212153",
    "request_type": "Abandoned Vehicles",
    "request_reason": "Abandoned/Junk Vehicles",
    "date_created": "2025-07-23T20:41:35.000",
    "date_modified": "2025-07-23T20:41:38.000",
    "request_status": "Pending",
    "responsible_agency": "Department of Public Works",
    "final_address": "2633 Iberville St",
    "address_councildis": "B",
    "status": "Pending",
    "rowid": "1212153",
    "final_x": "3675907.41582",
    "final_y": "535339.781958",
    "longitude": "-90.08559836514091",
    "latitude": "29.966167417021545",
    "geocoded_column": {
      "latitude": "29.966167417021545",
      "longitude": "-90.08559836514091"
    }
  },
  {
    "service_request": "2025-1212152",
    "request_type": "Trash/Recycling",
    "request_reason": "Order Second Trash Cart",
    "date_created": "2025-07-23T20:31:16.000",
    "date_modified": "2025-07-23T20:31:18.000",
    "request_status": "Pending",
    "responsible_agency": "Department of Sanitation",
    "final_address": "4935 Charlene Dr",
    "address_councildis": "E",
    "status": "Assigned to Contractor",
    "contractor": "Waste Pro",
    "rowid": "1212152",
    "final_x": "3707848.33412",
    "final_y": "556763.086362",
    "longitude": "-89.98393383220558",
    "latitude": "30.024078391847194",
    "geocoded_column": {
      "latitude": "30.024078391847194",
      "longitude": "-89.98393383220558"
    }
  },
  {
    "service_request": "2025-1212151",
    "request_type": "Property Maintenance",
    "request_reason": "Property Maintenance",
    "date_created": "2025-07-23T20:26:23.000",
    "date_modified": "2025-07-23T20:26:24.000",
    "request_status": "Pending",
    "responsible_agency": "Department of Code Enforcement",
    "final_address": "4947 Charlene Dr",
    "address_councildis": "E",
    "status": "Pending",
    "rowid": "1212151",
    "final_x": "3707839.48241",
    "final_y": "556849.70857",
    "longitude": "-89.98395857841219",
    "latitude": "30.02431685574397",
    "geocoded_column": {
      "latitude": "30.02431685574397",
      "longitude": "-89.98395857841219"
    }
  },
  {
    "service_request": "2025-1212150",
    "request_type": "Trash/Recycling",
    "request_reason": "Replace Trash Cart",
    "date_created": "2025-07-23T20:25:20.000",
    "date_modified": "2025-07-23T20:25:22.000",
    "request_status": "Pending",
    "responsible_agency": "Department of Sanitation",
    "final_address": "2714 Esplanade Ave",
    "address_councildis": "A",
    "status": "Assigned to Contractor",
    "contractor": "IV Waste",
    "rowid": "1212150",
    "final_x": "3677607.25474",
    "final_y": "539320.327882",
    "longitude": "-90.08009282225673",
    "latitude": "29.977061550864693",
    "geocoded_column": {
      "latitude": "29.977061550864693",
      "longitude": "-90.08009282225673"
    }
  },
  {
    "service_request": "2025-1212149",
    "request_type": "Trash/Recycling",
    "request_reason": "Request a Large Item Pick Up",
    "date_created": "2025-07-23T20:15:04.000",
    "date_modified": "2025-07-23T20:15:14.000",
    "request_status": "Pending",
    "responsible_agency": "Department of Sanitation",
    "final_address": "2669 Frankfort St",
    "address_councildis": "D",
    "status": "Assigned to Contractor",
    "contractor": "IV Waste",
    "rowid": "1212149",
    "final_x": "3686877.43599",
    "final_y": "557212.430939",
    "longitude": "-90.05018186409828",
    "latitude": "30.025976308203568",
    "geocoded_column": {
      "latitude": "30.025976308203568",
      "longitude": "-90.05018186409828"
    }
  },
  {
    "service_request": "2025-1212148",
    "request_type": "Streetlights",
    "request_reason": "Streetlight Outage/Malfunction",
    "date_created": "2025-07-23T20:02:07.000",
    "date_modified": "2025-07-23T20:02:09.000",
    "request_status": "Pending",
    "responsible_agency": "Department of Public Works",
    "final_address": "6826 Colbert St",
    "address_councildis": "A",
    "status": "Pending",
    "contractor": "Legacy Professional Services",
    "rowid": "1212148",
    "final_x": "3667823.43508",
    "final_y": "552940.035479",
    "longitude": "-90.11053433777438",
    "latitude": "30.01480166941467",
    "geocoded_column": {
      "latitude": "30.01480166941467",
      "longitude": "-90.11053433777438"
    }
  },
  {
    "service_request": "2025-1212147",
    "request_type": "Streetlights",
    "request_reason": "Streetlight Outage/Malfunction",
    "date_created": "2025-07-23T19:59:47.000",
    "date_modified": "2025-07-23T19:59:49.000",
    "request_status": "Pending",
    "responsible_agency": "Department of Public Works",
    "final_address": "6958 Fleur-De-Lis Dr",
    "address_councildis": "A",
    "status": "Pending",
    "contractor": "Legacy Professional Services",
    "rowid": "1212147",
    "final_x": "3665433.84711",
    "final_y": "554179.421912",
    "longitude": "-90.11804278167155",
    "latitude": "30.01827944887259",
    "geocoded_column": {
      "latitude": "30.01827944887259",
      "longitude": "-90.11804278167155"
    }
  },
  {
    "service_request": "2025-1212146",
    "request_type": "Property Maintenance",
    "request_reason": "Property Maintenance",
    "date_created": "2025-07-23T19:52:47.000",
    "date_modified": "2025-07-23T19:52:50.000",
    "request_status": "Pending",
    "responsible_agency": "Department of Code Enforcement",
    "final_address": "6826 Colbert St",
    "address_councildis": "A",
    "status": "Pending",
    "rowid": "1212146",
    "final_x": "3667823.43508",
    "final_y": "552940.035479",
    "longitude": "-90.11053433777438",
    "latitude": "30.01480166941467",
    "geocoded_column": {
      "latitude": "30.01480166941467",
      "longitude": "-90.11053433777438"
    }
  },
  {
    "service_request": "2025-1212145",
    "request_type": "Abandoned Vehicles",
    "request_reason": "Abandoned/Junk Vehicles",
    "date_created": "2025-07-23T19:43:31.000",
    "date_modified": "2025-07-23T19:43:32.000",
    "request_status": "Pending",
    "responsible_agency": "Department of Public Works",
    "final_address": "1816 N Gayoso St",
    "address_councildis": "D",
    "status": "Pending",
    "rowid": "1212145",
    "final_x": "3679268.2125",
    "final_y": "542095.151884",
    "longitude": "-90.07475072147152",
    "latitude": "29.984641297589334",
    "geocoded_column": {
      "latitude": "29.984641297589334",
      "longitude": "-90.07475072147152"
    }
  },
  {
    "service_request": "2025-1212144",
    "request_type": "Trash/Recycling",
    "request_reason": "Order Recycling Cart",
    "date_created": "2025-07-23T19:39:36.000",
    "date_modified": "2025-07-23T19:39:39.000",
    "request_status": "Pending",
    "responsible_agency": "Department of Sanitation",
    "final_address": "7600 Fieldston Rd",
    "address_councildis": "E",
    "status": "Pending",
    "rowid": "1212144",
    "final_x": "3700448.8968",
    "final_y": "560530.771614",
    "longitude": "-90.0071767180702",
    "latitude": "30.034675597375333",
    "geocoded_column": {
      "latitude": "30.034675597375333",
      "longitude": "-90.0071767180702"
    }
  },
  {
    "service_request": "2025-1212143",
    "request_type": "Trash/Recycling",
    "request_reason": "Order Second Trash Cart",
    "date_created": "2025-07-23T19:29:11.000",
    "date_modified": "2025-07-23T19:29:13.000",
    "request_status": "Pending",
    "responsible_agency": "Department of Sanitation",
    "final_address": "2219 Soniat St",
    "address_councildis": "B",
    "status": "Assigned to Contractor",
    "contractor": "IV Waste",
    "rowid": "1212143",
    "final_x": "3668550.86881",
    "final_y": "523731.250363",
    "longitude": "-90.10922188765346",
    "latitude": "29.93446596294852",
    "geocoded_column": {
      "latitude": "29.93446596294852",
      "longitude": "-90.10922188765346"
    }
  },
  {
    "service_request": "2025-1212142",
    "request_type": "Trash/Recycling",
    "request_reason": "Replace Trash Cart",
    "date_created": "2025-07-23T19:21:54.000",
    "date_modified": "2025-07-23T19:21:56.000",
    "request_status": "Pending",
    "responsible_agency": "Department of Sanitation",
    "final_address": "2219 Soniat St",
    "address_councildis": "B",
    "status": "Assigned to Contractor",
    "contractor": "IV Waste",
    "rowid": "1212142",
    "final_x": "3668550.86881",
    "final_y": "523731.250363",
    "longitude": "-90.10922188765346",
    "latitude": "29.93446596294852",
    "geocoded_column": {
      "latitude": "29.93446596294852",
      "longitude": "-90.10922188765346"
    }
  },
  {
    "service_request": "2025-1212141",
    "request_type": "Safety & Permits",
    "request_reason": "Zoning Enforcement",
    "date_created": "2025-07-23T19:17:04.000",
    "date_modified": "2025-07-23T19:17:05.000",
    "request_status": "Pending",
    "responsible_agency": "Safety and Permits",
    "final_address": "3500 Loyola Ave",
    "address_councildis": "B",
    "status": "Pending",
    "rowid": "1212141",
    "final_x": "3672958.26939",
    "final_y": "523315.194363",
    "longitude": "-90.09532200100921",
    "latitude": "29.93319174051027",
    "geocoded_column": {
      "latitude": "29.93319174051027",
      "longitude": "-90.09532200100921"
    }
  },
  {
    "service_request": "2025-1212140",
    "request_type": "Trash/Recycling",
    "request_reason": "Repair Trash Cart",
    "date_created": "2025-07-23T19:06:04.000",
    "date_modified": "2025-07-23T19:06:06.000",
    "request_status": "Pending",
    "responsible_agency": "Department of Sanitation",
    "final_address": "4309 Genoa St",
    "address_councildis": "E",
    "status": "Assigned to Contractor",
    "contractor": "Waste Pro",
    "rowid": "1212140",
    "final_x": "3760880.59145",
    "final_y": "573201.015849",
    "longitude": "-89.81567847914471",
    "latitude": "30.067451447798",
    "geocoded_column": {
      "latitude": "30.067451447798",
      "longitude": "-89.81567847914471"
    }
  },
  {
    "service_request": "2025-1212139",
    "request_type": "Property Maintenance",
    "request_reason": "Property Maintenance",
    "date_created": "2025-07-23T19:05:01.000",
    "date_modified": "2025-07-23T19:05:03.000",
    "request_status": "Pending",
    "responsible_agency": "Department of Code Enforcement",
    "final_address": "1818 Lamanche St",
    "address_councildis": "E",
    "status": "Pending",
    "rowid": "1212139",
    "final_x": "3699066.12784",
    "final_y": "536465.548423",
    "longitude": "-90.01242313389774",
    "latitude": "29.968549137920537",
    "geocoded_column": {
      "latitude": "29.968549137920537",
      "longitude": "-90.01242313389774"
    }
  },
  {
    "service_request": "2025-1212138",
    "request_type": "Streetlights",
    "request_reason": "Streetlight Outage/Malfunction",
    "date_created": "2025-07-23T18:59:01.000",
    "date_modified": "2025-07-23T18:59:03.000",
    "request_status": "Pending",
    "responsible_agency": "Department of Public Works",
    "final_address": "4309 Genoa St",
    "address_councildis": "E",
    "status": "Pending",
    "contractor": "Legacy Professional Services",
    "rowid": "1212138",
    "final_x": "3760880.59145",
    "final_y": "573201.015849",
    "longitude": "-89.81567847914471",
    "latitude": "30.067451447798",
    "geocoded_column": {
      "latitude": "30.067451447798",
      "longitude": "-89.81567847914471"
    }
  },
  {
    "service_request": "2025-1212137",
    "request_type": "Trash/Recycling",
    "request_reason": "Request a Large Item Pick Up",
    "date_created": "2025-07-23T18:10:54.000",
    "date_modified": "2025-07-23T18:10:57.000",
    "request_status": "Pending",
    "responsible_agency": "Department of Sanitation",
    "final_address": "14010 Kingswood Dr",
    "address_councildis": "E",
    "status": "Assigned to Contractor",
    "contractor": "Waste Pro",
    "rowid": "1212137",
    "final_x": "3719355.32268",
    "final_y": "568422.321189",
    "longitude": "-89.94712869413846",
    "latitude": "30.05575890777665",
    "geocoded_column": {
      "latitude": "30.05575890777665",
      "longitude": "-89.94712869413846"
    }
  },
  {
    "service_request": "2025-1212136",
    "request_type": "Utility Poles",
    "request_reason": "Wires Sagging/Hanging Low",
    "date_created": "2025-07-23T18:02:44.000",
    "date_modified": "2025-07-23T18:02:57.000",
    "request_status": "Pending",
    "responsible_agency": "Utility Company Collective",
    "final_address": "2018 Cambronne St",
    "address_councildis": "A",
    "status": "Pending",
    "rowid": "1212136",
    "final_x": "3663143.28243",
    "final_y": "531326.667842",
    "longitude": "-90.12604093603818",
    "latitude": "29.955508669672373",
    "geocoded_column": {
      "latitude": "29.955508669672373",
      "longitude": "-90.12604093603818"
    }
  },
  {
    "service_request": "2025-1212135",
    "request_type": "Property Maintenance",
    "request_reason": "Property Maintenance",
    "date_created": "2025-07-23T17:57:07.000",
    "date_modified": "2025-07-23T17:57:09.000",
    "request_status": "Pending",
    "responsible_agency": "Department of Code Enforcement",
    "final_address": "2037 Cambronne St",
    "address_councildis": "A",
    "status": "Pending",
    "rowid": "1212135",
    "final_x": "3663283.29901",
    "final_y": "531373.598978",
    "longitude": "-90.12559724998488",
    "latitude": "29.955633657871353",
    "geocoded_column": {
      "latitude": "29.955633657871353",
      "longitude": "-90.12559724998488"
    }
  },
  {
    "service_request": "2025-1212134",
    "request_type": "Trash/Recycling",
    "request_reason": "Replace Trash Cart",
    "date_created": "2025-07-23T17:56:16.000",
    "date_modified": "2025-07-23T17:56:18.000",
    "request_status": "Pending",
    "responsible_agency": "Department of Sanitation",
    "final_address": "2161 Robin St",
    "address_councildis": "D",
    "status": "Assigned to Contractor",
    "contractor": "IV Waste",
    "rowid": "1212134",
    "final_x": "3683514.38095",
    "final_y": "551881.582038",
    "longitude": "-90.06099571640982",
    "latitude": "30.011421552699908",
    "geocoded_column": {
      "latitude": "30.011421552699908",
      "longitude": "-90.06099571640982"
    }
  },
  {
    "service_request": "2025-1212133",
    "request_type": "Trash/Recycling",
    "request_reason": "Replace Trash Cart",
    "date_created": "2025-07-23T17:52:03.000",
    "date_modified": "2025-07-23T17:52:05.000",
    "request_status": "Pending",
    "responsible_agency": "Department of Sanitation",
    "final_address": "1414 Eleonore St",
    "address_councildis": "A",
    "status": "Assigned to Contractor",
    "contractor": "IV Waste",
    "rowid": "1212133",
    "final_x": "3665610.43341",
    "final_y": "521236.343545",
    "longitude": "-90.11858830533228",
    "latitude": "29.92769180780533",
    "geocoded_column": {
      "latitude": "29.92769180780533",
      "longitude": "-90.11858830533228"
    }
  },
  {
    "service_request": "2025-1212132",
    "request_type": "Trash/Recycling",
    "request_reason": "Request a Large Item Pick Up",
    "date_created": "2025-07-23T17:48:40.000",
    "date_modified": "2025-07-23T17:48:42.000",
    "request_status": "Pending",
    "responsible_agency": "Department of Sanitation",
    "final_address": "3464 Annunciation St",
    "address_councildis": "B",
    "status": "Assigned to Contractor",
    "contractor": "IV Waste",
    "rowid": "1212132",
    "final_x": "3674936.32475",
    "final_y": "518360.52671",
    "longitude": "-90.0892472289196",
    "latitude": "29.919509090571676",
    "geocoded_column": {
      "latitude": "29.919509090571676",
      "longitude": "-90.0892472289196"
    }
  },
  {
    "service_request": "2025-1212131",
    "request_type": "Property Maintenance",
    "request_reason": "Property Maintenance",
    "date_created": "2025-07-23T17:45:50.000",
    "date_modified": "2025-07-23T17:45:52.000",
    "request_status": "Pending",
    "responsible_agency": "Department of Code Enforcement",
    "final_address": "7730 Cohn St",
    "address_councildis": "A",
    "status": "Pending",
    "rowid": "1212131",
    "final_x": "3664497.45709",
    "final_y": "529336.647617",
    "longitude": "-90.12183135947927",
    "latitude": "29.949997457307795",
    "geocoded_column": {
      "latitude": "29.949997457307795",
      "longitude": "-90.12183135947927"
    }
  },
  {
    "service_request": "2025-1212130",
    "request_type": "Streetlights",
    "request_reason": "New Streetlight Request",
    "date_created": "2025-07-23T17:40:20.000",
    "date_modified": "2025-07-23T17:40:21.000",
    "request_status": "Pending",
    "responsible_agency": "Department of Public Works",
    "final_address": "2300 BLK Coliseum St",
    "address_councildis": "B",
    "status": "Pending",
    "contractor": "Legacy Professional Services",
    "rowid": "1212130",
    "final_x": "3677711.7574",
    "final_y": "522510.106014",
    "longitude": "-90.08034333745147",
    "latitude": "29.930835935819797",
    "geocoded_column": {
      "latitude": "29.930835935819797",
      "longitude": "-90.08034333745147"
    }
  },
  {
    "service_request": "2025-1212129",
    "request_type": "Trash/Recycling",
    "request_reason": "Repair Trash Cart",
    "date_created": "2025-07-23T17:39:07.000",
    "date_modified": "2025-07-23T17:39:11.000",
    "request_status": "Pending",
    "responsible_agency": "Department of Sanitation",
    "final_address": "3630 Upperline St",
    "address_councildis": "B",
    "status": "Assigned to Contractor",
    "contractor": "IV Waste",
    "rowid": "1212129",
    "final_x": "3669259.35322",
    "final_y": "528291.855616",
    "longitude": "-90.10683110111466",
    "latitude": "29.946985321607634",
    "geocoded_column": {
      "latitude": "29.946985321607634",
      "longitude": "-90.10683110111466"
    }
  },
  {
    "service_request": "2025-1212128",
    "request_type": "Street and Traffic Signs",
    "request_reason": "Stop Sign Missing or Damaged",
    "date_created": "2025-07-23T17:33:30.000",
    "date_modified": "2025-07-23T17:33:31.000",
    "request_status": "Pending",
    "responsible_agency": "Department of Public Works",
    "final_address": "1600 BLK Iberville St",
    "address_councildis": "B",
    "status": "Pending",
    "rowid": "1212128",
    "final_x": "3678839.96118",
    "final_y": "532997.30584",
    "longitude": "-90.07641859724",
    "latitude": "29.95963827208522",
    "geocoded_column": {
      "latitude": "29.95963827208522",
      "longitude": "-90.07641859724"
    }
  },
  {
    "service_request": "2025-1212127",
    "request_type": "Mosquito, Termite & Rodent Control",
    "request_reason": "Rodent Complaint (Mice & Rats)",
    "date_created": "2025-07-23T17:31:54.000",
    "date_modified": "2025-07-23T17:31:56.000",
    "request_status": "Pending",
    "responsible_agency": "Mosquito, Termite & Rodent Control Board",
    "final_address": "3421 Baronne St",
    "address_councildis": "B",
    "status": "Pending",
    "rowid": "1212127",
    "final_x": "3673686.76526",
    "final_y": "522173.026938",
    "longitude": "-90.09306121264684",
    "latitude": "29.930029487143866",
    "geocoded_column": {
      "latitude": "29.930029487143866",
      "longitude": "-90.09306121264684"
    }
  },
  {
    "service_request": "2025-1212126",
    "request_type": "Trash/Recycling",
    "request_reason": "Replace Trash Cart",
    "date_created": "2025-07-23T17:30:10.000",
    "date_modified": "2025-07-23T17:30:11.000",
    "request_status": "Pending",
    "responsible_agency": "Department of Sanitation",
    "final_address": "2163 Robin St",
    "address_councildis": "D",
    "status": "Assigned to Contractor",
    "contractor": "IV Waste",
    "rowid": "1212126",
    "final_x": "3683530.94345",
    "final_y": "551881.064086",
    "longitude": "-90.06094340691457",
    "latitude": "30.01141962282515",
    "geocoded_column": {
      "latitude": "30.01141962282515",
      "longitude": "-90.06094340691457"
    }
  },
  {
    "service_request": "2025-1212125",
    "request_type": "Parks & Parkways",
    "request_reason": "Request Tree Service (Right of Way/Public Property)",
    "date_created": "2025-07-23T17:29:24.000",
    "date_modified": "2025-07-23T17:29:26.000",
    "request_status": "Pending",
    "responsible_agency": "Department of Parks & Parkway",
    "final_address": "2900 BLK Carondelet St",
    "address_councildis": "B",
    "status": "Pending",
    "rowid": "1212125",
    "final_x": "3675153.57026",
    "final_y": "522487.787161",
    "longitude": "-90.08841995102678",
    "latitude": "29.930851237891318",
    "geocoded_column": {
      "latitude": "29.930851237891318",
      "longitude": "-90.08841995102678"
    }
  },
  {
    "service_request": "2025-1212124",
    "request_type": "Abandoned Vehicles",
    "request_reason": "Abandoned/Junk Vehicles",
    "date_created": "2025-07-23T17:19:03.000",
    "date_modified": "2025-07-23T17:19:05.000",
    "request_status": "Pending",
    "responsible_agency": "Department of Public Works",
    "final_address": "3511 Franklin Ave",
    "address_councildis": "D",
    "status": "Pending",
    "rowid": "1212124",
    "final_x": "3687241.74722",
    "final_y": "545857.03112",
    "longitude": "-90.04943273899279",
    "latitude": "29.99474189496151",
    "geocoded_column": {
      "latitude": "29.99474189496151",
      "longitude": "-90.04943273899279"
    }
  },
  {
    "service_request": "2025-1212123",
    "request_type": "City-Owned Cemeteries",
    "request_reason": "Stop Sign Missing or Damaged",
    "date_created": "2025-07-23T17:16:36.000",
    "date_modified": "2025-07-23T17:16:38.000",
    "request_status": "Pending",
    "responsible_agency": "Department of Public Works",
    "final_address": "200 BLK S Saint Patrick St",
    "address_councildis": "A",
    "status": "Pending",
    "rowid": "1212123",
    "final_x": "3668751.37736",
    "final_y": "539359.724546",
    "longitude": "-90.10806129539976",
    "latitude": "29.9774332365208",
    "geocoded_column": {
      "latitude": "29.9774332365208",
      "longitude": "-90.10806129539976"
    }
  },
  {
    "service_request": "2025-1212122",
    "request_type": "Abandoned Vehicles",
    "request_reason": "Abandoned/Junk Vehicles",
    "date_created": "2025-07-23T17:15:51.000",
    "date_modified": "2025-07-23T17:15:52.000",
    "request_status": "Pending",
    "responsible_agency": "Department of Public Works",
    "final_address": "3237 Gibson St",
    "address_councildis": "D",
    "status": "Pending",
    "rowid": "1212122",
    "final_x": "3679071.65736",
    "final_y": "544391.496975",
    "longitude": "-90.0752919193673",
    "latitude": "29.990961378039025",
    "geocoded_column": {
      "latitude": "29.990961378039025",
      "longitude": "-90.0752919193673"
    }
  },
  {
    "service_request": "2025-1212121",
    "request_type": "Trash/Recycling",
    "request_reason": "Replace Trash Cart",
    "date_created": "2025-07-23T17:12:13.000",
    "date_modified": "2025-07-23T17:12:15.000",
    "request_status": "Pending",
    "responsible_agency": "Department of Sanitation",
    "final_address": "335 West Robert E Lee Blvd",
    "address_councildis": "A",
    "status": "Assigned to Contractor",
    "contractor": "IV Waste",
    "rowid": "1212121",
    "final_x": "3665237.28884",
    "final_y": "554972.046872",
    "longitude": "-90.1186372862344",
    "latitude": "30.020464619324457",
    "geocoded_column": {
      "latitude": "30.020464619324457",
      "longitude": "-90.1186372862344"
    }
  },
  {
    "service_request": "2025-1212120",
    "request_type": "Trash/Recycling",
    "request_reason": "Order Recycling Cart",
    "date_created": "2025-07-23T17:10:54.000",
    "date_modified": "2025-07-23T17:10:56.000",
    "request_status": "Pending",
    "responsible_agency": "Department of Sanitation",
    "final_address": "268 Bellaire Dr",
    "address_councildis": "A",
    "status": "Pending",
    "rowid": "1212120",
    "final_x": "3663853.72871",
    "final_y": "541328.795468",
    "longitude": "-90.12346411193339",
    "latitude": "29.982990618148392",
    "geocoded_column": {
      "latitude": "29.982990618148392",
      "longitude": "-90.12346411193339"
    }
  },
  {
    "service_request": "2025-1212119",
    "request_type": "Abandoned Vehicles",
    "request_reason": "Abandoned/Junk Vehicles",
    "date_created": "2025-07-23T17:08:49.000",
    "date_modified": "2025-07-23T17:08:50.000",
    "request_status": "Pending",
    "responsible_agency": "Department of Public Works",
    "final_address": "6780 Bundy Rd",
    "address_councildis": "E",
    "status": "Pending",
    "rowid": "1212119",
    "final_x": "3707667.36056",
    "final_y": "559399.082141",
    "longitude": "-89.98440761470137",
    "latitude": "30.031332206853786",
    "geocoded_column": {
      "latitude": "30.031332206853786",
      "longitude": "-89.98440761470137"
    }
  },
  {
    "service_request": "2025-1212118",
    "request_type": "General Services",
    "request_reason": "General Service Request",
    "date_created": "2025-07-23T17:07:48.000",
    "date_modified": "2025-07-23T17:07:50.000",
    "request_status": "Pending",
    "responsible_agency": "Orleans Parish Communication District",
    "final_address": "6960 Pontchartrain Blvd, New Orleans, Louisiana, 70124",
    "address_councildis": "A",
    "status": "Pending",
    "rowid": "1212118",
    "final_x": "3666390.79444",
    "final_y": "554140.75772",
    "longitude": "-90.11502047173417",
    "latitude": "30.01814519381278",
    "geocoded_column": {
      "latitude": "30.01814519381278",
      "longitude": "-90.11502047173417"
    }
  },
  {
    "service_request": "2025-1212117",
    "request_type": "Streetlights",
    "request_reason": "Streetlight Outage/Malfunction",
    "date_created": "2025-07-23T17:04:53.000",
    "date_modified": "2025-07-23T17:04:55.000",
    "request_status": "Pending",
    "responsible_agency": "Department of Public Works",
    "final_address": "1130 Seventh St",
    "address_councildis": "B",
    "status": "Pending",
    "contractor": "Legacy Professional Services",
    "rowid": "1212117",
    "final_x": "3676207.48654",
    "final_y": "520543.514808",
    "longitude": "-90.08515974106382",
    "latitude": "29.925473592914738",
    "geocoded_column": {
      "latitude": "29.925473592914738",
      "longitude": "-90.08515974106382"
    }
  },
  {
    "service_request": "2025-1212116",
    "request_type": "Trash/Recycling",
    "request_reason": "Missed Trash Pick-Up",
    "date_created": "2025-07-23T16:59:22.000",
    "date_modified": "2025-07-23T16:59:24.000",
    "request_status": "Pending",
    "responsible_agency": "Department of Sanitation",
    "final_address": "8 LaSalle Pl",
    "address_councildis": "A",
    "status": "Assigned to Contractor",
    "contractor": "IV Waste",
    "rowid": "1212116",
    "final_x": "3665998.39277",
    "final_y": "524076.822588",
    "longitude": "-90.11726844317425",
    "latitude": "29.935490908652106",
    "geocoded_column": {
      "latitude": "29.935490908652106",
      "longitude": "-90.11726844317425"
    }
  },
  {
    "service_request": "2025-1212115",
    "request_type": "Streetlights",
    "request_reason": "Streetlight Outage/Malfunction",
    "date_created": "2025-07-23T16:57:45.000",
    "date_modified": "2025-07-23T16:57:46.000",
    "request_status": "Pending",
    "responsible_agency": "Department of Public Works",
    "final_address": "2800 BLK Prytania St",
    "address_councildis": "B",
    "status": "Pending",
    "contractor": "Legacy Professional Services",
    "rowid": "1212115",
    "final_x": "3676102.89349",
    "final_y": "522021.877004",
    "longitude": "-90.08543908549876",
    "latitude": "29.929541742067183",
    "geocoded_column": {
      "latitude": "29.929541742067183",
      "longitude": "-90.08543908549876"
    }
  },
  {
    "service_request": "2025-1212114",
    "request_type": "Trash/Recycling",
    "request_reason": "Order Second Trash Cart",
    "date_created": "2025-07-23T16:52:22.000",
    "date_modified": "2025-07-23T16:52:24.000",
    "request_status": "Pending",
    "responsible_agency": "Department of Sanitation",
    "final_address": "6950 Vicksburg St",
    "address_councildis": "A",
    "status": "Assigned to Contractor",
    "contractor": "IV Waste",
    "rowid": "1212114",
    "final_x": "3669398.24865",
    "final_y": "553717.826711",
    "longitude": "-90.10553233984268",
    "latitude": "30.016894016123338",
    "geocoded_column": {
      "latitude": "30.016894016123338",
      "longitude": "-90.10553233984268"
    }
  },
  {
    "service_request": "2025-1212113",
    "request_type": "Trash/Recycling",
    "request_reason": "Repair Trash Cart",
    "date_created": "2025-07-23T16:51:52.000",
    "date_modified": "2025-07-23T16:51:54.000",
    "request_status": "Pending",
    "responsible_agency": "Department of Sanitation",
    "final_address": "4734 Louisa Dr",
    "address_councildis": "D",
    "status": "Assigned to Contractor",
    "contractor": "IV Waste",
    "rowid": "1212113",
    "final_x": "3690784.76508",
    "final_y": "551150.566037",
    "longitude": "-90.03805177821324",
    "latitude": "30.00918754623661",
    "geocoded_column": {
      "latitude": "30.00918754623661",
      "longitude": "-90.03805177821324"
    }
  },
  {
    "service_request": "2025-1212112",
    "request_type": "Property Maintenance",
    "request_reason": "Property Maintenance",
    "date_created": "2025-07-23T16:49:52.000",
    "date_modified": "2025-07-23T16:49:54.000",
    "request_status": "Pending",
    "responsible_agency": "Department of Code Enforcement",
    "final_address": "1408 Reynes St",
    "address_councildis": "E",
    "status": "Pending",
    "rowid": "1212112",
    "final_x": "3696215.37757",
    "final_y": "535457.370694",
    "longitude": "-90.02146235910473",
    "latitude": "29.96586706239284",
    "geocoded_column": {
      "latitude": "29.96586706239284",
      "longitude": "-90.02146235910473"
    }
  },
  {
    "service_request": "2025-1212110",
    "request_type": "Trash/Recycling",
    "request_reason": "Start Trash Service",
    "date_created": "2025-07-23T16:47:15.000",
    "date_modified": "2025-07-23T16:47:17.000",
    "request_status": "Pending",
    "responsible_agency": "Department of Sanitation",
    "final_address": "8015 Spruce St",
    "address_councildis": "A",
    "status": "Assigned to Contractor",
    "contractor": "IV Waste",
    "rowid": "1212110",
    "final_x": "3664126.36365",
    "final_y": "530259.196225",
    "longitude": "-90.12297231019498",
    "latitude": "29.952544951112564",
    "geocoded_column": {
      "latitude": "29.952544951112564",
      "longitude": "-90.12297231019498"
    }
  },
  {
    "service_request": "2025-1212109",
    "request_type": "Streetlights",
    "request_reason": "New Streetlight Request",
    "date_created": "2025-07-23T16:47:07.000",
    "date_modified": "2025-07-23T16:47:08.000",
    "request_status": "Pending",
    "responsible_agency": "Department of Public Works",
    "final_address": "WASHINGTON AVE & PRYTANIA ST",
    "address_councildis": "B",
    "status": "Pending",
    "contractor": "Legacy Professional Services",
    "rowid": "1212109",
    "final_x": "3676219.7",
    "final_y": "522095.38",
    "longitude": "-90.0850678203977",
    "latitude": "29.929740353041314",
    "geocoded_column": {
      "latitude": "29.929740353041314",
      "longitude": "-90.0850678203977"
    }
  },
  {
    "service_request": "2025-1212108",
    "request_type": "Trash/Recycling",
    "request_reason": "Order Recycling Cart",
    "date_created": "2025-07-23T16:46:45.000",
    "date_modified": "2025-07-23T16:46:46.000",
    "request_status": "Pending",
    "responsible_agency": "Department of Sanitation",
    "final_address": "8015 Spruce St",
    "address_councildis": "A",
    "status": "Pending",
    "rowid": "1212108",
    "final_x": "3664126.36365",
    "final_y": "530259.196225",
    "longitude": "-90.12297231019498",
    "latitude": "29.952544951112564",
    "geocoded_column": {
      "latitude": "29.952544951112564",
      "longitude": "-90.12297231019498"
    }
  },
  {
    "service_request": "2025-1212107",
    "request_type": "Trash/Recycling",
    "request_reason": "Order Trash Cart",
    "date_created": "2025-07-23T16:46:13.000",
    "date_modified": "2025-07-23T16:46:14.000",
    "request_status": "Pending",
    "responsible_agency": "Department of Sanitation",
    "final_address": "8015 Spruce St",
    "address_councildis": "A",
    "status": "Assigned to Contractor",
    "contractor": "IV Waste",
    "rowid": "1212107",
    "final_x": "3664126.36365",
    "final_y": "530259.196225",
    "longitude": "-90.12297231019498",
    "latitude": "29.952544951112564",
    "geocoded_column": {
      "latitude": "29.952544951112564",
      "longitude": "-90.12297231019498"
    }
  },
  {
    "service_request": "2025-1212106",
    "request_type": "Streetlights",
    "request_reason": "New Streetlight Request",
    "date_created": "2025-07-23T16:40:43.000",
    "date_modified": "2025-07-23T16:40:45.000",
    "request_status": "Pending",
    "responsible_agency": "Department of Public Works",
    "final_address": "2415 Prytania St",
    "address_councildis": "B",
    "status": "Pending",
    "contractor": "Legacy Professional Services",
    "rowid": "1212106",
    "final_x": "3677114.4381",
    "final_y": "522760.06713",
    "longitude": "-90.08222037605393",
    "latitude": "29.931541193985968",
    "geocoded_column": {
      "latitude": "29.931541193985968",
      "longitude": "-90.08222037605393"
    }
  },
  {
    "service_request": "2025-1212105",
    "request_type": "Drainage",
    "request_reason": "Drainage Manhole Cover Missing or Damaged",
    "date_created": "2025-07-23T16:38:06.000",
    "date_modified": "2025-07-23T16:38:08.000",
    "request_status": "Pending",
    "responsible_agency": "Sewerage & Water Board",
    "final_address": "11041 Kinneil Rd",
    "address_councildis": "E",
    "status": "Pending",
    "rowid": "1212105",
    "final_x": "3711680.70629",
    "final_y": "564566.614113",
    "longitude": "-89.97153133397583",
    "latitude": "30.04541033198751",
    "geocoded_column": {
      "latitude": "30.04541033198751",
      "longitude": "-89.97153133397583"
    }
  },
  {
    "service_request": "2025-1212104",
    "request_type": "Trash/Recycling",
    "request_reason": "Request a Large Item Pick Up",
    "date_created": "2025-07-23T16:38:02.000",
    "date_modified": "2025-07-23T16:38:04.000",
    "request_status": "Pending",
    "responsible_agency": "Department of Sanitation",
    "final_address": "4220 Dryades St",
    "address_councildis": "B",
    "status": "Assigned to Contractor",
    "contractor": "IV Waste",
    "rowid": "1212104",
    "final_x": "3671331.80903",
    "final_y": "521936.902522",
    "longitude": "-90.10050345681123",
    "latitude": "29.929450100893042",
    "geocoded_column": {
      "latitude": "29.929450100893042",
      "longitude": "-90.10050345681123"
    }
  },
  {
    "service_request": "2025-1212103",
    "request_type": "Trash/Recycling",
    "request_reason": "Repair Trash Cart",
    "date_created": "2025-07-23T16:34:48.000",
    "date_modified": "2025-07-23T16:34:50.000",
    "request_status": "Pending",
    "responsible_agency": "Department of Sanitation",
    "final_address": "5902 Garfield St",
    "address_councildis": "A",
    "status": "Assigned to Contractor",
    "contractor": "IV Waste",
    "rowid": "1212103",
    "final_x": "3665690.40967",
    "final_y": "521348.465849",
    "longitude": "-90.11833208535641",
    "latitude": "29.927997777156044",
    "geocoded_column": {
      "latitude": "29.927997777156044",
      "longitude": "-90.11833208535641"
    }
  },
  {
    "service_request": "2025-1212102",
    "request_type": "Trash/Recycling",
    "request_reason": "Request a Large Item Pick Up",
    "date_created": "2025-07-23T16:33:58.000",
    "date_modified": "2025-07-23T16:33:59.000",
    "request_status": "Pending",
    "responsible_agency": "Department of Sanitation",
    "final_address": "11041 Kinneil Rd",
    "address_councildis": "E",
    "status": "Assigned to Contractor",
    "contractor": "Waste Pro",
    "rowid": "1212102",
    "final_x": "3711680.70629",
    "final_y": "564566.614113",
    "longitude": "-89.97153133397583",
    "latitude": "30.04541033198751",
    "geocoded_column": {
      "latitude": "30.04541033198751",
      "longitude": "-89.97153133397583"
    }
  },
  {
    "service_request": "2025-1212101",
    "request_type": "Roads and Streets",
    "request_reason": "Abandoned Service Cut",
    "date_created": "2025-07-23T16:31:37.000",
    "date_modified": "2025-07-23T16:31:38.000",
    "request_status": "Pending",
    "responsible_agency": "Department of Public Works",
    "final_address": "2025 St Claude Ave",
    "address_councildis": "C",
    "status": "Pending",
    "rowid": "1212101",
    "final_x": "3684519.2998",
    "final_y": "536347.650823",
    "longitude": "-90.0583668572522",
    "latitude": "29.96867804258925",
    "geocoded_column": {
      "latitude": "29.96867804258925",
      "longitude": "-90.0583668572522"
    }
  },
  {
    "service_request": "2025-1212100",
    "request_type": "Property Maintenance",
    "request_reason": "Property Maintenance",
    "date_created": "2025-07-23T16:29:59.000",
    "date_modified": "2025-07-23T16:30:02.000",
    "request_status": "Pending",
    "responsible_agency": "Department of Code Enforcement",
    "final_address": "1837 St Anthony St",
    "address_councildis": "D",
    "status": "Pending",
    "rowid": "1212100",
    "final_x": "3683362.52476",
    "final_y": "539073.511754",
    "longitude": "-90.06192449632783",
    "latitude": "29.976208554581525",
    "geocoded_column": {
      "latitude": "29.976208554581525",
      "longitude": "-90.06192449632783"
    }
  },
  {
    "service_request": "2025-1212099",
    "request_type": "Trash/Recycling",
    "request_reason": "Missed Trash Pick-Up",
    "date_created": "2025-07-23T16:28:21.000",
    "date_modified": "2025-07-23T16:28:23.000",
    "request_status": "Pending",
    "responsible_agency": "Department of Sanitation",
    "final_address": "4700 Papania Dr",
    "address_councildis": "E",
    "status": "Assigned to Contractor",
    "contractor": "Waste Pro",
    "rowid": "1212099",
    "final_x": "3715553.1036",
    "final_y": "556674.490842",
    "longitude": "-89.959591849865",
    "latitude": "30.023583050804245",
    "geocoded_column": {
      "latitude": "30.023583050804245",
      "longitude": "-89.959591849865"
    }
  },
  {
    "service_request": "2025-1212098",
    "request_type": "Trash/Recycling",
    "request_reason": "Request a Large Item Pick Up",
    "date_created": "2025-07-23T16:25:23.000",
    "date_modified": "2025-07-23T16:25:24.000",
    "request_status": "Pending",
    "responsible_agency": "Department of Sanitation",
    "final_address": "1221 Lizardi St",
    "address_councildis": "E",
    "status": "Assigned to Contractor",
    "contractor": "Waste Pro",
    "rowid": "1212098",
    "final_x": "3696712.4968",
    "final_y": "534627.412998",
    "longitude": "-90.01992252365801",
    "latitude": "29.963569314832583",
    "geocoded_column": {
      "latitude": "29.963569314832583",
      "longitude": "-90.01992252365801"
    }
  },
  {
    "service_request": "2025-1212097",
    "request_type": "Trash/Recycling",
    "request_reason": "Request a Large Item Pick Up",
    "date_created": "2025-07-23T16:24:07.000",
    "date_modified": "2025-07-23T16:24:09.000",
    "request_status": "Pending",
    "responsible_agency": "Department of Sanitation",
    "final_address": "719 4th St",
    "status": "Assigned to Contractor",
    "rowid": "1212097",
    "longitude": "0.0",
    "latitude": "0.0",
    "geocoded_column": {
      "latitude": "0.0",
      "longitude": "0.0"
    }
  },
  {
    "service_request": "2025-1212096",
    "request_type": "Roads and Streets",
    "request_reason": "Pothole",
    "date_created": "2025-07-23T16:23:06.000",
    "date_modified": "2025-07-23T16:23:08.000",
    "request_status": "Pending",
    "responsible_agency": "Department of Public Works",
    "final_address": "4225 Iris St",
    "address_councildis": "D",
    "status": "Pending",
    "rowid": "1212096",
    "final_x": "3686261.9215",
    "final_y": "548525.91477",
    "longitude": "-90.0524336423005",
    "latitude": "30.002110514821084",
    "geocoded_column": {
      "latitude": "30.002110514821084",
      "longitude": "-90.0524336423005"
    }
  },
  {
    "service_request": "2025-1212095",
    "request_type": "Trash/Recycling",
    "request_reason": "Replace Trash Cart",
    "date_created": "2025-07-23T16:18:29.000",
    "date_modified": "2025-07-23T16:18:31.000",
    "request_status": "Pending",
    "responsible_agency": "Department of Sanitation",
    "final_address": "7841 Symmes Ave",
    "address_councildis": "E",
    "status": "Assigned to Contractor",
    "contractor": "Waste Pro",
    "rowid": "1212095",
    "final_x": "3707523.60657",
    "final_y": "565305.309794",
    "longitude": "-89.98464219945024",
    "latitude": "30.047576642043303",
    "geocoded_column": {
      "latitude": "30.047576642043303",
      "longitude": "-89.98464219945024"
    }
  },
  {
    "service_request": "2025-1212094",
    "request_type": "Trash/Recycling",
    "request_reason": "Order Trash Cart",
    "date_created": "2025-07-23T16:16:16.000",
    "date_modified": "2025-07-23T16:16:19.000",
    "request_status": "Pending",
    "responsible_agency": "Department of Sanitation",
    "final_address": "3534 Audubon St",
    "address_councildis": "B",
    "status": "Assigned to Contractor",
    "contractor": "IV Waste",
    "rowid": "1212094",
    "final_x": "3669095.68078",
    "final_y": "533332.988036",
    "longitude": "-90.10717755332306",
    "latitude": "29.960851597171203",
    "geocoded_column": {
      "latitude": "29.960851597171203",
      "longitude": "-90.10717755332306"
    }
  },
  {
    "service_request": "2025-1212093",
    "request_type": "Property Maintenance",
    "request_reason": "Property Maintenance",
    "date_created": "2025-07-23T16:15:46.000",
    "date_modified": "2025-07-23T16:15:49.000",
    "request_status": "Pending",
    "responsible_agency": "Department of Code Enforcement",
    "final_address": "3312 First St",
    "address_councildis": "B",
    "status": "Pending",
    "rowid": "1212093",
    "final_x": "3673506.4962",
    "final_y": "528368.828864",
    "longitude": "-90.09341864368926",
    "latitude": "29.94707128607717",
    "geocoded_column": {
      "latitude": "29.94707128607717",
      "longitude": "-90.09341864368926"
    }
  },
  {
    "service_request": "2025-1212092",
    "request_type": "Abandoned Vehicles",
    "request_reason": "Abandoned/Junk Vehicles",
    "date_created": "2025-07-23T16:13:25.000",
    "date_modified": "2025-07-23T16:14:25.000",
    "request_status": "Pending",
    "responsible_agency": "Department of Public Works",
    "final_address": "1510 Euterpe St",
    "address_councildis": "B",
    "status": "Pending",
    "rowid": "1212092",
    "final_x": "3679212.22754",
    "final_y": "524765.777084",
    "longitude": "-90.07552839716368",
    "latitude": "29.936993087544106",
    "geocoded_column": {
      "latitude": "29.936993087544106",
      "longitude": "-90.07552839716368"
    }
  },
  {
    "service_request": "2025-1212091",
    "request_type": "Trash/Recycling",
    "request_reason": "Request a Large Item Pick Up",
    "date_created": "2025-07-23T16:10:10.000",
    "date_modified": "2025-07-23T16:10:11.000",
    "request_status": "Pending",
    "responsible_agency": "Department of Sanitation",
    "final_address": "1035 St Maurice Ave",
    "address_councildis": "E",
    "status": "Assigned to Contractor",
    "contractor": "Waste Pro",
    "rowid": "1212091",
    "final_x": "3699806.1217",
    "final_y": "532989.708356",
    "longitude": "-90.010212960607",
    "latitude": "29.958968345094647",
    "geocoded_column": {
      "latitude": "29.958968345094647",
      "longitude": "-90.010212960607"
    }
  },
  {
    "service_request": "2025-1212090",
    "request_type": "Streetlights",
    "request_reason": "Streetlight Knocked Down/Leaning",
    "date_created": "2025-07-23T16:09:22.000",
    "date_modified": "2025-07-23T16:09:24.000",
    "request_status": "Pending",
    "responsible_agency": "Department of Public Works",
    "final_address": "1000 BLK Loyola Ave",
    "address_councildis": "B",
    "status": "Pending",
    "contractor": "Legacy Professional Services",
    "rowid": "1212090",
    "final_x": "3678397.19796",
    "final_y": "527777.273629",
    "longitude": "-90.07799733078286",
    "latitude": "29.94529828125476",
    "geocoded_column": {
      "latitude": "29.94529828125476",
      "longitude": "-90.07799733078286"
    }
  },
  {
    "service_request": "2025-1212089",
    "request_type": "Trash/Recycling",
    "request_reason": "Request a Large Item Pick Up",
    "date_created": "2025-07-23T16:08:48.000",
    "date_modified": "2025-07-23T16:08:49.000",
    "request_status": "Pending",
    "responsible_agency": "Department of Sanitation",
    "final_address": "4209 Freret St",
    "address_councildis": "B",
    "status": "Assigned to Contractor",
    "contractor": "IV Waste",
    "rowid": "1212089",
    "final_x": "3671185.05031",
    "final_y": "524140.9383",
    "longitude": "-90.10089191222947",
    "latitude": "29.935514830576697",
    "geocoded_column": {
      "latitude": "29.935514830576697",
      "longitude": "-90.10089191222947"
    }
  },
  {
    "service_request": "2025-1212088",
    "request_type": "Roads and Streets",
    "request_reason": "Pothole",
    "date_created": "2025-07-23T16:07:45.000",
    "date_modified": "2025-07-23T16:07:47.000",
    "request_status": "Pending",
    "responsible_agency": "Department of Public Works",
    "final_address": "2318 S Prieur St",
    "address_councildis": "B",
    "status": "Pending",
    "rowid": "1212088",
    "final_x": "3673795.1435",
    "final_y": "528334.679936",
    "longitude": "-90.0925084424982",
    "latitude": "29.946968796159364",
    "geocoded_column": {
      "latitude": "29.946968796159364",
      "longitude": "-90.0925084424982"
    }
  },
  {
    "service_request": "2025-1212087",
    "request_type": "Abandoned Vehicles",
    "request_reason": "Abandoned/Junk Vehicles",
    "date_created": "2025-07-23T16:04:58.000",
    "date_modified": "2025-07-23T16:05:00.000",
    "request_status": "Pending",
    "responsible_agency": "Department of Public Works",
    "final_address": "1300 BLK S Gayoso St",
    "address_councildis": "B",
    "status": "Pending",
    "rowid": "1212087",
    "final_x": "3671048.98234",
    "final_y": "531209.510203",
    "longitude": "-90.1010814965212",
    "latitude": "29.954955118363788",
    "geocoded_column": {
      "latitude": "29.954955118363788",
      "longitude": "-90.1010814965212"
    }
  },
  {
    "service_request": "2025-1212086",
    "request_type": "Trash/Recycling",
    "request_reason": "Replace Trash Cart",
    "date_created": "2025-07-23T16:03:34.000",
    "date_modified": "2025-07-23T16:03:35.000",
    "request_status": "Pending",
    "responsible_agency": "Department of Sanitation",
    "final_address": "36 Warbler St",
    "address_councildis": "D",
    "status": "Assigned to Contractor",
    "contractor": "IV Waste",
    "rowid": "1212086",
    "final_x": "3673722.27048",
    "final_y": "556865.949978",
    "longitude": "-90.09176243022723",
    "latitude": "30.025422114848777",
    "geocoded_column": {
      "latitude": "30.025422114848777",
      "longitude": "-90.09176243022723"
    }
  },
  {
    "service_request": "2025-1212085",
    "request_type": "Trash/Recycling",
    "request_reason": "Request a Large Item Pick Up",
    "date_created": "2025-07-23T16:03:29.000",
    "date_modified": "2025-07-23T16:03:31.000",
    "request_status": "Pending",
    "responsible_agency": "Department of Sanitation",
    "final_address": "4441 Eastview Dr, New Orleans, Louisiana, 70126",
    "address_councildis": "E",
    "status": "Assigned to Contractor",
    "contractor": "Waste Pro",
    "rowid": "1212085",
    "final_x": "3705310.42199",
    "final_y": "553668.028119",
    "longitude": "-89.99206756791003",
    "latitude": "30.015650112467114",
    "geocoded_column": {
      "latitude": "30.015650112467114",
      "longitude": "-89.99206756791003"
    }
  },
  {
    "service_request": "2025-1212084",
    "request_type": "Roads and Streets",
    "request_reason": "Pothole",
    "date_created": "2025-07-23T16:02:09.000",
    "date_modified": "2025-07-23T16:02:11.000",
    "request_status": "Pending",
    "responsible_agency": "Department of Public Works",
    "final_address": "6152 Dover Pl",
    "address_councildis": "C",
    "status": "Pending",
    "rowid": "1212084",
    "final_x": "3706867.06929",
    "final_y": "519139.425591",
    "longitude": "-89.98842978311863",
    "latitude": "29.920658906368892",
    "geocoded_column": {
      "latitude": "29.920658906368892",
      "longitude": "-89.98842978311863"
    }
  },
  {
    "service_request": "2025-1212083",
    "request_type": "Property Maintenance",
    "request_reason": "Property Maintenance",
    "date_created": "2025-07-23T15:59:33.000",
    "date_modified": "2025-07-23T15:59:35.000",
    "request_status": "Pending",
    "responsible_agency": "Department of Code Enforcement",
    "final_address": "6072 Wickfield Dr",
    "address_councildis": "D",
    "status": "Pending",
    "rowid": "1212083",
    "final_x": "3680888.76443",
    "final_y": "555446.271833",
    "longitude": "-90.06916685909178",
    "latitude": "30.021303057708522",
    "geocoded_column": {
      "latitude": "30.021303057708522",
      "longitude": "-90.06916685909178"
    }
  },
  {
    "service_request": "2025-1212082",
    "request_type": "Trash/Recycling",
    "request_reason": "Request a Large Item Pick Up",
    "date_created": "2025-07-23T15:59:28.000",
    "date_modified": "2025-07-23T15:59:30.000",
    "request_status": "Pending",
    "responsible_agency": "Department of Sanitation",
    "final_address": "3036 Fern St",
    "address_councildis": "B",
    "status": "Assigned to Contractor",
    "contractor": "IV Waste",
    "rowid": "1212082",
    "final_x": "3667057.37933",
    "final_y": "532861.239108",
    "longitude": "-90.11363000130208",
    "latitude": "29.959614260327633",
    "geocoded_column": {
      "latitude": "29.959614260327633",
      "longitude": "-90.11363000130208"
    }
  },
  {
    "service_request": "2025-1212081",
    "request_type": "Trash/Recycling",
    "request_reason": "Missed Trash Pick-Up",
    "date_created": "2025-07-23T15:59:13.000",
    "date_modified": "2025-07-23T15:59:15.000",
    "request_status": "Pending",
    "responsible_agency": "Department of Sanitation",
    "final_address": "4444 Dodt Ave, New Orleans, Louisiana, 70126",
    "address_councildis": "E",
    "status": "Assigned to Contractor",
    "contractor": "Waste Pro",
    "rowid": "1212081",
    "final_x": "3705551.04625",
    "final_y": "553695.131799",
    "longitude": "-89.99130630817118",
    "latitude": "30.01571689027482",
    "geocoded_column": {
      "latitude": "30.01571689027482",
      "longitude": "-89.99130630817118"
    }
  },
  {
    "service_request": "2025-1212080",
    "request_type": "Health Related Request",
    "request_reason": "Homeless Encampment Complaint",
    "date_created": "2025-07-23T15:57:18.000",
    "date_modified": "2025-07-23T15:57:20.000",
    "request_status": "Pending",
    "responsible_agency": "Office Of Homeless Services And Strategy",
    "final_address": "CARROLLTON EXIT & N CARROLLTON EXIT & S CARROLLTON EXIT",
    "address_councildis": "B",
    "status": "Pending",
    "rowid": "1212080",
    "final_x": "3669722.0",
    "final_y": "535199.88",
    "longitude": "-90.10513656088241",
    "latitude": "29.965966485818733",
    "geocoded_column": {
      "latitude": "29.965966485818733",
      "longitude": "-90.10513656088241"
    }
  },
  {
    "service_request": "2025-1212079",
    "request_type": "Parks & Parkways",
    "request_reason": "Request Tree Service (Right of Way/Public Property)",
    "date_created": "2025-07-23T15:56:49.000",
    "date_modified": "2025-07-23T15:56:52.000",
    "request_status": "Pending",
    "responsible_agency": "Department of Parks & Parkway",
    "final_address": "1021 Sixth St",
    "address_councildis": "B",
    "status": "Pending",
    "rowid": "1212079",
    "final_x": "3676768.43125",
    "final_y": "520396.805944",
    "longitude": "-90.08339406294333",
    "latitude": "29.925053377485916",
    "geocoded_column": {
      "latitude": "29.925053377485916",
      "longitude": "-90.08339406294333"
    }
  },
  {
    "service_request": "2025-1212078",
    "request_type": "Trash/Recycling",
    "request_reason": "Request a Large Item Pick Up",
    "date_created": "2025-07-23T15:53:41.000",
    "date_modified": "2025-07-23T15:53:43.000",
    "request_status": "Pending",
    "responsible_agency": "Department of Sanitation",
    "final_address": "7432 Scottsdale Dr",
    "address_councildis": "E",
    "status": "Assigned to Contractor",
    "contractor": "Waste Pro",
    "rowid": "1212078",
    "final_x": "3704161.43409",
    "final_y": "561669.727263",
    "longitude": "-89.99540261868756",
    "latitude": "30.037688611237325",
    "geocoded_column": {
      "latitude": "30.037688611237325",
      "longitude": "-89.99540261868756"
    }
  },
  {
    "service_request": "2025-1212076",
    "request_type": "Trash/Recycling",
    "request_reason": "Request a Large Item Pick Up",
    "date_created": "2025-07-23T15:48:57.000",
    "date_modified": "2025-07-23T16:11:48.000",
    "request_status": "Pending",
    "responsible_agency": "Department of Sanitation",
    "final_address": "7352 Strathmore Dr",
    "address_councildis": "E",
    "status": "Assigned to Contractor",
    "contractor": "Waste Pro",
    "rowid": "1212076",
    "final_x": "3714290.48824",
    "final_y": "566660.953315",
    "longitude": "-89.96320409498213",
    "latitude": "30.051083370762864",
    "geocoded_column": {
      "latitude": "30.051083370762864",
      "longitude": "-89.96320409498213"
    }
  },
  {
    "service_request": "2025-1212075",
    "request_type": "Trash/Recycling",
    "request_reason": "Damaged Caused By Contractor",
    "date_created": "2025-07-23T15:46:50.000",
    "date_modified": "2025-07-23T15:46:51.000",
    "request_status": "Pending",
    "responsible_agency": "Department of Sanitation",
    "final_address": "31 Park Timbers Dr",
    "address_councildis": "C",
    "status": "Assigned to Contractor",
    "contractor": "Richards Disposal",
    "rowid": "1212075",
    "final_x": "3699162.756",
    "final_y": "517569.64159",
    "longitude": "-90.0128056956745",
    "latitude": "29.916588932996675",
    "geocoded_column": {
      "latitude": "29.916588932996675",
      "longitude": "-90.0128056956745"
    }
  },
  {
    "service_request": "2025-1212074",
    "request_type": "Trash/Recycling",
    "request_reason": "Request a Large Item Pick Up",
    "date_created": "2025-07-23T15:44:43.000",
    "date_modified": "2025-07-23T15:44:45.000",
    "request_status": "Pending",
    "responsible_agency": "Department of Sanitation",
    "final_address": "4808 St Claude Ave",
    "address_councildis": "E",
    "status": "Assigned to Contractor",
    "contractor": "Waste Pro",
    "rowid": "1212074",
    "final_x": "3695140.33008",
    "final_y": "534421.409861",
    "longitude": "-90.0248946657472",
    "latitude": "29.963052336513883",
    "geocoded_column": {
      "latitude": "29.963052336513883",
      "longitude": "-90.0248946657472"
    }
  },
  {
    "service_request": "2025-1212073",
    "request_type": "Trash/Recycling",
    "request_reason": "Request a Large Item Pick Up",
    "date_created": "2025-07-23T15:44:36.000",
    "date_modified": "2025-07-23T15:44:38.000",
    "request_status": "Pending",
    "responsible_agency": "Department of Sanitation",
    "final_address": "627 Lamanche St",
    "address_councildis": "E",
    "status": "Assigned to Contractor",
    "contractor": "Waste Pro",
    "rowid": "1212073",
    "final_x": "3697955.37079",
    "final_y": "532019.711939",
    "longitude": "-90.01609234676556",
    "latitude": "29.95635983119958",
    "geocoded_column": {
      "latitude": "29.95635983119958",
      "longitude": "-90.01609234676556"
    }
  },
  {
    "service_request": "2025-1212072",
    "request_type": "Healthy Homes",
    "request_reason": "Healthy Homes",
    "date_created": "2025-07-23T15:42:43.000",
    "date_modified": "2025-07-23T15:42:44.000",
    "request_status": "Pending",
    "responsible_agency": "Department of Code Enforcement",
    "final_address": "3515 Tulane Ave",
    "address_councildis": "B",
    "status": "Pending",
    "rowid": "1212072",
    "final_x": "3671415.2459",
    "final_y": "535303.788358",
    "longitude": "-90.09978579396765",
    "latitude": "29.966202185494925",
    "geocoded_column": {
      "latitude": "29.966202185494925",
      "longitude": "-90.09978579396765"
    }
  },
  {
    "service_request": "2025-1212071",
    "request_type": "Trash/Recycling",
    "request_reason": "Request a Large Item Pick Up",
    "date_created": "2025-07-23T15:37:25.000",
    "date_modified": "2025-07-23T15:37:26.000",
    "request_status": "Pending",
    "responsible_agency": "Department of Sanitation",
    "final_address": "4617 Willow St, New Orleans, Louisiana, 70115",
    "address_councildis": "B",
    "status": "Assigned to Contractor",
    "contractor": "IV Waste",
    "rowid": "1212071",
    "final_x": "3669489.08122",
    "final_y": "525380.482557",
    "longitude": "-90.10620420671661",
    "latitude": "29.93897322687392",
    "geocoded_column": {
      "latitude": "29.93897322687392",
      "longitude": "-90.10620420671661"
    }
  },
  {
    "service_request": "2025-1212070",
    "request_type": "Roads and Streets",
    "request_reason": "Pothole",
    "date_created": "2025-07-23T15:36:55.000",
    "date_modified": "2025-07-23T15:36:56.000",
    "request_status": "Pending",
    "responsible_agency": "Department of Public Works",
    "final_address": "2500 BLK Saint Nick Dr",
    "address_councildis": "C",
    "status": "Pending",
    "rowid": "1212070",
    "final_x": "3699342.01073",
    "final_y": "521417.946125",
    "longitude": "-90.01209983690298",
    "latitude": "29.92716477306383",
    "geocoded_column": {
      "latitude": "29.92716477306383",
      "longitude": "-90.01209983690298"
    }
  },
  {
    "service_request": "2025-1212069",
    "request_type": "Trash/Recycling",
    "request_reason": "Repair Trash Cart",
    "date_created": "2025-07-23T15:32:09.000",
    "date_modified": "2025-07-23T15:32:12.000",
    "request_status": "Pending",
    "responsible_agency": "Department of Sanitation",
    "final_address": "8325 Jeannette St",
    "address_councildis": "A",
    "status": "Assigned to Contractor",
    "contractor": "IV Waste",
    "rowid": "1212069",
    "final_x": "3661994.88333",
    "final_y": "529826.711041",
    "longitude": "-90.1297169373126",
    "latitude": "29.95141749272242",
    "geocoded_column": {
      "latitude": "29.95141749272242",
      "longitude": "-90.1297169373126"
    }
  },
  {
    "service_request": "2025-1212068",
    "request_type": "Abandoned Vehicles",
    "request_reason": "Abandoned/Junk Vehicles",
    "date_created": "2025-07-23T15:30:36.000",
    "date_modified": "2025-07-23T15:34:57.000",
    "request_status": "Pending",
    "responsible_agency": "Department of Public Works",
    "final_address": "4800 BLK Francis Dr",
    "address_councildis": "D",
    "status": "Pending",
    "rowid": "1212068",
    "final_x": "3698190.66198",
    "final_y": "554888.359499",
    "longitude": "-90.01451825609955",
    "latitude": "30.019232795568588",
    "geocoded_column": {
      "latitude": "30.019232795568588",
      "longitude": "-90.01451825609955"
    }
  },
  {
    "service_request": "2025-1212067",
    "request_type": "Safety & Permits",
    "request_reason": "Licenses & Permits",
    "date_created": "2025-07-23T15:25:38.000",
    "date_modified": "2025-07-23T15:25:41.000",
    "request_status": "Pending",
    "responsible_agency": "Safety and Permits",
    "final_address": "940 Canal St",
    "address_councildis": "B",
    "status": "Pending",
    "rowid": "1212067",
    "final_x": "3680293.42639",
    "final_y": "531249.420418",
    "longitude": "-90.07188965118691",
    "latitude": "29.954788259697132",
    "geocoded_column": {
      "latitude": "29.954788259697132",
      "longitude": "-90.07188965118691"
    }
  },
  {
    "service_request": "2025-1212066",
    "request_type": "Trash/Recycling",
    "request_reason": "Request a Large Item Pick Up",
    "date_created": "2025-07-23T15:22:34.000",
    "date_modified": "2025-07-23T15:22:35.000",
    "request_status": "Pending",
    "responsible_agency": "Department of Sanitation",
    "final_address": "7810 Unity Dr",
    "address_councildis": "E",
    "status": "Assigned to Contractor",
    "contractor": "Waste Pro",
    "rowid": "1212066",
    "final_x": "3711722.87486",
    "final_y": "567451.185124",
    "longitude": "-89.9712896941914",
    "latitude": "30.053340355759737",
    "geocoded_column": {
      "latitude": "30.053340355759737",
      "longitude": "-89.9712896941914"
    }
  },
  {
    "service_request": "2025-1212065",
    "request_type": "Trash/Recycling",
    "request_reason": "Replace Trash Cart",
    "date_created": "2025-07-23T15:19:20.000",
    "date_modified": "2025-07-23T15:19:21.000",
    "request_status": "Pending",
    "responsible_agency": "Department of Sanitation",
    "final_address": "439 Pine St",
    "address_councildis": "A",
    "status": "Assigned to Contractor",
    "contractor": "IV Waste",
    "rowid": "1212065",
    "final_x": "3662175.92013",
    "final_y": "523973.59366",
    "longitude": "-90.12933950146714",
    "latitude": "29.93531805532026",
    "geocoded_column": {
      "latitude": "29.93531805532026",
      "longitude": "-90.12933950146714"
    }
  },
  {
    "service_request": "2025-1212064",
    "request_type": "Roads and Streets",
    "request_reason": "Debris in Driving Lanes",
    "date_created": "2025-07-23T15:16:18.000",
    "date_modified": "2025-07-23T15:23:09.000",
    "request_status": "Pending",
    "responsible_agency": "Department of Public Works",
    "final_address": "4713 Iberville St",
    "address_councildis": "A",
    "status": "Assigned to Contractor",
    "rowid": "1212064",
    "final_x": "3669325.79553",
    "final_y": "540342.367115",
    "longitude": "-90.10621384889012",
    "latitude": "29.98011826932792",
    "geocoded_column": {
      "latitude": "29.98011826932792",
      "longitude": "-90.10621384889012"
    }
  },
  {
    "service_request": "2025-1212063",
    "request_type": "Roads and Streets",
    "request_reason": "Pothole",
    "date_created": "2025-07-23T15:15:09.000",
    "date_modified": "2025-07-23T15:15:11.000",
    "request_status": "Pending",
    "responsible_agency": "Department of Public Works",
    "final_address": "6821 Louis Xiv St",
    "address_councildis": "A",
    "status": "Pending",
    "rowid": "1212063",
    "final_x": "3668685.48103",
    "final_y": "552911.373271",
    "longitude": "-90.10781164847829",
    "latitude": "30.014697535119637",
    "geocoded_column": {
      "latitude": "30.014697535119637",
      "longitude": "-90.10781164847829"
    }
  },
  {
    "service_request": "2025-1212062",
    "request_type": "Trash/Recycling",
    "request_reason": "Request a Large Item Pick Up",
    "date_created": "2025-07-23T15:12:31.000",
    "date_modified": "2025-07-23T15:12:33.000",
    "request_status": "Pending",
    "responsible_agency": "Department of Sanitation",
    "final_address": "3571 Somerset Dr",
    "address_councildis": "C",
    "status": "Assigned to Contractor",
    "contractor": "Richards Disposal",
    "rowid": "1212062",
    "final_x": "3702420.4689",
    "final_y": "517642.513782",
    "longitude": "-90.00252042309315",
    "latitude": "29.916685672025586",
    "geocoded_column": {
      "latitude": "29.916685672025586",
      "longitude": "-90.00252042309315"
    }
  },
  {
    "service_request": "2025-1212061",
    "request_type": "Trash/Recycling",
    "request_reason": "Repair Trash Cart",
    "date_created": "2025-07-23T15:12:04.000",
    "date_modified": "2025-07-23T15:12:06.000",
    "request_status": "Pending",
    "responsible_agency": "Department of Sanitation",
    "final_address": "3234 Blair St",
    "address_councildis": "C",
    "status": "Assigned to Contractor",
    "contractor": "Richards Disposal",
    "rowid": "1212061",
    "final_x": "3709497.77022",
    "final_y": "518684.134071",
    "longitude": "-89.98014292659427",
    "latitude": "29.91932184990091",
    "geocoded_column": {
      "latitude": "29.91932184990091",
      "longitude": "-89.98014292659427"
    }
  },
  {
    "service_request": "2025-1212060",
    "request_type": "Abandoned Vehicles",
    "request_reason": "Abandoned/Junk Vehicles",
    "date_created": "2025-07-23T15:11:14.000",
    "date_modified": "2025-07-23T15:29:25.000",
    "request_status": "Pending",
    "responsible_agency": "Department of Public Works",
    "final_address": "1740 N Dupre St",
    "address_councildis": "D",
    "status": "Pending",
    "rowid": "1212060",
    "final_x": "3679249.25781",
    "final_y": "541379.166988",
    "longitude": "-90.0748354293299",
    "latitude": "29.982673160978777",
    "geocoded_column": {
      "latitude": "29.982673160978777",
      "longitude": "-90.0748354293299"
    }
  },
  {
    "service_request": "2025-1212059",
    "request_type": "Abandoned Vehicles",
    "request_reason": "Abandoned/Junk Vehicles",
    "date_created": "2025-07-23T15:09:57.000",
    "date_modified": "2025-07-23T15:11:13.000",
    "request_status": "Pending",
    "responsible_agency": "Department of Public Works",
    "final_address": "1417 Music St",
    "address_councildis": "C",
    "status": "Pending",
    "rowid": "1212059",
    "final_x": "3686785.82735",
    "final_y": "537695.911176",
    "longitude": "-90.05116140572427",
    "latitude": "29.972315748059042",
    "geocoded_column": {
      "latitude": "29.972315748059042",
      "longitude": "-90.05116140572427"
    }
  },
  {
    "service_request": "2025-1212058",
    "request_type": "Trash/Recycling",
    "request_reason": "Order Second Trash Cart",
    "date_created": "2025-07-23T15:09:14.000",
    "date_modified": "2025-07-23T15:09:16.000",
    "request_status": "Pending",
    "responsible_agency": "Department of Sanitation",
    "final_address": "6853 Argonne Blvd",
    "address_councildis": "A",
    "status": "Assigned to Contractor",
    "contractor": "IV Waste",
    "rowid": "1212058",
    "final_x": "3670747.60724",
    "final_y": "552949.186903",
    "longitude": "-90.10129503024318",
    "latitude": "30.014740703962044",
    "geocoded_column": {
      "latitude": "30.014740703962044",
      "longitude": "-90.10129503024318"
    }
  },
  {
    "service_request": "2025-1212057",
    "request_type": "Roads and Streets",
    "request_reason": "Push-up/Pavement Expansion",
    "date_created": "2025-07-23T15:05:51.000",
    "date_modified": "2025-07-23T15:05:53.000",
    "request_status": "Pending",
    "responsible_agency": "Department of Public Works",
    "final_address": "400 39Th St",
    "address_councildis": "A",
    "status": "Pending",
    "rowid": "1212057",
    "final_x": "3664996.73472",
    "final_y": "552972.313367",
    "longitude": "-90.11946430451059",
    "latitude": "30.014973063776164",
    "geocoded_column": {
      "latitude": "30.014973063776164",
      "longitude": "-90.11946430451059"
    }
  },
  {
    "service_request": "2025-1212056",
    "request_type": "Trash/Recycling",
    "request_reason": "Request a Large Item Pick Up",
    "date_created": "2025-07-23T15:04:24.000",
    "date_modified": "2025-07-23T15:04:25.000",
    "request_status": "Pending",
    "responsible_agency": "Department of Sanitation",
    "final_address": "5813 Oxford Pl",
    "address_councildis": "C",
    "status": "Assigned to Contractor",
    "contractor": "Richards Disposal",
    "rowid": "1212056",
    "final_x": "3704924.21841",
    "final_y": "519819.880696",
    "longitude": "-89.99453732081759",
    "latitude": "29.922592481763278",
    "geocoded_column": {
      "latitude": "29.922592481763278",
      "longitude": "-89.99453732081759"
    }
  },
  {
    "service_request": "2025-1212055",
    "request_type": "Trash/Recycling",
    "request_reason": "Order Trash Cart",
    "date_created": "2025-07-23T15:03:41.000",
    "date_modified": "2025-07-23T15:03:43.000",
    "request_status": "Pending",
    "responsible_agency": "Department of Sanitation",
    "final_address": "4005 Panama Ct",
    "address_councildis": "B",
    "status": "Assigned to Contractor",
    "contractor": "IV Waste",
    "rowid": "1212055",
    "final_x": "3668282.77684",
    "final_y": "531113.723586",
    "longitude": "-90.10981938816296",
    "latitude": "29.954773244104747",
    "geocoded_column": {
      "latitude": "29.954773244104747",
      "longitude": "-90.10981938816296"
    }
  },
  {
    "service_request": "2025-1212054",
    "request_type": "Roads and Streets",
    "request_reason": "Sidewalk Damaged or Missing",
    "date_created": "2025-07-23T15:02:06.000",
    "date_modified": "2025-07-23T15:02:08.000",
    "request_status": "Pending",
    "responsible_agency": "Department of Public Works",
    "final_address": "1617 Industry St",
    "address_councildis": "D",
    "status": "Pending",
    "rowid": "1212054",
    "final_x": "3680112.83234",
    "final_y": "542617.965005",
    "longitude": "-90.07206476088486",
    "latitude": "29.986053314614143",
    "geocoded_column": {
      "latitude": "29.986053314614143",
      "longitude": "-90.07206476088486"
    }
  },
  {
    "service_request": "2025-1212053",
    "request_type": "Trash/Recycling",
    "request_reason": "Order Trash Cart",
    "date_created": "2025-07-23T15:01:36.000",
    "date_modified": "2025-07-23T15:01:38.000",
    "request_status": "Pending",
    "responsible_agency": "Department of Sanitation",
    "final_address": "4005 Panama Ct",
    "address_councildis": "B",
    "status": "Assigned to Contractor",
    "contractor": "IV Waste",
    "rowid": "1212053",
    "final_x": "3668282.77684",
    "final_y": "531113.723586",
    "longitude": "-90.10981938816296",
    "latitude": "29.954773244104747",
    "geocoded_column": {
      "latitude": "29.954773244104747",
      "longitude": "-90.10981938816296"
    }
  },
  {
    "service_request": "2025-1212052",
    "request_type": "Trash/Recycling",
    "request_reason": "Request a Large Item Pick Up",
    "date_created": "2025-07-23T14:58:39.000",
    "date_modified": "2025-07-23T14:58:41.000",
    "request_status": "Pending",
    "responsible_agency": "Department of Sanitation",
    "final_address": "401 Andry St",
    "address_councildis": "E",
    "status": "Assigned to Contractor",
    "contractor": "Waste Pro",
    "rowid": "1212052",
    "final_x": "3696548.85661",
    "final_y": "531596.573827",
    "longitude": "-90.02054893466108",
    "latitude": "29.955240734818638",
    "geocoded_column": {
      "latitude": "29.955240734818638",
      "longitude": "-90.02054893466108"
    }
  },
  {
    "service_request": "2025-1212051",
    "request_type": "Trash/Recycling",
    "request_reason": "Replace Trash Cart",
    "date_created": "2025-07-23T14:56:09.000",
    "date_modified": "2025-07-23T14:56:11.000",
    "request_status": "Pending",
    "responsible_agency": "Department of Sanitation",
    "final_address": "1309 Marengo St",
    "address_councildis": "B",
    "status": "Assigned to Contractor",
    "contractor": "IV Waste",
    "rowid": "1212051",
    "final_x": "3672072.68142",
    "final_y": "520284.850232",
    "longitude": "-90.09822086943154",
    "latitude": "29.9248855480906",
    "geocoded_column": {
      "latitude": "29.9248855480906",
      "longitude": "-90.09822086943154"
    }
  },
  {
    "service_request": "2025-1212050",
    "request_type": "Trash/Recycling",
    "request_reason": "Request a Large Item Pick Up",
    "date_created": "2025-07-23T14:53:50.000",
    "date_modified": "2025-07-23T14:53:52.000",
    "request_status": "Pending",
    "responsible_agency": "Department of Sanitation",
    "final_address": "13159 Cherbourg St",
    "address_councildis": "E",
    "status": "Assigned to Contractor",
    "contractor": "Waste Pro",
    "rowid": "1212050",
    "final_x": "3724780.9536",
    "final_y": "561043.314846",
    "longitude": "-89.93026511980102",
    "latitude": "30.03528810981506",
    "geocoded_column": {
      "latitude": "30.03528810981506",
      "longitude": "-89.93026511980102"
    }
  },
  {
    "service_request": "2025-1212049",
    "request_type": "Trash/Recycling",
    "request_reason": "Return Trash Cart",
    "date_created": "2025-07-23T14:52:56.000",
    "date_modified": "2025-07-23T14:52:58.000",
    "request_status": "Pending",
    "responsible_agency": "Department of Sanitation",
    "final_address": "5340 Norgate Dr",
    "address_councildis": "E",
    "status": "Assigned to Contractor",
    "contractor": "Waste Pro",
    "rowid": "1212049",
    "final_x": "3707228.93412",
    "final_y": "557634.378971",
    "longitude": "-89.98585862640783",
    "latitude": "30.026494148840207",
    "geocoded_column": {
      "latitude": "30.026494148840207",
      "longitude": "-89.98585862640783"
    }
  },
  {
    "service_request": "2025-1212048",
    "request_type": "Trash/Recycling",
    "request_reason": "Request a Large Item Pick Up",
    "date_created": "2025-07-23T14:47:57.000",
    "date_modified": "2025-07-23T14:47:59.000",
    "request_status": "Pending",
    "responsible_agency": "Department of Sanitation",
    "final_address": "2408 Lapeyrouse St",
    "address_councildis": "D",
    "status": "Assigned to Contractor",
    "contractor": "IV Waste",
    "rowid": "1212048",
    "final_x": "3679835.11791",
    "final_y": "539544.291594",
    "longitude": "-90.07304873342409",
    "latitude": "29.97761018511273",
    "geocoded_column": {
      "latitude": "29.97761018511273",
      "longitude": "-90.07304873342409"
    }
  },
  {
    "service_request": "2025-1212047",
    "request_type": "Property Maintenance",
    "request_reason": "Property Maintenance",
    "date_created": "2025-07-23T14:47:22.000",
    "date_modified": "2025-07-23T14:47:25.000",
    "request_status": "Pending",
    "responsible_agency": "Department of Code Enforcement",
    "final_address": "2360 Rousseau St",
    "address_councildis": "B",
    "status": "Pending",
    "rowid": "1212047",
    "final_x": "3679426.82946",
    "final_y": "519643.92332",
    "longitude": "-90.07502845778865",
    "latitude": "29.922903189666282",
    "geocoded_column": {
      "latitude": "29.922903189666282",
      "longitude": "-90.07502845778865"
    }
  },
  {
    "service_request": "2025-1212046",
    "request_type": "Trash/Recycling",
    "request_reason": "Order Recycling Cart",
    "date_created": "2025-07-23T14:47:03.000",
    "date_modified": "2025-07-23T14:47:04.000",
    "request_status": "Pending",
    "responsible_agency": "Department of Sanitation",
    "final_address": "5306 Wilton Dr",
    "address_councildis": "D",
    "status": "Pending",
    "rowid": "1212046",
    "final_x": "3681890.10197",
    "final_y": "552312.072726",
    "longitude": "-90.06611243447817",
    "latitude": "30.012654738390403",
    "geocoded_column": {
      "latitude": "30.012654738390403",
      "longitude": "-90.06611243447817"
    }
  },
  {
    "service_request": "2025-1212045",
    "request_type": "Roads and Streets",
    "request_reason": "Debris in Driving Lanes",
    "date_created": "2025-07-23T14:44:35.000",
    "date_modified": "2025-07-23T14:44:37.000",
    "request_status": "Pending",
    "responsible_agency": "Department of Public Works",
    "final_address": "N GALVEZ ST & ALVAR ST",
    "address_councildis": "D",
    "status": "Pending",
    "rowid": "1212045",
    "final_x": "3692427.5",
    "final_y": "539145.58",
    "longitude": "-90.03329216033146",
    "latitude": "29.976127032384596",
    "geocoded_column": {
      "latitude": "29.976127032384596",
      "longitude": "-90.03329216033146"
    }
  },
  {
    "service_request": "2025-1212044",
    "request_type": "Streetlights",
    "request_reason": "Streetlight Outage/Malfunction",
    "date_created": "2025-07-23T14:43:35.000",
    "date_modified": "2025-07-23T14:43:36.000",
    "request_status": "Pending",
    "responsible_agency": "Department of Public Works",
    "final_address": "6202 S Rocheblave St",
    "address_councildis": "A",
    "status": "Pending",
    "contractor": "Legacy Professional Services",
    "rowid": "1212044",
    "final_x": "3667610.41844",
    "final_y": "528663.3456",
    "longitude": "-90.11202491552747",
    "latitude": "29.948055227444787",
    "geocoded_column": {
      "latitude": "29.948055227444787",
      "longitude": "-90.11202491552747"
    }
  },
  {
    "service_request": "2025-1212043",
    "request_type": "Trash/Recycling",
    "request_reason": "Request a Large Item Pick Up",
    "date_created": "2025-07-23T14:42:16.000",
    "date_modified": "2025-07-23T14:42:18.000",
    "request_status": "Pending",
    "responsible_agency": "Department of Sanitation",
    "final_address": "13001 Sevres St",
    "address_councildis": "E",
    "status": "Assigned to Contractor",
    "contractor": "Waste Pro",
    "rowid": "1212043",
    "final_x": "3723874.14854",
    "final_y": "560182.019037",
    "longitude": "-89.93316399353245",
    "latitude": "30.032950398591936",
    "geocoded_column": {
      "latitude": "30.032950398591936",
      "longitude": "-89.93316399353245"
    }
  },
  {
    "service_request": "2025-1212042",
    "request_type": "Trash/Recycling",
    "request_reason": "Illegal Dumping",
    "date_created": "2025-07-23T14:41:49.000",
    "date_modified": "2025-07-23T22:11:57.000",
    "request_status": "Pending",
    "responsible_agency": "Department of Sanitation",
    "final_address": "6760 Coventry St",
    "address_councildis": "E",
    "status": "Pending",
    "rowid": "1212042",
    "final_x": "3698403.75575",
    "final_y": "559530.358173",
    "longitude": "-90.0136760366396",
    "latitude": "30.031989770882657",
    "geocoded_column": {
      "latitude": "30.031989770882657",
      "longitude": "-90.0136760366396"
    }
  },
  {
    "service_request": "2025-1212041",
    "request_type": "Trash/Recycling",
    "request_reason": "Replace Trash Cart",
    "date_created": "2025-07-23T14:41:41.000",
    "date_modified": "2025-07-23T14:41:42.000",
    "request_status": "Pending",
    "responsible_agency": "Department of Sanitation",
    "final_address": "1414 Sumner St A",
    "address_councildis": "C",
    "status": "Assigned to Contractor",
    "contractor": "Richards Disposal",
    "rowid": "1212041",
    "final_x": "3691098.52156",
    "final_y": "526124.200958",
    "longitude": "-90.03795437182283",
    "latitude": "29.940364168618565",
    "geocoded_column": {
      "latitude": "29.940364168618565",
      "longitude": "-90.03795437182283"
    }
  },
  {
    "service_request": "2025-1212040",
    "request_type": "Abandoned Vehicles",
    "request_reason": "Abandoned/Junk Vehicles",
    "date_created": "2025-07-23T14:37:13.000",
    "date_modified": "2025-07-23T14:37:15.000",
    "request_status": "Pending",
    "responsible_agency": "Department of Public Works",
    "final_address": "3510 Camp St",
    "address_councildis": "B",
    "status": "Pending",
    "rowid": "1212040",
    "final_x": "3674257.28315",
    "final_y": "519663.086904",
    "longitude": "-90.0913460627156",
    "latitude": "29.92311096856871",
    "geocoded_column": {
      "latitude": "29.92311096856871",
      "longitude": "-90.0913460627156"
    }
  },
  {
    "service_request": "2025-1212039",
    "request_type": "Trash/Recycling",
    "request_reason": "Request a Large Item Pick Up",
    "date_created": "2025-07-23T14:34:57.000",
    "date_modified": "2025-07-23T14:35:23.000",
    "request_status": "Pending",
    "responsible_agency": "Department of Sanitation",
    "final_address": "3557 Inwood Ave",
    "address_councildis": "C",
    "status": "Assigned to Contractor",
    "contractor": "Richards Disposal",
    "rowid": "1212039",
    "final_x": "3703641.80503",
    "final_y": "515158.824115",
    "longitude": "-89.99875672001963",
    "latitude": "29.909817316056756",
    "geocoded_column": {
      "latitude": "29.909817316056756",
      "longitude": "-89.99875672001963"
    }
  },
  {
    "service_request": "2025-1212038",
    "request_type": "Trash/Recycling",
    "request_reason": "Request a Large Item Pick Up",
    "date_created": "2025-07-23T14:34:26.000",
    "date_modified": "2025-07-23T14:34:34.000",
    "request_status": "Pending",
    "responsible_agency": "Department of Sanitation",
    "final_address": "5630 Oxford Pl",
    "address_councildis": "C",
    "status": "Assigned to Contractor",
    "contractor": "Richards Disposal",
    "rowid": "1212038",
    "final_x": "3704450.02193",
    "final_y": "520126.712824",
    "longitude": "-89.9960228533633",
    "latitude": "29.923451389702237",
    "geocoded_column": {
      "latitude": "29.923451389702237",
      "longitude": "-89.9960228533633"
    }
  },
  {
    "service_request": "2025-1212037",
    "request_type": "Trash/Recycling",
    "request_reason": "Damaged Caused By Contractor",
    "date_created": "2025-07-23T14:33:48.000",
    "date_modified": "2025-07-23T14:33:50.000",
    "request_status": "Pending",
    "responsible_agency": "Department of Sanitation",
    "final_address": "219 S Alexander St",
    "address_councildis": "A",
    "status": "Assigned to Contractor",
    "contractor": "IV Waste",
    "rowid": "1212037",
    "final_x": "3669593.17358",
    "final_y": "538724.885513",
    "longitude": "-90.10542410040286",
    "latitude": "29.97566286552893",
    "geocoded_column": {
      "latitude": "29.97566286552893",
      "longitude": "-90.10542410040286"
    }
  },
  {
    "service_request": "2025-1212036",
    "request_type": "Trash/Recycling",
    "request_reason": "Repair Recycling Cart",
    "date_created": "2025-07-23T14:26:02.000",
    "date_modified": "2025-07-23T14:41:15.000",
    "request_status": "Pending",
    "responsible_agency": "Department of Sanitation",
    "final_address": "33 Versailles Blvd",
    "address_councildis": "A",
    "status": "Pending",
    "contractor": "Sanitation Dept. ",
    "rowid": "1212036",
    "final_x": "3667385.36794",
    "final_y": "529406.531009",
    "longitude": "-90.11271049664192",
    "latitude": "29.950105339545946",
    "geocoded_column": {
      "latitude": "29.950105339545946",
      "longitude": "-90.11271049664192"
    }
  },
  {
    "service_request": "2025-1212035",
    "request_type": "Roads and Streets",
    "request_reason": "Road Shoulder Damage",
    "date_created": "2025-07-23T14:25:21.000",
    "date_modified": "2025-07-23T14:25:22.000",
    "request_status": "Pending",
    "responsible_agency": "Department of Public Works",
    "final_address": "5624 St Roch Ave",
    "address_councildis": "D",
    "status": "Pending",
    "rowid": "1212035",
    "final_x": "3685025.78594",
    "final_y": "553664.731351",
    "longitude": "-90.05615778192478",
    "latitude": "30.01627832830799",
    "geocoded_column": {
      "latitude": "30.01627832830799",
      "longitude": "-90.05615778192478"
    }
  },
  {
    "service_request": "2025-1212034",
    "request_type": "Trash/Recycling",
    "request_reason": "Repair Trash Cart",
    "date_created": "2025-07-23T14:25:07.000",
    "date_modified": "2025-07-23T14:25:10.000",
    "request_status": "Pending",
    "responsible_agency": "Department of Sanitation",
    "final_address": "3409 Clematis St",
    "address_councildis": "D",
    "status": "Assigned to Contractor",
    "contractor": "IV Waste",
    "rowid": "1212034",
    "final_x": "3686696.18422",
    "final_y": "545566.31016",
    "longitude": "-90.05116638042806",
    "latitude": "29.993959313900007",
    "geocoded_column": {
      "latitude": "29.993959313900007",
      "longitude": "-90.05116638042806"
    }
  },
  {
    "service_request": "2025-1212033",
    "request_type": "Trash/Recycling",
    "request_reason": "Request a Large Item Pick Up",
    "date_created": "2025-07-23T14:21:45.000",
    "date_modified": "2025-07-23T14:21:47.000",
    "request_status": "Pending",
    "responsible_agency": "Department of Sanitation",
    "final_address": "2200 Reynes St",
    "address_councildis": "E",
    "status": "Assigned to Contractor",
    "contractor": "Waste Pro",
    "rowid": "1212033",
    "final_x": "3697094.48093",
    "final_y": "538432.965961",
    "longitude": "-90.01857837360748",
    "latitude": "29.974021179972706",
    "geocoded_column": {
      "latitude": "29.974021179972706",
      "longitude": "-90.01857837360748"
    }
  },
  {
    "service_request": "2025-1212032",
    "request_type": "Streetlights",
    "request_reason": "Streetlight Outage/Malfunction",
    "date_created": "2025-07-23T14:21:42.000",
    "date_modified": "2025-07-23T14:22:27.000",
    "request_status": "Pending",
    "responsible_agency": "Department of Public Works",
    "final_address": "4734 Perelli Dr",
    "address_councildis": "E",
    "status": "Pending",
    "contractor": "Legacy Professional Services",
    "rowid": "1212032",
    "final_x": "3711634.07294",
    "final_y": "555986.074329",
    "longitude": "-89.97200090304307",
    "latitude": "30.02181878485168",
    "geocoded_column": {
      "latitude": "30.02181878485168",
      "longitude": "-89.97200090304307"
    }
  },
  {
    "service_request": "2025-1212031",
    "request_type": "Trash/Recycling",
    "request_reason": "Request a Large Item Pick Up",
    "date_created": "2025-07-23T14:19:14.000",
    "date_modified": "2025-07-23T14:19:17.000",
    "request_status": "Pending",
    "responsible_agency": "Department of Sanitation",
    "final_address": "4557 N Rampart St",
    "address_councildis": "C",
    "status": "Assigned to Contractor",
    "contractor": "IV Waste",
    "rowid": "1212031",
    "final_x": "3693626.57072",
    "final_y": "534454.546245",
    "longitude": "-90.02967372290381",
    "latitude": "29.96319089269427",
    "geocoded_column": {
      "latitude": "29.96319089269427",
      "longitude": "-90.02967372290381"
    }
  },
  {
    "service_request": "2025-1212030",
    "request_type": "Roads and Streets",
    "request_reason": "Street Subsidence (Sinking)",
    "date_created": "2025-07-23T14:15:02.000",
    "date_modified": "2025-07-23T14:15:05.000",
    "request_status": "Pending",
    "responsible_agency": "Department of Public Works",
    "final_address": "IBERVILLE ST & N SOLOMON ST",
    "address_councildis": "A",
    "status": "Pending",
    "rowid": "1212030",
    "final_x": "3670853.0",
    "final_y": "539076.08",
    "longitude": "-90.10143328344286",
    "latitude": "29.97659134938744",
    "geocoded_column": {
      "latitude": "29.97659134938744",
      "longitude": "-90.10143328344286"
    }
  },
  {
    "service_request": "2025-1212029",
    "request_type": "Trash/Recycling",
    "request_reason": "Missed Trash Pick-Up",
    "date_created": "2025-07-23T14:11:09.000",
    "date_modified": "2025-07-23T14:28:41.000",
    "case_close_date": "2025-07-23T09:28:40.000",
    "request_status": "Closed",
    "responsible_agency": "Department of Sanitation",
    "final_address": "7628 Jeannette St",
    "address_councildis": "A",
    "status": "Invalid Request",
    "contractor": "IV Waste",
    "contractor_action": "Invalid",
    "rowid": "1212029",
    "final_x": "3663848.18592",
    "final_y": "527966.194367",
    "longitude": "-90.1239270926007",
    "latitude": "29.946248011815257",
    "geocoded_column": {
      "latitude": "29.946248011815257",
      "longitude": "-90.1239270926007"
    }
  },
  {
    "service_request": "2025-1212028",
    "request_type": "Trash/Recycling",
    "request_reason": "Repair Recycling Cart",
    "date_created": "2025-07-23T14:11:00.000",
    "date_modified": "2025-07-23T14:11:02.000",
    "request_status": "Pending",
    "responsible_agency": "Department of Sanitation",
    "final_address": "3332 Piedmont Dr",
    "address_councildis": "D",
    "status": "Pending",
    "rowid": "1212028",
    "final_x": "3686423.87484",
    "final_y": "545202.091663",
    "longitude": "-90.05203943022691",
    "latitude": "29.992966219128363",
    "geocoded_column": {
      "latitude": "29.992966219128363",
      "longitude": "-90.05203943022691"
    }
  },
  {
    "service_request": "2025-1212027",
    "request_type": "Trash/Recycling",
    "request_reason": "Request a Large Item Pick Up",
    "date_created": "2025-07-23T14:09:48.000",
    "date_modified": "2025-07-23T15:14:49.000",
    "request_status": "Pending",
    "responsible_agency": "Department of Sanitation",
    "final_address": "2524 Touro St",
    "address_councildis": "D",
    "status": "Assigned to Contractor",
    "contractor": "IV Waste",
    "contractor_action": "Invalid",
    "rowid": "1212027",
    "final_x": "3683771.25897",
    "final_y": "541628.877196",
    "longitude": "-90.06054394729743",
    "latitude": "29.983222437129236",
    "geocoded_column": {
      "latitude": "29.983222437129236",
      "longitude": "-90.06054394729743"
    }
  },
  {
    "service_request": "2025-1212026",
    "request_type": "Trash/Recycling",
    "request_reason": "Repair Trash Cart",
    "date_created": "2025-07-23T14:09:30.000",
    "date_modified": "2025-07-23T14:09:33.000",
    "request_status": "Pending",
    "responsible_agency": "Department of Sanitation",
    "final_address": "54 Tern St",
    "address_councildis": "D",
    "status": "Assigned to Contractor",
    "contractor": "IV Waste",
    "rowid": "1212026",
    "final_x": "3674513.99956",
    "final_y": "557440.071195",
    "longitude": "-90.0892409814201",
    "latitude": "30.026977127893026",
    "geocoded_column": {
      "latitude": "30.026977127893026",
      "longitude": "-90.0892409814201"
    }
  },
  {
    "service_request": "2025-1212025",
    "request_type": "Trash/Recycling",
    "request_reason": "Request a Large Item Pick Up",
    "date_created": "2025-07-23T14:08:36.000",
    "date_modified": "2025-07-23T14:09:05.000",
    "request_status": "Pending",
    "responsible_agency": "Department of Sanitation",
    "final_address": "2700 Octavia St",
    "address_councildis": "A",
    "status": "Assigned to Contractor",
    "contractor": "IV Waste",
    "rowid": "1212025",
    "final_x": "3667848.0994",
    "final_y": "525408.310397",
    "longitude": "-90.11138405927521",
    "latitude": "29.939097965127182",
    "geocoded_column": {
      "latitude": "29.939097965127182",
      "longitude": "-90.11138405927521"
    }
  },
  {
    "service_request": "2025-1212024",
    "request_type": "Trash/Recycling",
    "request_reason": "Order Second Trash Cart",
    "date_created": "2025-07-23T14:06:35.000",
    "date_modified": "2025-07-23T14:06:39.000",
    "request_status": "Pending",
    "responsible_agency": "Department of Sanitation",
    "final_address": "2235 Leonidas St",
    "address_councildis": "A",
    "status": "Assigned to Contractor",
    "contractor": "IV Waste",
    "rowid": "1212024",
    "final_x": "3663225.77491",
    "final_y": "532347.237507",
    "longitude": "-90.12574649068054",
    "latitude": "29.95831251471672",
    "geocoded_column": {
      "latitude": "29.95831251471672",
      "longitude": "-90.12574649068054"
    }
  },
  {
    "service_request": "2025-1212023",
    "request_type": "Trash/Recycling",
    "request_reason": "Repair Trash Cart",
    "date_created": "2025-07-23T14:05:03.000",
    "date_modified": "2025-07-23T14:05:05.000",
    "request_status": "Pending",
    "responsible_agency": "Department of Sanitation",
    "final_address": "2235 Leonidas St",
    "address_councildis": "A",
    "status": "Assigned to Contractor",
    "contractor": "IV Waste",
    "rowid": "1212023",
    "final_x": "3663225.77491",
    "final_y": "532347.237507",
    "longitude": "-90.12574649068054",
    "latitude": "29.95831251471672",
    "geocoded_column": {
      "latitude": "29.95831251471672",
      "longitude": "-90.12574649068054"
    }
  },
  {
    "service_request": "2025-1212022",
    "request_type": "Trash/Recycling",
    "request_reason": "Request a Large Item Pick Up",
    "date_created": "2025-07-23T14:01:40.000",
    "date_modified": "2025-07-23T14:01:41.000",
    "request_status": "Pending",
    "responsible_agency": "Department of Sanitation",
    "final_address": "8526 Apricot St",
    "address_councildis": "A",
    "status": "Assigned to Contractor",
    "contractor": "IV Waste",
    "rowid": "1212022",
    "final_x": "3664581.15277",
    "final_y": "533706.434245",
    "longitude": "-90.12142116142476",
    "latitude": "29.962010515011894",
    "geocoded_column": {
      "latitude": "29.962010515011894",
      "longitude": "-90.12142116142476"
    }
  },
  {
    "service_request": "2025-1212021",
    "request_type": "Trash/Recycling",
    "request_reason": "Request a Large Item Pick Up",
    "date_created": "2025-07-23T14:00:31.000",
    "date_modified": "2025-07-23T14:16:06.000",
    "request_status": "Pending",
    "responsible_agency": "Department of Sanitation",
    "final_address": "1018 St Anthony St",
    "address_councildis": "C",
    "status": "Assigned to Contractor",
    "contractor": "IV Waste",
    "rowid": "1212021",
    "final_x": "3683527.4214",
    "final_y": "535626.191302",
    "longitude": "-90.06152455059512",
    "latitude": "29.96672458761266",
    "geocoded_column": {
      "latitude": "29.96672458761266",
      "longitude": "-90.06152455059512"
    }
  },
  {
    "service_request": "2025-1212020",
    "request_type": "Trash/Recycling",
    "request_reason": "Repair Recycling Cart",
    "date_created": "2025-07-23T13:55:53.000",
    "date_modified": "2025-07-23T13:55:55.000",
    "request_status": "Pending",
    "responsible_agency": "Department of Sanitation",
    "final_address": "3720 Calhoun St",
    "address_councildis": "B",
    "status": "Pending",
    "rowid": "1212020",
    "final_x": "3668025.79239",
    "final_y": "530212.958977",
    "longitude": "-90.11066119923993",
    "latitude": "29.95230397891709",
    "geocoded_column": {
      "latitude": "29.95230397891709",
      "longitude": "-90.11066119923993"
    }
  },