[
  {
    "service_request": "2024-1147856",
    "request_type": "Trash/Recycling",
    "request_reason": "Return Trash Cart",
    "date_created": "2024-11-11T23:48:42.000",
    "date_modified": "2024-11-11T23:48:43.000",
    "request_status": "Pending",
    "responsible_agency": "Department of Sanitation",
    "final_address": "6376 Bellaire Dr",
    "address_councildis": "A",
    "status": "Assigned to Contractor",
    "contractor": "IV Waste",
    "rowid": "1147856",
    "final_x": "3664368.48832",
    "final_y": "550305.128404",
    "longitude": "-90.12153839325788",
    "latitude": "30.007657517789305",
    "geocoded_column": {
      "latitude": "30.007657517789305",
      "longitude": "-90.12153839325788"
    }
  },
  {
    "service_request": "2024-1147855",
    "request_type": "Trash/Recycling",
    "request_reason": "Replace Trash Cart",
    "date_created": "2024-11-11T23:19:28.000",
    "date_modified": "2024-11-11T23:19:29.000",
    "request_status": "Pending",
    "responsible_agency": "Department of Sanitation",
    "final_address": "1526 Ursulines Ave",
    "address_councildis": "C",
    "status": "Assigned to Contractor",
    "contractor": "IV Waste",
    "rowid": "1147855",
    "final_x": "3681020.07919",
    "final_y": "535465.905158",
    "longitude": "-90.06944830429948",
    "latitude": "29.96636014011149",
    "geocoded_column": {
      "latitude": "29.96636014011149",
      "longitude": "-90.06944830429948"
    }
  },
  {
    "service_request": "2024-1147854",
    "request_type": "Streetlights",
    "request_reason": "Streetlight Outage/Malfunction",
    "date_created": "2024-11-11T23:07:31.000",
    "date_modified": "2024-11-11T23:07:32.000",
    "request_status": "Pending",
    "responsible_agency": "Department of Public Works",
    "final_address": "906 Governor Nicholls St",
    "address_councildis": "C",
    "status": "Pending",
    "contractor": "Legacy Professional Services",
    "rowid": "1147854",
    "final_x": "3683006.70741",
    "final_y": "534383.499141",
    "longitude": "-90.06321246165278",
    "latitude": "29.9633234933172",
    "geocoded_column": {
      "latitude": "29.9633234933172",
      "longitude": "-90.06321246165278"
    }
  },
  {
    "service_request": "2024-1147853",
    "request_type": "Trash/Recycling",
    "request_reason": "Request a Large Item Pick Up",
    "date_created": "2024-11-11T21:16:56.000",
    "date_modified": "2024-11-11T21:16:57.000",
    "request_status": "Pending",
    "responsible_agency": "Department of Sanitation",
    "final_address": "5932 Mandeville St",
    "address_councildis": "D",
    "status": "Assigned to Contractor",
    "contractor": "IV Waste",
    "rowid": "1147853",
    "final_x": "3684233.18293",
    "final_y": "554901.965208",
    "longitude": "-90.05861857043861",
    "latitude": "30.019704535234624",
    "geocoded_column": {
      "latitude": "30.019704535234624",
      "longitude": "-90.05861857043861"
    }
  },
  {
    "service_request": "2024-1147852",
    "request_type": "Trash/Recycling",
    "request_reason": "Return Recycling Cart",
    "date_created": "2024-11-11T20:11:47.000",
    "date_modified": "2024-11-11T20:11:47.000",
    "request_status": "Pending",
    "responsible_agency": "Department of Sanitation",
    "final_address": "7518 Hurst St",
    "address_councildis": "A",
    "status": "Pending",
    "rowid": "1147852",
    "final_x": "3661036.13363",
    "final_y": "524430.07238",
    "longitude": "-90.13292273119016",
    "latitude": "29.936606109768164",
    "geocoded_column": {
      "latitude": "29.936606109768164",
      "longitude": "-90.13292273119016"
    }
  },
  {
    "service_request": "2024-1147851",
    "request_type": "Trash/Recycling",
    "request_reason": "Request a Large Item Pick Up",
    "date_created": "2024-11-11T19:51:18.000",
    "date_modified": "2024-11-11T19:51:20.000",
    "request_status": "Pending",
    "responsible_agency": "Department of Sanitation",
    "final_address": "3806 Clematis St",
    "address_councildis": "D",
    "status": "Assigned to Contractor",
    "contractor": "IV Waste",
    "rowid": "1147851",
    "final_x": "3685840.59561",
    "final_y": "546896.429201",
    "longitude": "-90.05382213928259",
    "latitude": "29.997642960796405",
    "geocoded_column": {
      "latitude": "29.997642960796405",
      "longitude": "-90.05382213928259"
    }
  },
  {
    "service_request": "2024-1147849",
    "request_type": "Roads and Streets",
    "request_reason": "Sidewalk Damaged or Missing",
    "date_created": "2024-11-11T19:26:08.000",
    "date_modified": "2024-11-11T19:26:08.000",
    "request_status": "Pending",
    "responsible_agency": "Department of Public Works",
    "final_address": "1319 Sixth St",
    "address_councildis": "B",
    "status": "Pending",
    "rowid": "1147849",
    "final_x": "3676149.18657",
    "final_y": "521320.127417",
    "longitude": "-90.08531707486716",
    "latitude": "29.927610772147215",
    "geocoded_column": {
      "latitude": "29.927610772147215",
      "longitude": "-90.08531707486716"
    }
  },
  {
    "service_request": "2024-1147848",
    "request_type": "Trash/Recycling",
    "request_reason": "Replace Trash Cart",
    "date_created": "2024-11-11T18:54:54.000",
    "date_modified": "2024-11-11T18:54:55.000",
    "request_status": "Pending",
    "responsible_agency": "Department of Sanitation",
    "final_address": "1120 Upperline St",
    "address_councildis": "B",
    "status": "Assigned to Contractor",
    "contractor": "IV Waste",
    "rowid": "1147848",
    "final_x": "3668956.61812",
    "final_y": "519531.740663",
    "longitude": "-90.10808270904685",
    "latitude": "29.922906724893117",
    "geocoded_column": {
      "latitude": "29.922906724893117",
      "longitude": "-90.10808270904685"
    }
  },
  {
    "service_request": "2024-1147847",
    "request_type": "Healthy Homes",
    "request_reason": "Healthy Homes",
    "date_created": "2024-11-11T18:45:30.000",
    "date_modified": "2024-11-11T18:45:30.000",
    "request_status": "Pending",
    "responsible_agency": "Department of Code Enforcement",
    "final_address": "508 Natchez St",
    "address_councildis": "B",
    "status": "Pending",
    "rowid": "1147847",
    "final_x": "3681464.874",
    "final_y": "529389.684353",
    "longitude": "-90.06825550435518",
    "latitude": "29.949639101139724",
    "geocoded_column": {
      "latitude": "29.949639101139724",
      "longitude": "-90.06825550435518"
    }
  },
  {
    "service_request": "2024-1147846",
    "request_type": "Trash/Recycling",
    "request_reason": "Request a Large Item Pick Up",
    "date_created": "2024-11-11T18:40:09.000",
    "date_modified": "2024-11-11T18:40:10.000",
    "request_status": "Pending",
    "responsible_agency": "Department of Sanitation",
    "final_address": "4601 Gabriel Dr",
    "address_councildis": "E",
    "status": "Assigned to Contractor",
    "contractor": "Waste Pro",
    "rowid": "1147846",
    "final_x": "3709042.67147",
    "final_y": "554807.109336",
    "longitude": "-89.98023297105118",
    "latitude": "30.018661489989043",
    "geocoded_column": {
      "latitude": "30.018661489989043",
      "longitude": "-89.98023297105118"
    }
  },
  {
    "service_request": "2024-1147845",
    "request_type": "Parks & Parkways",
    "request_reason": "Request Grass Cutting Service (City Owned Property)",
    "date_created": "2024-11-11T18:33:26.000",
    "date_modified": "2024-11-11T18:33:26.000",
    "request_status": "Pending",
    "responsible_agency": "Department of Parks & Parkway",
    "final_address": "1100 BLK Mirabeau Ave",
    "address_councildis": "D",
    "status": "Pending",
    "rowid": "1147845",
    "final_x": "3676016.61381",
    "final_y": "550091.114172",
    "longitude": "-90.08474590410873",
    "latitude": "30.006725194179953",
    "geocoded_column": {
      "latitude": "30.006725194179953",
      "longitude": "-90.08474590410873"
    }
  },
  {
    "service_request": "2024-1147844",
    "request_type": "Roads and Streets",
    "request_reason": "Pothole",
    "date_created": "2024-11-11T18:14:35.000",
    "date_modified": "2024-11-11T18:14:35.000",
    "request_status": "Pending",
    "responsible_agency": "Department of Public Works",
    "final_address": "4135 S Carrollton Ave",
    "address_councildis": "A",
    "status": "Pending",
    "rowid": "1147844",
    "final_x": "3669278.90951",
    "final_y": "536625.195655",
    "longitude": "-90.10648763888877",
    "latitude": "29.969898679765446",
    "geocoded_column": {
      "latitude": "29.969898679765446",
      "longitude": "-90.10648763888877"
    }
  },
  {
    "service_request": "2024-1147843",
    "request_type": "Streetlights",
    "request_reason": "Streetlight Outage/Malfunction",
    "date_created": "2024-11-11T18:04:23.000",
    "date_modified": "2024-11-11T18:04:24.000",
    "request_status": "Pending",
    "responsible_agency": "Department of Public Works",
    "final_address": "6750 Louisville St",
    "address_councildis": "A",
    "status": "Pending",
    "contractor": "Legacy Professional Services",
    "rowid": "1147843",
    "final_x": "3668114.85633",
    "final_y": "552499.595478",
    "longitude": "-90.10962844560264",
    "latitude": "30.0135820600029",
    "geocoded_column": {
      "latitude": "30.0135820600029",
      "longitude": "-90.10962844560264"
    }
  },
  {
    "service_request": "2024-1147842",
    "request_type": "Traffic Signals",
    "request_reason": "Traffic Signal Malfunctioning or Damaged",
    "date_created": "2024-11-11T17:57:30.000",
    "date_modified": "2024-11-11T17:57:31.000",
    "request_status": "Pending",
    "responsible_agency": "Department of Public Works",
    "final_address": "S CLAIBORNE AVE & TOLEDANO ST",
    "address_councildis": "B",
    "status": "Pending",
    "rowid": "1147842",
    "final_x": "3672686.1",
    "final_y": "526316.28",
    "longitude": "-90.09607892276615",
    "latitude": "29.941451833708907",
    "geocoded_column": {
      "latitude": "29.941451833708907",
      "longitude": "-90.09607892276615"
    }
  },
  {
    "service_request": "2024-1147841",
    "request_type": "Trash/Recycling",
    "request_reason": "Missed Trash Pick-Up",
    "date_created": "2024-11-11T17:54:36.000",
    "date_modified": "2024-11-11T17:54:38.000",
    "request_status": "Pending",
    "responsible_agency": "Department of Sanitation",
    "final_address": "3116 Cleveland Ave, New Orleans, Louisiana, 70119",
    "address_councildis": "B",
    "status": "Assigned to Contractor",
    "contractor": "IV Waste",
    "rowid": "1147841",
    "final_x": "3673629.4315",
    "final_y": "535784.785991",
    "longitude": "-90.09277698587567",
    "latitude": "29.967459038374624",
    "geocoded_column": {
      "latitude": "29.967459038374624",
      "longitude": "-90.09277698587567"
    }
  },
  {
    "service_request": "2024-1147840",
    "request_type": "Streetlights",
    "request_reason": "Streetlight Outage/Malfunction",
    "date_created": "2024-11-11T17:43:50.000",
    "date_modified": "2024-11-11T17:43:51.000",
    "request_status": "Pending",
    "responsible_agency": "Department of Public Works",
    "final_address": "340 Audubon Blvd",
    "address_councildis": "A",
    "status": "Pending",
    "contractor": "Legacy Professional Services",
    "rowid": "1147840",
    "final_x": "3667274.70586",
    "final_y": "530274.057985",
    "longitude": "-90.11303073802183",
    "latitude": "29.952493997062536",
    "geocoded_column": {
      "latitude": "29.952493997062536",
      "longitude": "-90.11303073802183"
    }
  },
  {
    "service_request": "2024-1147839",
    "request_type": "Streetlights",
    "request_reason": "Streetlight Outage/Malfunction",
    "date_created": "2024-11-11T17:43:40.000",
    "date_modified": "2024-11-11T17:43:41.000",
    "request_status": "Pending",
    "responsible_agency": "Department of Public Works",
    "final_address": "6900 BLK Marshal Foch St",
    "address_councildis": "A",
    "status": "Pending",
    "contractor": "Legacy Professional Services",
    "rowid": "1147839",
    "final_x": "3670405.30482",
    "final_y": "553535.957348",
    "longitude": "-90.10235662634653",
    "latitude": "30.016364230391076",
    "geocoded_column": {
      "latitude": "30.016364230391076",
      "longitude": "-90.10235662634653"
    }
  },
  {
    "service_request": "2024-1147838",
    "request_type": "Safety & Permits",
    "request_reason": "Licenses & Permits",
    "date_created": "2024-11-11T17:34:05.000",
    "date_modified": "2024-11-11T17:34:05.000",
    "request_status": "Pending",
    "responsible_agency": "Safety and Permits",
    "final_address": "5115 Arts St",
    "address_councildis": "D",
    "status": "Pending",
    "rowid": "1147838",
    "final_x": "3685915.2751",
    "final_y": "551668.569813",
    "longitude": "-90.05341783925712",
    "latitude": "30.010762324541968",
    "geocoded_column": {
      "latitude": "30.010762324541968",
      "longitude": "-90.05341783925712"
    }
  },
  {
    "service_request": "2024-1147837",
    "request_type": "General Services",
    "request_reason": "General Service Request",
    "date_created": "2024-11-11T17:33:21.000",
    "date_modified": "2024-11-11T17:33:21.000",
    "request_status": "Pending",
    "responsible_agency": "Orleans Parish Communication District",
    "final_address": "1102 Napoleon Ave",
    "address_councildis": "B",
    "status": "Pending",
    "rowid": "1147837",
    "final_x": "3670849.32795",
    "final_y": "519551.032375",
    "longitude": "-90.10210749471138",
    "latitude": "29.922903985104078",
    "geocoded_column": {
      "latitude": "29.922903985104078",
      "longitude": "-90.10210749471138"
    }
  },
  {
    "service_request": "2024-1147836",
    "request_type": "Abandoned Vehicles",
    "request_reason": "Abandoned/Junk Vehicles",
    "date_created": "2024-11-11T17:30:52.000",
    "date_modified": "2024-11-11T17:30:52.000",
    "request_status": "Pending",
    "responsible_agency": "Department of Public Works",
    "final_address": "1102 Napoleon Ave",
    "address_councildis": "B",
    "status": "Pending",
    "rowid": "1147836",
    "final_x": "3670849.32795",
    "final_y": "519551.032375",
    "longitude": "-90.10210749471138",
    "latitude": "29.922903985104078",
    "geocoded_column": {
      "latitude": "29.922903985104078",
      "longitude": "-90.10210749471138"
    }
  },
  {
    "service_request": "2024-1147835",
    "request_type": "Abandoned Vehicles",
    "request_reason": "Abandoned/Junk Vehicles",
    "date_created": "2024-11-11T17:20:15.000",
    "date_modified": "2024-11-11T17:20:15.000",
    "request_status": "Pending",
    "responsible_agency": "Department of Public Works",
    "final_address": "4124 Constance St",
    "address_councildis": "B",
    "status": "Pending",
    "rowid": "1147835",
    "final_x": "3671981.68231",
    "final_y": "518474.422518",
    "longitude": "-90.09856970874675",
    "latitude": "29.919910146204064",
    "geocoded_column": {
      "latitude": "29.919910146204064",
      "longitude": "-90.09856970874675"
    }
  },
  {
    "service_request": "2024-1147834",
    "request_type": "Streetlights",
    "request_reason": "Streetlight Outage/Malfunction",
    "date_created": "2024-11-11T17:17:04.000",
    "date_modified": "2024-11-11T17:17:05.000",
    "request_status": "Pending",
    "responsible_agency": "Department of Public Works",
    "final_address": "11036 Chaucer St",
    "address_councildis": "E",
    "status": "Pending",
    "contractor": "Legacy Professional Services",
    "rowid": "1147834",
    "final_x": "3713393.26603",
    "final_y": "562196.647967",
    "longitude": "-89.96620823612497",
    "latitude": "30.038837805662624",
    "geocoded_column": {
      "latitude": "30.038837805662624",
      "longitude": "-89.96620823612497"
    }
  },
  {
    "service_request": "2024-1147833",
    "request_type": "General Services",
    "request_reason": "General Service Request",
    "date_created": "2024-11-11T17:15:45.000",
    "date_modified": "2024-11-11T17:15:45.000",
    "request_status": "Pending",
    "responsible_agency": "Orleans Parish Communication District",
    "final_address": "Car blocking public sidewalk ",
    "status": "Pending",
    "rowid": "1147833",
    "longitude": "0.0",
    "latitude": "0.0",
    "geocoded_column": {
      "latitude": "0.0",
      "longitude": "0.0"
    }
  },
  {
    "service_request": "2024-1147832",
    "request_type": "Drainage",
    "request_reason": "Catch Basin Clogged",
    "date_created": "2024-11-11T17:10:41.000",
    "date_modified": "2024-11-11T17:10:41.000",
    "request_status": "Pending",
    "responsible_agency": "Department of Public Works",
    "final_address": "4500 BLK S Carrollton Ave",
    "address_councildis": "A",
    "status": "Pending",
    "rowid": "1147832",
    "final_x": "3670501.38271",
    "final_y": "537689.503805",
    "longitude": "-90.10259083909054",
    "latitude": "29.972789122570692",
    "geocoded_column": {
      "latitude": "29.972789122570692",
      "longitude": "-90.10259083909054"
    }
  },
  {
    "service_request": "2024-1147831",
    "request_type": "Trash/Recycling",
    "request_reason": "Request a Large Item Pick Up",
    "date_created": "2024-11-11T17:08:57.000",
    "date_modified": "2024-11-11T17:08:58.000",
    "request_status": "Pending",
    "responsible_agency": "Department of Sanitation",
    "final_address": "7416 Edward St",
    "address_councildis": "E",
    "status": "Assigned to Contractor",
    "contractor": "Waste Pro",
    "rowid": "1147831",
    "final_x": "3701192.91805",
    "final_y": "560327.220893",
    "longitude": "-90.00483297536326",
    "latitude": "30.03409221390936",
    "geocoded_column": {
      "latitude": "30.03409221390936",
      "longitude": "-90.00483297536326"
    }
  },
  {
    "service_request": "2024-1147830",
    "request_type": "General Services",
    "request_reason": "General Service Request",
    "date_created": "2024-11-11T17:04:33.000",
    "date_modified": "2024-11-11T17:04:33.000",
    "request_status": "Pending",
    "responsible_agency": "Orleans Parish Communication District",
    "final_address": "11036 Chaucer Street",
    "address_councildis": "E",
    "status": "Pending",
    "rowid": "1147830",
    "final_x": "3713393.26603",
    "final_y": "562196.647967",
    "longitude": "-89.96620823612497",
    "latitude": "30.038837805662624",
    "geocoded_column": {
      "latitude": "30.038837805662624",
      "longitude": "-89.96620823612497"
    }
  },
  {
    "service_request": "2024-1147829",
    "request_type": "Trash/Recycling",
    "request_reason": "Request a Large Item Pick Up",
    "date_created": "2024-11-11T17:04:21.000",
    "date_modified": "2024-11-11T17:04:22.000",
    "request_status": "Pending",
    "responsible_agency": "Department of Sanitation",
    "final_address": "7009 Lake Willow Dr",
    "address_councildis": "E",
    "status": "Assigned to Contractor",
    "contractor": "Waste Pro",
    "rowid": "1147829",
    "final_x": "3702577.99357",
    "final_y": "558890.665372",
    "longitude": "-90.00050879526212",
    "latitude": "30.030098016902123",
    "geocoded_column": {
      "latitude": "30.030098016902123",
      "longitude": "-90.00050879526212"
    }
  },
  {
    "service_request": "2024-1147828",
    "request_type": "Trash/Recycling",
    "request_reason": "Order Second Trash Cart",
    "date_created": "2024-11-11T17:00:18.000",
    "date_modified": "2024-11-11T17:00:19.000",
    "request_status": "Pending",
    "responsible_agency": "Department of Sanitation",
    "final_address": "2405 Mazant St",
    "address_councildis": "D",
    "status": "Assigned to Contractor",
    "contractor": "IV Waste",
    "rowid": "1147828",
    "final_x": "3693388.53398",
    "final_y": "540202.775307",
    "longitude": "-90.03021897470545",
    "latitude": "29.979003924957876",
    "geocoded_column": {
      "latitude": "29.979003924957876",
      "longitude": "-90.03021897470545"
    }
  },
  {
    "service_request": "2024-1147827",
    "request_type": "Streetlights",
    "request_reason": "Streetlight Outage/Malfunction",
    "date_created": "2024-11-11T16:56:29.000",
    "date_modified": "2024-11-11T16:56:30.000",
    "request_status": "Pending",
    "responsible_agency": "Department of Public Works",
    "final_address": "2626 St Charles Ave",
    "address_councildis": "B",
    "status": "Pending",
    "contractor": "Legacy Professional Services",
    "rowid": "1147827",
    "final_x": "3676301.32865",
    "final_y": "522622.60185",
    "longitude": "-90.0847919975749",
    "latitude": "29.93118759614614",
    "geocoded_column": {
      "latitude": "29.93118759614614",
      "longitude": "-90.0847919975749"
    }
  },
  {
    "service_request": "2024-1147826",
    "request_type": "Streetlights",
    "request_reason": "Streetlight Outage/Malfunction",
    "date_created": "2024-11-11T16:51:19.000",
    "date_modified": "2024-11-11T16:51:20.000",
    "request_status": "Pending",
    "responsible_agency": "Department of Public Works",
    "final_address": "4300 BLK Cleveland Ave",
    "address_councildis": "A",
    "status": "Pending",
    "contractor": "Legacy Professional Services",
    "rowid": "1147826",
    "final_x": "3669887.4991",
    "final_y": "538729.160846",
    "longitude": "-90.10449439114723",
    "latitude": "29.975665945382946",
    "geocoded_column": {
      "latitude": "29.975665945382946",
      "longitude": "-90.10449439114723"
    }
  },
  {
    "service_request": "2024-1147825",
    "request_type": "Roads and Streets",
    "request_reason": "Pothole",
    "date_created": "2024-11-11T16:48:52.000",
    "date_modified": "2024-11-11T16:48:52.000",
    "request_status": "Pending",
    "responsible_agency": "Department of Public Works",
    "final_address": "4315 Cleveland Ave",
    "address_councildis": "A",
    "status": "Pending",
    "rowid": "1147825",
    "final_x": "3669938.80692",
    "final_y": "538749.292873",
    "longitude": "-90.10433166435438",
    "latitude": "29.975719788584538",
    "geocoded_column": {
      "latitude": "29.975719788584538",
      "longitude": "-90.10433166435438"
    }
  },
  {
    "service_request": "2024-1147824",
    "request_type": "Safety & Permits",
    "request_reason": "Zoning Enforcement",
    "date_created": "2024-11-11T16:46:15.000",
    "date_modified": "2024-11-11T16:46:16.000",
    "request_status": "Pending",
    "responsible_agency": "Safety and Permits",
    "final_address": "1911 Laurel St",
    "address_councildis": "B",
    "status": "Pending",
    "rowid": "1147824",
    "final_x": "3680183.99355",
    "final_y": "522246.727418",
    "longitude": "-90.07254798530987",
    "latitude": "29.930037164565793",
    "geocoded_column": {
      "latitude": "29.930037164565793",
      "longitude": "-90.07254798530987"
    }
  },
  {
    "service_request": "2024-1147823",
    "request_type": "Drainage",
    "request_reason": "Street Flooding",
    "date_created": "2024-11-11T16:37:15.000",
    "date_modified": "2024-11-11T16:37:15.000",
    "request_status": "Pending",
    "responsible_agency": "Department of Public Works",
    "final_address": "816 Burdette St",
    "address_councildis": "A",
    "status": "Pending",
    "rowid": "1147823",
    "final_x": "3661930.72583",
    "final_y": "526726.89075",
    "longitude": "-90.13002230280019",
    "latitude": "29.94289583160839",
    "geocoded_column": {
      "latitude": "29.94289583160839",
      "longitude": "-90.13002230280019"
    }
  },
  {
    "service_request": "2024-1147822",
    "request_type": "Abandoned Vehicles",
    "request_reason": "Abandoned/Junk Vehicles",
    "date_created": "2024-11-11T16:35:49.000",
    "date_modified": "2024-11-11T16:35:49.000",
    "request_status": "Pending",
    "responsible_agency": "Department of Public Works",
    "final_address": "617 Piety St",
    "address_councildis": "C",
    "status": "Pending",
    "rowid": "1147822",
    "final_x": "3689449.72239",
    "final_y": "534116.980613",
    "longitude": "-90.04287568686836",
    "latitude": "29.96239271125384",
    "geocoded_column": {
      "latitude": "29.96239271125384",
      "longitude": "-90.04287568686836"
    }
  },
  {
    "service_request": "2024-1147821",
    "request_type": "Street and Traffic Signs",
    "request_reason": "Traffic or Parking Sign Damaged or Missing",
    "date_created": "2024-11-11T16:31:40.000",
    "date_modified": "2024-11-11T16:31:40.000",
    "request_status": "Pending",
    "responsible_agency": "Department of Public Works",
    "final_address": "4231 America St",
    "address_councildis": "E",
    "status": "Pending",
    "rowid": "1147821",
    "final_x": "3700036.83972",
    "final_y": "552309.362966",
    "longitude": "-90.00877920036596",
    "latitude": "30.012082978512716",
    "geocoded_column": {
      "latitude": "30.012082978512716",
      "longitude": "-90.00877920036596"
    }
  },
  {
    "service_request": "2024-1147820",
    "request_type": "Trash/Recycling",
    "request_reason": "Request a Large Item Pick Up",
    "date_created": "2024-11-11T16:30:41.000",
    "date_modified": "2024-11-11T16:30:42.000",
    "request_status": "Pending",
    "responsible_agency": "Department of Sanitation",
    "final_address": "6024 Annunciation St",
    "address_councildis": "A",
    "status": "Assigned to Contractor",
    "contractor": "IV Waste",
    "rowid": "1147820",
    "final_x": "3664022.23072",
    "final_y": "517889.07871",
    "longitude": "-90.12371345012436",
    "latitude": "29.91853407762794",
    "geocoded_column": {
      "latitude": "29.91853407762794",
      "longitude": "-90.12371345012436"
    }
  },
  {
    "service_request": "2024-1147819",
    "request_type": "Abandoned Vehicles",
    "request_reason": "Abandoned/Junk Vehicles",
    "date_created": "2024-11-11T16:27:36.000",
    "date_modified": "2024-11-11T16:27:36.000",
    "request_status": "Pending",
    "responsible_agency": "Department of Public Works",
    "final_address": "3200 BLK Chippewa St",
    "address_councildis": "B",
    "status": "Pending",
    "rowid": "1147819",
    "final_x": "3676371.31061",
    "final_y": "518572.162118",
    "longitude": "-90.08471041030595",
    "latitude": "29.92004810127682",
    "geocoded_column": {
      "latitude": "29.92004810127682",
      "longitude": "-90.08471041030595"
    }
  },
  {
    "service_request": "2024-1147818",
    "request_type": "Trash/Recycling",
    "request_reason": "Request a Large Item Pick Up",
    "date_created": "2024-11-11T16:24:32.000",
    "date_modified": "2024-11-11T16:24:33.000",
    "request_status": "Pending",
    "responsible_agency": "Department of Sanitation",
    "final_address": "8933 Bunker Hill Rd",
    "address_councildis": "E",
    "status": "Assigned to Contractor",
    "contractor": "Waste Pro",
    "rowid": "1147818",
    "final_x": "3705975.8122",
    "final_y": "561695.319647",
    "longitude": "-89.98966784311499",
    "latitude": "30.037700603467304",
    "geocoded_column": {
      "latitude": "30.037700603467304",
      "longitude": "-89.98966784311499"
    }
  },
  {
    "service_request": "2024-1147817",
    "request_type": "Trash/Recycling",
    "request_reason": "Request a Large Item Pick Up",
    "date_created": "2024-11-11T16:23:34.000",
    "date_modified": "2024-11-11T16:23:35.000",
    "request_status": "Pending",
    "responsible_agency": "Department of Sanitation",
    "final_address": "2145 Prentiss Ave",
    "address_councildis": "D",
    "status": "Assigned to Contractor",
    "contractor": "IV Waste",
    "rowid": "1147817",
    "final_x": "3683295.65231",
    "final_y": "553888.069591",
    "longitude": "-90.06161641188008",
    "latitude": "30.016945338428965",
    "geocoded_column": {
      "latitude": "30.016945338428965",
      "longitude": "-90.06161641188008"
    }
  },
  {
    "service_request": "2024-1147816",
    "request_type": "Streetlights",
    "request_reason": "Streetlight Outage/Malfunction",
    "date_created": "2024-11-11T16:21:05.000",
    "date_modified": "2024-11-11T16:21:06.000",
    "request_status": "Pending",
    "responsible_agency": "Department of Public Works",
    "final_address": "MORRISON RD & HEATHER CT",
    "address_councildis": "E",
    "status": "Pending",
    "contractor": "Legacy Professional Services",
    "rowid": "1147816",
    "final_x": "3705708.4",
    "final_y": "561931.38",
    "longitude": "-89.99050418109748",
    "latitude": "30.038358295863592",
    "geocoded_column": {
      "latitude": "30.038358295863592",
      "longitude": "-89.99050418109748"
    }
  },
  {
    "service_request": "2024-1147815",
    "request_type": "Trash/Recycling",
    "request_reason": "Request a Large Item Pick Up",
    "date_created": "2024-11-11T16:19:59.000",
    "date_modified": "2024-11-11T16:20:00.000",
    "request_status": "Pending",
    "responsible_agency": "Department of Sanitation",
    "final_address": "6143 Charlotte Dr",
    "address_councildis": "D",
    "status": "Assigned to Contractor",
    "contractor": "IV Waste",
    "rowid": "1147815",
    "final_x": "3679893.72098",
    "final_y": "555302.153433",
    "longitude": "-90.07231593208695",
    "latitude": "30.02093693255829",
    "geocoded_column": {
      "latitude": "30.02093693255829",
      "longitude": "-90.07231593208695"
    }
  },
  {
    "service_request": "2024-1147814",
    "request_type": "Abandoned Vehicles",
    "request_reason": "Abandoned/Junk Vehicles",
    "date_created": "2024-11-11T16:15:11.000",
    "date_modified": "2024-11-11T16:15:11.000",
    "request_status": "Pending",
    "responsible_agency": "Department of Public Works",
    "final_address": "1617 Piety St",
    "address_councildis": "D",
    "status": "Pending",
    "rowid": "1147814",
    "final_x": "3690394.04899",
    "final_y": "537843.448969",
    "longitude": "-90.03976079934257",
    "latitude": "29.97260991356172",
    "geocoded_column": {
      "latitude": "29.97260991356172",
      "longitude": "-90.03976079934257"
    }
  },
  {
    "service_request": "2024-1147813",
    "request_type": "Street and Traffic Signs",
    "request_reason": "Additional Signage Request",
    "date_created": "2024-11-11T16:14:20.000",
    "date_modified": "2024-11-11T16:14:21.000",
    "request_status": "Pending",
    "responsible_agency": "Department of Public Works",
    "final_address": "2300 BLK Marais St",
    "address_councildis": "C",
    "status": "Pending",
    "rowid": "1147813",
    "final_x": "3685926.09268",
    "final_y": "536743.949266",
    "longitude": "-90.05391015981597",
    "latitude": "29.96972460927583",
    "geocoded_column": {
      "latitude": "29.96972460927583",
      "longitude": "-90.05391015981597"
    }
  },
  {
    "service_request": "2024-1147812",
    "request_type": "Graffiti Removal",
    "request_reason": "Graffiti Removal",
    "date_created": "2024-11-11T16:13:35.000",
    "date_modified": "2024-11-11T16:13:35.000",
    "request_status": "Pending",
    "responsible_agency": "Department of Code Enforcement",
    "final_address": "920 Frenchmen St",
    "address_councildis": "C",
    "status": "Pending",
    "rowid": "1147812",
    "final_x": "3684598.26082",
    "final_y": "535730.495559",
    "longitude": "-90.05813918459324",
    "latitude": "29.966978663378992",
    "geocoded_column": {
      "latitude": "29.966978663378992",
      "longitude": "-90.05813918459324"
    }
  },
  {
    "service_request": "2024-1147811",
    "request_type": "Trash/Recycling",
    "request_reason": "Request a Large Item Pick Up",
    "date_created": "2024-11-11T16:05:51.000",
    "date_modified": "2024-11-11T16:05:52.000",
    "request_status": "Pending",
    "responsible_agency": "Department of Sanitation",
    "final_address": "6521 Avenue B",
    "address_councildis": "A",
    "status": "Assigned to Contractor",
    "contractor": "IV Waste",
    "rowid": "1147811",
    "final_x": "3665746.68538",
    "final_y": "551524.333973",
    "longitude": "-90.11714336677954",
    "latitude": "30.01096976004408",
    "geocoded_column": {
      "latitude": "30.01096976004408",
      "longitude": "-90.11714336677954"
    }
  },
  {
    "service_request": "2024-1147810",
    "request_type": "Property Maintenance",
    "request_reason": "Property Maintenance",
    "date_created": "2024-11-11T16:05:40.000",
    "date_modified": "2024-11-11T16:05:40.000",
    "request_status": "Pending",
    "responsible_agency": "Department of Code Enforcement",
    "final_address": "4518 Annunciation St",
    "address_councildis": "B",
    "status": "Pending",
    "rowid": "1147810",
    "final_x": "3670574.12923",
    "final_y": "517658.972278",
    "longitude": "-90.10304031865101",
    "latitude": "29.91770954791214",
    "geocoded_column": {
      "latitude": "29.91770954791214",
      "longitude": "-90.10304031865101"
    }
  },
  {
    "service_request": "2024-1147809",
    "request_type": "Trash/Recycling",
    "request_reason": "Repair Trash Cart",
    "date_created": "2024-11-11T16:04:34.000",
    "date_modified": "2024-11-11T16:04:35.000",
    "request_status": "Pending",
    "responsible_agency": "Department of Sanitation",
    "final_address": "1017 Jena St",
    "address_councildis": "B",
    "status": "Assigned to Contractor",
    "contractor": "IV Waste",
    "rowid": "1147809",
    "final_x": "3670655.01198",
    "final_y": "519297.592887",
    "longitude": "-90.10272946772757",
    "latitude": "29.922212846882367",
    "geocoded_column": {
      "latitude": "29.922212846882367",
      "longitude": "-90.10272946772757"
    }
  },
  {
    "service_request": "2024-1147808",
    "request_type": "Abandoned Vehicles",
    "request_reason": "Abandoned/Junk Vehicles",
    "date_created": "2024-11-11T16:03:39.000",
    "date_modified": "2024-11-11T16:03:39.000",
    "request_status": "Pending",
    "responsible_agency": "Department of Public Works",
    "final_address": "1557 N Roman St",
    "address_councildis": "D",
    "status": "Pending",
    "rowid": "1147808",
    "final_x": "3681433.35292",
    "final_y": "538037.993033",
    "longitude": "-90.0680535005988",
    "latitude": "29.973419954586557",
    "geocoded_column": {
      "latitude": "29.973419954586557",
      "longitude": "-90.0680535005988"
    }
  },
  {
    "service_request": "2024-1147807",
    "request_type": "Abandoned Vehicles",
    "request_reason": "Abandoned/Junk Vehicles",
    "date_created": "2024-11-11T16:02:45.000",
    "date_modified": "2024-11-11T16:02:45.000",
    "request_status": "Pending",
    "responsible_agency": "Department of Public Works",
    "final_address": "1557 N Roman St",
    "address_councildis": "D",
    "status": "Pending",
    "rowid": "1147807",
    "final_x": "3681433.35292",
    "final_y": "538037.993033",
    "longitude": "-90.0680535005988",
    "latitude": "29.973419954586557",
    "geocoded_column": {
      "latitude": "29.973419954586557",
      "longitude": "-90.0680535005988"
    }
  },
  {
    "service_request": "2024-1147805",
    "request_type": "Abandoned Vehicles",
    "request_reason": "Abandoned/Junk Vehicles",
    "date_created": "2024-11-11T16:01:39.000",
    "date_modified": "2024-11-11T16:01:40.000",
    "request_status": "Pending",
    "responsible_agency": "Department of Public Works",
    "final_address": "2300 Laurel St",
    "address_councildis": "B",
    "status": "Pending",
    "rowid": "1147805",
    "final_x": "3678982.47688",
    "final_y": "521217.319609",
    "longitude": "-90.07637662296452",
    "latitude": "29.927242926976625",
    "geocoded_column": {
      "latitude": "29.927242926976625",
      "longitude": "-90.07637662296452"
    }
  },
  {
    "service_request": "2024-1147804",
    "request_type": "Roads and Streets",
    "request_reason": "Push-up/Pavement Expansion",
    "date_created": "2024-11-11T15:58:47.000",
    "date_modified": "2024-11-11T15:58:47.000",
    "request_status": "Pending",
    "responsible_agency": "Department of Public Works",
    "final_address": "7716 Coolidge Ct",
    "address_councildis": "B",
    "status": "Pending",
    "rowid": "1147804",
    "final_x": "3668297.76116",
    "final_y": "533419.565188",
    "longitude": "-90.10969432001428",
    "latitude": "29.961113109568704",
    "geocoded_column": {
      "latitude": "29.961113109568704",
      "longitude": "-90.10969432001428"
    }
  },
  {
    "service_request": "2024-1147803",
    "request_type": "Roads and Streets",
    "request_reason": "Sidewalk Damaged or Missing",
    "date_created": "2024-11-11T15:55:44.000",
    "date_modified": "2024-11-11T15:55:45.000",
    "request_status": "Pending",
    "responsible_agency": "Department of Public Works",
    "final_address": "3130 Dauphine St",
    "address_councildis": "C",
    "status": "Pending",
    "rowid": "1147803",
    "final_x": "3688955.08425",
    "final_y": "534772.054598",
    "longitude": "-90.04441440994401",
    "latitude": "29.9642092446411",
    "geocoded_column": {
      "latitude": "29.9642092446411",
      "longitude": "-90.04441440994401"
    }
  },
  {
    "service_request": "2024-1147801",
    "request_type": "Healthy Homes",
    "request_reason": "Healthy Homes",
    "date_created": "2024-11-11T15:49:32.000",
    "date_modified": "2024-11-11T15:49:33.000",
    "request_status": "Pending",
    "responsible_agency": "Department of Code Enforcement",
    "final_address": "7001 Lawrence Rd Apt 182",
    "address_councildis": "E",
    "status": "Pending",
    "rowid": "1147801",
    "final_x": "3703881.09156",
    "final_y": "558831.962588",
    "longitude": "-89.99639319889054",
    "latitude": "30.029894865431743",
    "geocoded_column": {
      "latitude": "30.029894865431743",
      "longitude": "-89.99639319889054"
    }
  },
  {
    "service_request": "2024-1147800",
    "request_type": "Trash/Recycling",
    "request_reason": "Replace Trash Cart",
    "date_created": "2024-11-11T15:40:02.000",
    "date_modified": "2024-11-11T15:40:03.000",
    "request_status": "Pending",
    "responsible_agency": "Department of Sanitation",
    "final_address": "1230 N Broad St",
    "address_councildis": "D",
    "status": "Assigned to Contractor",
    "contractor": "IV Waste",
    "rowid": "1147800",
    "final_x": "3678024.13275",
    "final_y": "538599.677385",
    "longitude": "-90.07880110609337",
    "latitude": "29.975067466381123",
    "geocoded_column": {
      "latitude": "29.975067466381123",
      "longitude": "-90.07880110609337"
    }
  },
  {
    "service_request": "2024-1147799",
    "request_type": "Trash/Recycling",
    "request_reason": "Illegal Dumping",
    "date_created": "2024-11-11T15:35:23.000",
    "date_modified": "2024-11-11T15:35:24.000",
    "request_status": "Pending",
    "responsible_agency": "Department of Sanitation",
    "final_address": "MARAIS ST & COLUMBUS ST",
    "address_councildis": "C",
    "status": "Pending",
    "rowid": "1147799",
    "final_x": "3682669.0",
    "final_y": "536382.88",
    "longitude": "-90.06420897119024",
    "latitude": "29.968831391198176",
    "geocoded_column": {
      "latitude": "29.968831391198176",
      "longitude": "-90.06420897119024"
    }
  },
  {
    "service_request": "2024-1147798",
    "request_type": "Trash/Recycling",
    "request_reason": "Request a Large Item Pick Up",
    "date_created": "2024-11-11T15:34:31.000",
    "date_modified": "2024-11-11T15:34:32.000",
    "request_status": "Pending",
    "responsible_agency": "Department of Sanitation",
    "final_address": "9110 Tilford Rd",
    "address_councildis": "E",
    "status": "Assigned to Contractor",
    "contractor": "Waste Pro",
    "rowid": "1147798",
    "final_x": "3708438.24721",
    "final_y": "557245.333595",
    "longitude": "-89.98205186506385",
    "latitude": "30.02538526803743",
    "geocoded_column": {
      "latitude": "30.02538526803743",
      "longitude": "-89.98205186506385"
    }
  },
  {
    "service_request": "2024-1147797",
    "request_type": "Abandoned Vehicles",
    "request_reason": "Abandoned/Junk Vehicles",
    "date_created": "2024-11-11T15:28:48.000",
    "date_modified": "2024-11-11T15:28:48.000",
    "request_status": "Pending",
    "responsible_agency": "Department of Public Works",
    "final_address": "2016 Orleans Ave",
    "address_councildis": "D",
    "status": "Pending",
    "rowid": "1147797",
    "final_x": "3678814.10779",
    "final_y": "535357.741254",
    "longitude": "-90.07641847377543",
    "latitude": "29.96612944740666",
    "geocoded_column": {
      "latitude": "29.96612944740666",
      "longitude": "-90.07641847377543"
    }
  },
  {
    "service_request": "2024-1147796",
    "request_type": "Road Striping",
    "request_reason": "Lane Striping or other Pavement Markings",
    "date_created": "2024-11-11T15:17:11.000",
    "date_modified": "2024-11-11T15:17:11.000",
    "request_status": "Pending",
    "responsible_agency": "Department of Public Works",
    "final_address": "1024 Bourbon St",
    "address_councildis": "C",
    "status": "Pending",
    "rowid": "1147796",
    "final_x": "3683074.13781",
    "final_y": "533700.414341",
    "longitude": "-90.06302343852212",
    "latitude": "29.961443189078086",
    "geocoded_column": {
      "latitude": "29.961443189078086",
      "longitude": "-90.06302343852212"
    }
  },
  {
    "service_request": "2024-1147795",
    "request_type": "Trash/Recycling",
    "request_reason": "Request a Large Item Pick Up",
    "date_created": "2024-11-11T15:16:27.000",
    "date_modified": "2024-11-11T15:44:42.000",
    "case_close_date": "2024-11-11T09:44:42.000",
    "request_status": "Closed",
    "responsible_agency": "Department of Sanitation",
    "final_address": "14550 Tilbury Rd",
    "address_councildis": "E",
    "status": "Duplicate Request",
    "contractor": "Waste Pro",
    "contractor_action": "Duplicate",
    "rowid": "1147795",
    "final_x": "3720952.22073",
    "final_y": "573149.479145",
    "longitude": "-89.94189982016891",
    "latitude": "30.06870339330108",
    "geocoded_column": {
      "latitude": "30.06870339330108",
      "longitude": "-89.94189982016891"
    }
  },
  {
    "service_request": "2024-1147794",
    "request_type": "Trash/Recycling",
    "request_reason": "Request a Large Item Pick Up",
    "date_created": "2024-11-11T15:15:01.000",
    "date_modified": "2024-11-11T15:15:02.000",
    "request_status": "Pending",
    "responsible_agency": "Department of Sanitation",
    "final_address": "1726 Touro St",
    "address_councildis": "D",
    "status": "Assigned to Contractor",
    "contractor": "IV Waste",
    "rowid": "1147794",
    "final_x": "3684007.18729",
    "final_y": "538664.457353",
    "longitude": "-90.05990282228291",
    "latitude": "29.975064113509408",
    "geocoded_column": {
      "latitude": "29.975064113509408",
      "longitude": "-90.05990282228291"
    }
  },
  {
    "service_request": "2024-1147793",
    "request_type": "Trash/Recycling",
    "request_reason": "Request a Large Item Pick Up",
    "date_created": "2024-11-11T15:12:12.000",
    "date_modified": "2024-11-11T15:12:12.000",
    "request_status": "Pending",
    "responsible_agency": "Department of Sanitation",
    "final_address": "14550 Tilbury Rd",
    "address_councildis": "E",
    "status": "Assigned to Contractor",
    "contractor": "Waste Pro",
    "rowid": "1147793",
    "final_x": "3720952.22073",
    "final_y": "573149.479145",
    "longitude": "-89.94189982016891",
    "latitude": "30.06870339330108",
    "geocoded_column": {
      "latitude": "30.06870339330108",
      "longitude": "-89.94189982016891"
    }
  },
  {
    "service_request": "2024-1147792",
    "request_type": "Trash/Recycling",
    "request_reason": "Illegal Dumping",
    "date_created": "2024-11-11T15:11:36.000",
    "date_modified": "2024-11-11T15:11:37.000",
    "request_status": "Pending",
    "responsible_agency": "Department of Sanitation",
    "final_address": "REYNES ST & OLD GENTILLY RD",
    "address_councildis": "E",
    "status": "Pending",
    "rowid": "1147792",
    "final_x": "3699503.8",
    "final_y": "551358.08",
    "longitude": "-90.01049798978312",
    "latitude": "30.009484240799704",
    "geocoded_column": {
      "latitude": "30.009484240799704",
      "longitude": "-90.01049798978312"
    }
  },
  {
    "service_request": "2024-1147791",
    "request_type": "Trash/Recycling",
    "request_reason": "Repair Trash Cart",
    "date_created": "2024-11-11T15:10:30.000",
    "date_modified": "2024-11-11T15:10:31.000",
    "request_status": "Pending",
    "responsible_agency": "Department of Sanitation",
    "final_address": "4734 Francisco Verrett Dr",
    "address_councildis": "E",
    "status": "Assigned to Contractor",
    "contractor": "Waste Pro",
    "rowid": "1147791",
    "final_x": "3704178.94071",
    "final_y": "555212.017881",
    "longitude": "-89.99558555218563",
    "latitude": "30.019931860375355",
    "geocoded_column": {
      "latitude": "30.019931860375355",
      "longitude": "-89.99558555218563"
    }
  },
  {
    "service_request": "2024-1147790",
    "request_type": "Trash/Recycling",
    "request_reason": "Replace Trash Cart",
    "date_created": "2024-11-11T15:08:30.000",
    "date_modified": "2024-11-11T15:08:31.000",
    "request_status": "Pending",
    "responsible_agency": "Department of Sanitation",
    "final_address": "7367 Chef Menteur Hwy",
    "address_councildis": "E",
    "status": "Assigned to Contractor",
    "contractor": "Waste Pro",
    "rowid": "1147790",
    "final_x": "3702439.29188",
    "final_y": "552418.926358",
    "longitude": "-90.00118484812147",
    "latitude": "30.01230765577533",
    "geocoded_column": {
      "latitude": "30.01230765577533",
      "longitude": "-90.00118484812147"
    }
  },
  {
    "service_request": "2024-1147789",
    "request_type": "Trash/Recycling",
    "request_reason": "Return Recycling Cart",
    "date_created": "2024-11-11T15:01:44.000",
    "date_modified": "2024-11-11T15:01:45.000",
    "request_status": "Pending",
    "responsible_agency": "Department of Sanitation",
    "final_address": "5306 Canal Blvd",
    "address_councildis": "A",
    "status": "Pending",
    "rowid": "1147789",
    "final_x": "3667958.93953",
    "final_y": "542851.136333",
    "longitude": "-90.11044640207483",
    "latitude": "29.987056713104117",
    "geocoded_column": {
      "latitude": "29.987056713104117",
      "longitude": "-90.11044640207483"
    }
  },
  {
    "service_request": "2024-1147788",
    "request_type": "Roads and Streets",
    "request_reason": "Pothole",
    "date_created": "2024-11-11T14:55:40.000",
    "date_modified": "2024-11-11T14:55:40.000",
    "request_status": "Pending",
    "responsible_agency": "Department of Public Works",
    "final_address": "1219 Governor Nicholls St",
    "address_councildis": "C",
    "status": "Pending",
    "rowid": "1147788",
    "final_x": "3682073.33436",
    "final_y": "535226.579142",
    "longitude": "-90.06613050290339",
    "latitude": "29.965670089303497",
    "geocoded_column": {
      "latitude": "29.965670089303497",
      "longitude": "-90.06613050290339"
    }
  },
  {
    "service_request": "2024-1147787",
    "request_type": "Trash/Recycling",
    "request_reason": "Replace Trash Cart",
    "date_created": "2024-11-11T14:53:00.000",
    "date_modified": "2024-11-11T14:53:01.000",
    "request_status": "Pending",
    "responsible_agency": "Department of Sanitation",
    "final_address": "1900 BLK Saint Philip St",
    "address_councildis": "D",
    "status": "Assigned to Contractor",
    "contractor": "IV Waste",
    "rowid": "1147787",
    "final_x": "3679733.56996",
    "final_y": "536041.857822",
    "longitude": "-90.07349108072687",
    "latitude": "29.967982769066637",
    "geocoded_column": {
      "latitude": "29.967982769066637",
      "longitude": "-90.07349108072687"
    }
  },
  {
    "service_request": "2024-1147786",
    "request_type": "Trash/Recycling",
    "request_reason": "Request a Large Item Pick Up",
    "date_created": "2024-11-11T14:52:57.000",
    "date_modified": "2024-11-11T14:52:58.000",
    "request_status": "Pending",
    "responsible_agency": "Department of Sanitation",
    "final_address": "8124 Zimple St",
    "address_councildis": "A",
    "status": "Assigned to Contractor",
    "contractor": "IV Waste",
    "rowid": "1147786",
    "final_x": "3661567.14342",
    "final_y": "528208.411712",
    "longitude": "-90.13112114971015",
    "latitude": "29.946980035651066",
    "geocoded_column": {
      "latitude": "29.946980035651066",
      "longitude": "-90.13112114971015"
    }
  },
  {
    "service_request": "2024-1147785",
    "request_type": "Property Maintenance",
    "request_reason": "Property Maintenance",
    "date_created": "2024-11-11T14:52:35.000",
    "date_modified": "2024-11-11T14:52:36.000",
    "request_status": "Pending",
    "responsible_agency": "Department of Code Enforcement",
    "final_address": "3021 Rue Parc Fontaine",
    "address_councildis": "C",
    "status": "Pending",
    "rowid": "1147785",
    "final_x": "3699891.31255",
    "final_y": "519968.0878",
    "longitude": "-90.0104186840157",
    "latitude": "29.923160733447027",
    "geocoded_column": {
      "latitude": "29.923160733447027",
      "longitude": "-90.0104186840157"
    }
  },
  {
    "service_request": "2024-1147784",
    "request_type": "Trash/Recycling",
    "request_reason": "Request a Large Item Pick Up",
    "date_created": "2024-11-11T14:52:24.000",
    "date_modified": "2024-11-11T14:52:25.000",
    "request_status": "Pending",
    "responsible_agency": "Department of Sanitation",
    "final_address": "11 Honeysuckle Ln",
    "address_councildis": "E",
    "status": "Assigned to Contractor",
    "contractor": "Waste Pro",
    "rowid": "1147784",
    "final_x": "3713056.1285",
    "final_y": "568190.722469",
    "longitude": "-89.96704780090653",
    "latitude": "30.055330137531605",
    "geocoded_column": {
      "latitude": "30.055330137531605",
      "longitude": "-89.96704780090653"
    }
  },
  {
    "service_request": "2024-1147783",
    "request_type": "Trash/Recycling",
    "request_reason": "Request a Large Item Pick Up",
    "date_created": "2024-11-11T14:50:54.000",
    "date_modified": "2024-11-11T14:50:55.000",
    "request_status": "Pending",
    "responsible_agency": "Department of Sanitation",
    "final_address": "7601 Branch Dr",
    "address_councildis": "E",
    "status": "Assigned to Contractor",
    "contractor": "Waste Pro",
    "rowid": "1147783",
    "final_x": "3714907.85528",
    "final_y": "568520.869157",
    "longitude": "-89.96118242919847",
    "latitude": "30.056177064507995",
    "geocoded_column": {
      "latitude": "30.056177064507995",
      "longitude": "-89.96118242919847"
    }
  },
  {
    "service_request": "2024-1147782",
    "request_type": "Road Striping",
    "request_reason": "Lane Striping or other Pavement Markings",
    "date_created": "2024-11-11T14:50:44.000",
    "date_modified": "2024-11-11T14:50:45.000",
    "request_status": "Pending",
    "responsible_agency": "Department of Public Works",
    "final_address": "6218 Cambridge St",
    "address_councildis": "C",
    "status": "Pending",
    "rowid": "1147782",
    "final_x": "3707098.50372",
    "final_y": "518465.167158",
    "longitude": "-89.98772425163699",
    "latitude": "29.91879745907295",
    "geocoded_column": {
      "latitude": "29.91879745907295",
      "longitude": "-89.98772425163699"
    }
  },
  {
    "service_request": "2024-1147781",
    "request_type": "Trash/Recycling",
    "request_reason": "Order Recycling Cart",
    "date_created": "2024-11-11T14:49:48.000",
    "date_modified": "2024-11-11T14:49:49.000",
    "request_status": "Pending",
    "responsible_agency": "Department of Sanitation",
    "final_address": "6218 Cambridge St",
    "address_councildis": "C",
    "status": "Pending",
    "rowid": "1147781",
    "final_x": "3707098.50372",
    "final_y": "518465.167158",
    "longitude": "-89.98772425163699",
    "latitude": "29.91879745907295",
    "geocoded_column": {
      "latitude": "29.91879745907295",
      "longitude": "-89.98772425163699"
    }
  },
  {
    "service_request": "2024-1147780",
    "request_type": "Health Related Request",
    "request_reason": "Noise Ordinance Complaint",
    "date_created": "2024-11-11T14:42:45.000",
    "date_modified": "2024-11-11T14:42:45.000",
    "request_status": "Pending",
    "responsible_agency": "Health Department",
    "final_address": "3819 Herschel St, New Orleans, Louisiana, 70114",
    "address_councildis": "C",
    "status": "Pending",
    "rowid": "1147780",
    "final_x": "3697822.90141",
    "final_y": "521008.288313",
    "longitude": "-90.01691010511081",
    "latitude": "29.92608643113844",
    "geocoded_column": {
      "latitude": "29.92608643113844",
      "longitude": "-90.01691010511081"
    }
  },
  {
    "service_request": "2024-1147779",
    "request_type": "Streetlights",
    "request_reason": "Streetlight Outage/Malfunction",
    "date_created": "2024-11-11T14:37:10.000",
    "date_modified": "2024-11-11T14:37:11.000",
    "request_status": "Pending",
    "responsible_agency": "Department of Public Works",
    "final_address": "4653 Stephen Girard Ave",
    "address_councildis": "D",
    "status": "Pending",
    "contractor": "Legacy Professional Services",
    "rowid": "1147779",
    "final_x": "3691414.98032",
    "final_y": "550644.06402",
    "longitude": "-90.03607883831795",
    "latitude": "30.007775248874076",
    "geocoded_column": {
      "latitude": "30.007775248874076",
      "longitude": "-90.03607883831795"
    }
  },
  {
    "service_request": "2024-1147778",
    "request_type": "Parks & Parkways",
    "request_reason": "Request Tree Service (Right of Way/Public Property)",
    "date_created": "2024-11-11T14:36:13.000",
    "date_modified": "2024-11-11T14:36:14.000",
    "request_status": "Pending",
    "responsible_agency": "Department of Parks & Parkway",
    "final_address": "3133 Louisiana Avenue Prkwy",
    "address_councildis": "B",
    "status": "Pending",
    "rowid": "1147778",
    "final_x": "3672047.23809",
    "final_y": "526849.69587",
    "longitude": "-90.09807778393018",
    "latitude": "29.942937505903103",
    "geocoded_column": {
      "latitude": "29.942937505903103",
      "longitude": "-90.09807778393018"
    }
  },
  {
    "service_request": "2024-1147777",
    "request_type": "Trash/Recycling",
    "request_reason": "Replace Recycling Cart",
    "date_created": "2024-11-11T14:35:04.000",
    "date_modified": "2024-11-11T14:35:04.000",
    "request_status": "Pending",
    "responsible_agency": "Department of Sanitation",
    "final_address": "4653 Stephen Girard Ave",
    "address_councildis": "D",
    "status": "Pending",
    "rowid": "1147777",
    "final_x": "3691414.98032",
    "final_y": "550644.06402",
    "longitude": "-90.03607883831795",
    "latitude": "30.007775248874076",
    "geocoded_column": {
      "latitude": "30.007775248874076",
      "longitude": "-90.03607883831795"
    }
  },
  {
    "service_request": "2024-1147776",
    "request_type": "Trash/Recycling",
    "request_reason": "Request a Large Item Pick Up",
    "date_created": "2024-11-11T14:33:43.000",
    "date_modified": "2024-11-11T14:33:44.000",
    "request_status": "Pending",
    "responsible_agency": "Department of Sanitation",
    "final_address": "4619 Gabriel Dr",
    "address_councildis": "E",
    "status": "Assigned to Contractor",
    "contractor": "Waste Pro",
    "rowid": "1147776",
    "final_x": "3709030.2211",
    "final_y": "554931.920408",
    "longitude": "-89.98026765260477",
    "latitude": "30.019005076153203",
    "geocoded_column": {
      "latitude": "30.019005076153203",
      "longitude": "-89.98026765260477"
    }
  },
  {
    "service_request": "2024-1147775",
    "request_type": "Abandoned Vehicles",
    "request_reason": "Abandoned/Junk Vehicles",
    "date_created": "2024-11-11T14:31:18.000",
    "date_modified": "2024-11-11T14:31:18.000",
    "request_status": "Pending",
    "responsible_agency": "Department of Public Works",
    "final_address": "2501 Tchoupitoulas St",
    "address_councildis": "B",
    "status": "Pending",
    "rowid": "1147775",
    "final_x": "3679203.07195",
    "final_y": "519161.990327",
    "longitude": "-90.07575146902829",
    "latitude": "29.921584785096794",
    "geocoded_column": {
      "latitude": "29.921584785096794",
      "longitude": "-90.07575146902829"
    }
  },
  {
    "service_request": "2024-1147774",
    "request_type": "Trash/Recycling",
    "request_reason": "Return Trash Cart",
    "date_created": "2024-11-11T14:30:56.000",
    "date_modified": "2024-11-11T14:30:56.000",
    "request_status": "Pending",
    "responsible_agency": "Department of Sanitation",
    "final_address": "1607 Sauvage St",
    "address_councildis": "A",
    "status": "Assigned to Contractor",
    "contractor": "IV Waste",
    "rowid": "1147774",
    "final_x": "3677126.06779",
    "final_y": "540599.702923",
    "longitude": "-90.08156842462968",
    "latitude": "29.980593853688173",
    "geocoded_column": {
      "latitude": "29.980593853688173",
      "longitude": "-90.08156842462968"
    }
  },
  {
    "service_request": "2024-1147773",
    "request_type": "Streetlights",
    "request_reason": "Streetlight Outage/Malfunction",
    "date_created": "2024-11-11T14:26:56.000",
    "date_modified": "2024-11-11T14:27:36.000",
    "request_status": "Pending",
    "responsible_agency": "Department of Public Works",
    "final_address": "2416 Columbus St",
    "address_councildis": "D",
    "status": "Pending",
    "contractor": "Legacy Professional Services",
    "rowid": "1147773",
    "final_x": "3679347.93813",
    "final_y": "538975.855242",
    "longitude": "-90.07460713449939",
    "latitude": "29.976061906333854",
    "geocoded_column": {
      "latitude": "29.976061906333854",
      "longitude": "-90.07460713449939"
    }
  },
  {
    "service_request": "2024-1147772",
    "request_type": "Property Maintenance",
    "request_reason": "Property Maintenance",
    "date_created": "2024-11-11T14:24:32.000",
    "date_modified": "2024-11-11T14:24:32.000",
    "request_status": "Pending",
    "responsible_agency": "Department of Code Enforcement",
    "final_address": "3108 Upperline St",
    "address_councildis": "B",
    "status": "Pending",
    "rowid": "1147772",
    "final_x": "3669216.39975",
    "final_y": "526432.872062",
    "longitude": "-90.10702953829498",
    "latitude": "29.94187498473501",
    "geocoded_column": {
      "latitude": "29.94187498473501",
      "longitude": "-90.10702953829498"
    }
  },
  {
    "service_request": "2024-1147771",
    "request_type": "Property Maintenance",
    "request_reason": "Property Maintenance",
    "date_created": "2024-11-11T14:24:16.000",
    "date_modified": "2024-11-11T14:24:17.000",
    "request_status": "Pending",
    "responsible_agency": "Department of Code Enforcement",
    "final_address": "1455 N Rocheblave St",
    "address_councildis": "D",
    "status": "Pending",
    "rowid": "1147771",
    "final_x": "3679358.13333",
    "final_y": "538798.284041",
    "longitude": "-90.07458109594629",
    "latitude": "29.975573338883947",
    "geocoded_column": {
      "latitude": "29.975573338883947",
      "longitude": "-90.07458109594629"
    }
  },
  {
    "service_request": "2024-1147770",
    "request_type": "Trash/Recycling",
    "request_reason": "Repair Trash Cart",
    "date_created": "2024-11-11T14:23:25.000",
    "date_modified": "2024-11-11T14:23:26.000",
    "request_status": "Pending",
    "responsible_agency": "Department of Sanitation",
    "final_address": "5663 General Haig St",
    "address_councildis": "A",
    "status": "Assigned to Contractor",
    "contractor": "IV Waste",
    "rowid": "1147770",
    "final_x": "3670446.02439",
    "final_y": "544882.035983",
    "longitude": "-90.10252167278468",
    "latitude": "29.992567770422177",
    "geocoded_column": {
      "latitude": "29.992567770422177",
      "longitude": "-90.10252167278468"
    }
  },
  {
    "service_request": "2024-1147769",
    "request_type": "Property Maintenance",
    "request_reason": "Property Maintenance",
    "date_created": "2024-11-11T14:18:11.000",
    "date_modified": "2024-11-11T14:18:12.000",
    "request_status": "Pending",
    "responsible_agency": "Department of Code Enforcement",
    "final_address": "1735 Alvar St",
    "address_councildis": "D",
    "status": "Pending",
    "rowid": "1147769",
    "final_x": "3692173.91523",
    "final_y": "537924.007753",
    "longitude": "-90.03413679642316",
    "latitude": "29.972776051644793",
    "geocoded_column": {
      "latitude": "29.972776051644793",
      "longitude": "-90.03413679642316"
    }
  },
  {
    "service_request": "2024-1147768",
    "request_type": "Streetlights",
    "request_reason": "Streetlight Outage/Malfunction",
    "date_created": "2024-11-11T14:15:00.000",
    "date_modified": "2024-11-11T14:16:44.000",
    "request_status": "Pending",
    "responsible_agency": "Department of Public Works",
    "final_address": "7 Versailles Blvd",
    "address_councildis": "A",
    "status": "Pending",
    "contractor": "Legacy Professional Services",
    "rowid": "1147768",
    "final_x": "3667075.02657",
    "final_y": "528744.022912",
    "longitude": "-90.11371265900038",
    "latitude": "29.94829274411683",
    "geocoded_column": {
      "latitude": "29.94829274411683",
      "longitude": "-90.11371265900038"
    }
  },
  {
    "service_request": "2024-1147767",
    "request_type": "City-Owned Cemeteries",
    "request_reason": "Property Maintenance",
    "date_created": "2024-11-11T14:14:16.000",
    "date_modified": "2024-11-11T14:14:16.000",
    "request_status": "Pending",
    "responsible_agency": "Department of Property Management",
    "final_address": "1900 BLK Lowerline St",
    "address_councildis": "A",
    "status": "Pending",
    "rowid": "1147767",
    "final_x": "3665160.59189",
    "final_y": "529029.988644",
    "longitude": "-90.1197477803224",
    "latitude": "29.949134948757496",
    "geocoded_column": {
      "latitude": "29.949134948757496",
      "longitude": "-90.1197477803224"
    }
  },
  {
    "service_request": "2024-1147766",
    "request_type": "Parks & Parkways",
    "request_reason": "Request Tree Service (Right of Way/Public Property)",
    "date_created": "2024-11-11T14:13:53.000",
    "date_modified": "2024-11-11T14:13:53.000",
    "request_status": "Pending",
    "responsible_agency": "Department of Parks & Parkway",
    "final_address": "6953 Foch Rd",
    "address_councildis": "D",
    "status": "Pending",
    "rowid": "1147766",
    "final_x": "3696634.02416",
    "final_y": "556727.26217",
    "longitude": "-90.01937004448108",
    "latitude": "30.02433825172862",
    "geocoded_column": {
      "latitude": "30.02433825172862",
      "longitude": "-90.01937004448108"
    }
  },
  {
    "service_request": "2024-1147765",
    "request_type": "Trash/Recycling",
    "request_reason": "Replace Trash Cart",
    "date_created": "2024-11-11T14:12:52.000",
    "date_modified": "2024-11-11T14:12:53.000",
    "request_status": "Pending",
    "responsible_agency": "Department of Sanitation",
    "final_address": "4233 St Bernard Ave",
    "address_councildis": "D",
    "status": "Assigned to Contractor",
    "contractor": "IV Waste",
    "rowid": "1147765",
    "final_x": "3677126.18594",
    "final_y": "547860.557458",
    "longitude": "-90.08131747207236",
    "latitude": "30.000558663058833",
    "geocoded_column": {
      "latitude": "30.000558663058833",
      "longitude": "-90.08131747207236"
    }
  },
  {
    "service_request": "2024-1147764",
    "request_type": "Trash/Recycling",
    "request_reason": "Request a Large Item Pick Up",
    "date_created": "2024-11-11T14:11:50.000",
    "date_modified": "2024-11-11T14:11:51.000",
    "request_status": "Pending",
    "responsible_agency": "Department of Sanitation",
    "final_address": "7620 Dalewood Rd",
    "address_councildis": "E",
    "status": "Assigned to Contractor",
    "contractor": "Waste Pro",
    "rowid": "1147764",
    "final_x": "3699898.61124",
    "final_y": "560425.575966",
    "longitude": "-90.0089195326891",
    "latitude": "30.0344038505073",
    "geocoded_column": {
      "latitude": "30.0344038505073",
      "longitude": "-90.0089195326891"
    }
  },
  {
    "service_request": "2024-1147763",
    "request_type": "Drainage",
    "request_reason": "Catch Basin Clogged",
    "date_created": "2024-11-11T14:10:05.000",
    "date_modified": "2024-11-11T14:10:05.000",
    "request_status": "Pending",
    "responsible_agency": "Department of Public Works",
    "final_address": "1148 Felicity St",
    "address_councildis": "B",
    "status": "Pending",
    "rowid": "1147763",
    "final_x": "3679731.06133",
    "final_y": "523269.902459",
    "longitude": "-90.07394231636651",
    "latitude": "29.93286425539346",
    "geocoded_column": {
      "latitude": "29.93286425539346",
      "longitude": "-90.07394231636651"
    }
  },
  {
    "service_request": "2024-1147762",
    "request_type": "Trash/Recycling",
    "request_reason": "Request a Large Item Pick Up",
    "date_created": "2024-11-11T14:09:41.000",
    "date_modified": "2024-11-11T14:09:42.000",
    "request_status": "Pending",
    "responsible_agency": "Department of Sanitation",
    "final_address": "12921 Chanelle Ct",
    "address_councildis": "E",
    "status": "Assigned to Contractor",
    "contractor": "Waste Pro",
    "rowid": "1147762",
    "final_x": "3716997.56735",
    "final_y": "567457.633956",
    "longitude": "-89.954617723339",
    "latitude": "30.053184633058464",
    "geocoded_column": {
      "latitude": "30.053184633058464",
      "longitude": "-89.954617723339"
    }
  },
  {
    "service_request": "2024-1147761",
    "request_type": "Trash/Recycling",
    "request_reason": "Repair Trash Cart",
    "date_created": "2024-11-11T14:08:59.000",
    "date_modified": "2024-11-11T14:09:00.000",
    "request_status": "Pending",
    "responsible_agency": "Department of Sanitation",
    "final_address": "5931 Baccich St",
    "address_councildis": "D",
    "status": "Assigned to Contractor",
    "contractor": "IV Waste",
    "rowid": "1147761",
    "final_x": "3687545.80002",
    "final_y": "555170.272793",
    "longitude": "-90.04814230221164",
    "latitude": "30.020340536320333",
    "geocoded_column": {
      "latitude": "30.020340536320333",
      "longitude": "-90.04814230221164"
    }
  },
  {
    "service_request": "2024-1147760",
    "request_type": "Trash/Recycling",
    "request_reason": "Request a Large Item Pick Up",
    "date_created": "2024-11-11T14:07:46.000",
    "date_modified": "2024-11-11T14:07:47.000",
    "request_status": "Pending",
    "responsible_agency": "Department of Sanitation",
    "final_address": "2000 E Homestead Dr",
    "address_councildis": "C",
    "status": "Assigned to Contractor",
    "contractor": "Richards Disposal",
    "rowid": "1147760",
    "final_x": "3697169.20765",
    "final_y": "524559.762492",
    "longitude": "-90.01884500491818",
    "latitude": "29.935872399984607",
    "geocoded_column": {
      "latitude": "29.935872399984607",
      "longitude": "-90.01884500491818"
    }
  },
  {
    "service_request": "2024-1147759",
    "request_type": "Drainage",
    "request_reason": "Catch Basin Clogged",
    "date_created": "2024-11-11T14:05:02.000",
    "date_modified": "2024-11-11T14:06:23.000",
    "request_status": "Pending",
    "responsible_agency": "Department of Public Works",
    "final_address": "1941 Magazine St",
    "address_councildis": "B",
    "status": "Pending",
    "rowid": "1147759",
    "final_x": "3679583.87746",
    "final_y": "522706.84665",
    "longitude": "-90.07442649382664",
    "latitude": "29.931320484329103",
    "geocoded_column": {
      "latitude": "29.931320484329103",
      "longitude": "-90.07442649382664"
    }
  },
  {
    "service_request": "2024-1147758",
    "request_type": "Parks & Parkways",
    "request_reason": "Request Tree Service (Right of Way/Public Property)",
    "date_created": "2024-11-11T14:02:18.000",
    "date_modified": "2024-11-11T14:02:19.000",
    "request_status": "Pending",
    "responsible_agency": "Department of Parks & Parkway",
    "final_address": "2011 Bienville Ave",
    "address_councildis": "B",
    "status": "Pending",
    "rowid": "1147758",
    "final_x": "3677932.54645",
    "final_y": "534235.601413",
    "longitude": "-90.07924120953342",
    "latitude": "29.963070504196484",
    "geocoded_column": {
      "latitude": "29.963070504196484",
      "longitude": "-90.07924120953342"
    }
  },
  {
    "service_request": "2024-1147756",
    "request_type": "Trash/Recycling",
    "request_reason": "Repair Trash Cart",
    "date_created": "2024-11-11T13:49:00.000",
    "date_modified": "2024-11-11T13:49:01.000",
    "request_status": "Pending",
    "responsible_agency": "Department of Sanitation",
    "final_address": "869 Navarre St",
    "address_councildis": "A",
    "status": "Assigned to Contractor",
    "contractor": "IV Waste",
    "rowid": "1147756",
    "final_x": "3669258.12161",
    "final_y": "543823.529614",
    "longitude": "-90.1063098523507",
    "latitude": "29.989692273043453",
    "geocoded_column": {
      "latitude": "29.989692273043453",
      "longitude": "-90.1063098523507"
    }
  },
  {
    "service_request": "2024-1147755",
    "request_type": "Trash/Recycling",
    "request_reason": "Order Recycling Cart",
    "date_created": "2024-11-11T13:48:40.000",
    "date_modified": "2024-11-11T13:48:42.000",
    "request_status": "Pending",
    "responsible_agency": "Department of Sanitation",
    "final_address": "1801 Rivertree Ct",
    "address_councildis": "C",
    "status": "Pending",
    "rowid": "1147755",
    "final_x": "3701382.58135",
    "final_y": "524170.108988",
    "longitude": "-90.00555764984756",
    "latitude": "29.934667410913914",
    "geocoded_column": {
      "latitude": "29.934667410913914",
      "longitude": "-90.00555764984756"
    }
  },
  {
    "service_request": "2024-1147754",
    "request_type": "Trash/Recycling",
    "request_reason": "Repair Trash Cart",
    "date_created": "2024-11-11T13:46:02.000",
    "date_modified": "2024-11-11T13:46:03.000",
    "request_status": "Pending",
    "responsible_agency": "Department of Sanitation",
    "final_address": "11 Warbler St",
    "address_councildis": "D",
    "status": "Assigned to Contractor",
    "contractor": "IV Waste",
    "rowid": "1147754",
    "final_x": "3672633.29544",
    "final_y": "556997.393242",
    "longitude": "-90.09519895121005",
    "latitude": "30.025815935909137",
    "geocoded_column": {
      "latitude": "30.025815935909137",
      "longitude": "-90.09519895121005"
    }
  },
  {
    "service_request": "2024-1147753",
    "request_type": "Safety & Permits",
    "request_reason": "Licenses & Permits",
    "date_created": "2024-11-11T13:40:34.000",
    "date_modified": "2024-11-11T13:40:34.000",
    "request_status": "Pending",
    "responsible_agency": "Safety and Permits",
    "final_address": "1000 BLK Howard Ave",
    "address_councildis": "B",
    "status": "Pending",
    "rowid": "1147753",
    "final_x": "3678952.66798",
    "final_y": "527979.317845",
    "longitude": "-90.07623653699031",
    "latitude": "29.945837090736312",
    "geocoded_column": {
      "latitude": "29.945837090736312",
      "longitude": "-90.07623653699031"
    }
  },
  {
    "service_request": "2024-1147752",
    "request_type": "Trash/Recycling",
    "request_reason": "Order Trash Cart",
    "date_created": "2024-11-11T13:34:09.000",
    "date_modified": "2024-11-11T13:34:11.000",
    "request_status": "Pending",
    "responsible_agency": "Department of Sanitation",
    "final_address": "2521 Orleans Ave",
    "address_councildis": "D",
    "status": "Assigned to Contractor",
    "contractor": "IV Waste",
    "rowid": "1147752",
    "final_x": "3677476.01979",
    "final_y": "536574.841799",
    "longitude": "-90.08060210502417",
    "latitude": "29.969516351055606",
    "geocoded_column": {
      "latitude": "29.969516351055606",
      "longitude": "-90.08060210502417"
    }
  },
  {
    "service_request": "2024-1147751",
    "request_type": "Trash/Recycling",
    "request_reason": "Order Trash Cart",
    "date_created": "2024-11-11T13:32:34.000",
    "date_modified": "2024-11-11T13:32:35.000",
    "request_status": "Pending",
    "responsible_agency": "Department of Sanitation",
    "final_address": "2549 Orleans Ave",
    "address_councildis": "D",
    "status": "Assigned to Contractor",
    "contractor": "IV Waste",
    "rowid": "1147751",
    "final_x": "3677321.47534",
    "final_y": "536689.962759",
    "longitude": "-90.08108619636091",
    "latitude": "29.969837539377124",
    "geocoded_column": {
      "latitude": "29.969837539377124",
      "longitude": "-90.08108619636091"
    }
  },
  {
    "service_request": "2024-1147750",
    "request_type": "Trash/Recycling",
    "request_reason": "Return Trash Cart",
    "date_created": "2024-11-11T13:32:17.000",
    "date_modified": "2024-11-11T13:32:18.000",
    "request_status": "Pending",
    "responsible_agency": "Department of Sanitation",
    "final_address": "138 Middle Park Pl",
    "address_councildis": "A",
    "status": "Assigned to Contractor",
    "contractor": "IV Waste",
    "rowid": "1147750",
    "final_x": "3670157.93703",
    "final_y": "544182.81915",
    "longitude": "-90.10345539631139",
    "latitude": "29.990653670409596",
    "geocoded_column": {
      "latitude": "29.990653670409596",
      "longitude": "-90.10345539631139"
    }
  },
  {
    "service_request": "2024-1147749",
    "request_type": "Trash/Recycling",
    "request_reason": "Dead Animal Pick Up",
    "date_created": "2024-11-11T13:32:16.000",
    "date_modified": "2024-11-11T13:53:37.000",
    "case_close_date": "2024-11-11T07:53:37.000",
    "request_status": "Closed",
    "responsible_agency": "Department of Sanitation",
    "final_address": "ESPLANADE AVE & N BROAD ST",
    "address_councildis": "D",
    "status": "Assigned to Contractor",
    "contractor": "IV Waste",
    "contractor_action": "Completed",
    "rowid": "1147749",
    "final_x": "3678205.46",
    "final_y": "538920.34",
    "longitude": "-90.07821733427264",
    "latitude": "29.975943718140513",
    "geocoded_column": {
      "latitude": "29.975943718140513",
      "longitude": "-90.07821733427264"
    }
  },
  {
    "service_request": "2024-1147748",
    "request_type": "Trash/Recycling",
    "request_reason": "Order Second Trash Cart",
    "date_created": "2024-11-11T13:30:51.000",
    "date_modified": "2024-11-11T13:30:51.000",
    "request_status": "Pending",
    "responsible_agency": "Department of Sanitation",
    "final_address": "2543 Orleans Ave",
    "address_councildis": "D",
    "status": "Assigned to Contractor",
    "contractor": "IV Waste",
    "rowid": "1147748",
    "final_x": "3677342.48149",
    "final_y": "536666.272519",
    "longitude": "-90.08102067461202",
    "latitude": "29.969771768048364",
    "geocoded_column": {
      "latitude": "29.969771768048364",
      "longitude": "-90.08102067461202"
    }
  },
  {
    "service_request": "2024-1147747",
    "request_type": "Trash/Recycling",
    "request_reason": "Request a Large Item Pick Up",
    "date_created": "2024-11-11T13:26:37.000",
    "date_modified": "2024-11-11T13:26:38.000",
    "request_status": "Pending",
    "responsible_agency": "Department of Sanitation",
    "final_address": "7812 Star St",
    "address_councildis": "E",
    "status": "Assigned to Contractor",
    "contractor": "Waste Pro",
    "rowid": "1147747",
    "final_x": "3720659.98335",
    "final_y": "574413.582571",
    "longitude": "-89.9427751408715",
    "latitude": "30.072188897201016",
    "geocoded_column": {
      "latitude": "30.072188897201016",
      "longitude": "-89.9427751408715"
    }
  },
  {
    "service_request": "2024-1147746",
    "request_type": "Trash/Recycling",
    "request_reason": "Request a Large Item Pick Up",
    "date_created": "2024-11-11T13:17:06.000",
    "date_modified": "2024-11-11T13:17:07.000",
    "request_status": "Pending",
    "responsible_agency": "Department of Sanitation",
    "final_address": "7420 Hansbrough Ave",
    "address_councildis": "E",
    "status": "Assigned to Contractor",
    "contractor": "Waste Pro",
    "rowid": "1147746",
    "final_x": "3707890.05547",
    "final_y": "563930.089441",
    "longitude": "-89.9835352286386",
    "latitude": "30.043783471249288",
    "geocoded_column": {
      "latitude": "30.043783471249288",
      "longitude": "-89.9835352286386"
    }
  },
  {
    "service_request": "2024-1147745",
    "request_type": "Trash/Recycling",
    "request_reason": "Request a Large Item Pick Up",
    "date_created": "2024-11-11T13:13:00.000",
    "date_modified": "2024-11-11T13:13:01.000",
    "request_status": "Pending",
    "responsible_agency": "Department of Sanitation",
    "final_address": "6824 Louis Xiv St",
    "address_councildis": "A",
    "status": "Assigned to Contractor",
    "contractor": "IV Waste",
    "rowid": "1147745",
    "final_x": "3668493.68922",
    "final_y": "552928.129751",
    "longitude": "-90.10841705341161",
    "latitude": "30.014749248448318",
    "geocoded_column": {
      "latitude": "30.014749248448318",
      "longitude": "-90.10841705341161"
    }
  },
  {
    "service_request": "2024-1147744",
    "request_type": "Trash/Recycling",
    "request_reason": "Illegal Dumping",
    "date_created": "2024-11-11T13:11:23.000",
    "date_modified": "2024-11-11T13:11:24.000",
    "request_status": "Pending",
    "responsible_agency": "Department of Sanitation",
    "final_address": "1434 Touro St",
    "address_councildis": "C",
    "status": "Pending",
    "rowid": "1147744",
    "final_x": "3684093.57186",
    "final_y": "537631.391816",
    "longitude": "-90.05966626445561",
    "latitude": "29.972220903105466",
    "geocoded_column": {
      "latitude": "29.972220903105466",
      "longitude": "-90.05966626445561"
    }
  },
  {
    "service_request": "2024-1147743",
    "request_type": "Trash/Recycling",
    "request_reason": "Request a Large Item Pick Up",
    "date_created": "2024-11-11T13:10:54.000",
    "date_modified": "2024-11-11T13:10:55.000",
    "request_status": "Pending",
    "responsible_agency": "Department of Sanitation",
    "final_address": "4522 Louisa Dr",
    "address_councildis": "D",
    "status": "Assigned to Contractor",
    "contractor": "IV Waste",
    "rowid": "1147743",
    "final_x": "3690901.27401",
    "final_y": "550538.389204",
    "longitude": "-90.03770555724253",
    "latitude": "30.007500663619137",
    "geocoded_column": {
      "latitude": "30.007500663619137",
      "longitude": "-90.03770555724253"
    }
  },
  {
    "service_request": "2024-1147742",
    "request_type": "Trash/Recycling",
    "request_reason": "Request a Large Item Pick Up",
    "date_created": "2024-11-11T13:07:55.000",
    "date_modified": "2024-11-11T13:07:56.000",
    "request_status": "Pending",
    "responsible_agency": "Department of Sanitation",
    "final_address": "6028 Milne Blvd",
    "address_councildis": "A",
    "status": "Assigned to Contractor",
    "contractor": "IV Waste",
    "rowid": "1147742",
    "final_x": "3666989.05703",
    "final_y": "547781.098258",
    "longitude": "-90.11334412501652",
    "latitude": "30.000640845932754",
    "geocoded_column": {
      "latitude": "30.000640845932754",
      "longitude": "-90.11334412501652"
    }
  },
  {
    "service_request": "2024-1147741",
    "request_type": "Streetlights",
    "request_reason": "Streetlight Outage/Malfunction",
    "date_created": "2024-11-11T12:57:56.000",
    "date_modified": "2024-11-11T12:57:57.000",
    "request_status": "Pending",
    "responsible_agency": "Department of Public Works",
    "final_address": "1809 N Salcedo St",
    "address_councildis": "A",
    "status": "Pending",
    "contractor": "Legacy Professional Services",
    "rowid": "1147741",
    "final_x": "3677332.8292",
    "final_y": "543030.799629",
    "longitude": "-90.08083144979074",
    "latitude": "29.987272314005967",
    "geocoded_column": {
      "latitude": "29.987272314005967",
      "longitude": "-90.08083144979074"
    }
  },
  {
    "service_request": "2024-1147740",
    "request_type": "Trash/Recycling",
    "request_reason": "Request a Large Item Pick Up",
    "date_created": "2024-11-11T12:57:26.000",
    "date_modified": "2024-11-11T12:57:26.000",
    "request_status": "Pending",
    "responsible_agency": "Department of Sanitation",
    "final_address": "310 S Cortez St",
    "address_councildis": "A",
    "status": "Assigned to Contractor",
    "contractor": "IV Waste",
    "rowid": "1147740",
    "final_x": "3671554.89076",
    "final_y": "536848.688648",
    "longitude": "-90.09929225439443",
    "latitude": "29.970446008034656",
    "geocoded_column": {
      "latitude": "29.970446008034656",
      "longitude": "-90.09929225439443"
    }
  },
  {
    "service_request": "2024-1147739",
    "request_type": "Trash/Recycling",
    "request_reason": "Request a Large Item Pick Up",
    "date_created": "2024-11-11T12:56:00.000",
    "date_modified": "2024-11-11T12:56:01.000",
    "request_status": "Pending",
    "responsible_agency": "Department of Sanitation",
    "final_address": "1232 Lowerline St",
    "address_councildis": "A",
    "status": "Assigned to Contractor",
    "contractor": "IV Waste",
    "rowid": "1147739",
    "final_x": "3663824.35968",
    "final_y": "527112.163071",
    "longitude": "-90.12403077887153",
    "latitude": "29.943900391081062",
    "geocoded_column": {
      "latitude": "29.943900391081062",
      "longitude": "-90.12403077887153"
    }
  },
  {
    "service_request": "2024-1147738",
    "request_type": "Parks & Parkways",
    "request_reason": "Request Tree Service (Right of Way/Public Property)",
    "date_created": "2024-11-11T12:50:35.000",
    "date_modified": "2024-11-11T12:50:35.000",
    "request_status": "Pending",
    "responsible_agency": "Department of Parks & Parkway",
    "final_address": "2000 BLK Napoleon Ave",
    "address_councildis": "B",
    "status": "Pending",
    "rowid": "1147738",
    "final_x": "3670728.72937",
    "final_y": "522474.301624",
    "longitude": "-90.10238904844286",
    "latitude": "29.930945603914353",
    "geocoded_column": {
      "latitude": "29.930945603914353",
      "longitude": "-90.10238904844286"
    }
  },
  {
    "service_request": "2024-1147737",
    "request_type": "Trash/Recycling",
    "request_reason": "Repair Trash Cart",
    "date_created": "2024-11-11T12:50:27.000",
    "date_modified": "2024-11-11T12:50:28.000",
    "request_status": "Pending",
    "responsible_agency": "Department of Sanitation",
    "final_address": "932 Hagan St",
    "address_councildis": "A",
    "status": "Assigned to Contractor",
    "contractor": "IV Waste",
    "rowid": "1147737",
    "final_x": "3675317.5515",
    "final_y": "539263.40353",
    "longitude": "-90.0873264068237",
    "latitude": "29.97697368982236",
    "geocoded_column": {
      "latitude": "29.97697368982236",
      "longitude": "-90.0873264068237"
    }
  },
  {
    "service_request": "2024-1147736",
    "request_type": "Property Maintenance",
    "request_reason": "Property Maintenance",
    "date_created": "2024-11-11T12:48:16.000",
    "date_modified": "2024-11-11T12:48:28.000",
    "request_status": "Pending",
    "responsible_agency": "Department of Code Enforcement",
    "final_address": "5245 Macarthur Blvd",
    "address_councildis": "C",
    "status": "Pending",
    "rowid": "1147736",
    "final_x": "3703499.42346",
    "final_y": "519686.786296",
    "longitude": "-89.99903968551953",
    "latitude": "29.922272215717747",
    "geocoded_column": {
      "latitude": "29.922272215717747",
      "longitude": "-89.99903968551953"
    }
  },
  {
    "service_request": "2024-1147735",
    "request_type": "Trash/Recycling",
    "request_reason": "Request a Large Item Pick Up",
    "date_created": "2024-11-11T12:45:50.000",
    "date_modified": "2024-11-11T12:45:51.000",
    "request_status": "Pending",
    "responsible_agency": "Department of Sanitation",
    "final_address": "2536 General Pershing St",
    "address_councildis": "B",
    "status": "Assigned to Contractor",
    "contractor": "IV Waste",
    "rowid": "1147735",
    "final_x": "3670855.98151",
    "final_y": "524361.055548",
    "longitude": "-90.10192331952312",
    "latitude": "29.936129809999056",
    "geocoded_column": {
      "latitude": "29.936129809999056",
      "longitude": "-90.10192331952312"
    }
  },
  {
    "service_request": "2024-1147734",
    "request_type": "Trash/Recycling",
    "request_reason": "Return Recycling Cart",
    "date_created": "2024-11-11T12:44:46.000",
    "date_modified": "2024-11-11T12:44:47.000",
    "request_status": "Pending",
    "responsible_agency": "Department of Sanitation",
    "final_address": "5 Everglades Dr",
    "address_councildis": "C",
    "status": "Pending",
    "rowid": "1147734",
    "final_x": "3700103.71255",
    "final_y": "516762.714485",
    "longitude": "-90.00986508908505",
    "latitude": "29.91434030687547",
    "geocoded_column": {
      "latitude": "29.91434030687547",
      "longitude": "-90.00986508908505"
    }
  },
  {
    "service_request": "2024-1147733",
    "request_type": "Trash/Recycling",
    "request_reason": "Return Recycling Cart",
    "date_created": "2024-11-11T12:43:38.000",
    "date_modified": "2024-11-11T12:43:39.000",
    "request_status": "Pending",
    "responsible_agency": "Department of Sanitation",
    "final_address": "4750 Knight Dr",
    "address_councildis": "E",
    "status": "Pending",
    "rowid": "1147733",
    "final_x": "3708054.22692",
    "final_y": "555615.101081",
    "longitude": "-89.98332599307837",
    "latitude": "30.020915210999327",
    "geocoded_column": {
      "latitude": "30.020915210999327",
      "longitude": "-89.98332599307837"
    }
  },
  {
    "service_request": "2024-1147732",
    "request_type": "Trash/Recycling",
    "request_reason": "Request a Large Item Pick Up",
    "date_created": "2024-11-11T12:41:50.000",
    "date_modified": "2024-11-11T15:53:30.000",
    "case_close_date": "2024-11-11T09:53:30.000",
    "request_status": "Closed",
    "responsible_agency": "Department of Sanitation",
    "final_address": "7830 Means Ave",
    "address_councildis": "E",
    "status": "Duplicate Request",
    "contractor": "Waste Pro",
    "contractor_action": "Duplicate",
    "rowid": "1147732",
    "final_x": "3707710.9418",
    "final_y": "565278.776482",
    "longitude": "-89.98405110872426",
    "latitude": "30.04749762184176",
    "geocoded_column": {
      "latitude": "30.04749762184176",
      "longitude": "-89.98405110872426"
    }
  },
  {
    "service_request": "2024-1147731",
    "request_type": "Trash/Recycling",
    "request_reason": "Request a Large Item Pick Up",
    "date_created": "2024-11-11T12:39:24.000",
    "date_modified": "2024-11-11T12:39:26.000",
    "request_status": "Pending",
    "responsible_agency": "Department of Sanitation",
    "final_address": "7840 Means Ave",
    "address_councildis": "E",
    "status": "Assigned to Contractor",
    "contractor": "Waste Pro",
    "rowid": "1147731",
    "final_x": "3707691.85841",
    "final_y": "565313.178082",
    "longitude": "-89.98411014199682",
    "latitude": "30.047592830329645",
    "geocoded_column": {
      "latitude": "30.047592830329645",
      "longitude": "-89.98411014199682"
    }
  },
  {
    "service_request": "2024-1147730",
    "request_type": "Trash/Recycling",
    "request_reason": "Missed Trash Pick-Up",
    "date_created": "2024-11-11T12:37:07.000",
    "date_modified": "2024-11-11T12:37:08.000",
    "request_status": "Pending",
    "responsible_agency": "Department of Sanitation",
    "final_address": "5011 Macarthur Blvd",
    "address_councildis": "C",
    "status": "Assigned to Contractor",
    "contractor": "Richards Disposal",
    "rowid": "1147730",
    "final_x": "3702533.23607",
    "final_y": "520066.379512",
    "longitude": "-90.00207559878923",
    "latitude": "29.923346867062445",
    "geocoded_column": {
      "latitude": "29.923346867062445",
      "longitude": "-90.00207559878923"
    }
  },
  {
    "service_request": "2024-1147729",
    "request_type": "Trash/Recycling",
    "request_reason": "Request a Large Item Pick Up",
    "date_created": "2024-11-11T12:36:47.000",
    "date_modified": "2024-11-11T12:36:48.000",
    "request_status": "Pending",
    "responsible_agency": "Department of Sanitation",
    "final_address": "7860 Means Ave",
    "address_councildis": "E",
    "status": "Assigned to Contractor",
    "contractor": "Waste Pro",
    "rowid": "1147729",
    "final_x": "3707652.16299",
    "final_y": "565376.757474",
    "longitude": "-89.98423323458805",
    "latitude": "30.047768933330353",
    "geocoded_column": {
      "latitude": "30.047768933330353",
      "longitude": "-89.98423323458805"
    }
  },
  {
    "service_request": "2024-1147728",
    "request_type": "Property Maintenance",
    "request_reason": "Property Maintenance",
    "date_created": "2024-11-11T12:35:59.000",
    "date_modified": "2024-11-11T12:35:59.000",
    "request_status": "Pending",
    "responsible_agency": "Department of Code Enforcement",
    "final_address": "2965 Law St",
    "address_councildis": "D",
    "status": "Pending",
    "rowid": "1147728",
    "final_x": "3689707.98095",
    "final_y": "541863.525068",
    "longitude": "-90.04178441381019",
    "latitude": "29.983684974829405",
    "geocoded_column": {
      "latitude": "29.983684974829405",
      "longitude": "-90.04178441381019"
    }
  },
  {
    "service_request": "2024-1147727",
    "request_type": "Parks & Parkways",
    "request_reason": "Request Tree Service (Right of Way/Public Property)",
    "date_created": "2024-11-11T12:35:06.000",
    "date_modified": "2024-11-11T12:35:06.000",
    "request_status": "Pending",
    "responsible_agency": "Department of Parks & Parkway",
    "final_address": "6310 Essex Ct",
    "address_councildis": "C",
    "status": "Pending",
    "rowid": "1147727",
    "final_x": "3707205.5635",
    "final_y": "517589.956918",
    "longitude": "-89.98741877208532",
    "latitude": "29.916387477460464",
    "geocoded_column": {
      "latitude": "29.916387477460464",
      "longitude": "-89.98741877208532"
    }
  },
  {
    "service_request": "2024-1147726",
    "request_type": "Trash/Recycling",
    "request_reason": "Request a Large Item Pick Up",
    "date_created": "2024-11-11T12:32:59.000",
    "date_modified": "2024-11-11T12:33:00.000",
    "request_status": "Pending",
    "responsible_agency": "Department of Sanitation",
    "final_address": "4920 Sherwood Dr",
    "address_councildis": "E",
    "status": "Assigned to Contractor",
    "contractor": "Waste Pro",
    "rowid": "1147726",
    "final_x": "3717839.66789",
    "final_y": "557854.956763",
    "longitude": "-89.95232190685832",
    "latitude": "30.02675328532648",
    "geocoded_column": {
      "latitude": "30.02675328532648",
      "longitude": "-89.95232190685832"
    }
  },
  {
    "service_request": "2024-1147725",
    "request_type": "Trash/Recycling",
    "request_reason": "Request a Large Item Pick Up",
    "date_created": "2024-11-11T12:31:46.000",
    "date_modified": "2024-11-11T12:31:47.000",
    "request_status": "Pending",
    "responsible_agency": "Department of Sanitation",
    "final_address": "7903 Means Ave",
    "address_councildis": "E",
    "status": "Assigned to Contractor",
    "contractor": "Waste Pro",
    "rowid": "1147725",
    "final_x": "3707689.38257",
    "final_y": "565509.88765",
    "longitude": "-89.98411064634928",
    "latitude": "30.048133782970616",
    "geocoded_column": {
      "latitude": "30.048133782970616",
      "longitude": "-89.98411064634928"
    }
  },
  {
    "service_request": "2024-1147724",
    "request_type": "Drainage",
    "request_reason": "Street Flooding",
    "date_created": "2024-11-11T12:25:51.000",
    "date_modified": "2024-11-11T12:25:51.000",
    "request_status": "Pending",
    "responsible_agency": "Department of Public Works",
    "final_address": "1722 St Ferdinand St",
    "address_councildis": "D",
    "status": "Pending",
    "rowid": "1147724",
    "final_x": "3688310.87811",
    "final_y": "538732.138441",
    "longitude": "-90.04630828813862",
    "latitude": "29.975117997355028",
    "geocoded_column": {
      "latitude": "29.975117997355028",
      "longitude": "-90.04630828813862"
    }
  },
  {
    "service_request": "2024-1147723",
    "request_type": "Trash/Recycling",
    "request_reason": "Request a Large Item Pick Up",
    "date_created": "2024-11-11T12:25:35.000",
    "date_modified": "2024-11-11T12:25:36.000",
    "request_status": "Pending",
    "responsible_agency": "Department of Sanitation",
    "final_address": "7921 Benson St",
    "address_councildis": "E",
    "status": "Assigned to Contractor",
    "contractor": "Waste Pro",
    "rowid": "1147723",
    "final_x": "3704053.9553",
    "final_y": "563299.645472",
    "longitude": "-89.99568214335804",
    "latitude": "30.04217369456722",
    "geocoded_column": {
      "latitude": "30.04217369456722",
      "longitude": "-89.99568214335804"
    }
  },
  {
    "service_request": "2024-1147722",
    "request_type": "Drainage",
    "request_reason": "Street Flooding",
    "date_created": "2024-11-11T12:24:28.000",
    "date_modified": "2024-11-11T12:24:28.000",
    "request_status": "Pending",
    "responsible_agency": "Department of Public Works",
    "final_address": "1722 St Ferdinand St",
    "address_councildis": "D",
    "status": "Pending",
    "rowid": "1147722",
    "final_x": "3688310.87811",
    "final_y": "538732.138441",
    "longitude": "-90.04630828813862",
    "latitude": "29.975117997355028",
    "geocoded_column": {
      "latitude": "29.975117997355028",
      "longitude": "-90.04630828813862"
    }
  },
  {
    "service_request": "2024-1147721",
    "request_type": "Trash/Recycling",
    "request_reason": "Request a Large Item Pick Up",
    "date_created": "2024-11-11T12:21:01.000",
    "date_modified": "2024-11-11T12:21:02.000",
    "request_status": "Pending",
    "responsible_agency": "Department of Sanitation",
    "final_address": "8622 Chase St",
    "address_councildis": "E",
    "status": "Assigned to Contractor",
    "contractor": "Waste Pro",
    "rowid": "1147721",
    "final_x": "3703755.66186",
    "final_y": "563432.600224",
    "longitude": "-89.99661995639264",
    "latitude": "30.04254883919831",
    "geocoded_column": {
      "latitude": "30.04254883919831",
      "longitude": "-89.99661995639264"
    }
  },
  {
    "service_request": "2024-1147720",
    "request_type": "Trash/Recycling",
    "request_reason": "Request a Large Item Pick Up",
    "date_created": "2024-11-11T12:18:35.000",
    "date_modified": "2024-11-11T12:18:36.000",
    "request_status": "Pending",
    "responsible_agency": "Department of Sanitation",
    "final_address": "8632 Chase St",
    "address_councildis": "E",
    "status": "Assigned to Contractor",
    "contractor": "Waste Pro",
    "rowid": "1147720",
    "final_x": "3703807.86142",
    "final_y": "563459.67248",
    "longitude": "-89.99645398810384",
    "latitude": "30.04262160273077",
    "geocoded_column": {
      "latitude": "30.04262160273077",
      "longitude": "-89.99645398810384"
    }
  },
  {
    "service_request": "2024-1147719",
    "request_type": "Abandoned Vehicles",
    "request_reason": "Abandoned/Junk Vehicles",
    "date_created": "2024-11-11T12:16:32.000",
    "date_modified": "2024-11-11T12:16:32.000",
    "request_status": "Pending",
    "responsible_agency": "Department of Public Works",
    "final_address": "3229 Loyola Ave",
    "address_councildis": "B",
    "status": "Pending",
    "rowid": "1147719",
    "final_x": "3673763.682",
    "final_y": "523725.129979",
    "longitude": "-90.09276535085031",
    "latitude": "29.93429497820429",
    "geocoded_column": {
      "latitude": "29.93429497820429",
      "longitude": "-90.09276535085031"
    }
  },
  {
    "service_request": "2024-1147718",
    "request_type": "Property Maintenance",
    "request_reason": "Property Maintenance",
    "date_created": "2024-11-11T12:09:10.000",
    "date_modified": "2024-11-11T12:09:10.000",
    "request_status": "Pending",
    "responsible_agency": "Department of Code Enforcement",
    "final_address": "1900 BLK Lowerline St",
    "address_councildis": "A",
    "status": "Pending",
    "rowid": "1147718",
    "final_x": "3665160.59189",
    "final_y": "529029.988644",
    "longitude": "-90.1197477803224",
    "latitude": "29.949134948757496",
    "geocoded_column": {
      "latitude": "29.949134948757496",
      "longitude": "-90.1197477803224"
    }
  },
  {
    "service_request": "2024-1147717",
    "request_type": "Traffic Safety",
    "request_reason": "Request for Stop Sign",
    "date_created": "2024-11-11T12:08:51.000",
    "date_modified": "2024-11-11T12:08:51.000",
    "request_status": "Pending",
    "responsible_agency": "Department of Public Works",
    "final_address": "8134 Sycamore St",
    "address_councildis": "A",
    "status": "Pending",
    "rowid": "1147717",
    "final_x": "3664083.22234",
    "final_y": "531143.491138",
    "longitude": "-90.12307903978638",
    "latitude": "29.954977728436642",
    "geocoded_column": {
      "latitude": "29.954977728436642",
      "longitude": "-90.12307903978638"
    }
  },
  {
    "service_request": "2024-1147716",
    "request_type": "Trash/Recycling",
    "request_reason": "Request a Large Item Pick Up",
    "date_created": "2024-11-11T12:08:49.000",
    "date_modified": "2024-11-11T12:08:50.000",
    "request_status": "Pending",
    "responsible_agency": "Department of Sanitation",
    "final_address": "4726 Arthur Dr",
    "address_councildis": "E",
    "status": "Assigned to Contractor",
    "contractor": "Waste Pro",
    "rowid": "1147716",
    "final_x": "3707627.04644",
    "final_y": "555390.749465",
    "longitude": "-89.98468409153244",
    "latitude": "30.020312163045695",
    "geocoded_column": {
      "latitude": "30.020312163045695",
      "longitude": "-89.98468409153244"
    }
  },
  {
    "service_request": "2024-1147715",
    "request_type": "Trash/Recycling",
    "request_reason": "Request a Large Item Pick Up",
    "date_created": "2024-11-11T12:07:19.000",
    "date_modified": "2024-11-11T12:07:20.000",
    "request_status": "Pending",
    "responsible_agency": "Department of Sanitation",
    "final_address": "4135 Prytania St",
    "address_councildis": "B",
    "status": "Assigned to Contractor",
    "contractor": "IV Waste",
    "rowid": "1147715",
    "final_x": "3671717.68353",
    "final_y": "520447.069176",
    "longitude": "-90.09933596903022",
    "latitude": "29.925342115335056",
    "geocoded_column": {
      "latitude": "29.925342115335056",
      "longitude": "-90.09933596903022"
    }
  },