[
  {
    "service_request": "2024-1147471",
    "request_type": "Streetlights",
    "request_reason": "Streetlight Outage/Malfunction",
    "date_created": "2024-11-09T23:07:55.000",
    "date_modified": "2024-11-09T23:07:57.000",
    "request_status": "Pending",
    "responsible_agency": "Department of Public Works",
    "final_address": "4317 Dauphine St",
    "address_councildis": "C",
    "status": "Pending",
    "contractor": "Legacy Professional Services",
    "rowid": "1147471",
    "final_x": "3692595.75677",
    "final_y": "533997.146053",
    "longitude": "-90.03294529209185",
    "latitude": "29.9619654102583",
    "geocoded_column": {
      "latitude": "29.9619654102583",
      "longitude": "-90.03294529209185"
    }
  },
  {
    "service_request": "2024-1147470",
    "request_type": "Streetlights",
    "request_reason": "Streetlight Outage/Malfunction",
    "date_created": "2024-11-09T22:34:43.000",
    "date_modified": "2024-11-09T22:34:44.000",
    "request_status": "Pending",
    "responsible_agency": "Department of Public Works",
    "final_address": "1630 Arts St",
    "address_councildis": "D",
    "status": "Pending",
    "contractor": "Legacy Professional Services",
    "rowid": "1147470",
    "final_x": "3687004.9302",
    "final_y": "538576.066889",
    "longitude": "-90.05043832124522",
    "latitude": "29.97472912435202",
    "geocoded_column": {
      "latitude": "29.97472912435202",
      "longitude": "-90.05043832124522"
    }
  },
  {
    "service_request": "2024-1147469",
    "request_type": "Trash/Recycling",
    "request_reason": "Replace Trash Cart",
    "date_created": "2024-11-09T21:36:29.000",
    "date_modified": "2024-11-09T21:36:30.000",
    "request_status": "Pending",
    "responsible_agency": "Department of Sanitation",
    "final_address": "7 Glen Abbey Way",
    "address_councildis": "C",
    "status": "Assigned to Contractor",
    "contractor": "Richards Disposal",
    "rowid": "1147469",
    "final_x": "3716753.31628",
    "final_y": "515359.163316",
    "longitude": "-89.95736712846163",
    "latitude": "29.909941761295006",
    "geocoded_column": {
      "latitude": "29.909941761295006",
      "longitude": "-89.95736712846163"
    }
  },
  {
    "service_request": "2024-1147468",
    "request_type": "Trash/Recycling",
    "request_reason": "Replace Trash Cart",
    "date_created": "2024-11-09T21:33:35.000",
    "date_modified": "2024-11-09T21:33:46.000",
    "request_status": "Pending",
    "responsible_agency": "Department of Sanitation",
    "final_address": "7 Glen Abbey Way",
    "address_councildis": "C",
    "status": "Assigned to Contractor",
    "contractor": "Richards Disposal",
    "rowid": "1147468",
    "final_x": "3716753.31628",
    "final_y": "515359.163316",
    "longitude": "-89.95736712846163",
    "latitude": "29.909941761295006",
    "geocoded_column": {
      "latitude": "29.909941761295006",
      "longitude": "-89.95736712846163"
    }
  },
  {
    "service_request": "2024-1147467",
    "request_type": "Streetlights",
    "request_reason": "Streetlight Outage/Malfunction",
    "date_created": "2024-11-09T21:13:43.000",
    "date_modified": "2024-11-09T21:13:44.000",
    "request_status": "Pending",
    "responsible_agency": "Department of Public Works",
    "final_address": "5582 Tullis Dr",
    "address_councildis": "C",
    "status": "Pending",
    "contractor": "Legacy Professional Services",
    "rowid": "1147467",
    "final_x": "3704650.66743",
    "final_y": "512353.252721",
    "longitude": "-89.99567595098128",
    "latitude": "29.90207060332377",
    "geocoded_column": {
      "latitude": "29.90207060332377",
      "longitude": "-89.99567595098128"
    }
  },
  {
    "service_request": "2024-1147466",
    "request_type": "Abandoned Vehicles",
    "request_reason": "Abandoned/Junk Vehicles",
    "date_created": "2024-11-09T20:59:17.000",
    "date_modified": "2024-11-09T20:59:17.000",
    "request_status": "Pending",
    "responsible_agency": "Department of Public Works",
    "final_address": "601 Hendee St",
    "address_councildis": "C",
    "status": "Pending",
    "rowid": "1147466",
    "final_x": "3690824.5423",
    "final_y": "529316.135489",
    "longitude": "-90.03870550546685",
    "latitude": "29.94914940786549",
    "geocoded_column": {
      "latitude": "29.94914940786549",
      "longitude": "-90.03870550546685"
    }
  },
  {
    "service_request": "2024-1147465",
    "request_type": "Streetlights",
    "request_reason": "Streetlight Outage/Malfunction",
    "date_created": "2024-11-09T20:25:42.000",
    "date_modified": "2024-11-09T20:25:43.000",
    "request_status": "Pending",
    "responsible_agency": "Department of Public Works",
    "final_address": "7511 Afton Dr",
    "address_councildis": "E",
    "status": "Pending",
    "contractor": "Legacy Professional Services",
    "rowid": "1147465",
    "final_x": "3704995.39774",
    "final_y": "562539.102944",
    "longitude": "-89.99273496829207",
    "latitude": "30.04005225025934",
    "geocoded_column": {
      "latitude": "30.04005225025934",
      "longitude": "-89.99273496829207"
    }
  },
  {
    "service_request": "2024-1147464",
    "request_type": "Roads and Streets",
    "request_reason": "Street Subsidence (Sinking)",
    "date_created": "2024-11-09T20:24:10.000",
    "date_modified": "2024-11-09T20:24:10.000",
    "request_status": "Pending",
    "responsible_agency": "Department of Public Works",
    "final_address": "5420 Milne St",
    "address_councildis": "A",
    "status": "Pending",
    "rowid": "1147464",
    "final_x": "3666645.76237",
    "final_y": "543622.527374",
    "longitude": "-90.11456835380213",
    "latitude": "29.989216246681732",
    "geocoded_column": {
      "latitude": "29.989216246681732",
      "longitude": "-90.11456835380213"
    }
  },
  {
    "service_request": "2024-1147463",
    "request_type": "Trash/Recycling",
    "request_reason": "Order Recycling Cart",
    "date_created": "2024-11-09T19:53:28.000",
    "date_modified": "2024-11-09T19:53:28.000",
    "request_status": "Pending",
    "responsible_agency": "Department of Sanitation",
    "final_address": "8630 Nelson St",
    "address_councildis": "A",
    "status": "Pending",
    "rowid": "1147463",
    "final_x": "3663625.09619",
    "final_y": "533152.530372",
    "longitude": "-90.12445870856841",
    "latitude": "29.960515229873135",
    "geocoded_column": {
      "latitude": "29.960515229873135",
      "longitude": "-90.12445870856841"
    }
  },
  {
    "service_request": "2024-1147462",
    "request_type": "Trash/Recycling",
    "request_reason": "Order Second Trash Cart",
    "date_created": "2024-11-09T19:50:04.000",
    "date_modified": "2024-11-09T19:50:05.000",
    "request_status": "Pending",
    "responsible_agency": "Department of Sanitation",
    "final_address": "6061 Beechcraft St",
    "address_councildis": "D",
    "status": "Assigned to Contractor",
    "contractor": "Waste Pro",
    "rowid": "1147462",
    "final_x": "3696729.8952",
    "final_y": "553223.586839",
    "longitude": "-90.01919408136293",
    "latitude": "30.014701446951612",
    "geocoded_column": {
      "latitude": "30.014701446951612",
      "longitude": "-90.01919408136293"
    }
  },
  {
    "service_request": "2024-1147461",
    "request_type": "Trash/Recycling",
    "request_reason": "Request a Large Item Pick Up",
    "date_created": "2024-11-09T19:46:54.000",
    "date_modified": "2024-11-09T19:46:55.000",
    "request_status": "Pending",
    "responsible_agency": "Department of Sanitation",
    "final_address": "6061 Beechcraft St",
    "address_councildis": "D",
    "status": "Assigned to Contractor",
    "contractor": "Waste Pro",
    "rowid": "1147461",
    "final_x": "3696729.8952",
    "final_y": "553223.586839",
    "longitude": "-90.01919408136293",
    "latitude": "30.014701446951612",
    "geocoded_column": {
      "latitude": "30.014701446951612",
      "longitude": "-90.01919408136293"
    }
  },
  {
    "service_request": "2024-1147460",
    "request_type": "Streetlights",
    "request_reason": "Streetlight Outage/Malfunction",
    "date_created": "2024-11-09T18:36:10.000",
    "date_modified": "2024-11-09T18:36:11.000",
    "request_status": "Pending",
    "responsible_agency": "Department of Public Works",
    "final_address": "224 Fairway Dr",
    "address_councildis": "A",
    "status": "Pending",
    "contractor": "Legacy Professional Services",
    "rowid": "1147460",
    "final_x": "3664105.12967",
    "final_y": "541185.131148",
    "longitude": "-90.1226748502429",
    "latitude": "29.982588288151128",
    "geocoded_column": {
      "latitude": "29.982588288151128",
      "longitude": "-90.1226748502429"
    }
  },
  {
    "service_request": "2024-1147459",
    "request_type": "Streetlights",
    "request_reason": "Streetlight Outage/Malfunction",
    "date_created": "2024-11-09T18:25:10.000",
    "date_modified": "2024-11-09T18:25:11.000",
    "request_status": "Pending",
    "responsible_agency": "Department of Public Works",
    "final_address": "101 Fairway Dr",
    "address_councildis": "A",
    "status": "Pending",
    "contractor": "Legacy Professional Services",
    "rowid": "1147459",
    "final_x": "3664233.71335",
    "final_y": "540201.984331",
    "longitude": "-90.12230153664252",
    "latitude": "29.97988122759863",
    "geocoded_column": {
      "latitude": "29.97988122759863",
      "longitude": "-90.12230153664252"
    }
  },
  {
    "service_request": "2024-1147458",
    "request_type": "Roads and Streets",
    "request_reason": "Street Subsidence (Sinking)",
    "date_created": "2024-11-09T18:11:38.000",
    "date_modified": "2024-11-09T18:11:38.000",
    "request_status": "Pending",
    "responsible_agency": "Department of Public Works",
    "final_address": "500 BLK Saint Joseph St",
    "address_councildis": "B",
    "status": "Pending",
    "rowid": "1147458",
    "final_x": "3680846.55887",
    "final_y": "527319.399545",
    "longitude": "-90.0702798604496",
    "latitude": "29.943965268270894",
    "geocoded_column": {
      "latitude": "29.943965268270894",
      "longitude": "-90.0702798604496"
    }
  },
  {
    "service_request": "2024-1147457",
    "request_type": "Streetlights",
    "request_reason": "Streetlight Outage/Malfunction",
    "date_created": "2024-11-09T18:04:58.000",
    "date_modified": "2024-11-09T18:04:59.000",
    "request_status": "Pending",
    "responsible_agency": "Department of Public Works",
    "final_address": "5602 Tullis Dr",
    "address_councildis": "C",
    "status": "Pending",
    "contractor": "Legacy Professional Services",
    "rowid": "1147457",
    "final_x": "3704703.85265",
    "final_y": "512410.527025",
    "longitude": "-89.9955059920012",
    "latitude": "29.902226380857527",
    "geocoded_column": {
      "latitude": "29.902226380857527",
      "longitude": "-89.9955059920012"
    }
  },
  {
    "service_request": "2024-1147456",
    "request_type": "Streetlights",
    "request_reason": "Streetlight Outage/Malfunction",
    "date_created": "2024-11-09T18:04:07.000",
    "date_modified": "2024-11-09T18:04:08.000",
    "request_status": "Pending",
    "responsible_agency": "Department of Public Works",
    "final_address": "500 BLK Saint Joseph St",
    "address_councildis": "B",
    "status": "Pending",
    "contractor": "Legacy Professional Services",
    "rowid": "1147456",
    "final_x": "3680846.55887",
    "final_y": "527319.399545",
    "longitude": "-90.0702798604496",
    "latitude": "29.943965268270894",
    "geocoded_column": {
      "latitude": "29.943965268270894",
      "longitude": "-90.0702798604496"
    }
  },
  {
    "service_request": "2024-1147455",
    "request_type": "Property Maintenance",
    "request_reason": "Property Maintenance",
    "date_created": "2024-11-09T17:50:04.000",
    "date_modified": "2024-11-09T17:50:04.000",
    "request_status": "Pending",
    "responsible_agency": "Department of Code Enforcement",
    "final_address": "4824 Bancroft Dr",
    "address_councildis": "D",
    "status": "Pending",
    "rowid": "1147455",
    "final_x": "3676359.55246",
    "final_y": "550006.10882",
    "longitude": "-90.08366539912207",
    "latitude": "30.00648118008683",
    "geocoded_column": {
      "latitude": "30.00648118008683",
      "longitude": "-90.08366539912207"
    }
  },
  {
    "service_request": "2024-1147454",
    "request_type": "Trash/Recycling",
    "request_reason": "Request a Large Item Pick Up",
    "date_created": "2024-11-09T16:51:56.000",
    "date_modified": "2024-11-09T16:51:57.000",
    "request_status": "Pending",
    "responsible_agency": "Department of Sanitation",
    "final_address": "4651 Gabriel Dr",
    "address_councildis": "E",
    "status": "Assigned to Contractor",
    "contractor": "Waste Pro",
    "rowid": "1147454",
    "final_x": "3709005.96715",
    "final_y": "555173.864281",
    "longitude": "-89.98033525927221",
    "latitude": "30.0196711151423",
    "geocoded_column": {
      "latitude": "30.0196711151423",
      "longitude": "-89.98033525927221"
    }
  },
  {
    "service_request": "2024-1147453",
    "request_type": "Trash/Recycling",
    "request_reason": "Replace Trash Cart",
    "date_created": "2024-11-09T16:50:46.000",
    "date_modified": "2024-11-09T16:50:47.000",
    "request_status": "Pending",
    "responsible_agency": "Department of Sanitation",
    "final_address": "2324 Ursulines Ave",
    "address_councildis": "D",
    "status": "Assigned to Contractor",
    "contractor": "IV Waste",
    "rowid": "1147453",
    "final_x": "3678771.74715",
    "final_y": "537171.885704",
    "longitude": "-90.07648940743557",
    "latitude": "29.97111900198369",
    "geocoded_column": {
      "latitude": "29.97111900198369",
      "longitude": "-90.07648940743557"
    }
  },
  {
    "service_request": "2024-1147452",
    "request_type": "Property Maintenance",
    "request_reason": "Property Maintenance",
    "date_created": "2024-11-09T16:42:50.000",
    "date_modified": "2024-11-09T16:42:50.000",
    "request_status": "Pending",
    "responsible_agency": "Department of Code Enforcement",
    "final_address": "2608 Hyman Pl",
    "address_councildis": "C",
    "status": "Pending",
    "rowid": "1147452",
    "final_x": "3701110.99479",
    "final_y": "521532.560953",
    "longitude": "-90.00651145600983",
    "latitude": "29.9274237190792",
    "geocoded_column": {
      "latitude": "29.9274237190792",
      "longitude": "-90.00651145600983"
    }
  },
  {
    "service_request": "2024-1147451",
    "request_type": "Property Maintenance",
    "request_reason": "Property Maintenance",
    "date_created": "2024-11-09T16:38:15.000",
    "date_modified": "2024-11-09T16:38:15.000",
    "request_status": "Pending",
    "responsible_agency": "Department of Code Enforcement",
    "final_address": "2617 Hyman Pl",
    "address_councildis": "C",
    "status": "Pending",
    "rowid": "1147451",
    "final_x": "3700992.66295",
    "final_y": "521466.214713",
    "longitude": "-90.0068874222394",
    "latitude": "29.92724505694641",
    "geocoded_column": {
      "latitude": "29.92724505694641",
      "longitude": "-90.0068874222394"
    }
  },
  {
    "service_request": "2024-1147450",
    "request_type": "General Services",
    "request_reason": "General Service Request",
    "date_created": "2024-11-09T16:35:56.000",
    "date_modified": "2024-11-09T16:35:56.000",
    "request_status": "Pending",
    "responsible_agency": "Orleans Parish Communication District",
    "final_address": "1725 Foucher St",
    "address_councildis": "B",
    "status": "Pending",
    "rowid": "1147450",
    "final_x": "3673313.19131",
    "final_y": "521898.361914",
    "longitude": "-90.09424990211004",
    "latitude": "29.92928536028441",
    "geocoded_column": {
      "latitude": "29.92928536028441",
      "longitude": "-90.09424990211004"
    }
  },
  {
    "service_request": "2024-1147449",
    "request_type": "Trash/Recycling",
    "request_reason": "Order Second Trash Cart",
    "date_created": "2024-11-09T16:04:43.000",
    "date_modified": "2024-11-09T16:04:44.000",
    "request_status": "Pending",
    "responsible_agency": "Department of Sanitation",
    "final_address": "306 S Broad St",
    "address_councildis": "B",
    "status": "Assigned to Contractor",
    "contractor": "IV Waste",
    "rowid": "1147449",
    "final_x": "3674923.16705",
    "final_y": "534334.158981",
    "longitude": "-90.08874109903084",
    "latitude": "29.96343172638304",
    "geocoded_column": {
      "latitude": "29.96343172638304",
      "longitude": "-90.08874109903084"
    }
  },
  {
    "service_request": "2024-1147448",
    "request_type": "Trash/Recycling",
    "request_reason": "Missed Trash Pick-Up",
    "date_created": "2024-11-09T15:25:05.000",
    "date_modified": "2024-11-09T15:25:06.000",
    "request_status": "Pending",
    "responsible_agency": "Department of Sanitation",
    "final_address": "2204 Octavia St",
    "address_councildis": "A",
    "status": "Assigned to Contractor",
    "contractor": "IV Waste",
    "rowid": "1147448",
    "final_x": "3667456.33172",
    "final_y": "523772.683899",
    "longitude": "-90.11267593212925",
    "latitude": "29.934611998580188",
    "geocoded_column": {
      "latitude": "29.934611998580188",
      "longitude": "-90.11267593212925"
    }
  },
  {
    "service_request": "2024-1147447",
    "request_type": "General Services",
    "request_reason": "General Service Request",
    "date_created": "2024-11-09T15:22:07.000",
    "date_modified": "2024-11-09T15:22:07.000",
    "request_status": "Pending",
    "responsible_agency": "Orleans Parish Communication District",
    "final_address": "1116 Tennessee St",
    "address_councildis": "E",
    "status": "Pending",
    "rowid": "1147447",
    "final_x": "3695688.2392",
    "final_y": "534558.282181",
    "longitude": "-90.0231595017008",
    "latitude": "29.963411472077706",
    "geocoded_column": {
      "latitude": "29.963411472077706",
      "longitude": "-90.0231595017008"
    }
  },
  {
    "service_request": "2024-1147446",
    "request_type": "Trash/Recycling",
    "request_reason": "Request a Large Item Pick Up",
    "date_created": "2024-11-09T15:19:01.000",
    "date_modified": "2024-11-09T15:19:02.000",
    "request_status": "Pending",
    "responsible_agency": "Department of Sanitation",
    "final_address": "3820 Ursula Spencer Way",
    "address_councildis": "D",
    "status": "Assigned to Contractor",
    "contractor": "IV Waste",
    "rowid": "1147446",
    "final_x": "3693303.23523",
    "final_y": "545981.143952",
    "longitude": "-90.03028083710898",
    "latitude": "29.994895016396505",
    "geocoded_column": {
      "latitude": "29.994895016396505",
      "longitude": "-90.03028083710898"
    }
  },
  {
    "service_request": "2024-1147445",
    "request_type": "General Services",
    "request_reason": "General Service Request",
    "date_created": "2024-11-09T14:48:15.000",
    "date_modified": "2024-11-09T14:48:15.000",
    "request_status": "Pending",
    "responsible_agency": "Orleans Parish Communication District",
    "final_address": "2410 Ramsey Dr",
    "address_councildis": "C",
    "status": "Pending",
    "rowid": "1147445",
    "final_x": "3703212.70321",
    "final_y": "522105.69177",
    "longitude": "-89.9998558785681",
    "latitude": "29.928932544625205",
    "geocoded_column": {
      "latitude": "29.928932544625205",
      "longitude": "-89.9998558785681"
    }
  },
  {
    "service_request": "2024-1147444",
    "request_type": "Trash/Recycling",
    "request_reason": "Request a Large Item Pick Up",
    "date_created": "2024-11-09T14:40:18.000",
    "date_modified": "2024-11-09T14:40:19.000",
    "request_status": "Pending",
    "responsible_agency": "Department of Sanitation",
    "final_address": "2435 Alvar St",
    "address_councildis": "D",
    "status": "Assigned to Contractor",
    "contractor": "IV Waste",
    "rowid": "1147444",
    "final_x": "3692822.18755",
    "final_y": "540560.044683",
    "longitude": "-90.03199489142852",
    "latitude": "29.98000398560768",
    "geocoded_column": {
      "latitude": "29.98000398560768",
      "longitude": "-90.03199489142852"
    }
  },
  {
    "service_request": "2024-1147443",
    "request_type": "Trash/Recycling",
    "request_reason": "Request a Large Item Pick Up",
    "date_created": "2024-11-09T14:38:12.000",
    "date_modified": "2024-11-09T14:38:13.000",
    "request_status": "Pending",
    "responsible_agency": "Department of Sanitation",
    "final_address": "2819 Pine St",
    "address_councildis": "B",
    "status": "Assigned to Contractor",
    "contractor": "IV Waste",
    "rowid": "1147443",
    "final_x": "3667198.45805",
    "final_y": "531599.578627",
    "longitude": "-90.11322692810668",
    "latitude": "29.95614097812981",
    "geocoded_column": {
      "latitude": "29.95614097812981",
      "longitude": "-90.11322692810668"
    }
  },
  {
    "service_request": "2024-1147442",
    "request_type": "Trash/Recycling",
    "request_reason": "Replace Recycling Cart",
    "date_created": "2024-11-09T14:24:57.000",
    "date_modified": "2024-11-09T14:24:57.000",
    "request_status": "Pending",
    "responsible_agency": "Department of Sanitation",
    "final_address": "ARTS ST & LAW ST",
    "address_councildis": "D",
    "status": "Pending",
    "rowid": "1147442",
    "final_x": "3686768.9",
    "final_y": "542004.38",
    "longitude": "-90.05106259520656",
    "latitude": "29.98416303957207",
    "geocoded_column": {
      "latitude": "29.98416303957207",
      "longitude": "-90.05106259520656"
    }
  },
  {
    "service_request": "2024-1147441",
    "request_type": "Roads and Streets",
    "request_reason": "Abandoned Service Cut",
    "date_created": "2024-11-09T13:37:35.000",
    "date_modified": "2024-11-09T13:37:35.000",
    "request_status": "Pending",
    "responsible_agency": "Department of Public Works",
    "final_address": "3831 Tchoupitoulas St",
    "address_councildis": "B",
    "status": "Pending",
    "rowid": "1147441",
    "final_x": "3673451.34004",
    "final_y": "517738.819766",
    "longitude": "-90.09395581988589",
    "latitude": "29.91784384450625",
    "geocoded_column": {
      "latitude": "29.91784384450625",
      "longitude": "-90.09395581988589"
    }
  },
  {
    "service_request": "2024-1147440",
    "request_type": "Property Maintenance",
    "request_reason": "Property Maintenance",
    "date_created": "2024-11-09T13:33:00.000",
    "date_modified": "2024-11-09T13:33:00.000",
    "request_status": "Pending",
    "responsible_agency": "Department of Code Enforcement",
    "final_address": "2453 Lavender St",
    "address_councildis": "D",
    "status": "Pending",
    "rowid": "1147440",
    "final_x": "3686296.39394",
    "final_y": "546950.125777",
    "longitude": "-90.052380391028",
    "latitude": "29.99777660429375",
    "geocoded_column": {
      "latitude": "29.99777660429375",
      "longitude": "-90.052380391028"
    }
  },
  {
    "service_request": "2024-1147439",
    "request_type": "Trash/Recycling",
    "request_reason": "Replace Trash Cart",
    "date_created": "2024-11-09T13:32:20.000",
    "date_modified": "2024-11-09T13:32:22.000",
    "request_status": "Pending",
    "responsible_agency": "Department of Sanitation",
    "final_address": "1024 N Miro St",
    "address_councildis": "D",
    "status": "Assigned to Contractor",
    "contractor": "IV Waste",
    "rowid": "1147439",
    "final_x": "3678913.70568",
    "final_y": "536937.283272",
    "longitude": "-90.07604921295058",
    "latitude": "29.970469643461314",
    "geocoded_column": {
      "latitude": "29.970469643461314",
      "longitude": "-90.07604921295058"
    }
  },
  {
    "service_request": "2024-1147438",
    "request_type": "Traffic Signals",
    "request_reason": "Traffic Signal Malfunctioning or Damaged",
    "date_created": "2024-11-09T13:27:54.000",
    "date_modified": "2024-11-09T13:27:54.000",
    "request_status": "Pending",
    "responsible_agency": "Department of Public Works",
    "final_address": "7800 BLK S Claiborne Ave",
    "address_councildis": "A",
    "status": "Pending",
    "rowid": "1147438",
    "final_x": "3665580.7564",
    "final_y": "530933.574075",
    "longitude": "-90.11835740019355",
    "latitude": "29.95435694792826",
    "geocoded_column": {
      "latitude": "29.95435694792826",
      "longitude": "-90.11835740019355"
    }
  },
  {
    "service_request": "2024-1147437",
    "request_type": "Streetlights",
    "request_reason": "New Streetlight Request",
    "date_created": "2024-11-09T13:26:18.000",
    "date_modified": "2024-11-09T13:26:19.000",
    "request_status": "Pending",
    "responsible_agency": "Department of Public Works",
    "final_address": "7800 BLK S Claiborne Ave",
    "address_councildis": "A",
    "status": "Pending",
    "contractor": "Legacy Professional Services",
    "rowid": "1147437",
    "final_x": "3665580.7564",
    "final_y": "530933.574075",
    "longitude": "-90.11835740019355",
    "latitude": "29.95435694792826",
    "geocoded_column": {
      "latitude": "29.95435694792826",
      "longitude": "-90.11835740019355"
    }
  },
  {
    "service_request": "2024-1147436",
    "request_type": "General Services",
    "request_reason": "General Service Request",
    "date_created": "2024-11-09T13:12:20.000",
    "date_modified": "2024-11-09T13:12:20.000",
    "request_status": "Pending",
    "responsible_agency": "Orleans Parish Communication District",
    "final_address": "New Orleans,LA",
    "status": "Pending",
    "rowid": "1147436",
    "longitude": "0.0",
    "latitude": "0.0",
    "geocoded_column": {
      "latitude": "0.0",
      "longitude": "0.0"
    }
  },
  {
    "service_request": "2024-1147435",
    "request_type": "Trash/Recycling",
    "request_reason": "Order Recycling Cart",
    "date_created": "2024-11-09T13:01:30.000",
    "date_modified": "2024-11-09T13:01:30.000",
    "request_status": "Pending",
    "responsible_agency": "Department of Sanitation",
    "final_address": "1010 Louisiana Ave",
    "address_councildis": "B",
    "status": "Pending",
    "rowid": "1147435",
    "final_x": "3675074.49825",
    "final_y": "519366.177399",
    "longitude": "-90.08877660535286",
    "latitude": "29.922270181353667",
    "geocoded_column": {
      "latitude": "29.922270181353667",
      "longitude": "-90.08877660535286"
    }
  },
  {
    "service_request": "2024-1147434",
    "request_type": "Abandoned Vehicles",
    "request_reason": "Abandoned/Junk Vehicles",
    "date_created": "2024-11-09T12:50:05.000",
    "date_modified": "2024-11-09T12:50:05.000",
    "request_status": "Pending",
    "responsible_agency": "Department of Public Works",
    "final_address": "217 N Prieur St",
    "address_councildis": "B",
    "status": "Pending",
    "rowid": "1147434",
    "final_x": "3677800.92373",
    "final_y": "533987.327749",
    "longitude": "-90.07966543638403",
    "latitude": "29.962391796172422",
    "geocoded_column": {
      "latitude": "29.962391796172422",
      "longitude": "-90.07966543638403"
    }
  },
  {
    "service_request": "2024-1147433",
    "request_type": "Streetlights",
    "request_reason": "Streetlight Outage/Malfunction",
    "date_created": "2024-11-09T12:42:26.000",
    "date_modified": "2024-11-09T12:42:27.000",
    "request_status": "Pending",
    "responsible_agency": "Department of Public Works",
    "final_address": "4475 Amanda St",
    "address_councildis": "C",
    "status": "Pending",
    "contractor": "Legacy Professional Services",
    "rowid": "1147433",
    "final_x": "3709752.6092",
    "final_y": "513050.891377",
    "longitude": "-89.97954861759402",
    "latitude": "29.903824112455904",
    "geocoded_column": {
      "latitude": "29.903824112455904",
      "longitude": "-89.97954861759402"
    }
  },
  {
    "service_request": "2024-1147432",
    "request_type": "Trash/Recycling",
    "request_reason": "Request a Large Item Pick Up",
    "date_created": "2024-11-09T12:31:35.000",
    "date_modified": "2024-11-09T12:31:36.000",
    "request_status": "Pending",
    "responsible_agency": "Department of Sanitation",
    "final_address": "2502 Pine St",
    "address_councildis": "A",
    "status": "Assigned to Contractor",
    "contractor": "IV Waste",
    "rowid": "1147432",
    "final_x": "3666537.25863",
    "final_y": "530621.465858",
    "longitude": "-90.11534760931482",
    "latitude": "29.953470829974076",
    "geocoded_column": {
      "latitude": "29.953470829974076",
      "longitude": "-90.11534760931482"
    }
  },
  {
    "service_request": "2024-1147431",
    "request_type": "Trash/Recycling",
    "request_reason": "Request a Large Item Pick Up",
    "date_created": "2024-11-09T11:24:35.000",
    "date_modified": "2024-11-09T11:24:37.000",
    "request_status": "Pending",
    "responsible_agency": "Department of Sanitation",
    "final_address": "816 N Salcedo St",
    "address_councildis": "A",
    "status": "Assigned to Contractor",
    "contractor": "IV Waste",
    "rowid": "1147431",
    "final_x": "3675821.11509",
    "final_y": "538236.666313",
    "longitude": "-90.08577129682925",
    "latitude": "29.974135447562485",
    "geocoded_column": {
      "latitude": "29.974135447562485",
      "longitude": "-90.08577129682925"
    }
  },
  {
    "service_request": "2024-1147430",
    "request_type": "Trash/Recycling",
    "request_reason": "Order Recycling Cart",
    "date_created": "2024-11-09T11:19:40.000",
    "date_modified": "2024-11-09T11:19:40.000",
    "request_status": "Pending",
    "responsible_agency": "Department of Sanitation",
    "final_address": "318 S Genois St",
    "address_councildis": "B",
    "status": "Pending",
    "rowid": "1147430",
    "final_x": "3672079.93575",
    "final_y": "536339.375623",
    "longitude": "-90.09765144526803",
    "latitude": "29.969030010096418",
    "geocoded_column": {
      "latitude": "29.969030010096418",
      "longitude": "-90.09765144526803"
    }
  },
  {
    "service_request": "2024-1147429",
    "request_type": "Drainage",
    "request_reason": "Catch Basin Damaged",
    "date_created": "2024-11-09T11:07:40.000",
    "date_modified": "2024-11-09T11:07:40.000",
    "request_status": "Pending",
    "responsible_agency": "Department of Public Works",
    "final_address": "618 Arabella St",
    "address_councildis": "A",
    "status": "Pending",
    "rowid": "1147429",
    "final_x": "3665675.30951",
    "final_y": "518430.376758",
    "longitude": "-90.11847741912129",
    "latitude": "29.919974390017167",
    "geocoded_column": {
      "latitude": "29.919974390017167",
      "longitude": "-90.11847741912129"
    }
  },
  {
    "service_request": "2024-1147428",
    "request_type": "Drainage",
    "request_reason": "Catch Basin Damaged",
    "date_created": "2024-11-09T11:01:15.000",
    "date_modified": "2024-11-09T11:01:15.000",
    "request_status": "Pending",
    "responsible_agency": "Department of Public Works",
    "final_address": "618 Arabella St",
    "address_councildis": "A",
    "status": "Pending",
    "rowid": "1147428",
    "final_x": "3665675.30951",
    "final_y": "518430.376758",
    "longitude": "-90.11847741912129",
    "latitude": "29.919974390017167",
    "geocoded_column": {
      "latitude": "29.919974390017167",
      "longitude": "-90.11847741912129"
    }
  },
  {
    "service_request": "2024-1147427",
    "request_type": "Drainage",
    "request_reason": "Ditch and Culvert Maintenance",
    "date_created": "2024-11-09T10:52:40.000",
    "date_modified": "2024-11-09T10:52:40.000",
    "request_status": "Pending",
    "responsible_agency": "Department of Public Works",
    "final_address": "600 BLK Arabella St",
    "address_councildis": "A",
    "status": "Pending",
    "rowid": "1147427",
    "final_x": "3665718.3808",
    "final_y": "518440.981278",
    "longitude": "-90.11834110840918",
    "latitude": "29.92000229340129",
    "geocoded_column": {
      "latitude": "29.92000229340129",
      "longitude": "-90.11834110840918"
    }
  },
  {
    "service_request": "2024-1147426",
    "request_type": "General Services",
    "request_reason": "General Service Request",
    "date_created": "2024-11-09T10:41:07.000",
    "date_modified": "2024-11-09T10:41:07.000",
    "request_status": "Pending",
    "responsible_agency": "Orleans Parish Communication District",
    "final_address": "New Orleans,LA",
    "status": "Pending",
    "rowid": "1147426",
    "longitude": "0.0",
    "latitude": "0.0",
    "geocoded_column": {
      "latitude": "0.0",
      "longitude": "0.0"
    }
  },
  {
    "service_request": "2024-1147425",
    "request_type": "Parks & Parkways",
    "request_reason": "Request Tree Service (Right of Way/Public Property)",
    "date_created": "2024-11-09T10:30:35.000",
    "date_modified": "2024-11-09T10:30:35.000",
    "request_status": "Pending",
    "responsible_agency": "Department of Parks & Parkway",
    "final_address": "6674 Canal Blvd",
    "address_councildis": "A",
    "status": "Pending",
    "rowid": "1147425",
    "final_x": "3668788.12276",
    "final_y": "551931.09999",
    "longitude": "-90.10752048301008",
    "latitude": "30.01199910989097",
    "geocoded_column": {
      "latitude": "30.01199910989097",
      "longitude": "-90.10752048301008"
    }
  },
  {
    "service_request": "2024-1147424",
    "request_type": "Trash/Recycling",
    "request_reason": "Request a Large Item Pick Up",
    "date_created": "2024-11-09T10:00:22.000",
    "date_modified": "2024-11-09T10:00:23.000",
    "request_status": "Pending",
    "responsible_agency": "Department of Sanitation",
    "final_address": "7431 Hansbrough Ave",
    "address_councildis": "E",
    "status": "Assigned to Contractor",
    "contractor": "Waste Pro",
    "rowid": "1147424",
    "final_x": "3707961.22424",
    "final_y": "563985.953889",
    "longitude": "-89.98330822616263",
    "latitude": "30.043934770802807",
    "geocoded_column": {
      "latitude": "30.043934770802807",
      "longitude": "-89.98330822616263"
    }
  },
  {
    "service_request": "2024-1147423",
    "request_type": "Trash/Recycling",
    "request_reason": "Replace Recycling Cart",
    "date_created": "2024-11-09T09:37:00.000",
    "date_modified": "2024-11-09T09:37:00.000",
    "request_status": "Pending",
    "responsible_agency": "Department of Sanitation",
    "final_address": "1427 St Mary St",
    "address_councildis": "B",
    "status": "Pending",
    "rowid": "1147423",
    "final_x": "3678984.6484",
    "final_y": "523767.974395",
    "longitude": "-90.07628143555137",
    "latitude": "29.934256326135813",
    "geocoded_column": {
      "latitude": "29.934256326135813",
      "longitude": "-90.07628143555137"
    }
  },
  {
    "service_request": "2024-1147422",
    "request_type": "Trash/Recycling",
    "request_reason": "Order Trash Cart",
    "date_created": "2024-11-09T09:36:43.000",
    "date_modified": "2024-11-09T09:36:44.000",
    "request_status": "Pending",
    "responsible_agency": "Department of Sanitation",
    "final_address": "1934 Louisiana Ave Apt 2A",
    "address_councildis": "B",
    "status": "Assigned to Contractor",
    "contractor": "IV Waste",
    "rowid": "1147422",
    "final_x": "3673571.30177",
    "final_y": "522766.543674",
    "longitude": "-90.09340543753957",
    "latitude": "29.931664902282165",
    "geocoded_column": {
      "latitude": "29.931664902282165",
      "longitude": "-90.09340543753957"
    }
  },
  {
    "service_request": "2024-1147421",
    "request_type": "Trash/Recycling",
    "request_reason": "Order Trash Cart",
    "date_created": "2024-11-09T09:35:26.000",
    "date_modified": "2024-11-09T09:35:27.000",
    "request_status": "Pending",
    "responsible_agency": "Department of Sanitation",
    "final_address": "1934 Louisiana Ave",
    "address_councildis": "B",
    "status": "Assigned to Contractor",
    "contractor": "IV Waste",
    "rowid": "1147421",
    "final_x": "3673594.42292",
    "final_y": "522777.190714",
    "longitude": "-90.09333208284494",
    "latitude": "29.931693490216677",
    "geocoded_column": {
      "latitude": "29.931693490216677",
      "longitude": "-90.09333208284494"
    }
  },
  {
    "service_request": "2024-1147420",
    "request_type": "Trash/Recycling",
    "request_reason": "Illegal Dumping",
    "date_created": "2024-11-09T09:33:35.000",
    "date_modified": "2024-11-09T09:33:35.000",
    "request_status": "Pending",
    "responsible_agency": "Department of Sanitation",
    "final_address": "1938 Louisiana Ave",
    "address_councildis": "B",
    "status": "Pending",
    "rowid": "1147420",
    "final_x": "3673583.02184",
    "final_y": "522799.481723",
    "longitude": "-90.09336731331814",
    "latitude": "29.931755122526",
    "geocoded_column": {
      "latitude": "29.931755122526",
      "longitude": "-90.09336731331814"
    }
  },
  {
    "service_request": "2024-1147419",
    "request_type": "Streetlights",
    "request_reason": "Streetlight Outage/Malfunction",
    "date_created": "2024-11-09T09:23:31.000",
    "date_modified": "2024-11-09T09:23:32.000",
    "request_status": "Pending",
    "responsible_agency": "Department of Public Works",
    "final_address": "7510 Hampson St",
    "address_councildis": "A",
    "status": "Pending",
    "contractor": "Legacy Professional Services",
    "rowid": "1147419",
    "final_x": "3662249.03757",
    "final_y": "525728.890749",
    "longitude": "-90.12905042720847",
    "latitude": "29.940142453699774",
    "geocoded_column": {
      "latitude": "29.940142453699774",
      "longitude": "-90.12905042720847"
    }
  },
  {
    "service_request": "2024-1147418",
    "request_type": "Roads and Streets",
    "request_reason": "Debris in Driving Lanes",
    "date_created": "2024-11-09T09:17:14.000",
    "date_modified": "2024-11-09T09:17:14.000",
    "request_status": "Pending",
    "responsible_agency": "Department of Public Works",
    "final_address": "1729 Martin Luther King, Jr. Blvd",
    "address_councildis": "B",
    "status": "Pending",
    "rowid": "1147418",
    "final_x": "3678622.07451",
    "final_y": "525948.105341",
    "longitude": "-90.07735062807495",
    "latitude": "29.940261899373585",
    "geocoded_column": {
      "latitude": "29.940261899373585",
      "longitude": "-90.07735062807495"
    }
  },
  {
    "service_request": "2024-1147417",
    "request_type": "Abandoned Vehicles",
    "request_reason": "Abandoned/Junk Vehicles",
    "date_created": "2024-11-09T09:11:00.000",
    "date_modified": "2024-11-09T09:11:00.000",
    "request_status": "Pending",
    "responsible_agency": "Department of Public Works",
    "final_address": "2705 N Rampart St",
    "address_councildis": "C",
    "status": "Pending",
    "rowid": "1147417",
    "final_x": "3687374.72316",
    "final_y": "535971.054279",
    "longitude": "-90.0493626166816",
    "latitude": "29.967554862369123",
    "geocoded_column": {
      "latitude": "29.967554862369123",
      "longitude": "-90.0493626166816"
    }
  },
  {
    "service_request": "2024-1147416",
    "request_type": "Trash/Recycling",
    "request_reason": "Request a Large Item Pick Up",
    "date_created": "2024-11-09T09:05:01.000",
    "date_modified": "2024-11-09T09:05:02.000",
    "request_status": "Pending",
    "responsible_agency": "Department of Sanitation",
    "final_address": "6110 Lafaye St",
    "address_councildis": "D",
    "status": "Assigned to Contractor",
    "contractor": "IV Waste",
    "rowid": "1147416",
    "final_x": "3687040.72073",
    "final_y": "555730.210329",
    "longitude": "-90.0497183742899",
    "latitude": "30.021895724083542",
    "geocoded_column": {
      "latitude": "30.021895724083542",
      "longitude": "-90.0497183742899"
    }
  },
  {
    "service_request": "2024-1147415",
    "request_type": "Trash/Recycling",
    "request_reason": "Order Trash Cart",
    "date_created": "2024-11-09T08:34:37.000",
    "date_modified": "2024-11-09T08:34:38.000",
    "request_status": "Pending",
    "responsible_agency": "Department of Sanitation",
    "final_address": "5165 Bayouview Ct",
    "address_councildis": "E",
    "status": "Assigned to Contractor",
    "contractor": "Waste Pro",
    "rowid": "1147415",
    "final_x": "3699247.72202",
    "final_y": "556419.31497",
    "longitude": "-90.0111225102717",
    "latitude": "30.023408844055467",
    "geocoded_column": {
      "latitude": "30.023408844055467",
      "longitude": "-90.0111225102717"
    }
  },
  {
    "service_request": "2024-1147414",
    "request_type": "Property Maintenance",
    "request_reason": "Property Maintenance",
    "date_created": "2024-11-09T08:18:14.000",
    "date_modified": "2024-11-09T08:18:14.000",
    "request_status": "Pending",
    "responsible_agency": "Department of Code Enforcement",
    "final_address": "1000 Pleasant St",
    "address_councildis": "B",
    "status": "Pending",
    "rowid": "1147414",
    "final_x": "3675668.42184",
    "final_y": "519543.564343",
    "longitude": "-90.08689573974308",
    "latitude": "29.922740187043527",
    "geocoded_column": {
      "latitude": "29.922740187043527",
      "longitude": "-90.08689573974308"
    }
  },
  {
    "service_request": "2024-1147413",
    "request_type": "General Services",
    "request_reason": "General Service Request",
    "date_created": "2024-11-09T08:15:39.000",
    "date_modified": "2024-11-09T08:15:39.000",
    "request_status": "Pending",
    "responsible_agency": "Orleans Parish Communication District",
    "final_address": "623 Philip St, New Orleans, Louisiana, 70130",
    "address_councildis": "B",
    "status": "Pending",
    "rowid": "1147413",
    "final_x": "3679555.77423",
    "final_y": "520575.516472",
    "longitude": "-90.07458912531149",
    "latitude": "29.925460873066466",
    "geocoded_column": {
      "latitude": "29.925460873066466",
      "longitude": "-90.07458912531149"
    }
  },
  {
    "service_request": "2024-1147412",
    "request_type": "Trash/Recycling",
    "request_reason": "Request a Large Item Pick Up",
    "date_created": "2024-11-09T08:14:34.000",
    "date_modified": "2024-11-09T08:14:35.000",
    "request_status": "Pending",
    "responsible_agency": "Department of Sanitation",
    "final_address": "814 Olga St",
    "address_councildis": "A",
    "status": "Assigned to Contractor",
    "contractor": "IV Waste",
    "rowid": "1147412",
    "final_x": "3673341.54107",
    "final_y": "539874.669706",
    "longitude": "-90.09354640174031",
    "latitude": "29.978713398513673",
    "geocoded_column": {
      "latitude": "29.978713398513673",
      "longitude": "-90.09354640174031"
    }
  },
  {
    "service_request": "2024-1147411",
    "request_type": "Abandoned Vehicles",
    "request_reason": "Abandoned/Junk Vehicles",
    "date_created": "2024-11-09T07:51:50.000",
    "date_modified": "2024-11-09T07:51:50.000",
    "request_status": "Pending",
    "responsible_agency": "Department of Public Works",
    "final_address": "413 S Cortez St",
    "address_councildis": "B",
    "status": "Pending",
    "rowid": "1147411",
    "final_x": "3671219.36654",
    "final_y": "536535.864455",
    "longitude": "-90.10036251091874",
    "latitude": "29.969595778346036",
    "geocoded_column": {
      "latitude": "29.969595778346036",
      "longitude": "-90.10036251091874"
    }
  },
  {
    "service_request": "2024-1147410",
    "request_type": "Trash/Recycling",
    "request_reason": "Replace Recycling Cart",
    "date_created": "2024-11-09T06:56:38.000",
    "date_modified": "2024-11-09T06:56:38.000",
    "request_status": "Pending",
    "responsible_agency": "Department of Sanitation",
    "final_address": "3641 Tchoupitoulas St",
    "address_councildis": "B",
    "status": "Pending",
    "rowid": "1147410",
    "final_x": "3674255.49736",
    "final_y": "517818.67167",
    "longitude": "-90.09141480270965",
    "latitude": "29.918039470497625",
    "geocoded_column": {
      "latitude": "29.918039470497625",
      "longitude": "-90.09141480270965"
    }
  },
  {
    "service_request": "2024-1147409",
    "request_type": "Trash/Recycling",
    "request_reason": "Request a Large Item Pick Up",
    "date_created": "2024-11-08T22:23:55.000",
    "date_modified": "2024-11-08T22:23:56.000",
    "request_status": "Pending",
    "responsible_agency": "Department of Sanitation",
    "final_address": "1003 Conti St, New Orleans, Louisiana, 70112",
    "address_councildis": "C",
    "status": "Assigned to Contractor",
    "contractor": "Empire Services",
    "rowid": "1147409",
    "final_x": "3680993.1085",
    "final_y": "532317.098051",
    "longitude": "-90.0696431433349",
    "latitude": "29.957702812860507",
    "geocoded_column": {
      "latitude": "29.957702812860507",
      "longitude": "-90.0696431433349"
    }
  },
  {
    "service_request": "2024-1147408",
    "request_type": "Streetlights",
    "request_reason": "Streetlight Outage/Malfunction",
    "date_created": "2024-11-08T21:54:11.000",
    "date_modified": "2024-11-08T21:54:12.000",
    "request_status": "Pending",
    "responsible_agency": "Department of Public Works",
    "final_address": "714 Emerald St",
    "address_councildis": "D",
    "status": "Pending",
    "contractor": "Legacy Professional Services",
    "rowid": "1147408",
    "final_x": "3669760.62529",
    "final_y": "554935.594584",
    "longitude": "-90.10434610880398",
    "latitude": "30.02023176343494",
    "geocoded_column": {
      "latitude": "30.02023176343494",
      "longitude": "-90.10434610880398"
    }
  },
  {
    "service_request": "2024-1147407",
    "request_type": "Health Related Request",
    "request_reason": "Noise Ordinance Complaint",
    "date_created": "2024-11-08T20:13:40.000",
    "date_modified": "2024-11-08T20:13:40.000",
    "request_status": "Pending",
    "responsible_agency": "Health Department",
    "final_address": "7400 Lakeshore Dr",
    "address_councildis": "D",
    "status": "Pending",
    "rowid": "1147407",
    "final_x": "3666808.79802",
    "final_y": "556202.373082",
    "longitude": "-90.11363039460369",
    "latitude": "30.023801679293893",
    "geocoded_column": {
      "latitude": "30.023801679293893",
      "longitude": "-90.11363039460369"
    }
  },
  {
    "service_request": "2024-1147406",
    "request_type": "Health Related Request",
    "request_reason": "Noise Ordinance Complaint",
    "date_created": "2024-11-08T19:50:00.000",
    "date_modified": "2024-11-08T19:50:00.000",
    "request_status": "Pending",
    "responsible_agency": "Health Department",
    "final_address": "7400 Lakeshore Dr",
    "address_councildis": "D",
    "status": "Pending",
    "rowid": "1147406",
    "final_x": "3666808.79802",
    "final_y": "556202.373082",
    "longitude": "-90.11363039460369",
    "latitude": "30.023801679293893",
    "geocoded_column": {
      "latitude": "30.023801679293893",
      "longitude": "-90.11363039460369"
    }
  },
  {
    "service_request": "2024-1147405",
    "request_type": "Streetlights",
    "request_reason": "Streetlight Outage/Malfunction",
    "date_created": "2024-11-08T19:46:57.000",
    "date_modified": "2024-11-08T19:46:58.000",
    "request_status": "Pending",
    "responsible_agency": "Department of Public Works",
    "final_address": "607 Bordeaux St",
    "address_councildis": "B",
    "status": "Pending",
    "contractor": "Legacy Professional Services",
    "rowid": "1147405",
    "final_x": "3669716.66977",
    "final_y": "517730.20799",
    "longitude": "-90.10574444080785",
    "latitude": "29.9179307109184",
    "geocoded_column": {
      "latitude": "29.9179307109184",
      "longitude": "-90.10574444080785"
    }
  },
  {
    "service_request": "2024-1147404",
    "request_type": "Streetlights",
    "request_reason": "Streetlight Outage/Malfunction",
    "date_created": "2024-11-08T19:36:55.000",
    "date_modified": "2024-11-08T19:36:56.000",
    "request_status": "Pending",
    "responsible_agency": "Department of Public Works",
    "final_address": "4300 BLK S Galvez St",
    "address_councildis": "B",
    "status": "Pending",
    "contractor": "Legacy Professional Services",
    "rowid": "1147404",
    "final_x": "3670403.56368",
    "final_y": "527557.677612",
    "longitude": "-90.1032432802103",
    "latitude": "29.94493284529157",
    "geocoded_column": {
      "latitude": "29.94493284529157",
      "longitude": "-90.1032432802103"
    }
  },
  {
    "service_request": "2024-1147403",
    "request_type": "Abandoned Vehicles",
    "request_reason": "Abandoned/Junk Vehicles",
    "date_created": "2024-11-08T19:18:21.000",
    "date_modified": "2024-11-08T19:18:21.000",
    "request_status": "Pending",
    "responsible_agency": "Department of Public Works",
    "final_address": "1400 BLK Terpsichore St",
    "address_councildis": "B",
    "status": "Pending",
    "rowid": "1147403",
    "final_x": "3679657.06716",
    "final_y": "524916.608747",
    "longitude": "-90.07411878140907",
    "latitude": "29.9373943904278",
    "geocoded_column": {
      "latitude": "29.9373943904278",
      "longitude": "-90.07411878140907"
    }
  },
  {
    "service_request": "2024-1147402",
    "request_type": "Streetlights",
    "request_reason": "Streetlight Outage/Malfunction",
    "date_created": "2024-11-08T18:53:57.000",
    "date_modified": "2024-11-08T18:53:58.000",
    "request_status": "Pending",
    "responsible_agency": "Department of Public Works",
    "final_address": "2235 Palmer Ave",
    "address_councildis": "A",
    "status": "Pending",
    "contractor": "Legacy Professional Services",
    "rowid": "1147402",
    "final_x": "3666236.94516",
    "final_y": "525191.325565",
    "longitude": "-90.11647796307697",
    "latitude": "29.93854847205111",
    "geocoded_column": {
      "latitude": "29.93854847205111",
      "longitude": "-90.11647796307697"
    }
  },
  {
    "service_request": "2024-1147401",
    "request_type": "Traffic Signals",
    "request_reason": "Traffic Signal Malfunctioning or Damaged",
    "date_created": "2024-11-08T18:38:00.000",
    "date_modified": "2024-11-08T18:38:00.000",
    "request_status": "Pending",
    "responsible_agency": "Department of Public Works",
    "final_address": "2300 St Claude Ave",
    "address_councildis": "C",
    "status": "Pending",
    "rowid": "1147401",
    "final_x": "3685972.92796",
    "final_y": "536198.830855",
    "longitude": "-90.05378147430721",
    "latitude": "29.96822428536932",
    "geocoded_column": {
      "latitude": "29.96822428536932",
      "longitude": "-90.05378147430721"
    }
  },
  {
    "service_request": "2024-1147400",
    "request_type": "Traffic Signals",
    "request_reason": "Traffic Signal Malfunctioning or Damaged",
    "date_created": "2024-11-08T18:36:28.000",
    "date_modified": "2024-11-08T18:36:28.000",
    "request_status": "Pending",
    "responsible_agency": "Department of Public Works",
    "final_address": "3820 St Claude Ave",
    "address_councildis": "C",
    "status": "Pending",
    "rowid": "1147400",
    "final_x": "3691325.99593",
    "final_y": "535336.381382",
    "longitude": "-90.03690713581696",
    "latitude": "29.965687399911342",
    "geocoded_column": {
      "latitude": "29.965687399911342",
      "longitude": "-90.03690713581696"
    }
  },
  {
    "service_request": "2024-1147399",
    "request_type": "Parks & Parkways",
    "request_reason": "Request Tree Service (Right of Way/Public Property)",
    "date_created": "2024-11-08T18:02:51.000",
    "date_modified": "2024-11-08T18:02:51.000",
    "request_status": "Pending",
    "responsible_agency": "Department of Parks & Parkway",
    "final_address": "327 Atlantic Ave",
    "address_councildis": "C",
    "status": "Pending",
    "rowid": "1147399",
    "final_x": "3688787.73782",
    "final_y": "530504.051394",
    "longitude": "-90.04509440377743",
    "latitude": "29.952478888958186",
    "geocoded_column": {
      "latitude": "29.952478888958186",
      "longitude": "-90.04509440377743"
    }
  },
  {
    "service_request": "2024-1147398",
    "request_type": "Abandoned Vehicles",
    "request_reason": "Abandoned/Junk Vehicles",
    "date_created": "2024-11-08T18:00:52.000",
    "date_modified": "2024-11-08T18:00:52.000",
    "request_status": "Pending",
    "responsible_agency": "Department of Public Works",
    "final_address": "0 E Interstate 510 Service Rd",
    "address_councildis": "E",
    "status": "Pending",
    "rowid": "1147398",
    "final_x": "3722359.28767",
    "final_y": "561268.320926",
    "longitude": "-89.93790922288747",
    "latitude": "30.035988096688126",
    "geocoded_column": {
      "latitude": "30.035988096688126",
      "longitude": "-89.93790922288747"
    }
  },
  {
    "service_request": "2024-1147397",
    "request_type": "Abandoned Vehicles",
    "request_reason": "Abandoned/Junk Vehicles",
    "date_created": "2024-11-08T17:57:23.000",
    "date_modified": "2024-11-08T17:57:23.000",
    "request_status": "Pending",
    "responsible_agency": "Department of Public Works",
    "final_address": "0 E Interstate 510 Service Rd",
    "address_councildis": "E",
    "status": "Pending",
    "rowid": "1147397",
    "final_x": "3722359.28767",
    "final_y": "561268.320926",
    "longitude": "-89.93790922288747",
    "latitude": "30.035988096688126",
    "geocoded_column": {
      "latitude": "30.035988096688126",
      "longitude": "-89.93790922288747"
    }
  },
  {
    "service_request": "2024-1147396",
    "request_type": "Health Related Request",
    "request_reason": "Noise Ordinance Complaint",
    "date_created": "2024-11-08T17:57:01.000",
    "date_modified": "2024-11-08T17:57:01.000",
    "request_status": "Pending",
    "responsible_agency": "Health Department",
    "final_address": "7400 Lakeshore Dr",
    "address_councildis": "D",
    "status": "Pending",
    "rowid": "1147396",
    "final_x": "3666808.79802",
    "final_y": "556202.373082",
    "longitude": "-90.11363039460369",
    "latitude": "30.023801679293893",
    "geocoded_column": {
      "latitude": "30.023801679293893",
      "longitude": "-90.11363039460369"
    }
  },
  {
    "service_request": "2024-1147395",
    "request_type": "Health Related Request",
    "request_reason": "Noise Ordinance Complaint",
    "date_created": "2024-11-08T17:19:15.000",
    "date_modified": "2024-11-08T17:19:15.000",
    "request_status": "Pending",
    "responsible_agency": "Health Department",
    "final_address": "7400 Lakeshore Dr",
    "address_councildis": "D",
    "status": "Pending",
    "rowid": "1147395",
    "final_x": "3666808.79802",
    "final_y": "556202.373082",
    "longitude": "-90.11363039460369",
    "latitude": "30.023801679293893",
    "geocoded_column": {
      "latitude": "30.023801679293893",
      "longitude": "-90.11363039460369"
    }
  },
  {
    "service_request": "2024-1147394",
    "request_type": "Health Related Request",
    "request_reason": "Noise Ordinance Complaint",
    "date_created": "2024-11-08T17:17:26.000",
    "date_modified": "2024-11-08T17:17:26.000",
    "request_status": "Pending",
    "responsible_agency": "Health Department",
    "final_address": "7400 Lakeshore Dr",
    "address_councildis": "D",
    "status": "Pending",
    "rowid": "1147394",
    "final_x": "3666808.79802",
    "final_y": "556202.373082",
    "longitude": "-90.11363039460369",
    "latitude": "30.023801679293893",
    "geocoded_column": {
      "latitude": "30.023801679293893",
      "longitude": "-90.11363039460369"
    }
  },
  {
    "service_request": "2024-1147393",
    "request_type": "Trash/Recycling",
    "request_reason": "Replace Recycling Cart",
    "date_created": "2024-11-08T17:02:21.000",
    "date_modified": "2024-11-08T17:02:21.000",
    "request_status": "Pending",
    "responsible_agency": "Department of Sanitation",
    "final_address": "321 N Olympia St",
    "address_councildis": "A",
    "status": "Pending",
    "rowid": "1147393",
    "final_x": "3669990.51783",
    "final_y": "540446.225931",
    "longitude": "-90.10411085243449",
    "latitude": "29.98038425500901",
    "geocoded_column": {
      "latitude": "29.98038425500901",
      "longitude": "-90.10411085243449"
    }
  },
  {
    "service_request": "2024-1147392",
    "request_type": "Abandoned Vehicles",
    "request_reason": "Abandoned/Junk Vehicles",
    "date_created": "2024-11-08T16:56:09.000",
    "date_modified": "2024-11-08T16:57:51.000",
    "request_status": "Pending",
    "responsible_agency": "Department of Public Works",
    "final_address": "1122 Fourth St",
    "address_councildis": "B",
    "status": "Pending",
    "rowid": "1147392",
    "final_x": "3677159.64552",
    "final_y": "521144.619257",
    "longitude": "-90.08213334848759",
    "latitude": "29.92709788119436",
    "geocoded_column": {
      "latitude": "29.92709788119436",
      "longitude": "-90.08213334848759"
    }
  },
  {
    "service_request": "2024-1147391",
    "request_type": "Streetlights",
    "request_reason": "Streetlight Outage/Malfunction",
    "date_created": "2024-11-08T16:52:49.000",
    "date_modified": "2024-11-08T16:52:51.000",
    "request_status": "Pending",
    "responsible_agency": "Department of Public Works",
    "final_address": "828 Third St",
    "address_councildis": "B",
    "status": "Pending",
    "contractor": "Legacy Professional Services",
    "rowid": "1147391",
    "final_x": "3678017.03266",
    "final_y": "520433.743608",
    "longitude": "-90.07945135426961",
    "latitude": "29.925117433456133",
    "geocoded_column": {
      "latitude": "29.925117433456133",
      "longitude": "-90.07945135426961"
    }
  },
  {
    "service_request": "2024-1147390",
    "request_type": "Trash/Recycling",
    "request_reason": "Replace Recycling Cart",
    "date_created": "2024-11-08T16:52:35.000",
    "date_modified": "2024-11-08T16:52:36.000",
    "request_status": "Pending",
    "responsible_agency": "Department of Sanitation",
    "final_address": "18 Wax Myrtle Pl",
    "address_councildis": "C",
    "status": "Pending",
    "rowid": "1147390",
    "final_x": "3715973.68856",
    "final_y": "517932.39519",
    "longitude": "-89.95973040062252",
    "latitude": "29.917042958063735",
    "geocoded_column": {
      "latitude": "29.917042958063735",
      "longitude": "-89.95973040062252"
    }
  },
  {
    "service_request": "2024-1147389",
    "request_type": "Abandoned Vehicles",
    "request_reason": "Abandoned/Junk Vehicles",
    "date_created": "2024-11-08T16:50:17.000",
    "date_modified": "2024-11-08T16:50:18.000",
    "request_status": "Pending",
    "responsible_agency": "Department of Public Works",
    "final_address": "N RAMPART ST & INDEPENDENCE ST",
    "address_councildis": "C",
    "status": "Pending",
    "rowid": "1147389",
    "final_x": "3690841.4",
    "final_y": "535085.98",
    "longitude": "-90.03844640224061",
    "latitude": "29.965013950902755",
    "geocoded_column": {
      "latitude": "29.965013950902755",
      "longitude": "-90.03844640224061"
    }
  },
  {
    "service_request": "2024-1147388",
    "request_type": "Trash/Recycling",
    "request_reason": "Repair Trash Cart",
    "date_created": "2024-11-08T16:46:50.000",
    "date_modified": "2024-11-08T16:49:22.000",
    "request_status": "Pending",
    "responsible_agency": "Department of Sanitation",
    "final_address": "516 Jena St",
    "address_councildis": "B",
    "status": "Assigned to Contractor",
    "contractor": "IV Waste",
    "rowid": "1147388",
    "final_x": "3670742.88916",
    "final_y": "517576.822518",
    "longitude": "-90.10251042123294",
    "latitude": "29.91747867860915",
    "geocoded_column": {
      "latitude": "29.91747867860915",
      "longitude": "-90.10251042123294"
    }
  },
  {
    "service_request": "2024-1147387",
    "request_type": "Abandoned Vehicles",
    "request_reason": "Abandoned/Junk Vehicles",
    "date_created": "2024-11-08T16:44:58.000",
    "date_modified": "2024-11-08T16:48:19.000",
    "request_status": "Pending",
    "responsible_agency": "Department of Public Works",
    "final_address": "438 Elmira Ave",
    "address_councildis": "C",
    "status": "Pending",
    "rowid": "1147387",
    "final_x": "3688269.72783",
    "final_y": "529996.576193",
    "longitude": "-90.04674803076581",
    "latitude": "29.951099509870524",
    "geocoded_column": {
      "latitude": "29.951099509870524",
      "longitude": "-90.04674803076581"
    }
  },
  {
    "service_request": "2024-1147386",
    "request_type": "Safety & Permits",
    "request_reason": "Zoning Enforcement",
    "date_created": "2024-11-08T16:43:23.000",
    "date_modified": "2024-11-08T16:43:24.000",
    "request_status": "Pending",
    "responsible_agency": "Safety and Permits",
    "final_address": "438 Elmira Ave",
    "address_councildis": "C",
    "status": "Pending",
    "rowid": "1147386",
    "final_x": "3688269.72783",
    "final_y": "529996.576193",
    "longitude": "-90.04674803076581",
    "latitude": "29.951099509870524",
    "geocoded_column": {
      "latitude": "29.951099509870524",
      "longitude": "-90.04674803076581"
    }
  },
  {
    "service_request": "2024-1147385",
    "request_type": "Trash/Recycling",
    "request_reason": "Request a Large Item Pick Up",
    "date_created": "2024-11-08T16:42:20.000",
    "date_modified": "2024-11-08T16:42:21.000",
    "request_status": "Pending",
    "responsible_agency": "Department of Sanitation",
    "final_address": "2518 Forstall St",
    "address_councildis": "E",
    "status": "Assigned to Contractor",
    "contractor": "Waste Pro",
    "rowid": "1147385",
    "final_x": "3697735.65315",
    "final_y": "539618.767178",
    "longitude": "-90.01651037980858",
    "latitude": "29.97726146093517",
    "geocoded_column": {
      "latitude": "29.97726146093517",
      "longitude": "-90.01651037980858"
    }
  },
  {
    "service_request": "2024-1147384",
    "request_type": "Street and Traffic Signs",
    "request_reason": "Stop Sign Missing or Damaged",
    "date_created": "2024-11-08T16:42:16.000",
    "date_modified": "2024-11-08T16:42:17.000",
    "request_status": "Pending",
    "responsible_agency": "Department of Public Works",
    "final_address": "MARAIS ST & BARRACKS ST",
    "address_councildis": "C",
    "status": "Pending",
    "rowid": "1147384",
    "final_x": "3681924.2",
    "final_y": "535713.58",
    "longitude": "-90.06658446102372",
    "latitude": "29.96701370847699",
    "geocoded_column": {
      "latitude": "29.96701370847699",
      "longitude": "-90.06658446102372"
    }
  },
  {
    "service_request": "2024-1147383",
    "request_type": "Abandoned Vehicles",
    "request_reason": "Abandoned/Junk Vehicles",
    "date_created": "2024-11-08T16:33:13.000",
    "date_modified": "2024-11-08T16:33:13.000",
    "request_status": "Pending",
    "responsible_agency": "Department of Public Works",
    "final_address": "1300 BLK S Saratoga St",
    "address_councildis": "B",
    "status": "Pending",
    "rowid": "1147383",
    "final_x": "3677790.17621",
    "final_y": "526967.38811",
    "longitude": "-90.07994186264075",
    "latitude": "29.943089636833847",
    "geocoded_column": {
      "latitude": "29.943089636833847",
      "longitude": "-90.07994186264075"
    }
  },
  {
    "service_request": "2024-1147382",
    "request_type": "Trash/Recycling",
    "request_reason": "Order Trash Cart",
    "date_created": "2024-11-08T16:30:18.000",
    "date_modified": "2024-11-08T16:30:19.000",
    "request_status": "Pending",
    "responsible_agency": "Department of Sanitation",
    "final_address": "5807 Catina St",
    "address_councildis": "A",
    "status": "Assigned to Contractor",
    "contractor": "IV Waste",
    "rowid": "1147382",
    "final_x": "3666804.18925",
    "final_y": "546236.89192",
    "longitude": "-90.11398004956467",
    "latitude": "29.99640022098473",
    "geocoded_column": {
      "latitude": "29.99640022098473",
      "longitude": "-90.11398004956467"
    }
  },
  {
    "service_request": "2024-1147381",
    "request_type": "Abandoned Vehicles",
    "request_reason": "Abandoned/Junk Vehicles",
    "date_created": "2024-11-08T16:29:36.000",
    "date_modified": "2024-11-08T16:29:36.000",
    "request_status": "Pending",
    "responsible_agency": "Department of Public Works",
    "final_address": "2401 St Ann St",
    "address_councildis": "D",
    "status": "Pending",
    "rowid": "1147381",
    "final_x": "3678006.47618",
    "final_y": "536449.586183",
    "longitude": "-90.07893120924889",
    "latitude": "29.969155983851625",
    "geocoded_column": {
      "latitude": "29.969155983851625",
      "longitude": "-90.07893120924889"
    }
  },
  {
    "service_request": "2024-1147380",
    "request_type": "Trash/Recycling",
    "request_reason": "Request a Large Item Pick Up",
    "date_created": "2024-11-08T16:25:11.000",
    "date_modified": "2024-11-08T16:25:12.000",
    "request_status": "Pending",
    "responsible_agency": "Department of Sanitation",
    "final_address": "2039 Burdette St",
    "address_councildis": "A",
    "status": "Assigned to Contractor",
    "contractor": "IV Waste",
    "rowid": "1147380",
    "final_x": "3664935.84672",
    "final_y": "529887.554433",
    "longitude": "-90.12042874048392",
    "latitude": "29.95149952042086",
    "geocoded_column": {
      "latitude": "29.95149952042086",
      "longitude": "-90.12042874048392"
    }
  },
  {
    "service_request": "2024-1147379",
    "request_type": "Trash/Recycling",
    "request_reason": "Request a Large Item Pick Up",
    "date_created": "2024-11-08T16:24:48.000",
    "date_modified": "2024-11-08T16:24:49.000",
    "request_status": "Pending",
    "responsible_agency": "Department of Sanitation",
    "final_address": "5531 Burgundy St",
    "address_councildis": "E",
    "status": "Assigned to Contractor",
    "contractor": "Waste Pro",
    "rowid": "1147379",
    "final_x": "3697765.892",
    "final_y": "533057.055236",
    "longitude": "-90.0166530147609",
    "latitude": "29.959218146197905",
    "geocoded_column": {
      "latitude": "29.959218146197905",
      "longitude": "-90.0166530147609"
    }
  },
  {
    "service_request": "2024-1147378",
    "request_type": "Trash/Recycling",
    "request_reason": "Repair Trash Cart",
    "date_created": "2024-11-08T16:20:57.000",
    "date_modified": "2024-11-08T16:20:58.000",
    "request_status": "Pending",
    "responsible_agency": "Department of Sanitation",
    "final_address": "3342 Blair St",
    "address_councildis": "C",
    "status": "Assigned to Contractor",
    "contractor": "Richards Disposal",
    "rowid": "1147378",
    "final_x": "3709463.97272",
    "final_y": "518318.787894",
    "longitude": "-89.9802632249701",
    "latitude": "29.918318373152776",
    "geocoded_column": {
      "latitude": "29.918318373152776",
      "longitude": "-89.9802632249701"
    }
  },
  {
    "service_request": "2024-1147377",
    "request_type": "Trash/Recycling",
    "request_reason": "Request a Large Item Pick Up",
    "date_created": "2024-11-08T16:18:26.000",
    "date_modified": "2024-11-08T16:18:26.000",
    "request_status": "Pending",
    "responsible_agency": "Department of Sanitation",
    "final_address": "2019 Tennessee St",
    "address_councildis": "E",
    "status": "Assigned to Contractor",
    "contractor": "Waste Pro",
    "rowid": "1147377",
    "final_x": "3696717.3521",
    "final_y": "537844.214857",
    "longitude": "-90.01979074073569",
    "latitude": "29.972414218783648",
    "geocoded_column": {
      "latitude": "29.972414218783648",
      "longitude": "-90.01979074073569"
    }
  },
  {
    "service_request": "2024-1147376",
    "request_type": "Trash/Recycling",
    "request_reason": "Repair Recycling Cart",
    "date_created": "2024-11-08T16:13:52.000",
    "date_modified": "2024-11-08T16:13:53.000",
    "request_status": "Pending",
    "responsible_agency": "Department of Sanitation",
    "final_address": "1727 Valence St",
    "address_councildis": "B",
    "status": "Pending",
    "rowid": "1147376",
    "final_x": "3669733.44673",
    "final_y": "521347.442809",
    "longitude": "-90.10556914539352",
    "latitude": "29.927876464521137",
    "geocoded_column": {
      "latitude": "29.927876464521137",
      "longitude": "-90.10556914539352"
    }
  },
  {
    "service_request": "2024-1147375",
    "request_type": "Trash/Recycling",
    "request_reason": "Repair Trash Cart",
    "date_created": "2024-11-08T16:13:33.000",
    "date_modified": "2024-11-08T16:13:34.000",
    "request_status": "Pending",
    "responsible_agency": "Department of Sanitation",
    "final_address": "1727 Valence St",
    "address_councildis": "B",
    "status": "Assigned to Contractor",
    "contractor": "IV Waste",
    "rowid": "1147375",
    "final_x": "3669733.44673",
    "final_y": "521347.442809",
    "longitude": "-90.10556914539352",
    "latitude": "29.927876464521137",
    "geocoded_column": {
      "latitude": "29.927876464521137",
      "longitude": "-90.10556914539352"
    }
  },
  {
    "service_request": "2024-1147374",
    "request_type": "Trash/Recycling",
    "request_reason": "Order Second Trash Cart",
    "date_created": "2024-11-08T16:06:05.000",
    "date_modified": "2024-11-08T16:06:05.000",
    "request_status": "Pending",
    "responsible_agency": "Department of Sanitation",
    "final_address": "7225 S Claiborne Ave",
    "address_councildis": "A",
    "status": "Assigned to Contractor",
    "contractor": "IV Waste",
    "rowid": "1147374",
    "final_x": "3666366.46132",
    "final_y": "530064.752385",
    "longitude": "-90.11590559374912",
    "latitude": "29.95194504013346",
    "geocoded_column": {
      "latitude": "29.95194504013346",
      "longitude": "-90.11590559374912"
    }
  },
  {
    "service_request": "2024-1147373",
    "request_type": "Trash/Recycling",
    "request_reason": "Request a Large Item Pick Up",
    "date_created": "2024-11-08T16:03:40.000",
    "date_modified": "2024-11-08T16:03:41.000",
    "request_status": "Pending",
    "responsible_agency": "Department of Sanitation",
    "final_address": "3128 General Taylor St",
    "address_councildis": "B",
    "status": "Assigned to Contractor",
    "contractor": "IV Waste",
    "rowid": "1147373",
    "final_x": "3671284.32334",
    "final_y": "526591.83859",
    "longitude": "-90.10049525589628",
    "latitude": "29.942251074951606",
    "geocoded_column": {
      "latitude": "29.942251074951606",
      "longitude": "-90.10049525589628"
    }
  },
  {
    "service_request": "2024-1147372",
    "request_type": "Mosquito, Termite & Rodent Control",
    "request_reason": "Non-Rodent Complaint (Mice, Possums, Snakes)",
    "date_created": "2024-11-08T15:53:42.000",
    "date_modified": "2024-11-08T15:55:51.000",
    "request_status": "Pending",
    "responsible_agency": "Mosquito, Termite & Rodent Control Board",
    "final_address": "4842 Piety Dr",
    "address_councildis": "D",
    "status": "Pending",
    "rowid": "1147372",
    "final_x": "3691512.74588",
    "final_y": "551536.203797",
    "longitude": "-90.035738051102",
    "latitude": "30.01022526002233",
    "geocoded_column": {
      "latitude": "30.01022526002233",
      "longitude": "-90.035738051102"
    }
  },
  {
    "service_request": "2024-1147371",
    "request_type": "Trash/Recycling",
    "request_reason": "Request a Large Item Pick Up",
    "date_created": "2024-11-08T15:52:13.000",
    "date_modified": "2024-11-08T15:52:14.000",
    "request_status": "Pending",
    "responsible_agency": "Department of Sanitation",
    "final_address": "7601 Shorewood Blvd",
    "address_councildis": "E",
    "status": "Assigned to Contractor",
    "contractor": "Waste Pro",
    "rowid": "1147371",
    "final_x": "3719939.36018",
    "final_y": "572776.319209",
    "longitude": "-89.94511595136021",
    "latitude": "30.06771114059429",
    "geocoded_column": {
      "latitude": "30.06771114059429",
      "longitude": "-89.94511595136021"
    }
  },
  {
    "service_request": "2024-1147370",
    "request_type": "Trash/Recycling",
    "request_reason": "Request a Large Item Pick Up",
    "date_created": "2024-11-08T15:49:19.000",
    "date_modified": "2024-11-08T15:49:45.000",
    "request_status": "Pending",
    "responsible_agency": "Department of Sanitation",
    "final_address": "7095 Edgefield Dr",
    "address_councildis": "E",
    "status": "Assigned to Contractor",
    "contractor": "Waste Pro",
    "rowid": "1147370",
    "final_x": "3718586.25023",
    "final_y": "569528.63703",
    "longitude": "-89.94951732889695",
    "latitude": "30.05882637719464",
    "geocoded_column": {
      "latitude": "30.05882637719464",
      "longitude": "-89.94951732889695"
    }
  },
  {
    "service_request": "2024-1147369",
    "request_type": "Trash/Recycling",
    "request_reason": "Request a Large Item Pick Up",
    "date_created": "2024-11-08T15:47:43.000",
    "date_modified": "2024-11-08T15:47:44.000",
    "request_status": "Pending",
    "responsible_agency": "Department of Sanitation",
    "final_address": "116 Olivier St",
    "address_councildis": "C",
    "status": "Assigned to Contractor",
    "contractor": "Richards Disposal",
    "rowid": "1147369",
    "final_x": "3687236.55734",
    "final_y": "531280.16653",
    "longitude": "-90.04996486557859",
    "latitude": "29.95466080085363",
    "geocoded_column": {
      "latitude": "29.95466080085363",
      "longitude": "-90.04996486557859"
    }
  },
  {
    "service_request": "2024-1147368",
    "request_type": "Abandoned Vehicles",
    "request_reason": "Abandoned/Junk Vehicles",
    "date_created": "2024-11-08T15:45:47.000",
    "date_modified": "2024-11-08T15:45:47.000",
    "request_status": "Pending",
    "responsible_agency": "Department of Public Works",
    "final_address": "3726 Earhart Blvd",
    "address_councildis": "B",
    "status": "Pending",
    "rowid": "1147368",
    "final_x": "3673112.63835",
    "final_y": "530834.480194",
    "longitude": "-90.0945780396229",
    "latitude": "29.95386272605342",
    "geocoded_column": {
      "latitude": "29.95386272605342",
      "longitude": "-90.0945780396229"
    }
  },
  {
    "service_request": "2024-1147367",
    "request_type": "Abandoned Vehicles",
    "request_reason": "Abandoned/Junk Vehicles",
    "date_created": "2024-11-08T15:44:22.000",
    "date_modified": "2024-11-08T15:44:22.000",
    "request_status": "Pending",
    "responsible_agency": "Department of Public Works",
    "final_address": "3726 Earhart Blvd",
    "address_councildis": "B",
    "status": "Pending",
    "rowid": "1147367",
    "final_x": "3673112.63835",
    "final_y": "530834.480194",
    "longitude": "-90.0945780396229",
    "latitude": "29.95386272605342",
    "geocoded_column": {
      "latitude": "29.95386272605342",
      "longitude": "-90.0945780396229"
    }
  },
  {
    "service_request": "2024-1147366",
    "request_type": "Trash/Recycling",
    "request_reason": "Missed Trash Pick-Up",
    "date_created": "2024-11-08T15:44:13.000",
    "date_modified": "2024-11-08T16:55:22.000",
    "case_close_date": "2024-11-08T10:55:22.000",
    "request_status": "Closed",
    "responsible_agency": "Department of Sanitation",
    "final_address": "2547 St Peter St",
    "address_councildis": "D",
    "status": "Invalid Request",
    "contractor": "IV Waste",
    "contractor_action": "Invalid Request",
    "rowid": "1147366",
    "final_x": "3677185.00923",
    "final_y": "536509.853703",
    "longitude": "-90.08152338344668",
    "latitude": "29.969346400987504",
    "geocoded_column": {
      "latitude": "29.969346400987504",
      "longitude": "-90.08152338344668"
    }
  },
  {
    "service_request": "2024-1147365",
    "request_type": "Trash/Recycling",
    "request_reason": "Order Trash Cart",
    "date_created": "2024-11-08T15:43:05.000",
    "date_modified": "2024-11-08T15:43:06.000",
    "request_status": "Pending",
    "responsible_agency": "Department of Sanitation",
    "final_address": "338 Audubon St",
    "address_councildis": "A",
    "status": "Assigned to Contractor",
    "contractor": "IV Waste",
    "rowid": "1147365",
    "final_x": "3661757.44966",
    "final_y": "522429.27289",
    "longitude": "-90.13071179052059",
    "latitude": "29.931083743035742",
    "geocoded_column": {
      "latitude": "29.931083743035742",
      "longitude": "-90.13071179052059"
    }
  },
  {
    "service_request": "2024-1147364",
    "request_type": "Trash/Recycling",
    "request_reason": "Replace Trash Cart",
    "date_created": "2024-11-08T15:40:43.000",
    "date_modified": "2024-11-08T15:40:44.000",
    "request_status": "Pending",
    "responsible_agency": "Department of Sanitation",
    "final_address": "13543 N Lemans St",
    "address_councildis": "E",
    "status": "Assigned to Contractor",
    "contractor": "Waste Pro",
    "rowid": "1147364",
    "final_x": "3725755.72902",
    "final_y": "563197.877024",
    "longitude": "-89.92710115278904",
    "latitude": "30.04117941091065",
    "geocoded_column": {
      "latitude": "30.04117941091065",
      "longitude": "-89.92710115278904"
    }
  },
  {
    "service_request": "2024-1147363",
    "request_type": "Trash/Recycling",
    "request_reason": "Request a Large Item Pick Up",
    "date_created": "2024-11-08T15:37:54.000",
    "date_modified": "2024-11-08T15:37:55.000",
    "request_status": "Pending",
    "responsible_agency": "Department of Sanitation",
    "final_address": "1624 Farragut St",
    "address_councildis": "C",
    "status": "Assigned to Contractor",
    "contractor": "Richards Disposal",
    "rowid": "1147363",
    "final_x": "3692358.29661",
    "final_y": "525172.041469",
    "longitude": "-90.03401116275724",
    "latitude": "29.937706835375035",
    "geocoded_column": {
      "latitude": "29.937706835375035",
      "longitude": "-90.03401116275724"
    }
  },
  {
    "service_request": "2024-1147362",
    "request_type": "Trash/Recycling",
    "request_reason": "Replace Trash Cart",
    "date_created": "2024-11-08T15:37:01.000",
    "date_modified": "2024-11-08T15:37:04.000",
    "request_status": "Pending",
    "responsible_agency": "Department of Sanitation",
    "final_address": "13534 N Lemans St",
    "address_councildis": "E",
    "status": "Assigned to Contractor",
    "contractor": "Waste Pro",
    "rowid": "1147362",
    "final_x": "3725750.47225",
    "final_y": "563080.47664",
    "longitude": "-89.92712231912436",
    "latitude": "30.040856785853805",
    "geocoded_column": {
      "latitude": "30.040856785853805",
      "longitude": "-89.92712231912436"
    }
  },
  {
    "service_request": "2024-1147361",
    "request_type": "Abandoned Vehicles",
    "request_reason": "Abandoned/Junk Vehicles",
    "date_created": "2024-11-08T15:36:22.000",
    "date_modified": "2024-11-08T15:36:22.000",
    "request_status": "Pending",
    "responsible_agency": "Department of Public Works",
    "final_address": "3726 Earhart Blvd",
    "address_councildis": "B",
    "status": "Pending",
    "rowid": "1147361",
    "final_x": "3673112.63835",
    "final_y": "530834.480194",
    "longitude": "-90.0945780396229",
    "latitude": "29.95386272605342",
    "geocoded_column": {
      "latitude": "29.95386272605342",
      "longitude": "-90.0945780396229"
    }
  },
  {
    "service_request": "2024-1147360",
    "request_type": "Trash/Recycling",
    "request_reason": "Order Trash Cart",
    "date_created": "2024-11-08T15:23:26.000",
    "date_modified": "2024-11-08T15:23:27.000",
    "request_status": "Pending",
    "responsible_agency": "Department of Sanitation",
    "final_address": "2017 Marais St B",
    "address_councildis": "C",
    "status": "Assigned to Contractor",
    "contractor": "IV Waste",
    "rowid": "1147360",
    "final_x": "3684335.20028",
    "final_y": "536643.414535",
    "longitude": "-90.05893786482703",
    "latitude": "29.96949692151479",
    "geocoded_column": {
      "latitude": "29.96949692151479",
      "longitude": "-90.05893786482703"
    }
  },
  {
    "service_request": "2024-1147359",
    "request_type": "Trash/Recycling",
    "request_reason": "Repair Recycling Cart",
    "date_created": "2024-11-08T15:17:33.000",
    "date_modified": "2024-11-08T15:17:35.000",
    "request_status": "Pending",
    "responsible_agency": "Department of Sanitation",
    "final_address": "2800 Hyman Pl",
    "address_councildis": "C",
    "status": "Pending",
    "rowid": "1147359",
    "final_x": "3701086.47633",
    "final_y": "520879.843705",
    "longitude": "-90.00661271140157",
    "latitude": "29.925629752545348",
    "geocoded_column": {
      "latitude": "29.925629752545348",
      "longitude": "-90.00661271140157"
    }
  },
  {
    "service_request": "2024-1147358",
    "request_type": "Trash/Recycling",
    "request_reason": "Repair Trash Cart",
    "date_created": "2024-11-08T15:17:00.000",
    "date_modified": "2024-11-08T15:17:01.000",
    "request_status": "Pending",
    "responsible_agency": "Department of Sanitation",
    "final_address": "2800 Hyman Pl",
    "address_councildis": "C",
    "status": "Assigned to Contractor",
    "contractor": "Richards Disposal",
    "rowid": "1147358",
    "final_x": "3701086.47633",
    "final_y": "520879.843705",
    "longitude": "-90.00661271140157",
    "latitude": "29.925629752545348",
    "geocoded_column": {
      "latitude": "29.925629752545348",
      "longitude": "-90.00661271140157"
    }
  },
  {
    "service_request": "2024-1147357",
    "request_type": "Trash/Recycling",
    "request_reason": "Request a Large Item Pick Up",
    "date_created": "2024-11-08T15:15:13.000",
    "date_modified": "2024-11-08T15:15:14.000",
    "request_status": "Pending",
    "responsible_agency": "Department of Sanitation",
    "final_address": "10220 Brookfield Dr",
    "address_councildis": "E",
    "status": "Assigned to Contractor",
    "contractor": "Waste Pro",
    "rowid": "1147357",
    "final_x": "3710276.59096",
    "final_y": "562967.53456",
    "longitude": "-89.97602884490662",
    "latitude": "30.041059313955582",
    "geocoded_column": {
      "latitude": "30.041059313955582",
      "longitude": "-89.97602884490662"
    }
  },
  {
    "service_request": "2024-1147356",
    "request_type": "Health Related Request",
    "request_reason": "Homeless Encampment Complaint",
    "date_created": "2024-11-08T15:15:07.000",
    "date_modified": "2024-11-08T15:15:08.000",
    "request_status": "Pending",
    "responsible_agency": "Health Department",
    "final_address": "900 BLK Homer Plessy Way",
    "address_councildis": "C",
    "status": "Pending",
    "rowid": "1147356",
    "final_x": "3687917.94532",
    "final_y": "535617.87409",
    "longitude": "-90.04765962860381",
    "latitude": "29.966566991568396",
    "geocoded_column": {
      "latitude": "29.966566991568396",
      "longitude": "-90.04765962860381"
    }
  },
  {
    "service_request": "2024-1147355",
    "request_type": "Trash/Recycling",
    "request_reason": "Illegal Dumping",
    "date_created": "2024-11-08T15:13:29.000",
    "date_modified": "2024-11-08T15:13:29.000",
    "request_status": "Pending",
    "responsible_agency": "Department of Sanitation",
    "final_address": "2805 Carondelet St",
    "address_councildis": "B",
    "status": "Pending",
    "rowid": "1147355",
    "final_x": "3675614.71253",
    "final_y": "522855.212091",
    "longitude": "-90.08695157086846",
    "latitude": "29.931847752664915",
    "geocoded_column": {
      "latitude": "29.931847752664915",
      "longitude": "-90.08695157086846"
    }
  },
  {
    "service_request": "2024-1147354",
    "request_type": "Abandoned Vehicles",
    "request_reason": "Abandoned/Junk Vehicles",
    "date_created": "2024-11-08T15:12:52.000",
    "date_modified": "2024-11-08T15:12:52.000",
    "request_status": "Pending",
    "responsible_agency": "Department of Public Works",
    "final_address": "4003 Orleans Ave",
    "address_councildis": "A",
    "status": "Pending",
    "rowid": "1147354",
    "final_x": "3673038.75169",
    "final_y": "539998.794635",
    "longitude": "-90.09449848733078",
    "latitude": "29.979063704512573",
    "geocoded_column": {
      "latitude": "29.979063704512573",
      "longitude": "-90.09449848733078"
    }
  },
  {
    "service_request": "2024-1147353",
    "request_type": "Roads and Streets",
    "request_reason": "Pothole",
    "date_created": "2024-11-08T15:04:39.000",
    "date_modified": "2024-11-08T15:04:39.000",
    "request_status": "Pending",
    "responsible_agency": "Department of Public Works",
    "final_address": "3212 S Carrollton Ave",
    "address_councildis": "A",
    "status": "Pending",
    "rowid": "1147353",
    "final_x": "3666846.95655",
    "final_y": "533740.885061",
    "longitude": "-90.11426491812642",
    "latitude": "29.962039154420996",
    "geocoded_column": {
      "latitude": "29.962039154420996",
      "longitude": "-90.11426491812642"
    }
  },
  {
    "service_request": "2024-1147352",
    "request_type": "Street and Traffic Signs",
    "request_reason": "Stop Sign Missing or Damaged",
    "date_created": "2024-11-08T15:04:27.000",
    "date_modified": "2024-11-08T15:04:28.000",
    "request_status": "Pending",
    "responsible_agency": "Department of Public Works",
    "final_address": "LAKE MARINA AVE & REGENT ST",
    "address_councildis": "A",
    "status": "Pending",
    "rowid": "1147352",
    "final_x": "3666253.7",
    "final_y": "555428.48",
    "longitude": "-90.11541039343318",
    "latitude": "30.021689982846205",
    "geocoded_column": {
      "latitude": "30.021689982846205",
      "longitude": "-90.11541039343318"
    }
  },
  {
    "service_request": "2024-1147351",
    "request_type": "Drainage",
    "request_reason": "Catch Basin Clogged",
    "date_created": "2024-11-08T15:00:53.000",
    "date_modified": "2024-11-08T15:00:54.000",
    "request_status": "Pending",
    "responsible_agency": "Department of Public Works",
    "final_address": "6182 Milne Blvd",
    "address_councildis": "A",
    "status": "Pending",
    "rowid": "1147351",
    "final_x": "3667097.04711",
    "final_y": "548833.563219",
    "longitude": "-90.11296756508274",
    "latitude": "30.003531598479704",
    "geocoded_column": {
      "latitude": "30.003531598479704",
      "longitude": "-90.11296756508274"
    }
  },
  {
    "service_request": "2024-1147350",
    "request_type": "Trash/Recycling",
    "request_reason": "Request a Large Item Pick Up",
    "date_created": "2024-11-08T14:57:04.000",
    "date_modified": "2024-11-08T14:57:41.000",
    "request_status": "Pending",
    "responsible_agency": "Department of Sanitation",
    "final_address": "1028 Fats Domino Ave",
    "address_councildis": "E",
    "status": "Assigned to Contractor",
    "contractor": "Waste Pro",
    "rowid": "1147350",
    "final_x": "3697902.87171",
    "final_y": "533567.422917",
    "longitude": "-90.01620194319896",
    "latitude": "29.960617147500287",
    "geocoded_column": {
      "latitude": "29.960617147500287",
      "longitude": "-90.01620194319896"
    }
  },
  {
    "service_request": "2024-1147349",
    "request_type": "Abandoned Vehicles",
    "request_reason": "Abandoned/Junk Vehicles",
    "date_created": "2024-11-08T14:54:14.000",
    "date_modified": "2024-11-08T14:54:14.000",
    "request_status": "Pending",
    "responsible_agency": "Department of Public Works",
    "final_address": "719 Cherokee St",
    "address_councildis": "A",
    "status": "Pending",
    "rowid": "1147349",
    "final_x": "3662496.51616",
    "final_y": "525750.712829",
    "longitude": "-90.12826837070908",
    "latitude": "29.940195303238003",
    "geocoded_column": {
      "latitude": "29.940195303238003",
      "longitude": "-90.12826837070908"
    }
  },
  {
    "service_request": "2024-1147348",
    "request_type": "Trash/Recycling",
    "request_reason": "Illegal Dumping",
    "date_created": "2024-11-08T14:53:56.000",
    "date_modified": "2024-11-08T14:56:03.000",
    "request_status": "Pending",
    "responsible_agency": "Department of Sanitation",
    "final_address": "2829 N Robertson St",
    "address_councildis": "C",
    "status": "Pending",
    "rowid": "1147348",
    "final_x": "3688310.98153",
    "final_y": "537790.71828",
    "longitude": "-90.04634135661492",
    "latitude": "29.972529420095047",
    "geocoded_column": {
      "latitude": "29.972529420095047",
      "longitude": "-90.04634135661492"
    }
  },
  {
    "service_request": "2024-1147347",
    "request_type": "Abandoned Vehicles",
    "request_reason": "Abandoned/Junk Vehicles",
    "date_created": "2024-11-08T14:51:33.000",
    "date_modified": "2024-11-08T14:51:33.000",
    "request_status": "Pending",
    "responsible_agency": "Department of Public Works",
    "final_address": "719 Cherokee St",
    "address_councildis": "A",
    "status": "Pending",
    "rowid": "1147347",
    "final_x": "3662496.51616",
    "final_y": "525750.712829",
    "longitude": "-90.12826837070908",
    "latitude": "29.940195303238003",
    "geocoded_column": {
      "latitude": "29.940195303238003",
      "longitude": "-90.12826837070908"
    }
  },
  {
    "service_request": "2024-1147346",
    "request_type": "Trash/Recycling",
    "request_reason": "Return Recycling Cart",
    "date_created": "2024-11-08T14:50:16.000",
    "date_modified": "2024-11-08T14:50:17.000",
    "request_status": "Pending",
    "responsible_agency": "Department of Sanitation",
    "final_address": "2297 Mercedes Blvd",
    "address_councildis": "C",
    "status": "Pending",
    "rowid": "1147346",
    "final_x": "3698003.70775",
    "final_y": "522476.546106",
    "longitude": "-90.01628608156584",
    "latitude": "29.930117923541175",
    "geocoded_column": {
      "latitude": "29.930117923541175",
      "longitude": "-90.01628608156584"
    }
  },
  {
    "service_request": "2024-1147345",
    "request_type": "Trash/Recycling",
    "request_reason": "Request a Large Item Pick Up",
    "date_created": "2024-11-08T14:49:43.000",
    "date_modified": "2024-11-08T14:49:44.000",
    "request_status": "Pending",
    "responsible_agency": "Department of Sanitation",
    "final_address": "7548 Jonlee Dr",
    "address_councildis": "E",
    "status": "Assigned to Contractor",
    "contractor": "Waste Pro",
    "rowid": "1147345",
    "final_x": "3717243.72543",
    "final_y": "570197.845479",
    "longitude": "-89.95373541311162",
    "latitude": "30.060710935130935",
    "geocoded_column": {
      "latitude": "30.060710935130935",
      "longitude": "-89.95373541311162"
    }
  },
  {
    "service_request": "2024-1147344",
    "request_type": "Trash/Recycling",
    "request_reason": "Request a Large Item Pick Up",
    "date_created": "2024-11-08T14:49:10.000",
    "date_modified": "2024-11-08T14:49:11.000",
    "request_status": "Pending",
    "responsible_agency": "Department of Sanitation",
    "final_address": "7101 Read Blvd",
    "address_councildis": "E",
    "status": "Assigned to Contractor",
    "contractor": "Waste Pro",
    "rowid": "1147344",
    "final_x": "3709730.78443",
    "final_y": "562564.919456",
    "longitude": "-89.97776882065988",
    "latitude": "30.039970049087138",
    "geocoded_column": {
      "latitude": "30.039970049087138",
      "longitude": "-89.97776882065988"
    }
  },
  {
    "service_request": "2024-1147343",
    "request_type": "Trash/Recycling",
    "request_reason": "Illegal Dumping",
    "date_created": "2024-11-08T14:47:44.000",
    "date_modified": "2024-11-08T14:47:45.000",
    "request_status": "Pending",
    "responsible_agency": "Department of Sanitation",
    "final_address": "N JOHNSON ST & TOURO ST",
    "address_councildis": "D",
    "status": "Pending",
    "rowid": "1147343",
    "final_x": "3683967.4",
    "final_y": "539555.68",
    "longitude": "-90.0599972016873",
    "latitude": "29.977515880252056",
    "geocoded_column": {
      "latitude": "29.977515880252056",
      "longitude": "-90.0599972016873"
    }
  },
  {
    "service_request": "2024-1147342",
    "request_type": "Trash/Recycling",
    "request_reason": "Repair Trash Cart",
    "date_created": "2024-11-08T14:45:27.000",
    "date_modified": "2024-11-08T14:45:28.000",
    "request_status": "Pending",
    "responsible_agency": "Department of Sanitation",
    "final_address": "2297 Mercedes Blvd",
    "address_councildis": "C",
    "status": "Assigned to Contractor",
    "contractor": "Richards Disposal",
    "rowid": "1147342",
    "final_x": "3698003.70775",
    "final_y": "522476.546106",
    "longitude": "-90.01628608156584",
    "latitude": "29.930117923541175",
    "geocoded_column": {
      "latitude": "29.930117923541175",
      "longitude": "-90.01628608156584"
    }
  },
  {
    "service_request": "2024-1147341",
    "request_type": "Abandoned Vehicles",
    "request_reason": "Abandoned/Junk Vehicles",
    "date_created": "2024-11-08T14:44:50.000",
    "date_modified": "2024-11-08T14:44:50.000",
    "request_status": "Pending",
    "responsible_agency": "Department of Public Works",
    "final_address": "719 Cherokee St",
    "address_councildis": "A",
    "status": "Pending",
    "rowid": "1147341",
    "final_x": "3662496.51616",
    "final_y": "525750.712829",
    "longitude": "-90.12826837070908",
    "latitude": "29.940195303238003",
    "geocoded_column": {
      "latitude": "29.940195303238003",
      "longitude": "-90.12826837070908"
    }
  },
  {
    "service_request": "2024-1147340",
    "request_type": "Traffic Signals",
    "request_reason": "Traffic Signal Malfunctioning or Damaged",
    "date_created": "2024-11-08T14:40:00.000",
    "date_modified": "2024-11-08T14:40:00.000",
    "request_status": "Pending",
    "responsible_agency": "Department of Public Works",
    "final_address": "1531 Newton St",
    "address_councildis": "C",
    "status": "Pending",
    "rowid": "1147340",
    "final_x": "3690075.55267",
    "final_y": "527819.492799",
    "longitude": "-90.04112367867783",
    "latitude": "29.945057401692942",
    "geocoded_column": {
      "latitude": "29.945057401692942",
      "longitude": "-90.04112367867783"
    }
  },
  {
    "service_request": "2024-1147339",
    "request_type": "Trash/Recycling",
    "request_reason": "Order Second Trash Cart",
    "date_created": "2024-11-08T14:39:40.000",
    "date_modified": "2024-11-08T14:39:41.000",
    "request_status": "Pending",
    "responsible_agency": "Department of Sanitation",
    "final_address": "8608 Marks St",
    "address_councildis": "A",
    "status": "Assigned to Contractor",
    "contractor": "IV Waste",
    "rowid": "1147339",
    "final_x": "3667466.20359",
    "final_y": "537236.656456",
    "longitude": "-90.11219177811225",
    "latitude": "29.97163323545828",
    "geocoded_column": {
      "latitude": "29.97163323545828",
      "longitude": "-90.11219177811225"
    }
  },
  {
    "service_request": "2024-1147338",
    "request_type": "Trash/Recycling",
    "request_reason": "Order Trash Cart",
    "date_created": "2024-11-08T14:39:30.000",
    "date_modified": "2024-11-08T14:39:31.000",
    "request_status": "Pending",
    "responsible_agency": "Department of Sanitation",
    "final_address": "8608 Marks St",
    "address_councildis": "A",
    "status": "Assigned to Contractor",
    "contractor": "IV Waste",
    "rowid": "1147338",
    "final_x": "3667466.20359",
    "final_y": "537236.656456",
    "longitude": "-90.11219177811225",
    "latitude": "29.97163323545828",
    "geocoded_column": {
      "latitude": "29.97163323545828",
      "longitude": "-90.11219177811225"
    }
  },
  {
    "service_request": "2024-1147337",
    "request_type": "Roads and Streets",
    "request_reason": "Pothole",
    "date_created": "2024-11-08T14:39:10.000",
    "date_modified": "2024-11-08T14:39:11.000",
    "request_status": "Pending",
    "responsible_agency": "Department of Public Works",
    "final_address": "1000 BLK Orleans Ave",
    "address_councildis": "C",
    "status": "Pending",
    "rowid": "1147337",
    "final_x": "3681643.84238",
    "final_y": "533357.815946",
    "longitude": "-90.06755201339233",
    "latitude": "29.960544683294092",
    "geocoded_column": {
      "latitude": "29.960544683294092",
      "longitude": "-90.06755201339233"
    }
  },
  {
    "service_request": "2024-1147336",
    "request_type": "Trash/Recycling",
    "request_reason": "Order Second Trash Cart",
    "date_created": "2024-11-08T14:39:03.000",
    "date_modified": "2024-11-08T14:39:04.000",
    "request_status": "Pending",
    "responsible_agency": "Department of Sanitation",
    "final_address": "8610 Marks St",
    "address_councildis": "A",
    "status": "Assigned to Contractor",
    "contractor": "IV Waste",
    "rowid": "1147336",
    "final_x": "3667457.17556",
    "final_y": "537244.988552",
    "longitude": "-90.11222000966372",
    "latitude": "29.97165641049133",
    "geocoded_column": {
      "latitude": "29.97165641049133",
      "longitude": "-90.11222000966372"
    }
  },
  {
    "service_request": "2024-1147335",
    "request_type": "Trash/Recycling",
    "request_reason": "Order Trash Cart",
    "date_created": "2024-11-08T14:38:50.000",
    "date_modified": "2024-11-08T14:38:52.000",
    "request_status": "Pending",
    "responsible_agency": "Department of Sanitation",
    "final_address": "8610 Marks St",
    "address_councildis": "A",
    "status": "Assigned to Contractor",
    "contractor": "IV Waste",
    "rowid": "1147335",
    "final_x": "3667457.17556",
    "final_y": "537244.988552",
    "longitude": "-90.11222000966372",
    "latitude": "29.97165641049133",
    "geocoded_column": {
      "latitude": "29.97165641049133",
      "longitude": "-90.11222000966372"
    }
  },
  {
    "service_request": "2024-1147334",
    "request_type": "Trash/Recycling",
    "request_reason": "Repair Trash Cart",
    "date_created": "2024-11-08T14:34:49.000",
    "date_modified": "2024-11-08T14:34:50.000",
    "request_status": "Pending",
    "responsible_agency": "Department of Sanitation",
    "final_address": "730 Louisa St",
    "address_councildis": "C",
    "status": "Assigned to Contractor",
    "contractor": "IV Waste",
    "rowid": "1147334",
    "final_x": "3689209.69327",
    "final_y": "534620.730502",
    "longitude": "-90.0436157573203",
    "latitude": "29.963785278658253",
    "geocoded_column": {
      "latitude": "29.963785278658253",
      "longitude": "-90.0436157573203"
    }
  },
  {
    "service_request": "2024-1147333",
    "request_type": "Trash/Recycling",
    "request_reason": "Missed Trash Pick-Up",
    "date_created": "2024-11-08T14:33:15.000",
    "date_modified": "2024-11-08T14:33:16.000",
    "request_status": "Pending",
    "responsible_agency": "Department of Sanitation",
    "final_address": "214 Cambridge Ct",
    "address_councildis": "C",
    "status": "Assigned to Contractor",
    "contractor": "Richards Disposal",
    "rowid": "1147333",
    "final_x": "3706632.73489",
    "final_y": "518460.36607",
    "longitude": "-89.98919460640083",
    "latitude": "29.918799289450572",
    "geocoded_column": {
      "latitude": "29.918799289450572",
      "longitude": "-89.98919460640083"
    }
  },