[
  {
    "service_request": "2022-942047",
    "request_type": "Roads/Drainage",
    "request_reason": "Road Shoulder Repair",
    "date_created": "2022-11-10T23:55:27.000",
    "date_modified": "2022-11-10T23:55:27.000",
    "request_status": "Pending",
    "responsible_agency": "Department of Public Works",
    "final_address": "2509 Orleans Ave",
    "address_councildis": "D",
    "status": "Pending",
    "rowid": "942047",
    "final_x": "3677540.12482",
    "final_y": "536516.036615",
    "longitude": "-90.08040168656369",
    "latitude": "29.969352729607465",
    "geocoded_column": {
      "latitude": "29.969352729607465",
      "longitude": "-90.08040168656369"
    }
  },
  {
    "service_request": "2022-942046",
    "request_type": "Mosquito, Termite & Rodent Control",
    "request_reason": "Mosquito Complaint",
    "date_created": "2022-11-10T23:52:42.000",
    "date_modified": "2022-11-10T23:52:43.000",
    "request_status": "Pending",
    "responsible_agency": "Mosquito, Termite & Rodent Control Board",
    "final_address": "4967 Brittany Ct",
    "address_councildis": "E",
    "status": "Pending",
    "rowid": "942046",
    "final_x": "3727130.80051",
    "final_y": "561486.925791",
    "longitude": "-89.92282206941199",
    "latitude": "30.0364285309876",
    "geocoded_column": {
      "latitude": "30.0364285309876",
      "longitude": "-89.92282206941199"
    }
  },
  {
    "service_request": "2022-942045",
    "request_type": "Trash/Recycling",
    "request_reason": "Order Recycling Cart",
    "date_created": "2022-11-10T23:51:03.000",
    "date_modified": "2022-11-10T23:51:03.000",
    "request_status": "Pending",
    "responsible_agency": "Department of Sanitation",
    "final_address": "201 Spencer Ave",
    "address_councildis": "A",
    "status": "Pending",
    "rowid": "942045",
    "final_x": "3665971.30407",
    "final_y": "553676.105303",
    "longitude": "-90.1163615012446",
    "latitude": "30.016879820432823",
    "geocoded_column": {
      "latitude": "30.016879820432823",
      "longitude": "-90.1163615012446"
    }
  },
  {
    "service_request": "2022-942043",
    "request_type": "Trash/Recycling",
    "request_reason": "Order Recycling Cart",
    "date_created": "2022-11-10T23:41:13.000",
    "date_modified": "2022-11-10T23:41:13.000",
    "request_status": "Pending",
    "responsible_agency": "Department of Sanitation",
    "final_address": "4811 Bright Dr",
    "address_councildis": "E",
    "status": "Pending",
    "rowid": "942043",
    "final_x": "3715878.18277",
    "final_y": "557132.580314",
    "longitude": "-89.95854731127596",
    "latitude": "30.024831894519206",
    "geocoded_column": {
      "latitude": "30.024831894519206",
      "longitude": "-89.95854731127596"
    }
  },
  {
    "service_request": "2022-942042",
    "request_type": "Trash/Recycling",
    "request_reason": "Missed Trash Pick-Up",
    "date_created": "2022-11-10T23:29:43.000",
    "date_modified": "2022-11-10T23:29:44.000",
    "request_status": "Pending",
    "responsible_agency": "Department of Sanitation",
    "final_address": "5419 Press Dr",
    "address_councildis": "D",
    "status": "Assigned to Contractor",
    "contractor": "IV Waste",
    "rowid": "942042",
    "final_x": "3689407.23171",
    "final_y": "553273.450967",
    "longitude": "-90.04232829446875",
    "latitude": "30.015067442012434",
    "geocoded_column": {
      "latitude": "30.015067442012434",
      "longitude": "-90.04232829446875"
    }
  },
  {
    "service_request": "2022-942041",
    "request_type": "Trash/Recycling",
    "request_reason": "MIssed Recycling Pick-Up",
    "date_created": "2022-11-10T22:37:31.000",
    "date_modified": "2022-11-10T22:37:32.000",
    "request_status": "Pending",
    "responsible_agency": "Department of Sanitation",
    "final_address": "5371 Magazine St",
    "address_councildis": "B",
    "status": "Assigned to Contractor",
    "contractor": "Richards Disposal",
    "rowid": "942041",
    "final_x": "3666866.22285",
    "final_y": "518795.864503",
    "longitude": "-90.1147059983276",
    "latitude": "29.92094459413221",
    "geocoded_column": {
      "latitude": "29.92094459413221",
      "longitude": "-90.1147059983276"
    }
  },
  {
    "service_request": "2022-942040",
    "request_type": "Health Related Questions",
    "request_reason": "Noise Ordinance Complaint",
    "date_created": "2022-11-10T22:24:42.000",
    "date_modified": "2022-11-10T22:24:42.000",
    "request_status": "Pending",
    "responsible_agency": "Health Department",
    "final_address": "1108 Bordeaux St",
    "address_councildis": "B",
    "status": "Pending",
    "rowid": "942040",
    "final_x": "3669459.86759",
    "final_y": "519466.734071",
    "longitude": "-90.10649633962842",
    "latitude": "29.922713171051488",
    "geocoded_column": {
      "latitude": "29.922713171051488",
      "longitude": "-90.10649633962842"
    }
  },
  {
    "service_request": "2022-942039",
    "request_type": "Trash/Recycling",
    "request_reason": "Request a Large Item Pick Up",
    "date_created": "2022-11-10T22:14:35.000",
    "date_modified": "2022-11-10T22:14:36.000",
    "request_status": "Pending",
    "responsible_agency": "Department of Sanitation",
    "final_address": "9408 Palm St",
    "address_councildis": "A",
    "status": "Assigned to Contractor",
    "contractor": "Richards Disposal",
    "rowid": "942039",
    "final_x": "3664198.11546",
    "final_y": "537835.589001",
    "longitude": "-90.12249295035443",
    "latitude": "29.97337546338181",
    "geocoded_column": {
      "latitude": "29.97337546338181",
      "longitude": "-90.12249295035443"
    }
  },
  {
    "service_request": "2022-942038",
    "request_type": "Trash/Recycling",
    "request_reason": "Order Recycling Cart",
    "date_created": "2022-11-10T21:58:31.000",
    "date_modified": "2022-11-10T21:58:31.000",
    "request_status": "Pending",
    "responsible_agency": "Department of Sanitation",
    "final_address": "831 St Peter St Unit 3",
    "address_councildis": "C",
    "status": "Pending",
    "rowid": "942038",
    "final_x": "3682082.52559",
    "final_y": "532865.393156",
    "longitude": "-90.06618393686006",
    "latitude": "29.959177356449874",
    "geocoded_column": {
      "latitude": "29.959177356449874",
      "longitude": "-90.06618393686006"
    }
  },
  {
    "service_request": "2022-942037",
    "request_type": "Trash/Recycling",
    "request_reason": "MIssed Recycling Pick-Up",
    "date_created": "2022-11-10T21:26:28.000",
    "date_modified": "2022-11-10T21:26:29.000",
    "request_status": "Pending",
    "responsible_agency": "Department of Sanitation",
    "final_address": "2223 Soniat St",
    "address_councildis": "B",
    "status": "Assigned to Contractor",
    "contractor": "Richards Disposal",
    "rowid": "942037",
    "final_x": "3668552.24711",
    "final_y": "523757.745531",
    "longitude": "-90.1092166427944",
    "latitude": "29.934538775679428",
    "geocoded_column": {
      "latitude": "29.934538775679428",
      "longitude": "-90.1092166427944"
    }
  },
  {
    "service_request": "2022-942036",
    "request_type": "Traffic Signals/Signs/Striping/Streetlights",
    "request_reason": "Street Light Outage/Malfunction",
    "date_created": "2022-11-10T21:10:00.000",
    "date_modified": "2022-11-10T21:10:01.000",
    "request_status": "Pending",
    "responsible_agency": "Department of Public Works",
    "final_address": "328 Olivier St",
    "address_councildis": "C",
    "status": "Pending",
    "contractor": "Legacy Professional Services",
    "rowid": "942036",
    "final_x": "3687282.08956",
    "final_y": "530539.589378",
    "longitude": "-90.04984728642488",
    "latitude": "29.952623065557578",
    "geocoded_column": {
      "latitude": "29.952623065557578",
      "longitude": "-90.04984728642488"
    }
  },
  {
    "service_request": "2022-942035",
    "request_type": "Trash/Recycling",
    "request_reason": "Replace Recycling Cart",
    "date_created": "2022-11-10T21:04:15.000",
    "date_modified": "2022-11-10T21:04:15.000",
    "request_status": "Pending",
    "responsible_agency": "Department of Sanitation",
    "final_address": "6300 Fontainebleau Dr",
    "address_councildis": "A",
    "status": "Pending",
    "rowid": "942035",
    "final_x": "3667908.98241",
    "final_y": "529973.028865",
    "longitude": "-90.11103811392758",
    "latitude": "29.951647676194696",
    "geocoded_column": {
      "latitude": "29.951647676194696",
      "longitude": "-90.11103811392758"
    }
  },
  {
    "service_request": "2022-942034",
    "request_type": "Trash/Recycling",
    "request_reason": "Replace Trash Cart",
    "date_created": "2022-11-10T20:57:23.000",
    "date_modified": "2022-11-10T20:57:24.000",
    "request_status": "Pending",
    "responsible_agency": "Department of Sanitation",
    "final_address": "2901 Chelsea Dr",
    "address_councildis": "C",
    "status": "Assigned to Contractor",
    "contractor": "Richards Disposal",
    "rowid": "942034",
    "final_x": "3704137.77681",
    "final_y": "520332.676984",
    "longitude": "-89.99700090450683",
    "latitude": "29.9240277363944",
    "geocoded_column": {
      "latitude": "29.9240277363944",
      "longitude": "-89.99700090450683"
    }
  },
  {
    "service_request": "2022-942032",
    "request_type": "Trash/Recycling",
    "request_reason": "Order Trash Cart",
    "date_created": "2022-11-10T20:44:19.000",
    "date_modified": "2022-11-10T20:44:20.000",
    "request_status": "Pending",
    "responsible_agency": "Department of Sanitation",
    "final_address": "4430 S Johnson St",
    "address_councildis": "B",
    "status": "Assigned to Contractor",
    "contractor": "Richards Disposal",
    "rowid": "942032",
    "final_x": "3669964.02586",
    "final_y": "527099.017983",
    "longitude": "-90.10464656764233",
    "latitude": "29.943684647677184",
    "geocoded_column": {
      "latitude": "29.943684647677184",
      "longitude": "-90.10464656764233"
    }
  },
  {
    "service_request": "2022-942031",
    "request_type": "Property Maintenance",
    "request_reason": "Property Maintenance",
    "date_created": "2022-11-10T20:43:21.000",
    "date_modified": "2022-11-10T20:43:21.000",
    "request_status": "Pending",
    "responsible_agency": "Department of Code Enforcement",
    "final_address": "2650 Piety St",
    "address_councildis": "D",
    "status": "Pending",
    "rowid": "942031",
    "final_x": "3691321.84854",
    "final_y": "541859.457676",
    "longitude": "-90.03668712558792",
    "latitude": "29.98362367362341",
    "geocoded_column": {
      "latitude": "29.98362367362341",
      "longitude": "-90.03668712558792"
    }
  },
  {
    "service_request": "2022-942030",
    "request_type": "Trash/Recycling",
    "request_reason": "Order Recycling Cart",
    "date_created": "2022-11-10T20:43:15.000",
    "date_modified": "2022-11-10T20:43:15.000",
    "request_status": "Pending",
    "responsible_agency": "Department of Sanitation",
    "final_address": "1577 N Dorgenois St",
    "address_councildis": "D",
    "status": "Pending",
    "rowid": "942030",
    "final_x": "3679496.46888",
    "final_y": "539803.621002",
    "longitude": "-90.0741093010604",
    "latitude": "29.978333488556917",
    "geocoded_column": {
      "latitude": "29.978333488556917",
      "longitude": "-90.0741093010604"
    }
  },
  {
    "service_request": "2022-942029",
    "request_type": "Trash/Recycling",
    "request_reason": "Order Trash Cart",
    "date_created": "2022-11-10T20:33:59.000",
    "date_modified": "2022-11-10T20:33:59.000",
    "request_status": "Pending",
    "responsible_agency": "Department of Sanitation",
    "final_address": "1401 Governor Nicholls St",
    "address_councildis": "C",
    "status": "Assigned to Contractor",
    "contractor": "Richards Disposal",
    "rowid": "942029",
    "final_x": "3681700.43893",
    "final_y": "535558.060294",
    "longitude": "-90.06729652543467",
    "latitude": "29.966592882719535",
    "geocoded_column": {
      "latitude": "29.966592882719535",
      "longitude": "-90.06729652543467"
    }
  },
  {
    "service_request": "2022-942028",
    "request_type": "Trash/Recycling",
    "request_reason": "Order Trash Cart",
    "date_created": "2022-11-10T20:32:43.000",
    "date_modified": "2022-11-10T20:32:44.000",
    "request_status": "Pending",
    "responsible_agency": "Department of Sanitation",
    "final_address": "2821 Palmyra St",
    "address_councildis": "B",
    "status": "Assigned to Contractor",
    "contractor": "Richards Disposal",
    "rowid": "942028",
    "final_x": "3674276.4004",
    "final_y": "534969.98471",
    "longitude": "-90.09076174693058",
    "latitude": "29.96519933388494",
    "geocoded_column": {
      "latitude": "29.96519933388494",
      "longitude": "-90.09076174693058"
    }
  },
  {
    "service_request": "2022-942027",
    "request_type": "Trash/Recycling",
    "request_reason": "Missed Trash Pick-Up",
    "date_created": "2022-11-10T20:29:59.000",
    "date_modified": "2022-11-10T20:29:59.000",
    "request_status": "Pending",
    "responsible_agency": "Department of Sanitation",
    "final_address": "5015 St Claude Ave",
    "address_councildis": "E",
    "status": "Assigned to Contractor",
    "contractor": "Waste Pro",
    "rowid": "942027",
    "final_x": "3696113.05085",
    "final_y": "534351.361221",
    "longitude": "-90.02182547915295",
    "latitude": "29.962829149857008",
    "geocoded_column": {
      "latitude": "29.962829149857008",
      "longitude": "-90.02182547915295"
    }
  },
  {
    "service_request": "2022-942026",
    "request_type": "Trash/Recycling",
    "request_reason": "Order Trash Cart",
    "date_created": "2022-11-10T20:28:48.000",
    "date_modified": "2022-11-10T20:28:49.000",
    "request_status": "Pending",
    "responsible_agency": "Department of Sanitation",
    "final_address": "421 Alabo St",
    "address_councildis": "E",
    "status": "Assigned to Contractor",
    "contractor": "Waste Pro",
    "rowid": "942026",
    "final_x": "3698401.94391",
    "final_y": "531178.44141",
    "longitude": "-90.01471279593594",
    "latitude": "29.95403251098095",
    "geocoded_column": {
      "latitude": "29.95403251098095",
      "longitude": "-90.01471279593594"
    }
  },
  {
    "service_request": "2022-942025",
    "request_type": "Trash/Recycling",
    "request_reason": "Order Recycling Cart",
    "date_created": "2022-11-10T20:26:01.000",
    "date_modified": "2022-11-10T20:26:01.000",
    "request_status": "Pending",
    "responsible_agency": "Department of Sanitation",
    "final_address": "2351 Magazine St",
    "address_councildis": "B",
    "status": "Pending",
    "rowid": "942025",
    "final_x": "3678180.2619",
    "final_y": "521624.296377",
    "longitude": "-90.07889494801034",
    "latitude": "29.92838615338833",
    "geocoded_column": {
      "latitude": "29.92838615338833",
      "longitude": "-90.07889494801034"
    }
  },
  {
    "service_request": "2022-942024",
    "request_type": "Trash/Recycling",
    "request_reason": "Order Recycling Cart",
    "date_created": "2022-11-10T20:19:28.000",
    "date_modified": "2022-11-10T20:19:28.000",
    "request_status": "Pending",
    "responsible_agency": "Department of Sanitation",
    "final_address": "4554 Burton Rd",
    "address_councildis": "E",
    "status": "Pending",
    "rowid": "942024",
    "final_x": "3762574.57309",
    "final_y": "573824.614378",
    "longitude": "-89.81029743497234",
    "latitude": "30.069104254977685",
    "geocoded_column": {
      "latitude": "30.069104254977685",
      "longitude": "-89.81029743497234"
    }
  },
  {
    "service_request": "2022-942023",
    "request_type": "Trash/Recycling",
    "request_reason": "Order Trash Cart",
    "date_created": "2022-11-10T20:12:24.000",
    "date_modified": "2022-11-10T20:12:25.000",
    "request_status": "Pending",
    "responsible_agency": "Department of Sanitation",
    "final_address": "1845 Deslonde St",
    "address_councildis": "E",
    "status": "Assigned to Contractor",
    "contractor": "Waste Pro",
    "rowid": "942023",
    "final_x": "3696249.97757",
    "final_y": "537349.808584",
    "longitude": "-90.02128466274631",
    "latitude": "29.9710695022835",
    "geocoded_column": {
      "latitude": "29.9710695022835",
      "longitude": "-90.02128466274631"
    }
  },
  {
    "service_request": "2022-942022",
    "request_type": "Trash/Recycling",
    "request_reason": "Order Trash Cart",
    "date_created": "2022-11-10T20:11:20.000",
    "date_modified": "2022-11-10T20:11:20.000",
    "request_status": "Pending",
    "responsible_agency": "Department of Sanitation",
    "final_address": "4511 Canal St",
    "address_councildis": "A",
    "status": "Assigned to Contractor",
    "contractor": "Richards Disposal",
    "rowid": "942022",
    "final_x": "3669688.30311",
    "final_y": "539554.916106",
    "longitude": "-90.10509555423576",
    "latitude": "29.977942365935384",
    "geocoded_column": {
      "latitude": "29.977942365935384",
      "longitude": "-90.10509555423576"
    }
  },
  {
    "service_request": "2022-942021",
    "request_type": "Trash/Recycling",
    "request_reason": "Order Trash Cart",
    "date_created": "2022-11-10T20:10:09.000",
    "date_modified": "2022-11-10T20:10:10.000",
    "request_status": "Pending",
    "responsible_agency": "Department of Sanitation",
    "final_address": "703 Bartholomew St",
    "address_councildis": "C",
    "status": "Assigned to Contractor",
    "contractor": "IV Waste",
    "rowid": "942021",
    "final_x": "3691465.37379",
    "final_y": "533844.554501",
    "longitude": "-90.03652030594571",
    "latitude": "29.961581062329877",
    "geocoded_column": {
      "latitude": "29.961581062329877",
      "longitude": "-90.03652030594571"
    }
  },
  {
    "service_request": "2022-942020",
    "request_type": "Trash/Recycling",
    "request_reason": "Order Trash Cart",
    "date_created": "2022-11-10T20:09:24.000",
    "date_modified": "2022-11-10T20:09:25.000",
    "request_status": "Pending",
    "responsible_agency": "Department of Sanitation",
    "final_address": "701 Bartholomew St",
    "address_councildis": "C",
    "status": "Assigned to Contractor",
    "contractor": "IV Waste",
    "rowid": "942020",
    "final_x": "3691462.76956",
    "final_y": "533829.797573",
    "longitude": "-90.03652905703026",
    "latitude": "29.961540566982702",
    "geocoded_column": {
      "latitude": "29.961540566982702",
      "longitude": "-90.03652905703026"
    }
  },
  {
    "service_request": "2022-942019",
    "request_type": "Trash/Recycling",
    "request_reason": "Order Trash Cart",
    "date_created": "2022-11-10T20:06:33.000",
    "date_modified": "2022-11-10T20:06:34.000",
    "request_status": "Pending",
    "responsible_agency": "Department of Sanitation",
    "final_address": "821 Deslonde St",
    "address_councildis": "E",
    "status": "Assigned to Contractor",
    "contractor": "Waste Pro",
    "rowid": "942019",
    "final_x": "3695143.55965",
    "final_y": "533460.302468",
    "longitude": "-90.02491912395264",
    "latitude": "29.96040952914641",
    "geocoded_column": {
      "latitude": "29.96040952914641",
      "longitude": "-90.02491912395264"
    }
  },
  {
    "service_request": "2022-942018",
    "request_type": "Abandoned Vehicles",
    "request_reason": "Abandoned/Junk Vehicles",
    "date_created": "2022-11-10T20:03:53.000",
    "date_modified": "2022-11-10T20:03:53.000",
    "request_status": "Pending",
    "responsible_agency": "Department of Public Works",
    "final_address": "1606 Ursulines Ave",
    "address_councildis": "D",
    "status": "Pending",
    "rowid": "942018",
    "final_x": "3680888.80431",
    "final_y": "535563.913798",
    "longitude": "-90.06985945517643",
    "latitude": "29.966633611090188",
    "geocoded_column": {
      "latitude": "29.966633611090188",
      "longitude": "-90.06985945517643"
    }
  },
  {
    "service_request": "2022-942017",
    "request_type": "Trash/Recycling",
    "request_reason": "Order Trash Cart",
    "date_created": "2022-11-10T19:58:56.000",
    "date_modified": "2022-11-10T19:58:57.000",
    "request_status": "Pending",
    "responsible_agency": "Department of Sanitation",
    "final_address": "2319 Gravier St",
    "address_councildis": "B",
    "status": "Assigned to Contractor",
    "contractor": "Richards Disposal",
    "rowid": "942017",
    "final_x": "3675418.1668",
    "final_y": "532667.83354",
    "longitude": "-90.08723516689564",
    "latitude": "29.958835098525473",
    "geocoded_column": {
      "latitude": "29.958835098525473",
      "longitude": "-90.08723516689564"
    }
  },
  {
    "service_request": "2022-942016",
    "request_type": "Trash/Recycling",
    "request_reason": "Order Trash Cart",
    "date_created": "2022-11-10T19:57:42.000",
    "date_modified": "2022-11-10T19:57:42.000",
    "request_status": "Pending",
    "responsible_agency": "Department of Sanitation",
    "final_address": "2317 Gravier St",
    "address_councildis": "B",
    "status": "Assigned to Contractor",
    "contractor": "Richards Disposal",
    "rowid": "942016",
    "final_x": "3675429.00014",
    "final_y": "532659.916868",
    "longitude": "-90.08720122979449",
    "latitude": "29.958813006383686",
    "geocoded_column": {
      "latitude": "29.958813006383686",
      "longitude": "-90.08720122979449"
    }
  },
  {
    "service_request": "2022-942015",
    "request_type": "Trash/Recycling",
    "request_reason": "Order Trash Cart",
    "date_created": "2022-11-10T19:56:08.000",
    "date_modified": "2022-11-10T19:56:09.000",
    "request_status": "Pending",
    "responsible_agency": "Department of Sanitation",
    "final_address": "1627 St Charles Ave",
    "address_councildis": "B",
    "status": "Assigned to Contractor",
    "contractor": "Richards Disposal",
    "rowid": "942015",
    "final_x": "3678848.75752",
    "final_y": "525122.034621",
    "longitude": "-90.07666355685878",
    "latitude": "29.93798364396236",
    "geocoded_column": {
      "latitude": "29.93798364396236",
      "longitude": "-90.07666355685878"
    }
  },
  {
    "service_request": "2022-942014",
    "request_type": "Trash/Recycling",
    "request_reason": "Order Trash Cart",
    "date_created": "2022-11-10T19:54:53.000",
    "date_modified": "2022-11-10T19:54:54.000",
    "request_status": "Pending",
    "responsible_agency": "Department of Sanitation",
    "final_address": "1627 St Charles Ave Apt A",
    "address_councildis": "B",
    "status": "Assigned to Contractor",
    "contractor": "Richards Disposal",
    "rowid": "942014",
    "final_x": "3678841.10779",
    "final_y": "525130.275261",
    "longitude": "-90.07668742239359",
    "latitude": "29.938006533685623",
    "geocoded_column": {
      "latitude": "29.938006533685623",
      "longitude": "-90.07668742239359"
    }
  },
  {
    "service_request": "2022-942013",
    "request_type": "Trash/Recycling",
    "request_reason": "Order Trash Cart",
    "date_created": "2022-11-10T19:53:51.000",
    "date_modified": "2022-11-10T19:53:52.000",
    "request_status": "Pending",
    "responsible_agency": "Department of Sanitation",
    "final_address": "1629 St Charles Ave Apt B",
    "address_councildis": "B",
    "status": "Assigned to Contractor",
    "contractor": "Richards Disposal",
    "rowid": "942013",
    "final_x": "3678836.50421",
    "final_y": "525119.226685",
    "longitude": "-90.07670233883567",
    "latitude": "29.937976292574092",
    "geocoded_column": {
      "latitude": "29.937976292574092",
      "longitude": "-90.07670233883567"
    }
  },
  {
    "service_request": "2022-942012",
    "request_type": "Trash/Recycling",
    "request_reason": "Order Trash Cart",
    "date_created": "2022-11-10T19:52:30.000",
    "date_modified": "2022-11-10T19:52:30.000",
    "request_status": "Pending",
    "responsible_agency": "Department of Sanitation",
    "final_address": "822 Baronne St Apt 301",
    "address_councildis": "B",
    "status": "Assigned to Contractor",
    "contractor": "Empire Services",
    "rowid": "942012",
    "final_x": "3679617.15951",
    "final_y": "528025.480191",
    "longitude": "-90.07413691365007",
    "latitude": "29.945943959680886",
    "geocoded_column": {
      "latitude": "29.945943959680886",
      "longitude": "-90.07413691365007"
    }
  },
  {
    "service_request": "2022-942011",
    "request_type": "Trash/Recycling",
    "request_reason": "Order Trash Cart",
    "date_created": "2022-11-10T19:51:40.000",
    "date_modified": "2022-11-10T19:51:40.000",
    "request_status": "Pending",
    "responsible_agency": "Department of Sanitation",
    "final_address": "822 Baronne St Apt 202",
    "address_councildis": "B",
    "status": "Assigned to Contractor",
    "contractor": "Empire Services",
    "rowid": "942011",
    "final_x": "3679610.51887",
    "final_y": "528027.172863",
    "longitude": "-90.07415782166109",
    "latitude": "29.945948814621353",
    "geocoded_column": {
      "latitude": "29.945948814621353",
      "longitude": "-90.07415782166109"
    }
  },
  {
    "service_request": "2022-942010",
    "request_type": "Trash/Recycling",
    "request_reason": "Order Trash Cart",
    "date_created": "2022-11-10T19:49:49.000",
    "date_modified": "2022-11-10T19:49:50.000",
    "request_status": "Pending",
    "responsible_agency": "Department of Sanitation",
    "final_address": "822 Baronne St Apt 202",
    "address_councildis": "B",
    "status": "Assigned to Contractor",
    "contractor": "Empire Services",
    "rowid": "942010",
    "final_x": "3679610.51887",
    "final_y": "528027.172863",
    "longitude": "-90.07415782166109",
    "latitude": "29.945948814621353",
    "geocoded_column": {
      "latitude": "29.945948814621353",
      "longitude": "-90.07415782166109"
    }
  },
  {
    "service_request": "2022-942009",
    "request_type": "Traffic Signals/Signs/Striping/Streetlights",
    "request_reason": "Street Light Outage/Malfunction",
    "date_created": "2022-11-10T19:49:46.000",
    "date_modified": "2022-11-10T19:49:47.000",
    "request_status": "Pending",
    "responsible_agency": "Department of Public Works",
    "final_address": "3121 Behrman Hwy",
    "address_councildis": "C",
    "status": "Pending",
    "contractor": "Legacy Professional Services",
    "rowid": "942009",
    "final_x": "3694596.9601",
    "final_y": "518964.510391",
    "longitude": "-90.02716696001049",
    "latitude": "29.92056824717289",
    "geocoded_column": {
      "latitude": "29.92056824717289",
      "longitude": "-90.02716696001049"
    }
  },
  {
    "service_request": "2022-942008",
    "request_type": "Trash/Recycling",
    "request_reason": "Order Trash Cart",
    "date_created": "2022-11-10T19:48:03.000",
    "date_modified": "2022-11-10T19:48:04.000",
    "request_status": "Pending",
    "responsible_agency": "Department of Sanitation",
    "final_address": "822 Baronne St Apt 101",
    "address_councildis": "B",
    "status": "Assigned to Contractor",
    "contractor": "Empire Services",
    "rowid": "942008",
    "final_x": "3679604.13775",
    "final_y": "528028.940863",
    "longitude": "-90.07417790766833",
    "latitude": "29.945953868843695",
    "geocoded_column": {
      "latitude": "29.945953868843695",
      "longitude": "-90.07417790766833"
    }
  },
  {
    "service_request": "2022-942007",
    "request_type": "Trash/Recycling",
    "request_reason": "Order Trash Cart",
    "date_created": "2022-11-10T19:44:34.000",
    "date_modified": "2022-11-10T19:44:35.000",
    "request_status": "Pending",
    "responsible_agency": "Department of Sanitation",
    "final_address": "2016 Seventh St",
    "address_councildis": "B",
    "status": "Assigned to Contractor",
    "contractor": "Richards Disposal",
    "rowid": "942007",
    "final_x": "3674350.60334",
    "final_y": "523387.842683",
    "longitude": "-90.09092400098878",
    "latitude": "29.933350062137272",
    "geocoded_column": {
      "latitude": "29.933350062137272",
      "longitude": "-90.09092400098878"
    }
  },
  {
    "service_request": "2022-942006",
    "request_type": "Trash/Recycling",
    "request_reason": "Order Recycling Cart",
    "date_created": "2022-11-10T19:44:04.000",
    "date_modified": "2022-11-10T19:44:04.000",
    "request_status": "Pending",
    "responsible_agency": "Department of Sanitation",
    "final_address": "3925 Clermont Dr",
    "address_councildis": "D",
    "status": "Pending",
    "rowid": "942006",
    "final_x": "3685214.63554",
    "final_y": "547045.307281",
    "longitude": "-90.0557942837127",
    "latitude": "29.998071526731785",
    "geocoded_column": {
      "latitude": "29.998071526731785",
      "longitude": "-90.0557942837127"
    }
  },
  {
    "service_request": "2022-942005",
    "request_type": "Trash/Recycling",
    "request_reason": "Order Trash Cart",
    "date_created": "2022-11-10T19:43:46.000",
    "date_modified": "2022-11-10T19:43:47.000",
    "request_status": "Pending",
    "responsible_agency": "Department of Sanitation",
    "final_address": "910 Jefferson Ave",
    "address_councildis": "A",
    "status": "Assigned to Contractor",
    "contractor": "Richards Disposal",
    "rowid": "942005",
    "final_x": "3666695.43021",
    "final_y": "518892.179639",
    "longitude": "-90.11524188339972",
    "latitude": "29.9212144239529",
    "geocoded_column": {
      "latitude": "29.9212144239529",
      "longitude": "-90.11524188339972"
    }
  },
  {
    "service_request": "2022-942004",
    "request_type": "Trash/Recycling",
    "request_reason": "Order Trash Cart",
    "date_created": "2022-11-10T19:42:13.000",
    "date_modified": "2022-11-10T19:42:14.000",
    "request_status": "Pending",
    "responsible_agency": "Department of Sanitation",
    "final_address": "2004 Carondelet St",
    "address_councildis": "B",
    "status": "Assigned to Contractor",
    "contractor": "Richards Disposal",
    "rowid": "942004",
    "final_x": "3677859.25288",
    "final_y": "524458.210876",
    "longitude": "-90.0798104362874",
    "latitude": "29.936188149829402",
    "geocoded_column": {
      "latitude": "29.936188149829402",
      "longitude": "-90.0798104362874"
    }
  },
  {
    "service_request": "2022-942003",
    "request_type": "Trash/Recycling",
    "request_reason": "Order Recycling Cart",
    "date_created": "2022-11-10T19:41:45.000",
    "date_modified": "2022-11-10T19:41:46.000",
    "request_status": "Pending",
    "responsible_agency": "Department of Sanitation",
    "final_address": "13411 Dwyer Blvd",
    "address_councildis": "E",
    "status": "Pending",
    "rowid": "942003",
    "final_x": "3725462.1342",
    "final_y": "561930.811871",
    "longitude": "-89.92807811168589",
    "latitude": "30.037705409130446",
    "geocoded_column": {
      "latitude": "30.037705409130446",
      "longitude": "-89.92807811168589"
    }
  },
  {
    "service_request": "2022-942002",
    "request_type": "Trash/Recycling",
    "request_reason": "Order Trash Cart",
    "date_created": "2022-11-10T19:37:56.000",
    "date_modified": "2022-11-10T19:37:57.000",
    "request_status": "Pending",
    "responsible_agency": "Department of Sanitation",
    "final_address": "2625 Chartres St",
    "address_councildis": "C",
    "status": "Assigned to Contractor",
    "contractor": "IV Waste",
    "rowid": "942002",
    "final_x": "3686866.37449",
    "final_y": "534599.931653",
    "longitude": "-90.05101644660661",
    "latitude": "29.963800404750398",
    "geocoded_column": {
      "latitude": "29.963800404750398",
      "longitude": "-90.05101644660661"
    }
  },
  {
    "service_request": "2022-942001",
    "request_type": "Trash/Recycling",
    "request_reason": "Order Trash Cart",
    "date_created": "2022-11-10T19:36:22.000",
    "date_modified": "2022-11-10T19:36:23.000",
    "request_status": "Pending",
    "responsible_agency": "Department of Sanitation",
    "final_address": "605 S Solomon St",
    "address_councildis": "A",
    "status": "Assigned to Contractor",
    "contractor": "Richards Disposal",
    "rowid": "942001",
    "final_x": "3669316.62638",
    "final_y": "537112.862408",
    "longitude": "-90.10635203345743",
    "latitude": "29.971238489555088",
    "geocoded_column": {
      "latitude": "29.971238489555088",
      "longitude": "-90.10635203345743"
    }
  },
  {
    "service_request": "2022-942000",
    "request_type": "EMS",
    "request_reason": "EMS Compliment",
    "date_created": "2022-11-10T19:34:17.000",
    "date_modified": "2022-11-10T19:36:19.000",
    "request_status": "Pending",
    "responsible_agency": "Emergency Medical Services",
    "final_address": "1010 N Galvez St Apt 104-A",
    "address_councildis": "D",
    "status": "Pending",
    "rowid": "942000",
    "final_x": "3679206.59919",
    "final_y": "536678.225863",
    "longitude": "-90.0751332055027",
    "latitude": "29.96974848430375",
    "geocoded_column": {
      "latitude": "29.96974848430375",
      "longitude": "-90.0751332055027"
    }
  },
  {
    "service_request": "2022-941999",
    "request_type": "Trash/Recycling",
    "request_reason": "Order Recycling Cart",
    "date_created": "2022-11-10T19:32:43.000",
    "date_modified": "2022-11-10T19:32:43.000",
    "request_status": "Pending",
    "responsible_agency": "Department of Sanitation",
    "final_address": "6535 Bellaire Dr",
    "address_councildis": "A",
    "status": "Pending",
    "rowid": "941999",
    "final_x": "3664572.17364",
    "final_y": "551513.225685",
    "longitude": "-90.12085450215696",
    "latitude": "30.01097344147899",
    "geocoded_column": {
      "latitude": "30.01097344147899",
      "longitude": "-90.12085450215696"
    }
  },
  {
    "service_request": "2022-941998",
    "request_type": "Trash/Recycling",
    "request_reason": "Order Trash Cart",
    "date_created": "2022-11-10T19:32:34.000",
    "date_modified": "2022-11-10T19:32:35.000",
    "request_status": "Pending",
    "responsible_agency": "Department of Sanitation",
    "final_address": "440 First St",
    "address_councildis": "B",
    "status": "Assigned to Contractor",
    "contractor": "Richards Disposal",
    "rowid": "941998",
    "final_x": "3679321.50594",
    "final_y": "519563.274359",
    "longitude": "-90.0753637178411",
    "latitude": "29.922684611131405",
    "geocoded_column": {
      "latitude": "29.922684611131405",
      "longitude": "-90.0753637178411"
    }
  },
  {
    "service_request": "2022-941997",
    "request_type": "Trash/Recycling",
    "request_reason": "Order Trash Cart",
    "date_created": "2022-11-10T19:30:15.000",
    "date_modified": "2022-11-10T19:30:16.000",
    "request_status": "Pending",
    "responsible_agency": "Department of Sanitation",
    "final_address": "641 S Salcedo St",
    "address_councildis": "B",
    "status": "Assigned to Contractor",
    "contractor": "Richards Disposal",
    "rowid": "941997",
    "final_x": "3672594.05179",
    "final_y": "534207.940805",
    "longitude": "-90.0961005095569",
    "latitude": "29.963154025272658",
    "geocoded_column": {
      "latitude": "29.963154025272658",
      "longitude": "-90.0961005095569"
    }
  },
  {
    "service_request": "2022-941996",
    "request_type": "Trash/Recycling",
    "request_reason": "Missed Trash Pick-Up",
    "date_created": "2022-11-10T19:24:09.000",
    "date_modified": "2022-11-10T19:24:10.000",
    "request_status": "Pending",
    "responsible_agency": "Department of Sanitation",
    "final_address": "4400 BLK S Saratoga St",
    "address_councildis": "B",
    "status": "Assigned to Contractor",
    "contractor": "Richards Disposal",
    "rowid": "941996",
    "final_x": "3670452.72467",
    "final_y": "522625.09102",
    "longitude": "-90.10325524966053",
    "latitude": "29.931368376377996",
    "geocoded_column": {
      "latitude": "29.931368376377996",
      "longitude": "-90.10325524966053"
    }
  },
  {
    "service_request": "2022-941995",
    "request_type": "Trash/Recycling",
    "request_reason": "Order Trash Cart",
    "date_created": "2022-11-10T19:21:25.000",
    "date_modified": "2022-11-10T19:21:26.000",
    "request_status": "Pending",
    "responsible_agency": "Department of Sanitation",
    "final_address": "2019 Calhoun St",
    "address_councildis": "A",
    "status": "Assigned to Contractor",
    "contractor": "Richards Disposal",
    "rowid": "941995",
    "final_x": "3665623.12775",
    "final_y": "524574.711676",
    "longitude": "-90.1184364965559",
    "latitude": "29.93687089052423",
    "geocoded_column": {
      "latitude": "29.93687089052423",
      "longitude": "-90.1184364965559"
    }
  },
  {
    "service_request": "2022-941994",
    "request_type": "Trash/Recycling",
    "request_reason": "Order Trash Cart",
    "date_created": "2022-11-10T19:20:04.000",
    "date_modified": "2022-11-10T19:20:05.000",
    "request_status": "Pending",
    "responsible_agency": "Department of Sanitation",
    "final_address": "3827 Cadillac St",
    "address_councildis": "D",
    "status": "Assigned to Contractor",
    "contractor": "IV Waste",
    "rowid": "941994",
    "final_x": "3677019.71451",
    "final_y": "546274.260752",
    "longitude": "-90.0817085611614",
    "latitude": "29.996200104814204",
    "geocoded_column": {
      "latitude": "29.996200104814204",
      "longitude": "-90.0817085611614"
    }
  },
  {
    "service_request": "2022-941993",
    "request_type": "Trash/Recycling",
    "request_reason": "Order Recycling Cart",
    "date_created": "2022-11-10T19:19:44.000",
    "date_modified": "2022-11-10T19:19:44.000",
    "request_status": "Pending",
    "responsible_agency": "Department of Sanitation",
    "final_address": "2004 Painters St",
    "address_councildis": "D",
    "status": "Pending",
    "rowid": "941993",
    "final_x": "3687258.13865",
    "final_y": "539885.951946",
    "longitude": "-90.04959227983663",
    "latitude": "29.978323049387974",
    "geocoded_column": {
      "latitude": "29.978323049387974",
      "longitude": "-90.04959227983663"
    }
  },
  {
    "service_request": "2022-941992",
    "request_type": "Trash/Recycling",
    "request_reason": "Order Trash Cart",
    "date_created": "2022-11-10T19:15:33.000",
    "date_modified": "2022-11-10T19:15:34.000",
    "request_status": "Pending",
    "responsible_agency": "Department of Sanitation",
    "final_address": "3023 Orleans Ave",
    "address_councildis": "A",
    "status": "Assigned to Contractor",
    "contractor": "Richards Disposal",
    "rowid": "941992",
    "final_x": "3675653.56257",
    "final_y": "537932.093385",
    "longitude": "-90.08631093527694",
    "latitude": "29.97330299102609",
    "geocoded_column": {
      "latitude": "29.97330299102609",
      "longitude": "-90.08631093527694"
    }
  },
  {
    "service_request": "2022-941991",
    "request_type": "Trash/Recycling",
    "request_reason": "Order Trash Cart",
    "date_created": "2022-11-10T19:13:56.000",
    "date_modified": "2022-11-10T19:13:57.000",
    "request_status": "Pending",
    "responsible_agency": "Department of Sanitation",
    "final_address": "423 Alabo St",
    "address_councildis": "E",
    "status": "Assigned to Contractor",
    "contractor": "Waste Pro",
    "rowid": "941991",
    "final_x": "3698416.18013",
    "final_y": "531211.252738",
    "longitude": "-90.01466665169391",
    "latitude": "29.954122280069857",
    "geocoded_column": {
      "latitude": "29.954122280069857",
      "longitude": "-90.01466665169391"
    }
  },
  {
    "service_request": "2022-941990",
    "request_type": "Trash/Recycling",
    "request_reason": "Order Trash Cart",
    "date_created": "2022-11-10T18:58:01.000",
    "date_modified": "2022-11-10T18:58:02.000",
    "request_status": "Pending",
    "responsible_agency": "Department of Sanitation",
    "final_address": "4732 Cleveland Ave",
    "address_councildis": "A",
    "status": "Assigned to Contractor",
    "contractor": "Richards Disposal",
    "rowid": "941990",
    "final_x": "3668624.68551",
    "final_y": "539643.449098",
    "longitude": "-90.10845185274984",
    "latitude": "29.97821710782596",
    "geocoded_column": {
      "latitude": "29.97821710782596",
      "longitude": "-90.10845185274984"
    }
  },
  {
    "service_request": "2022-941989",
    "request_type": "Traffic Signals/Signs/Striping/Streetlights",
    "request_reason": "Street Light Outage/Malfunction",
    "date_created": "2022-11-10T18:56:16.000",
    "date_modified": "2022-11-10T18:56:17.000",
    "request_status": "Pending",
    "responsible_agency": "Department of Public Works",
    "final_address": "TREASURE ST & PAUGER ST",
    "address_councildis": "D",
    "status": "Pending",
    "contractor": "Legacy Professional Services",
    "rowid": "941989",
    "final_x": "3683254.6",
    "final_y": "543951.58",
    "longitude": "-90.06209443001244",
    "latitude": "29.989624820493358",
    "geocoded_column": {
      "latitude": "29.989624820493358",
      "longitude": "-90.06209443001244"
    }
  },
  {
    "service_request": "2022-941988",
    "request_type": "Trash/Recycling",
    "request_reason": "Order Trash Cart",
    "date_created": "2022-11-10T18:56:03.000",
    "date_modified": "2022-11-10T18:56:04.000",
    "request_status": "Pending",
    "responsible_agency": "Department of Sanitation",
    "final_address": "2927 Dryades St",
    "address_councildis": "B",
    "status": "Assigned to Contractor",
    "contractor": "Richards Disposal",
    "rowid": "941988",
    "final_x": "3674700.72776",
    "final_y": "523069.561659",
    "longitude": "-90.08982958229127",
    "latitude": "29.932464449479326",
    "geocoded_column": {
      "latitude": "29.932464449479326",
      "longitude": "-90.08982958229127"
    }
  },
  {
    "service_request": "2022-941987",
    "request_type": "Trash/Recycling",
    "request_reason": "Request a Large Item Pick Up",
    "date_created": "2022-11-10T18:50:08.000",
    "date_modified": "2022-11-10T18:50:09.000",
    "request_status": "Pending",
    "responsible_agency": "Department of Sanitation",
    "final_address": "1824 Arts St",
    "address_councildis": "D",
    "status": "Assigned to Contractor",
    "contractor": "IV Waste",
    "rowid": "941987",
    "final_x": "3686956.39394",
    "final_y": "539266.012618",
    "longitude": "-90.05056721638844",
    "latitude": "29.976627726650186",
    "geocoded_column": {
      "latitude": "29.976627726650186",
      "longitude": "-90.05056721638844"
    }
  },
  {
    "service_request": "2022-941986",
    "request_type": "Traffic Signals/Signs/Striping/Streetlights",
    "request_reason": "Street Light Outage/Malfunction",
    "date_created": "2022-11-10T18:49:50.000",
    "date_modified": "2022-11-10T18:49:51.000",
    "request_status": "Pending",
    "responsible_agency": "Department of Public Works",
    "final_address": "2376 Jay St",
    "address_councildis": "D",
    "status": "Pending",
    "contractor": "Legacy Professional Services",
    "rowid": "941986",
    "final_x": "3684707.15087",
    "final_y": "557282.078107",
    "longitude": "-90.05703722352781",
    "latitude": "30.02623445945361",
    "geocoded_column": {
      "latitude": "30.02623445945361",
      "longitude": "-90.05703722352781"
    }
  },
  {
    "service_request": "2022-941985",
    "request_type": "Traffic Signals/Signs/Striping/Streetlights",
    "request_reason": "Traffic Sign Missing/Damaged",
    "date_created": "2022-11-10T18:48:52.000",
    "date_modified": "2022-11-10T18:48:52.000",
    "request_status": "Pending",
    "responsible_agency": "Department of Public Works",
    "final_address": "729 Marigny St",
    "address_councildis": "C",
    "status": "Pending",
    "rowid": "941985",
    "final_x": "3685543.27004",
    "final_y": "535150.535686",
    "longitude": "-90.05517527825016",
    "latitude": "29.96535502301678",
    "geocoded_column": {
      "latitude": "29.96535502301678",
      "longitude": "-90.05517527825016"
    }
  },
  {
    "service_request": "2022-941984",
    "request_type": "Trash/Recycling",
    "request_reason": "Missed Trash Pick-Up",
    "date_created": "2022-11-10T18:46:41.000",
    "date_modified": "2022-11-10T18:46:42.000",
    "request_status": "Pending",
    "responsible_agency": "Department of Sanitation",
    "final_address": "2511 Gladiolus St",
    "address_councildis": "D",
    "status": "Assigned to Contractor",
    "contractor": "IV Waste",
    "rowid": "941984",
    "final_x": "3686409.44905",
    "final_y": "547506.733458",
    "longitude": "-90.05200359096926",
    "latitude": "29.999303599111578",
    "geocoded_column": {
      "latitude": "29.999303599111578",
      "longitude": "-90.05200359096926"
    }
  },
  {
    "service_request": "2022-941983",
    "request_type": "Trash/Recycling",
    "request_reason": "Repair Trash Cart",
    "date_created": "2022-11-10T18:43:54.000",
    "date_modified": "2022-11-10T18:43:55.000",
    "request_status": "Pending",
    "responsible_agency": "Department of Sanitation",
    "final_address": "2511 Gladiolus St",
    "address_councildis": "D",
    "status": "Assigned to Contractor",
    "contractor": "IV Waste",
    "rowid": "941983",
    "final_x": "3686409.44905",
    "final_y": "547506.733458",
    "longitude": "-90.05200359096926",
    "latitude": "29.999303599111578",
    "geocoded_column": {
      "latitude": "29.999303599111578",
      "longitude": "-90.05200359096926"
    }
  },
  {
    "service_request": "2022-941982",
    "request_type": "Trash/Recycling",
    "request_reason": "Order Recycling Cart",
    "date_created": "2022-11-10T18:42:42.000",
    "date_modified": "2022-11-10T18:42:42.000",
    "request_status": "Pending",
    "responsible_agency": "Department of Sanitation",
    "final_address": "2511 Gladiolus St",
    "address_councildis": "D",
    "status": "Pending",
    "rowid": "941982",
    "final_x": "3686409.44905",
    "final_y": "547506.733458",
    "longitude": "-90.05200359096926",
    "latitude": "29.999303599111578",
    "geocoded_column": {
      "latitude": "29.999303599111578",
      "longitude": "-90.05200359096926"
    }
  },
  {
    "service_request": "2022-941981",
    "request_type": "Trash/Recycling",
    "request_reason": "Order Recycling Cart",
    "date_created": "2022-11-10T18:40:44.000",
    "date_modified": "2022-11-10T18:40:44.000",
    "request_status": "Pending",
    "responsible_agency": "Department of Sanitation",
    "final_address": "6119 West End Blvd",
    "address_councildis": "A",
    "status": "Pending",
    "rowid": "941981",
    "final_x": "3666599.12525",
    "final_y": "548308.863634",
    "longitude": "-90.11455821731381",
    "latitude": "30.00210342828423",
    "geocoded_column": {
      "latitude": "30.00210342828423",
      "longitude": "-90.11455821731381"
    }
  },
  {
    "service_request": "2022-941980",
    "request_type": "Property Maintenance",
    "request_reason": "Property Maintenance",
    "date_created": "2022-11-10T18:40:13.000",
    "date_modified": "2022-11-10T18:40:13.000",
    "request_status": "Pending",
    "responsible_agency": "Department of Code Enforcement",
    "final_address": "937 Fats Domino Ave",
    "address_councildis": "E",
    "status": "Pending",
    "rowid": "941980",
    "final_x": "3697942.42627",
    "final_y": "533287.40378",
    "longitude": "-90.01608720362415",
    "latitude": "29.959845944005593",
    "geocoded_column": {
      "latitude": "29.959845944005593",
      "longitude": "-90.01608720362415"
    }
  },
  {
    "service_request": "2022-941979",
    "request_type": "Trash/Recycling",
    "request_reason": "Missed Trash Pick-Up",
    "date_created": "2022-11-10T18:39:10.000",
    "date_modified": "2022-11-10T18:39:10.000",
    "request_status": "Pending",
    "responsible_agency": "Department of Sanitation",
    "final_address": "3614 N Miro St",
    "address_councildis": "D",
    "status": "Assigned to Contractor",
    "contractor": "IV Waste",
    "rowid": "941979",
    "final_x": "3691904.65667",
    "final_y": "539634.043786",
    "longitude": "-90.03492596503203",
    "latitude": "29.977486434471416",
    "geocoded_column": {
      "latitude": "29.977486434471416",
      "longitude": "-90.03492596503203"
    }
  },
  {
    "service_request": "2022-941978",
    "request_type": "Trash/Recycling",
    "request_reason": "Order Trash Cart",
    "date_created": "2022-11-10T18:38:30.000",
    "date_modified": "2022-11-10T18:38:31.000",
    "request_status": "Pending",
    "responsible_agency": "Department of Sanitation",
    "final_address": "2221 Felicity St",
    "address_councildis": "B",
    "status": "Assigned to Contractor",
    "contractor": "Richards Disposal",
    "rowid": "941978",
    "final_x": "3676519.01192",
    "final_y": "526584.733054",
    "longitude": "-90.0839684189561",
    "latitude": "29.942075634061776",
    "geocoded_column": {
      "latitude": "29.942075634061776",
      "longitude": "-90.0839684189561"
    }
  },
  {
    "service_request": "2022-941977",
    "request_type": "Trash/Recycling",
    "request_reason": "Replace Recycling Cart",
    "date_created": "2022-11-10T18:35:39.000",
    "date_modified": "2022-11-10T18:35:39.000",
    "request_status": "Pending",
    "responsible_agency": "Department of Sanitation",
    "final_address": "3219 Octavia St",
    "address_councildis": "A",
    "status": "Pending",
    "rowid": "941977",
    "final_x": "3668424.4585",
    "final_y": "527570.566207",
    "longitude": "-90.10949150578085",
    "latitude": "29.945026556441217",
    "geocoded_column": {
      "latitude": "29.945026556441217",
      "longitude": "-90.10949150578085"
    }
  },
  {
    "service_request": "2022-941976",
    "request_type": "Trash/Recycling",
    "request_reason": "Order Trash Cart",
    "date_created": "2022-11-10T18:32:57.000",
    "date_modified": "2022-11-10T18:32:57.000",
    "request_status": "Pending",
    "responsible_agency": "Department of Sanitation",
    "final_address": "1516 Mandeville St",
    "address_councildis": "C",
    "status": "Assigned to Contractor",
    "contractor": "IV Waste",
    "rowid": "941976",
    "final_x": "3685612.94729",
    "final_y": "537977.401417",
    "longitude": "-90.05485563667594",
    "latitude": "29.97312578302878",
    "geocoded_column": {
      "latitude": "29.97312578302878",
      "longitude": "-90.05485563667594"
    }
  },
  {
    "service_request": "2022-941975",
    "request_type": "Trash/Recycling",
    "request_reason": "Missed Trash Pick-Up",
    "date_created": "2022-11-10T18:32:38.000",
    "date_modified": "2022-11-10T18:32:39.000",
    "request_status": "Pending",
    "responsible_agency": "Department of Sanitation",
    "final_address": "1461 Magazine St",
    "address_councildis": "B",
    "status": "Assigned to Contractor",
    "contractor": "Richards Disposal",
    "rowid": "941975",
    "final_x": "3680202.78491",
    "final_y": "524023.150652",
    "longitude": "-90.0724269539209",
    "latitude": "29.934921174757065",
    "geocoded_column": {
      "latitude": "29.934921174757065",
      "longitude": "-90.0724269539209"
    }
  },
  {
    "service_request": "2022-941974",
    "request_type": "Trash/Recycling",
    "request_reason": "Replace Trash Cart",
    "date_created": "2022-11-10T18:32:01.000",
    "date_modified": "2022-11-10T18:32:02.000",
    "request_status": "Pending",
    "responsible_agency": "Department of Sanitation",
    "final_address": "3219 Octavia St",
    "address_councildis": "A",
    "status": "Assigned to Contractor",
    "contractor": "Richards Disposal",
    "rowid": "941974",
    "final_x": "3668424.4585",
    "final_y": "527570.566207",
    "longitude": "-90.10949150578085",
    "latitude": "29.945026556441217",
    "geocoded_column": {
      "latitude": "29.945026556441217",
      "longitude": "-90.10949150578085"
    }
  },
  {
    "service_request": "2022-941973",
    "request_type": "Trash/Recycling",
    "request_reason": "Order Trash Cart",
    "date_created": "2022-11-10T18:29:46.000",
    "date_modified": "2022-11-10T18:29:47.000",
    "request_status": "Pending",
    "responsible_agency": "Department of Sanitation",
    "final_address": "1514 Mandeville St",
    "address_councildis": "C",
    "status": "Assigned to Contractor",
    "contractor": "IV Waste",
    "rowid": "941973",
    "final_x": "3685613.78063",
    "final_y": "537963.234697",
    "longitude": "-90.05485350403252",
    "latitude": "29.97308680393253",
    "geocoded_column": {
      "latitude": "29.97308680393253",
      "longitude": "-90.05485350403252"
    }
  },
  {
    "service_request": "2022-941972",
    "request_type": "Traffic Signals/Signs/Striping/Streetlights",
    "request_reason": "Street Light Outage/Malfunction",
    "date_created": "2022-11-10T18:22:35.000",
    "date_modified": "2022-11-10T18:22:36.000",
    "request_status": "Pending",
    "responsible_agency": "Department of Public Works",
    "final_address": "3226 Octavia St",
    "address_councildis": "A",
    "status": "Pending",
    "contractor": "Legacy Professional Services",
    "rowid": "941972",
    "final_x": "3668310.26874",
    "final_y": "527590.337855",
    "longitude": "-90.10985137272179",
    "latitude": "29.945084275149018",
    "geocoded_column": {
      "latitude": "29.945084275149018",
      "longitude": "-90.10985137272179"
    }
  },
  {
    "service_request": "2022-941971",
    "request_type": "Trash/Recycling",
    "request_reason": "Order Trash Cart",
    "date_created": "2022-11-10T18:20:22.000",
    "date_modified": "2022-11-10T18:20:23.000",
    "request_status": "Pending",
    "responsible_agency": "Department of Sanitation",
    "final_address": "5607 Tchoupitoulas St",
    "address_councildis": "A",
    "status": "Assigned to Contractor",
    "contractor": "Richards Disposal",
    "rowid": "941971",
    "final_x": "3665660.6745",
    "final_y": "517189.283893",
    "longitude": "-90.11856514688942",
    "latitude": "29.916562199020806",
    "geocoded_column": {
      "latitude": "29.916562199020806",
      "longitude": "-90.11856514688942"
    }
  },
  {
    "service_request": "2022-941970",
    "request_type": "Trash/Recycling",
    "request_reason": "Order Trash Cart",
    "date_created": "2022-11-10T18:16:29.000",
    "date_modified": "2022-11-10T18:16:30.000",
    "request_status": "Pending",
    "responsible_agency": "Department of Sanitation",
    "final_address": "5605 Tchoupitoulas St",
    "address_councildis": "A",
    "status": "Assigned to Contractor",
    "contractor": "Richards Disposal",
    "rowid": "941970",
    "final_x": "3665672.99687",
    "final_y": "517185.019253",
    "longitude": "-90.11852639501134",
    "latitude": "29.91655011337705",
    "geocoded_column": {
      "latitude": "29.91655011337705",
      "longitude": "-90.11852639501134"
    }
  },
  {
    "service_request": "2022-941969",
    "request_type": "Trash/Recycling",
    "request_reason": "Order Recycling Cart",
    "date_created": "2022-11-10T18:14:11.000",
    "date_modified": "2022-11-10T18:14:11.000",
    "request_status": "Pending",
    "responsible_agency": "Department of Sanitation",
    "final_address": "7220 Voyageur Ct",
    "address_councildis": "E",
    "status": "Pending",
    "rowid": "941969",
    "final_x": "3726406.93952",
    "final_y": "568707.062693",
    "longitude": "-89.92482910846316",
    "latitude": "30.0563053764278",
    "geocoded_column": {
      "latitude": "30.0563053764278",
      "longitude": "-89.92482910846316"
    }
  },
  {
    "service_request": "2022-941968",
    "request_type": "Trash/Recycling",
    "request_reason": "Order Recycling Cart",
    "date_created": "2022-11-10T18:09:17.000",
    "date_modified": "2022-11-10T18:09:18.000",
    "request_status": "Pending",
    "responsible_agency": "Department of Sanitation",
    "final_address": "4632 Crowder Blvd",
    "address_councildis": "E",
    "status": "Pending",
    "rowid": "941968",
    "final_x": "3706391.71684",
    "final_y": "555003.288216",
    "longitude": "-89.98860168705062",
    "latitude": "30.019286715676092",
    "geocoded_column": {
      "latitude": "30.019286715676092",
      "longitude": "-89.98860168705062"
    }
  },
  {
    "service_request": "2022-941967",
    "request_type": "Abandoned Vehicles",
    "request_reason": "Abandoned/Junk Vehicles",
    "date_created": "2022-11-10T18:05:33.000",
    "date_modified": "2022-11-10T18:05:34.000",
    "request_status": "Pending",
    "responsible_agency": "Department of Public Works",
    "final_address": "2600 BLK Odin St",
    "address_councildis": "D",
    "status": "Pending",
    "rowid": "941967",
    "final_x": "3686768.88069",
    "final_y": "553285.31054",
    "longitude": "-90.0506637942608",
    "latitude": "30.015181523256352",
    "geocoded_column": {
      "latitude": "30.015181523256352",
      "longitude": "-90.0506637942608"
    }
  },
  {
    "service_request": "2022-941966",
    "request_type": "Trash/Recycling",
    "request_reason": "Missed Trash Pick-Up",
    "date_created": "2022-11-10T18:04:37.000",
    "date_modified": "2022-11-10T18:04:37.000",
    "request_status": "Pending",
    "responsible_agency": "Department of Sanitation",
    "final_address": "1411 France St",
    "address_councildis": "D",
    "status": "Assigned to Contractor",
    "contractor": "IV Waste",
    "rowid": "941966",
    "final_x": "3692724.13616",
    "final_y": "536367.807623",
    "longitude": "-90.03245490074592",
    "latitude": "29.968479887481976",
    "geocoded_column": {
      "latitude": "29.968479887481976",
      "longitude": "-90.03245490074592"
    }
  },
  {
    "service_request": "2022-941965",
    "request_type": "Trash/Recycling",
    "request_reason": "MIssed Recycling Pick-Up",
    "date_created": "2022-11-10T17:45:07.000",
    "date_modified": "2022-11-10T17:45:08.000",
    "request_status": "Pending",
    "responsible_agency": "Department of Sanitation",
    "final_address": "2823 Second St",
    "address_councildis": "B",
    "status": "Assigned to Contractor",
    "contractor": "Richards Disposal",
    "rowid": "941965",
    "final_x": "3674291.72552",
    "final_y": "526780.611518",
    "longitude": "-90.09099374698583",
    "latitude": "29.942680823820208",
    "geocoded_column": {
      "latitude": "29.942680823820208",
      "longitude": "-90.09099374698583"
    }
  },
  {
    "service_request": "2022-941964",
    "request_type": "Traffic Signals/Signs/Striping/Streetlights",
    "request_reason": "Street Light Outage/Malfunction",
    "date_created": "2022-11-10T17:41:58.000",
    "date_modified": "2022-11-10T17:41:59.000",
    "request_status": "Pending",
    "responsible_agency": "Department of Public Works",
    "final_address": "7115 Birch St",
    "address_councildis": "A",
    "status": "Pending",
    "contractor": "Legacy Professional Services",
    "rowid": "941964",
    "final_x": "3665077.76026",
    "final_y": "527632.844415",
    "longitude": "-90.12005602751493",
    "latitude": "29.945295664671825",
    "geocoded_column": {
      "latitude": "29.945295664671825",
      "longitude": "-90.12005602751493"
    }
  },
  {
    "service_request": "2022-941963",
    "request_type": "Trash/Recycling",
    "request_reason": "Order Trash Cart",
    "date_created": "2022-11-10T17:36:40.000",
    "date_modified": "2022-11-10T17:36:41.000",
    "request_status": "Pending",
    "responsible_agency": "Department of Sanitation",
    "final_address": "3759 Preston Place ",
    "status": "Assigned to Contractor",
    "rowid": "941963",
    "longitude": "0.0",
    "latitude": "0.0",
    "geocoded_column": {
      "latitude": "0.0",
      "longitude": "0.0"
    }
  },
  {
    "service_request": "2022-941962",
    "request_type": "Traffic Signals/Signs/Striping/Streetlights",
    "request_reason": "Request for Stop Sign",
    "date_created": "2022-11-10T17:36:33.000",
    "date_modified": "2022-11-10T17:36:34.000",
    "request_status": "Pending",
    "responsible_agency": "Department of Public Works",
    "final_address": "BENEFIT ST & OLIVER WHITE AVE",
    "address_councildis": "D",
    "status": "Pending",
    "rowid": "941962",
    "final_x": "3692260.68",
    "final_y": "544008.03",
    "longitude": "-90.03364483507183",
    "latitude": "29.989502227453787",
    "geocoded_column": {
      "latitude": "29.989502227453787",
      "longitude": "-90.03364483507183"
    }
  },
  {
    "service_request": "2022-941961",
    "request_type": "Trash/Recycling",
    "request_reason": "Missed Trash Pick-Up",
    "date_created": "2022-11-10T17:21:57.000",
    "date_modified": "2022-11-10T17:21:58.000",
    "case_close_date": "2021-03-30T19:00:00.000",
    "request_status": "Pending",
    "responsible_agency": "Department of Sanitation",
    "final_address": "909 Race St",
    "address_councildis": "B",
    "status": "Assigned to Contractor",
    "contractor": "Richards Disposal",
    "rowid": "941961",
    "final_x": "3680899.57487",
    "final_y": "523716.537467",
    "longitude": "-90.07023786706456",
    "latitude": "29.93405698808265",
    "geocoded_column": {
      "latitude": "29.93405698808265",
      "longitude": "-90.07023786706456"
    }
  },
  {
    "service_request": "2022-941960",
    "request_type": "Trash/Recycling",
    "request_reason": "Order Recycling Cart",
    "date_created": "2022-11-10T17:17:58.000",
    "date_modified": "2022-11-10T17:18:00.000",
    "case_close_date": "2022-10-27T19:00:00.000",
    "request_status": "Pending",
    "responsible_agency": "Department of Sanitation",
    "final_address": "1815 Montegut St",
    "address_councildis": "D",
    "status": "Pending",
    "rowid": "941960",
    "final_x": "3689159.48412",
    "final_y": "538903.556042",
    "longitude": "-90.04362208357556",
    "latitude": "29.975563099126536",
    "geocoded_column": {
      "latitude": "29.975563099126536",
      "longitude": "-90.04362208357556"
    }
  },
  {
    "service_request": "2022-941959",
    "request_type": "Trash/Recycling",
    "request_reason": "Order Recycling Cart",
    "date_created": "2022-11-10T17:17:57.000",
    "date_modified": "2022-11-10T17:17:58.000",
    "case_close_date": "2022-10-27T19:00:00.000",
    "request_status": "Pending",
    "responsible_agency": "Department of Sanitation",
    "final_address": "1815 Montegut St",
    "address_councildis": "D",
    "status": "Pending",
    "rowid": "941959",
    "final_x": "3689159.48412",
    "final_y": "538903.556042",
    "longitude": "-90.04362208357556",
    "latitude": "29.975563099126536",
    "geocoded_column": {
      "latitude": "29.975563099126536",
      "longitude": "-90.04362208357556"
    }
  },
  {
    "service_request": "2022-941957",
    "request_type": "Trash/Recycling",
    "request_reason": "Order Recycling Cart",
    "date_created": "2022-11-10T17:14:47.000",
    "date_modified": "2022-11-10T17:14:48.000",
    "request_status": "Pending",
    "responsible_agency": "Department of Sanitation",
    "final_address": "1831 Esplanade Ave",
    "address_councildis": "D",
    "status": "Pending",
    "rowid": "941957",
    "final_x": "3680560.10159",
    "final_y": "537216.935304",
    "longitude": "-90.07083997865506",
    "latitude": "29.971188814373452",
    "geocoded_column": {
      "latitude": "29.971188814373452",
      "longitude": "-90.07083997865506"
    }
  },
  {
    "service_request": "2022-941956",
    "request_type": "Health Related Questions",
    "request_reason": "Noise Ordinance Complaint",
    "date_created": "2022-11-10T17:13:59.000",
    "date_modified": "2022-11-10T17:13:59.000",
    "request_status": "Pending",
    "responsible_agency": "Health Department",
    "final_address": "5723 Eads St. 70122",
    "status": "Pending",
    "rowid": "941956",
    "longitude": "0.0",
    "latitude": "0.0",
    "geocoded_column": {
      "latitude": "0.0",
      "longitude": "0.0"
    }
  },
  {
    "service_request": "2022-941955",
    "request_type": "Trash/Recycling",
    "request_reason": "MIssed Recycling Pick-Up",
    "date_created": "2022-11-10T17:10:54.000",
    "date_modified": "2022-11-10T17:10:54.000",
    "request_status": "Pending",
    "responsible_agency": "Department of Sanitation",
    "final_address": "811 Louisa St",
    "address_councildis": "C",
    "status": "Assigned to Contractor",
    "contractor": "IV Waste",
    "rowid": "941955",
    "final_x": "3689327.583",
    "final_y": "534807.98791",
    "longitude": "-90.04323681636632",
    "latitude": "29.96429652206175",
    "geocoded_column": {
      "latitude": "29.96429652206175",
      "longitude": "-90.04323681636632"
    }
  },
  {
    "service_request": "2022-941954",
    "request_type": "Trash/Recycling",
    "request_reason": "MIssed Recycling Pick-Up",
    "date_created": "2022-11-10T17:09:53.000",
    "date_modified": "2022-11-10T17:09:54.000",
    "request_status": "Pending",
    "responsible_agency": "Department of Sanitation",
    "final_address": "821 Louisa St",
    "address_councildis": "C",
    "status": "Assigned to Contractor",
    "contractor": "IV Waste",
    "rowid": "941954",
    "final_x": "3689345.80732",
    "final_y": "534884.190278",
    "longitude": "-90.04317655614172",
    "latitude": "29.9645054877613",
    "geocoded_column": {
      "latitude": "29.9645054877613",
      "longitude": "-90.04317655614172"
    }
  },
  {
    "service_request": "2022-941953",
    "request_type": "Trash/Recycling",
    "request_reason": "MIssed Recycling Pick-Up",
    "date_created": "2022-11-10T17:08:09.000",
    "date_modified": "2022-11-10T17:08:09.000",
    "request_status": "Pending",
    "responsible_agency": "Department of Sanitation",
    "final_address": "6000 BLK Pitt St",
    "address_councildis": "A",
    "status": "Assigned to Contractor",
    "contractor": "Richards Disposal",
    "rowid": "941953",
    "final_x": "3665075.91391",
    "final_y": "521238.111839",
    "longitude": "-90.1202756033106",
    "latitude": "29.92771224062412",
    "geocoded_column": {
      "latitude": "29.92771224062412",
      "longitude": "-90.1202756033106"
    }
  },
  {
    "service_request": "2022-941952",
    "request_type": "Abandoned Vehicles",
    "request_reason": "Abandoned/Junk Vehicles",
    "date_created": "2022-11-10T17:08:08.000",
    "date_modified": "2022-11-10T17:08:08.000",
    "request_status": "Pending",
    "responsible_agency": "Department of Public Works",
    "final_address": "4439 Eden St",
    "address_councildis": "B",
    "status": "Pending",
    "rowid": "941952",
    "final_x": "3669737.08852",
    "final_y": "530822.482818",
    "longitude": "-90.10523707225651",
    "latitude": "29.95392964822065",
    "geocoded_column": {
      "latitude": "29.95392964822065",
      "longitude": "-90.10523707225651"
    }
  },
  {
    "service_request": "2022-941951",
    "request_type": "Trash/Recycling",
    "request_reason": "Repair Trash Cart",
    "date_created": "2022-11-10T17:03:07.000",
    "date_modified": "2022-11-10T17:03:07.000",
    "request_status": "Pending",
    "responsible_agency": "Department of Sanitation",
    "final_address": "5176 Bayouview Ct",
    "address_councildis": "E",
    "status": "Assigned to Contractor",
    "contractor": "Waste Pro",
    "rowid": "941951",
    "final_x": "3699199.78852",
    "final_y": "556495.327194",
    "longitude": "-90.01127119793156",
    "latitude": "30.02361936939045",
    "geocoded_column": {
      "latitude": "30.02361936939045",
      "longitude": "-90.01127119793156"
    }
  },
  {
    "service_request": "2022-941950",
    "request_type": "Trash/Recycling",
    "request_reason": "Order Trash Cart",
    "date_created": "2022-11-10T16:59:31.000",
    "date_modified": "2022-11-10T16:59:32.000",
    "request_status": "Pending",
    "responsible_agency": "Department of Sanitation",
    "final_address": "5170 Mckendall Pl",
    "address_councildis": "E",
    "status": "Assigned to Contractor",
    "contractor": "Waste Pro",
    "rowid": "941950",
    "final_x": "3717838.58809",
    "final_y": "558927.326236",
    "longitude": "-89.95228447749396",
    "latitude": "30.029701907125812",
    "geocoded_column": {
      "latitude": "30.029701907125812",
      "longitude": "-89.95228447749396"
    }
  },
  {
    "service_request": "2022-941949",
    "request_type": "Trash/Recycling",
    "request_reason": "Order Recycling Cart",
    "date_created": "2022-11-10T16:57:04.000",
    "date_modified": "2022-11-10T16:57:04.000",
    "request_status": "Pending",
    "responsible_agency": "Department of Sanitation",
    "final_address": "4617 Rosemont Pl Apt B",
    "address_councildis": "E",
    "status": "Pending",
    "rowid": "941949",
    "final_x": "3702861.78654",
    "final_y": "554235.108312",
    "longitude": "-89.99978323100044",
    "latitude": "30.0172879502903",
    "geocoded_column": {
      "latitude": "30.0172879502903",
      "longitude": "-89.99978323100044"
    }
  },
  {
    "service_request": "2022-941948",
    "request_type": "Trash/Recycling",
    "request_reason": "Order Recycling Cart",
    "date_created": "2022-11-10T16:56:42.000",
    "date_modified": "2022-11-10T16:56:43.000",
    "request_status": "Pending",
    "responsible_agency": "Department of Sanitation",
    "final_address": "4617 Rosemont Pl Apt A",
    "address_councildis": "E",
    "status": "Pending",
    "rowid": "941948",
    "final_x": "3702864.26698",
    "final_y": "554206.606808",
    "longitude": "-89.9997764419282",
    "latitude": "30.017209502686562",
    "geocoded_column": {
      "latitude": "30.017209502686562",
      "longitude": "-89.9997764419282"
    }
  },
  {
    "service_request": "2022-941947",
    "request_type": "Trash/Recycling",
    "request_reason": "Order Trash Cart",
    "date_created": "2022-11-10T16:55:59.000",
    "date_modified": "2022-11-10T16:56:00.000",
    "request_status": "Pending",
    "responsible_agency": "Department of Sanitation",
    "final_address": "7448 Burke Ave",
    "address_councildis": "E",
    "status": "Assigned to Contractor",
    "contractor": "Waste Pro",
    "rowid": "941947",
    "final_x": "3705697.02711",
    "final_y": "562389.227039",
    "longitude": "-89.99052316575678",
    "latitude": "30.039617560880604",
    "geocoded_column": {
      "latitude": "30.039617560880604",
      "longitude": "-89.99052316575678"
    }
  },
  {
    "service_request": "2022-941946",
    "request_type": "Trash/Recycling",
    "request_reason": "Order Recycling Cart",
    "date_created": "2022-11-10T16:54:19.000",
    "date_modified": "2022-11-10T16:54:19.000",
    "request_status": "Pending",
    "responsible_agency": "Department of Sanitation",
    "final_address": "2756 Jonquil St",
    "address_councildis": "D",
    "status": "Pending",
    "rowid": "941946",
    "final_x": "3688227.07779",
    "final_y": "547258.922385",
    "longitude": "-90.04627046245149",
    "latitude": "29.998566195233536",
    "geocoded_column": {
      "latitude": "29.998566195233536",
      "longitude": "-90.04627046245149"
    }
  },
  {
    "service_request": "2022-941945",
    "request_type": "Health Related Questions",
    "request_reason": "Noise Ordinance Complaint",
    "date_created": "2022-11-10T16:54:18.000",
    "date_modified": "2022-11-10T16:59:35.000",
    "request_status": "Pending",
    "responsible_agency": "Health Department",
    "final_address": "1340 Franklin Ave",
    "address_councildis": "C",
    "status": "Pending",
    "rowid": "941945",
    "final_x": "3687272.47305",
    "final_y": "537532.785928",
    "longitude": "-90.04963027020557",
    "latitude": "29.97185222866897",
    "geocoded_column": {
      "latitude": "29.97185222866897",
      "longitude": "-90.04963027020557"
    }
  },
  {
    "service_request": "2022-941944",
    "request_type": "Trash/Recycling",
    "request_reason": "Missed Trash Pick-Up",
    "date_created": "2022-11-10T16:53:43.000",
    "date_modified": "2022-11-10T16:53:43.000",
    "request_status": "Pending",
    "responsible_agency": "Department of Sanitation",
    "final_address": "4514 S Saratoga St",
    "address_councildis": "B",
    "status": "Assigned to Contractor",
    "contractor": "Richards Disposal",
    "rowid": "941944",
    "final_x": "3670151.17031",
    "final_y": "522554.29081",
    "longitude": "-90.10420961969194",
    "latitude": "29.931182596400745",
    "geocoded_column": {
      "latitude": "29.931182596400745",
      "longitude": "-90.10420961969194"
    }
  },
  {
    "service_request": "2022-941943",
    "request_type": "Trash/Recycling",
    "request_reason": "MIssed Recycling Pick-Up",
    "date_created": "2022-11-10T16:50:39.000",
    "date_modified": "2022-11-10T16:50:40.000",
    "request_status": "Pending",
    "responsible_agency": "Department of Sanitation",
    "final_address": "1831 Bordeaux St",
    "address_councildis": "B",
    "status": "Assigned to Contractor",
    "contractor": "Richards Disposal",
    "rowid": "941943",
    "final_x": "3669331.87892",
    "final_y": "521703.529722",
    "longitude": "-90.10682477262996",
    "latitude": "29.928867415105458",
    "geocoded_column": {
      "latitude": "29.928867415105458",
      "longitude": "-90.10682477262996"
    }
  },
  {
    "service_request": "2022-941942",
    "request_type": "Trash/Recycling",
    "request_reason": "Missed Trash Pick-Up",
    "date_created": "2022-11-10T16:49:12.000",
    "date_modified": "2022-11-10T16:49:13.000",
    "request_status": "Pending",
    "responsible_agency": "Department of Sanitation",
    "final_address": "1831 Bordeaux St",
    "address_councildis": "B",
    "status": "Assigned to Contractor",
    "contractor": "Richards Disposal",
    "rowid": "941942",
    "final_x": "3669331.87892",
    "final_y": "521703.529722",
    "longitude": "-90.10682477262996",
    "latitude": "29.928867415105458",
    "geocoded_column": {
      "latitude": "29.928867415105458",
      "longitude": "-90.10682477262996"
    }
  },
  {
    "service_request": "2022-941941",
    "request_type": "Trash/Recycling",
    "request_reason": "Missed Trash Pick-Up",
    "date_created": "2022-11-10T16:48:01.000",
    "date_modified": "2022-11-10T16:55:33.000",
    "case_close_date": "2022-11-10T10:55:33.000",
    "request_status": "Closed",
    "responsible_agency": "Department of Sanitation",
    "final_address": "1932 Alvar St",
    "address_councildis": "D",
    "status": "Assigned to Contractor",
    "contractor": "IV Waste",
    "contractor_action": "Completed",
    "rowid": "941941",
    "final_x": "3692264.14409",
    "final_y": "538661.118793",
    "longitude": "-90.03382543670124",
    "latitude": "29.974800031726417",
    "geocoded_column": {
      "latitude": "29.974800031726417",
      "longitude": "-90.03382543670124"
    }
  },
  {
    "service_request": "2022-941940",
    "request_type": "Trash/Recycling",
    "request_reason": "Request a Large Item Pick Up",
    "date_created": "2022-11-10T16:47:17.000",
    "date_modified": "2022-11-10T16:47:18.000",
    "request_status": "Pending",
    "responsible_agency": "Department of Sanitation",
    "final_address": "1921 Josephine St",
    "address_councildis": "B",
    "status": "Assigned to Contractor",
    "contractor": "Richards Disposal",
    "rowid": "941940",
    "final_x": "3677035.66568",
    "final_y": "525140.684477",
    "longitude": "-90.0823870044867",
    "latitude": "29.938089476487136",
    "geocoded_column": {
      "latitude": "29.938089476487136",
      "longitude": "-90.0823870044867"
    }
  },
  {
    "service_request": "2022-941939",
    "request_type": "Trash/Recycling",
    "request_reason": "Order Trash Cart",
    "date_created": "2022-11-10T16:45:52.000",
    "date_modified": "2022-11-10T16:45:52.000",
    "request_status": "Pending",
    "responsible_agency": "Department of Sanitation",
    "final_address": "1500 Reynes St",
    "address_councildis": "E",
    "status": "Assigned to Contractor",
    "contractor": "Waste Pro",
    "rowid": "941939",
    "final_x": "3696313.11031",
    "final_y": "535793.648263",
    "longitude": "-90.02114156261764",
    "latitude": "29.966788628962043",
    "geocoded_column": {
      "latitude": "29.966788628962043",
      "longitude": "-90.02114156261764"
    }
  },
  {
    "service_request": "2022-941938",
    "request_type": "Trash/Recycling",
    "request_reason": "Order Trash Cart",
    "date_created": "2022-11-10T16:41:59.000",
    "date_modified": "2022-11-10T16:41:59.000",
    "request_status": "Pending",
    "responsible_agency": "Department of Sanitation",
    "final_address": "5129 Lakeview Ct",
    "address_councildis": "E",
    "status": "Assigned to Contractor",
    "contractor": "Waste Pro",
    "rowid": "941938",
    "final_x": "3698930.59274",
    "final_y": "556212.100762",
    "longitude": "-90.01213211569527",
    "latitude": "30.02284914235903",
    "geocoded_column": {
      "latitude": "30.02284914235903",
      "longitude": "-90.01213211569527"
    }
  },
  {
    "service_request": "2022-941937",
    "request_type": "Trash/Recycling",
    "request_reason": "Request a Large Item Pick Up",
    "date_created": "2022-11-10T16:41:46.000",
    "date_modified": "2022-11-10T16:41:46.000",
    "request_status": "Pending",
    "responsible_agency": "Department of Sanitation",
    "final_address": "7900 Edward St",
    "address_councildis": "E",
    "status": "Assigned to Contractor",
    "contractor": "Waste Pro",
    "rowid": "941937",
    "final_x": "3700599.38333",
    "final_y": "561626.663007",
    "longitude": "-90.0066610645054",
    "latitude": "30.037684082437856",
    "geocoded_column": {
      "latitude": "30.037684082437856",
      "longitude": "-90.0066610645054"
    }
  },
  {
    "service_request": "2022-941936",
    "request_type": "Trash/Recycling",
    "request_reason": "Replace Trash Cart",
    "date_created": "2022-11-10T16:41:01.000",
    "date_modified": "2022-11-10T16:41:01.000",
    "request_status": "Pending",
    "responsible_agency": "Department of Sanitation",
    "final_address": "1749 Coliseum St",
    "address_councildis": "B",
    "status": "Assigned to Contractor",
    "contractor": "Richards Disposal",
    "rowid": "941936",
    "final_x": "3679453.41224",
    "final_y": "524128.750844",
    "longitude": "-90.0747890533511",
    "latitude": "29.93523419366514",
    "geocoded_column": {
      "latitude": "29.93523419366514",
      "longitude": "-90.0747890533511"
    }
  },
  {
    "service_request": "2022-941935",
    "request_type": "Trash/Recycling",
    "request_reason": "Order Recycling Cart",
    "date_created": "2022-11-10T16:37:23.000",
    "date_modified": "2022-11-10T16:37:23.000",
    "request_status": "Pending",
    "responsible_agency": "Department of Sanitation",
    "final_address": "4540 General Early Dr",
    "address_councildis": "D",
    "status": "Pending",
    "contractor": "Legacy Professional Services",
    "rowid": "941935",
    "final_x": "3691130.92003",
    "final_y": "550797.577877",
    "longitude": "-90.03697077821109",
    "latitude": "30.00820619509401",
    "geocoded_column": {
      "latitude": "30.00820619509401",
      "longitude": "-90.03697077821109"
    }
  },
  {
    "service_request": "2022-941934",
    "request_type": "Parks & Parkways",
    "request_reason": "Request Tree Service (Right of Way/Public Property)",
    "date_created": "2022-11-10T16:34:13.000",
    "date_modified": "2022-11-10T16:34:14.000",
    "request_status": "Pending",
    "responsible_agency": "Department of Parks & Parkway",
    "final_address": "4913 Laurel St",
    "address_councildis": "B",
    "status": "Pending",
    "rowid": "941934",
    "final_x": "3668846.86804",
    "final_y": "517875.829878",
    "longitude": "-90.1084850230638",
    "latitude": "29.91835671966076",
    "geocoded_column": {
      "latitude": "29.91835671966076",
      "longitude": "-90.1084850230638"
    }
  },
  {
    "service_request": "2022-941933",
    "request_type": "Trash/Recycling",
    "request_reason": "Repair Trash Cart",
    "date_created": "2022-11-10T16:31:14.000",
    "date_modified": "2022-11-10T16:31:14.000",
    "request_status": "Pending",
    "responsible_agency": "Department of Sanitation",
    "final_address": "5513 Wingate Dr",
    "address_councildis": "D",
    "status": "Assigned to Contractor",
    "contractor": "IV Waste",
    "rowid": "941933",
    "final_x": "3681428.69372",
    "final_y": "553244.641175",
    "longitude": "-90.06753768102438",
    "latitude": "30.01523298617939",
    "geocoded_column": {
      "latitude": "30.01523298617939",
      "longitude": "-90.06753768102438"
    }
  },
  {
    "service_request": "2022-941932",
    "request_type": "Trash/Recycling",
    "request_reason": "Order Trash Cart",
    "date_created": "2022-11-10T16:26:59.000",
    "date_modified": "2022-11-10T16:27:05.000",
    "request_status": "Pending",
    "responsible_agency": "Department of Sanitation",
    "final_address": "4653 Press Dr",
    "address_councildis": "D",
    "status": "Assigned to Contractor",
    "contractor": "IV Waste",
    "rowid": "941932",
    "final_x": "3689778.6815",
    "final_y": "550493.85762",
    "longitude": "-90.0412537232611",
    "latitude": "30.00741307262872",
    "geocoded_column": {
      "latitude": "30.00741307262872",
      "longitude": "-90.0412537232611"
    }
  },
  {
    "service_request": "2022-941931",
    "request_type": "Trash/Recycling",
    "request_reason": "Order Recycling Cart",
    "date_created": "2022-11-10T16:26:15.000",
    "date_modified": "2022-11-10T16:26:17.000",
    "request_status": "Pending",
    "responsible_agency": "Department of Sanitation",
    "final_address": "4653 Press Dr",
    "address_councildis": "D",
    "status": "Pending",
    "rowid": "941931",
    "final_x": "3689778.6815",
    "final_y": "550493.85762",
    "longitude": "-90.0412537232611",
    "latitude": "30.00741307262872",
    "geocoded_column": {
      "latitude": "30.00741307262872",
      "longitude": "-90.0412537232611"
    }
  },
  {
    "service_request": "2022-941930",
    "request_type": "Parks & Parkways",
    "request_reason": "Request Tree Service (Right of Way/Public Property)",
    "date_created": "2022-11-10T16:23:43.000",
    "date_modified": "2022-11-10T16:23:44.000",
    "request_status": "Pending",
    "responsible_agency": "Department of Parks & Parkway",
    "final_address": "1621 Bordeaux St",
    "address_councildis": "B",
    "status": "Pending",
    "rowid": "941930",
    "final_x": "3669403.42964",
    "final_y": "520900.215225",
    "longitude": "-90.10662604955981",
    "latitude": "29.92665645023131",
    "geocoded_column": {
      "latitude": "29.92665645023131",
      "longitude": "-90.10662604955981"
    }
  },
  {
    "service_request": "2022-941929",
    "request_type": "Abandoned Vehicles",
    "request_reason": "Abandoned/Junk Vehicles",
    "date_created": "2022-11-10T16:23:07.000",
    "date_modified": "2022-11-10T16:23:07.000",
    "request_status": "Pending",
    "responsible_agency": "Department of Public Works",
    "final_address": "3030 Peoples Ave",
    "address_councildis": "D",
    "status": "Pending",
    "rowid": "941929",
    "final_x": "3688618.54319",
    "final_y": "544276.265103",
    "longitude": "-90.04513975333064",
    "latitude": "29.990352867115956",
    "geocoded_column": {
      "latitude": "29.990352867115956",
      "longitude": "-90.04513975333064"
    }
  },
  {
    "service_request": "2022-941928",
    "request_type": "Trash/Recycling",
    "request_reason": "MIssed Recycling Pick-Up",
    "date_created": "2022-11-10T16:19:50.000",
    "date_modified": "2022-11-10T16:19:51.000",
    "request_status": "Pending",
    "responsible_agency": "Department of Sanitation",
    "final_address": "4304 Coliseum St",
    "address_councildis": "B",
    "status": "Assigned to Contractor",
    "contractor": "Richards Disposal",
    "rowid": "941928",
    "final_x": "3671305.10747",
    "final_y": "519772.527608",
    "longitude": "-90.10066125199654",
    "latitude": "29.92349955217605",
    "geocoded_column": {
      "latitude": "29.92349955217605",
      "longitude": "-90.10066125199654"
    }
  },
  {
    "service_request": "2022-941927",
    "request_type": "Trash/Recycling",
    "request_reason": "Return Recycling Cart",
    "date_created": "2022-11-10T16:16:09.000",
    "date_modified": "2022-11-10T16:16:09.000",
    "request_status": "Pending",
    "responsible_agency": "Department of Sanitation",
    "final_address": "6156 Milne Blvd",
    "address_councildis": "A",
    "status": "Pending",
    "rowid": "941927",
    "final_x": "3667034.20724",
    "final_y": "548627.802451",
    "longitude": "-90.11317300897724",
    "latitude": "30.002967667758124",
    "geocoded_column": {
      "latitude": "30.002967667758124",
      "longitude": "-90.11317300897724"
    }
  },
  {
    "service_request": "2022-941926",
    "request_type": "Trash/Recycling",
    "request_reason": "Missed Trash Pick-Up",
    "date_created": "2022-11-10T16:13:20.000",
    "date_modified": "2022-11-10T16:42:24.000",
    "case_close_date": "2022-11-10T10:42:24.000",
    "request_status": "Closed",
    "responsible_agency": "Department of Sanitation",
    "final_address": "1939 Gallier St",
    "address_councildis": "D",
    "status": "Assigned to Contractor",
    "contractor": "IV Waste",
    "contractor_action": "Completed",
    "rowid": "941926",
    "final_x": "3691345.18921",
    "final_y": "538964.670538",
    "longitude": "-90.036716867472",
    "latitude": "29.975663315947163",
    "geocoded_column": {
      "latitude": "29.975663315947163",
      "longitude": "-90.036716867472"
    }
  },
  {
    "service_request": "2022-941925",
    "request_type": "Trash/Recycling",
    "request_reason": "MIssed Recycling Pick-Up",
    "date_created": "2022-11-10T16:09:57.000",
    "date_modified": "2022-11-10T16:09:58.000",
    "request_status": "Pending",
    "responsible_agency": "Department of Sanitation",
    "final_address": "1026 Adams St",
    "address_councildis": "A",
    "status": "Assigned to Contractor",
    "contractor": "Richards Disposal",
    "rowid": "941925",
    "final_x": "3662696.5129",
    "final_y": "527049.397054",
    "longitude": "-90.12759380182884",
    "latitude": "29.943760486066008",
    "geocoded_column": {
      "latitude": "29.943760486066008",
      "longitude": "-90.12759380182884"
    }
  },
  {
    "service_request": "2022-941924",
    "request_type": "Trash/Recycling",
    "request_reason": "Missed Trash Pick-Up",
    "date_created": "2022-11-10T16:08:30.000",
    "date_modified": "2022-11-10T16:08:31.000",
    "case_close_date": "2022-04-18T19:00:00.000",
    "request_status": "Pending",
    "responsible_agency": "Department of Sanitation",
    "final_address": "5919 Selma St",
    "address_councildis": "D",
    "status": "Assigned to Contractor",
    "contractor": "Waste Pro",
    "rowid": "941924",
    "final_x": "3696297.93072",
    "final_y": "552461.040342",
    "longitude": "-90.02058647426446",
    "latitude": "30.012618345267185",
    "geocoded_column": {
      "latitude": "30.012618345267185",
      "longitude": "-90.02058647426446"
    }
  },
  {
    "service_request": "2022-941923",
    "request_type": "Trash/Recycling",
    "request_reason": "Replace Trash Cart",
    "date_created": "2022-11-10T16:06:26.000",
    "date_modified": "2022-11-10T16:06:27.000",
    "request_status": "Pending",
    "responsible_agency": "Department of Sanitation",
    "final_address": "6122 Argonne Blvd",
    "address_councildis": "A",
    "status": "Assigned to Contractor",
    "contractor": "IV Waste",
    "rowid": "941923",
    "final_x": "3670171.64769",
    "final_y": "548013.923602",
    "longitude": "-90.1032821786694",
    "latitude": "30.001187477773907",
    "geocoded_column": {
      "latitude": "30.001187477773907",
      "longitude": "-90.1032821786694"
    }
  },
  {
    "service_request": "2022-941922",
    "request_type": "Trash/Recycling",
    "request_reason": "Order Recycling Cart",
    "date_created": "2022-11-10T16:05:37.000",
    "date_modified": "2022-11-10T16:05:37.000",
    "request_status": "Pending",
    "responsible_agency": "Department of Sanitation",
    "final_address": "336 S Diamond St",
    "address_councildis": "B",
    "status": "Pending",
    "rowid": "941922",
    "final_x": "3681969.94799",
    "final_y": "526771.219262",
    "longitude": "-90.06675214621788",
    "latitude": "29.942423858953784",
    "geocoded_column": {
      "latitude": "29.942423858953784",
      "longitude": "-90.06675214621788"
    }
  },
  {
    "service_request": "2022-941921",
    "request_type": "Trash/Recycling",
    "request_reason": "Request a Large Item Pick Up",
    "date_created": "2022-11-10T16:05:12.000",
    "date_modified": "2022-11-10T16:05:13.000",
    "request_status": "Pending",
    "responsible_agency": "Department of Sanitation",
    "final_address": "626 Congress St",
    "address_councildis": "C",
    "status": "Assigned to Contractor",
    "contractor": "IV Waste",
    "rowid": "941921",
    "final_x": "3690277.351",
    "final_y": "533945.833733",
    "longitude": "-90.04026826097889",
    "latitude": "29.961896462005882",
    "geocoded_column": {
      "latitude": "29.961896462005882",
      "longitude": "-90.04026826097889"
    }
  },
  {
    "service_request": "2022-941920",
    "request_type": "Trash/Recycling",
    "request_reason": "Replace Trash Cart",
    "date_created": "2022-11-10T16:04:22.000",
    "date_modified": "2022-11-10T16:04:23.000",
    "request_status": "Pending",
    "responsible_agency": "Department of Sanitation",
    "final_address": "2932 Orleans Ave",
    "address_councildis": "A",
    "status": "Assigned to Contractor",
    "contractor": "Richards Disposal",
    "rowid": "941920",
    "final_x": "3675818.17345",
    "final_y": "537660.432584",
    "longitude": "-90.08580040113442",
    "latitude": "29.97255108956052",
    "geocoded_column": {
      "latitude": "29.97255108956052",
      "longitude": "-90.08580040113442"
    }
  },
  {
    "service_request": "2022-941919",
    "request_type": "Trash/Recycling",
    "request_reason": "Repair Trash Cart",
    "date_created": "2022-11-10T16:03:45.000",
    "date_modified": "2022-11-10T16:03:46.000",
    "request_status": "Pending",
    "responsible_agency": "Department of Sanitation",
    "final_address": "7410 Mayo Rd",
    "address_councildis": "E",
    "status": "Assigned to Contractor",
    "contractor": "Waste Pro",
    "rowid": "941919",
    "final_x": "3700891.80765",
    "final_y": "560087.840221",
    "longitude": "-90.00579328085722",
    "latitude": "30.033443605810483",
    "geocoded_column": {
      "latitude": "30.033443605810483",
      "longitude": "-90.00579328085722"
    }
  },
  {
    "service_request": "2022-941918",
    "request_type": "Trash/Recycling",
    "request_reason": "Repair Recycling Cart",
    "date_created": "2022-11-10T16:01:17.000",
    "date_modified": "2022-11-10T16:01:17.000",
    "request_status": "Pending",
    "responsible_agency": "Department of Sanitation",
    "final_address": "4322 S Saratoga St",
    "address_councildis": "B",
    "status": "Pending",
    "rowid": "941918",
    "final_x": "3670905.78868",
    "final_y": "522575.28281",
    "longitude": "-90.10182666884441",
    "latitude": "29.93121803839879",
    "geocoded_column": {
      "latitude": "29.93121803839879",
      "longitude": "-90.10182666884441"
    }
  },
  {
    "service_request": "2022-941917",
    "request_type": "Trash/Recycling",
    "request_reason": "Repair Trash Cart",
    "date_created": "2022-11-10T16:00:45.000",
    "date_modified": "2022-11-10T16:00:46.000",
    "request_status": "Pending",
    "responsible_agency": "Department of Sanitation",
    "final_address": "4322 S Saratoga St",
    "address_councildis": "B",
    "status": "Assigned to Contractor",
    "contractor": "Richards Disposal",
    "rowid": "941917",
    "final_x": "3670905.78868",
    "final_y": "522575.28281",
    "longitude": "-90.10182666884441",
    "latitude": "29.93121803839879",
    "geocoded_column": {
      "latitude": "29.93121803839879",
      "longitude": "-90.10182666884441"
    }
  },
  {
    "service_request": "2022-941916",
    "request_type": "Trash/Recycling",
    "request_reason": "Request a Large Item Pick Up",
    "date_created": "2022-11-10T15:58:34.000",
    "date_modified": "2022-11-10T15:58:34.000",
    "request_status": "Pending",
    "responsible_agency": "Department of Sanitation",
    "final_address": "3436 Seine St",
    "address_councildis": "C",
    "status": "Assigned to Contractor",
    "contractor": "Richards Disposal",
    "rowid": "941916",
    "final_x": "3696705.53655",
    "final_y": "519519.115255",
    "longitude": "-90.02049114260225",
    "latitude": "29.92202696260067",
    "geocoded_column": {
      "latitude": "29.92202696260067",
      "longitude": "-90.02049114260225"
    }
  },
  {
    "service_request": "2022-941915",
    "request_type": "Trash/Recycling",
    "request_reason": "Repair Trash Cart",
    "date_created": "2022-11-10T15:57:18.000",
    "date_modified": "2022-11-10T15:57:19.000",
    "request_status": "Pending",
    "responsible_agency": "Department of Sanitation",
    "final_address": "8012 Mercier St",
    "address_councildis": "E",
    "status": "Assigned to Contractor",
    "contractor": "Waste Pro",
    "rowid": "941915",
    "final_x": "3710705.98744",
    "final_y": "567529.320676",
    "longitude": "-89.97450084916463",
    "latitude": "30.053588393773154",
    "geocoded_column": {
      "latitude": "30.053588393773154",
      "longitude": "-89.97450084916463"
    }
  },
  {
    "service_request": "2022-941914",
    "request_type": "Trash/Recycling",
    "request_reason": "Order Recycling Cart",
    "date_created": "2022-11-10T15:56:56.000",
    "date_modified": "2022-11-10T15:56:56.000",
    "request_status": "Pending",
    "responsible_agency": "Department of Sanitation",
    "final_address": "2481 Jasmine St",
    "address_councildis": "D",
    "status": "Pending",
    "rowid": "941914",
    "final_x": "3686225.53647",
    "final_y": "548070.87349",
    "longitude": "-90.05256465459486",
    "latitude": "30.000860434165084",
    "geocoded_column": {
      "latitude": "30.000860434165084",
      "longitude": "-90.05256465459486"
    }
  },
  {
    "service_request": "2022-941913",
    "request_type": "Trash/Recycling",
    "request_reason": "Order Recycling Cart",
    "date_created": "2022-11-10T15:56:40.000",
    "date_modified": "2022-11-10T15:56:40.000",
    "request_status": "Pending",
    "responsible_agency": "Department of Sanitation",
    "final_address": "2479 Jasmine St",
    "address_councildis": "D",
    "status": "Pending",
    "rowid": "941913",
    "final_x": "3686208.19938",
    "final_y": "548069.719122",
    "longitude": "-90.05261946442155",
    "latitude": "30.000857792901453",
    "geocoded_column": {
      "latitude": "30.000857792901453",
      "longitude": "-90.05261946442155"
    }
  },
  {
    "service_request": "2022-941912",
    "request_type": "Trash/Recycling",
    "request_reason": "Missed Trash Pick-Up",
    "date_created": "2022-11-10T15:56:37.000",
    "date_modified": "2022-11-10T16:53:24.000",
    "case_close_date": "2022-11-10T10:53:24.000",
    "request_status": "Closed",
    "responsible_agency": "Department of Sanitation",
    "final_address": "1618 Frankfort St",
    "address_councildis": "D",
    "status": "Assigned to Contractor",
    "contractor": "IV Waste",
    "contractor_action": "Completed",
    "rowid": "941912",
    "final_x": "3679100.11119",
    "final_y": "556401.24329",
    "longitude": "-90.07478536645",
    "latitude": "30.023983019833242",
    "geocoded_column": {
      "latitude": "30.023983019833242",
      "longitude": "-90.07478536645"
    }
  },
  {
    "service_request": "2022-941911",
    "request_type": "Trash/Recycling",
    "request_reason": "Missed Trash Pick-Up",
    "date_created": "2022-11-10T15:54:35.000",
    "date_modified": "2022-11-10T15:54:36.000",
    "request_status": "Pending",
    "responsible_agency": "Department of Sanitation",
    "final_address": "4500 BLK S Saratoga St",
    "address_councildis": "B",
    "status": "Assigned to Contractor",
    "contractor": "Richards Disposal",
    "rowid": "941911",
    "final_x": "3670097.74605",
    "final_y": "522588.219375",
    "longitude": "-90.10437712486248",
    "latitude": "29.931277464732073",
    "geocoded_column": {
      "latitude": "29.931277464732073",
      "longitude": "-90.10437712486248"
    }
  },
  {
    "service_request": "2022-941910",
    "request_type": "Trash/Recycling",
    "request_reason": "MIssed Recycling Pick-Up",
    "date_created": "2022-11-10T15:53:34.000",
    "date_modified": "2022-11-10T15:53:35.000",
    "request_status": "Pending",
    "responsible_agency": "Department of Sanitation",
    "final_address": "4500 BLK S Saratoga St",
    "address_councildis": "B",
    "status": "Assigned to Contractor",
    "contractor": "Richards Disposal",
    "rowid": "941910",
    "final_x": "3670097.74605",
    "final_y": "522588.219375",
    "longitude": "-90.10437712486248",
    "latitude": "29.931277464732073",
    "geocoded_column": {
      "latitude": "29.931277464732073",
      "longitude": "-90.10437712486248"
    }
  },
  {
    "service_request": "2022-941909",
    "request_type": "Roads/Drainage",
    "request_reason": "Pothole",
    "date_created": "2022-11-10T15:53:27.000",
    "date_modified": "2022-11-10T15:53:27.000",
    "request_status": "Pending",
    "responsible_agency": "Department of Public Works",
    "final_address": "3526 N Prieur St",
    "address_councildis": "D",
    "status": "Pending",
    "rowid": "941909",
    "final_x": "3691423.17667",
    "final_y": "538553.278217",
    "longitude": "-90.03648526750597",
    "latitude": "29.974529706392506",
    "geocoded_column": {
      "latitude": "29.974529706392506",
      "longitude": "-90.03648526750597"
    }
  },
  {
    "service_request": "2022-941908",
    "request_type": "Trash/Recycling",
    "request_reason": "Order Recycling Cart",
    "date_created": "2022-11-10T15:52:38.000",
    "date_modified": "2022-11-10T15:52:38.000",
    "request_status": "Pending",
    "responsible_agency": "Department of Sanitation",
    "final_address": "2560 Vienna St",
    "address_councildis": "D",
    "status": "Pending",
    "rowid": "941908",
    "final_x": "3686227.58914",
    "final_y": "555081.496921",
    "longitude": "-90.05231057094757",
    "latitude": "30.020137023616762",
    "geocoded_column": {
      "latitude": "30.020137023616762",
      "longitude": "-90.05231057094757"
    }
  },
  {
    "service_request": "2022-941907",
    "request_type": "Traffic Signals/Signs/Striping/Streetlights",
    "request_reason": "Street Name Sign Damaged or Missing",
    "date_created": "2022-11-10T15:52:27.000",
    "date_modified": "2022-11-10T15:52:28.000",
    "request_status": "Pending",
    "responsible_agency": "Department of Public Works",
    "final_address": "2068 St Denis St",
    "address_councildis": "D",
    "status": "Pending",
    "rowid": "941907",
    "final_x": "3683310.51714",
    "final_y": "546114.66024",
    "longitude": "-90.06184198554293",
    "latitude": "29.995570816487767",
    "geocoded_column": {
      "latitude": "29.995570816487767",
      "longitude": "-90.06184198554293"
    }
  },