[
  {
    "service_request": "2024-1137848",
    "request_type": "Road Striping",
    "request_reason": "Lane Striping or other Pavement Markings",
    "date_created": "2024-10-02T23:41:10.000",
    "date_modified": "2024-10-02T23:41:10.000",
    "request_status": "Pending",
    "responsible_agency": "Department of Public Works",
    "final_address": "11297 Lake Forest Blvd",
    "address_councildis": "E",
    "status": "Pending",
    "rowid": "1137848",
    "final_x": "3716618.45644",
    "final_y": "562213.001247",
    "longitude": "-89.95601523386672",
    "latitude": "30.038776569790986",
    "geocoded_column": {
      "latitude": "30.038776569790986",
      "longitude": "-89.95601523386672"
    }
  },
  {
    "service_request": "2024-1137847",
    "request_type": "Traffic Signals",
    "request_reason": "Traffic Signal Malfunctioning or Damaged",
    "date_created": "2024-10-02T23:37:10.000",
    "date_modified": "2024-10-02T23:37:10.000",
    "request_status": "Pending",
    "responsible_agency": "Department of Public Works",
    "final_address": "7000 BLK Crowder Blvd",
    "address_councildis": "E",
    "status": "Pending",
    "rowid": "1137847",
    "final_x": "3704415.95366",
    "final_y": "559493.307966",
    "longitude": "-89.99467863517812",
    "latitude": "30.03169613696067",
    "geocoded_column": {
      "latitude": "30.03169613696067",
      "longitude": "-89.99467863517812"
    }
  },
  {
    "service_request": "2024-1137846",
    "request_type": "Traffic Signals",
    "request_reason": "Traffic Signal Malfunctioning or Damaged",
    "date_created": "2024-10-02T23:34:22.000",
    "date_modified": "2024-10-02T23:34:22.000",
    "request_status": "Pending",
    "responsible_agency": "Department of Public Works",
    "final_address": "5811 Read Blvd",
    "address_councildis": "E",
    "status": "Pending",
    "rowid": "1137846",
    "final_x": "3710874.32254",
    "final_y": "560811.844318",
    "longitude": "-89.97422063044785",
    "latitude": "30.035112544164804",
    "geocoded_column": {
      "latitude": "30.035112544164804",
      "longitude": "-89.97422063044785"
    }
  },
  {
    "service_request": "2024-1137845",
    "request_type": "Trash/Recycling",
    "request_reason": "Request a Large Item Pick Up",
    "date_created": "2024-10-02T23:32:17.000",
    "date_modified": "2024-10-02T23:32:18.000",
    "request_status": "Pending",
    "responsible_agency": "Department of Sanitation",
    "final_address": "1912 St Roch Ave",
    "address_councildis": "D",
    "status": "Assigned to Contractor",
    "contractor": "IV Waste",
    "rowid": "1137845",
    "final_x": "3686030.47324",
    "final_y": "539481.098314",
    "longitude": "-90.05348396615013",
    "latitude": "29.977247606237537",
    "geocoded_column": {
      "latitude": "29.977247606237537",
      "longitude": "-90.05348396615013"
    }
  },
  {
    "service_request": "2024-1137844",
    "request_type": "Streetlights",
    "request_reason": "Streetlight Outage/Malfunction",
    "date_created": "2024-10-02T23:32:16.000",
    "date_modified": "2024-10-02T23:32:18.000",
    "request_status": "Pending",
    "responsible_agency": "Department of Public Works",
    "final_address": "5423 Magnolia St",
    "address_councildis": "A",
    "status": "Pending",
    "contractor": "Legacy Professional Services",
    "rowid": "1137844",
    "final_x": "3667890.5449",
    "final_y": "524760.90406",
    "longitude": "-90.1112718522876",
    "latitude": "29.937316561068695",
    "geocoded_column": {
      "latitude": "29.937316561068695",
      "longitude": "-90.1112718522876"
    }
  },
  {
    "service_request": "2024-1137843",
    "request_type": "Streetlights",
    "request_reason": "Streetlight Outage/Malfunction",
    "date_created": "2024-10-02T23:26:35.000",
    "date_modified": "2024-10-02T23:26:36.000",
    "request_status": "Pending",
    "responsible_agency": "Department of Public Works",
    "final_address": "5423 Magnolia St",
    "address_councildis": "A",
    "status": "Pending",
    "contractor": "Legacy Professional Services",
    "rowid": "1137843",
    "final_x": "3667890.5449",
    "final_y": "524760.90406",
    "longitude": "-90.1112718522876",
    "latitude": "29.937316561068695",
    "geocoded_column": {
      "latitude": "29.937316561068695",
      "longitude": "-90.1112718522876"
    }
  },
  {
    "service_request": "2024-1137842",
    "request_type": "Trash/Recycling",
    "request_reason": "Request a Large Item Pick Up",
    "date_created": "2024-10-02T22:57:24.000",
    "date_modified": "2024-10-02T22:57:26.000",
    "request_status": "Pending",
    "responsible_agency": "Department of Sanitation",
    "final_address": "8430 Apple St",
    "address_councildis": "A",
    "status": "Assigned to Contractor",
    "contractor": "IV Waste",
    "rowid": "1137842",
    "final_x": "3664300.56525",
    "final_y": "533014.209156",
    "longitude": "-90.1223303200947",
    "latitude": "29.960115279583455",
    "geocoded_column": {
      "latitude": "29.960115279583455",
      "longitude": "-90.1223303200947"
    }
  },
  {
    "service_request": "2024-1137841",
    "request_type": "Parks & Parkways",
    "request_reason": "Request Tree Service (Right of Way/Public Property)",
    "date_created": "2024-10-02T22:38:14.000",
    "date_modified": "2024-10-02T22:38:14.000",
    "request_status": "Pending",
    "responsible_agency": "Department of Parks & Parkway",
    "final_address": "6201 Berkley Dr",
    "address_councildis": "C",
    "status": "Pending",
    "rowid": "1137841",
    "final_x": "3707025.10321",
    "final_y": "518035.768886",
    "longitude": "-89.98797185070612",
    "latitude": "29.917619132934384",
    "geocoded_column": {
      "latitude": "29.917619132934384",
      "longitude": "-89.98797185070612"
    }
  },
  {
    "service_request": "2024-1137840",
    "request_type": "Parks & Parkways",
    "request_reason": "Request Tree Service (Right of Way/Public Property)",
    "date_created": "2024-10-02T22:36:59.000",
    "date_modified": "2024-10-02T22:36:59.000",
    "request_status": "Pending",
    "responsible_agency": "Department of Parks & Parkway",
    "final_address": "6201 Berkley Dr",
    "address_councildis": "C",
    "status": "Pending",
    "rowid": "1137840",
    "final_x": "3707025.10321",
    "final_y": "518035.768886",
    "longitude": "-89.98797185070612",
    "latitude": "29.917619132934384",
    "geocoded_column": {
      "latitude": "29.917619132934384",
      "longitude": "-89.98797185070612"
    }
  },
  {
    "service_request": "2024-1137839",
    "request_type": "Parks & Parkways",
    "request_reason": "Request Tree Service (Right of Way/Public Property)",
    "date_created": "2024-10-02T22:34:53.000",
    "date_modified": "2024-10-02T22:34:53.000",
    "request_status": "Pending",
    "responsible_agency": "Department of Parks & Parkway",
    "final_address": "6201 Berkley Dr",
    "address_councildis": "C",
    "status": "Pending",
    "rowid": "1137839",
    "final_x": "3707025.10321",
    "final_y": "518035.768886",
    "longitude": "-89.98797185070612",
    "latitude": "29.917619132934384",
    "geocoded_column": {
      "latitude": "29.917619132934384",
      "longitude": "-89.98797185070612"
    }
  },
  {
    "service_request": "2024-1137838",
    "request_type": "Trash/Recycling",
    "request_reason": "Order Recycling Cart",
    "date_created": "2024-10-02T22:28:45.000",
    "date_modified": "2024-10-02T22:28:45.000",
    "request_status": "Pending",
    "responsible_agency": "Department of Sanitation",
    "final_address": "3528 Audubon St",
    "address_councildis": "B",
    "status": "Pending",
    "rowid": "1137838",
    "final_x": "3669075.69678",
    "final_y": "533314.645252",
    "longitude": "-90.10724127897515",
    "latitude": "29.960801748578014",
    "geocoded_column": {
      "latitude": "29.960801748578014",
      "longitude": "-90.10724127897515"
    }
  },
  {
    "service_request": "2024-1137837",
    "request_type": "Trash/Recycling",
    "request_reason": "Order Recycling Cart",
    "date_created": "2024-10-02T22:22:45.000",
    "date_modified": "2024-10-02T22:22:45.000",
    "request_status": "Pending",
    "responsible_agency": "Department of Sanitation",
    "final_address": "3528 Audubon St",
    "address_councildis": "B",
    "status": "Pending",
    "rowid": "1137837",
    "final_x": "3669075.69678",
    "final_y": "533314.645252",
    "longitude": "-90.10724127897515",
    "latitude": "29.960801748578014",
    "geocoded_column": {
      "latitude": "29.960801748578014",
      "longitude": "-90.10724127897515"
    }
  },
  {
    "service_request": "2024-1137836",
    "request_type": "Utility Poles",
    "request_reason": "Wires Sagging/Hanging Low",
    "date_created": "2024-10-02T22:22:38.000",
    "date_modified": "2024-10-02T22:22:43.000",
    "request_status": "Pending",
    "responsible_agency": "Utility Company Collective",
    "final_address": "4000 BLK Dumaine St",
    "address_councildis": "A",
    "status": "Pending",
    "rowid": "1137836",
    "final_x": "3673272.79712",
    "final_y": "540470.131118",
    "longitude": "-90.09374317563295",
    "latitude": "29.980352758935776",
    "geocoded_column": {
      "latitude": "29.980352758935776",
      "longitude": "-90.09374317563295"
    }
  },
  {
    "service_request": "2024-1137835",
    "request_type": "Trash/Recycling",
    "request_reason": "Illegal Dumping",
    "date_created": "2024-10-02T22:07:57.000",
    "date_modified": "2024-10-02T22:07:57.000",
    "request_status": "Pending",
    "responsible_agency": "Department of Sanitation",
    "final_address": "1801 Mazant St",
    "address_councildis": "D",
    "status": "Pending",
    "rowid": "1137835",
    "final_x": "3692807.00381",
    "final_y": "537884.287113",
    "longitude": "-90.03213881734901",
    "latitude": "29.972647081276328",
    "geocoded_column": {
      "latitude": "29.972647081276328",
      "longitude": "-90.03213881734901"
    }
  },
  {
    "service_request": "2024-1137834",
    "request_type": "Abandoned Vehicles",
    "request_reason": "Abandoned/Junk Vehicles",
    "date_created": "2024-10-02T22:04:16.000",
    "date_modified": "2024-10-02T22:04:16.000",
    "request_status": "Pending",
    "responsible_agency": "Department of Public Works",
    "final_address": "1801 Mazant St",
    "address_councildis": "D",
    "status": "Pending",
    "rowid": "1137834",
    "final_x": "3692807.00381",
    "final_y": "537884.287113",
    "longitude": "-90.03213881734901",
    "latitude": "29.972647081276328",
    "geocoded_column": {
      "latitude": "29.972647081276328",
      "longitude": "-90.03213881734901"
    }
  },
  {
    "service_request": "2024-1137832",
    "request_type": "Trash/Recycling",
    "request_reason": "Request a Large Item Pick Up",
    "date_created": "2024-10-02T21:39:02.000",
    "date_modified": "2024-10-02T21:39:03.000",
    "request_status": "Pending",
    "responsible_agency": "Department of Sanitation",
    "final_address": "260 Audubon Blvd",
    "address_councildis": "A",
    "status": "Assigned to Contractor",
    "contractor": "IV Waste",
    "rowid": "1137832",
    "final_x": "3666743.06689",
    "final_y": "529444.775297",
    "longitude": "-90.11473726582281",
    "latitude": "29.950229297069924",
    "geocoded_column": {
      "latitude": "29.950229297069924",
      "longitude": "-90.11473726582281"
    }
  },
  {
    "service_request": "2024-1137831",
    "request_type": "Safety & Permits",
    "request_reason": "Licenses & Permits",
    "date_created": "2024-10-02T21:38:33.000",
    "date_modified": "2024-10-02T21:38:33.000",
    "request_status": "Pending",
    "responsible_agency": "Safety and Permits",
    "final_address": "600 BLK N Broad St",
    "address_councildis": "A",
    "status": "Pending",
    "rowid": "1137831",
    "final_x": "3676359.9435",
    "final_y": "536531.150807",
    "longitude": "-90.08412827453832",
    "latitude": "29.969429719559482",
    "geocoded_column": {
      "latitude": "29.969429719559482",
      "longitude": "-90.08412827453832"
    }
  },
  {
    "service_request": "2024-1137830",
    "request_type": "Health Related Request",
    "request_reason": "Noise Ordinance Complaint",
    "date_created": "2024-10-02T21:36:30.000",
    "date_modified": "2024-10-02T21:36:30.000",
    "request_status": "Pending",
    "responsible_agency": "Health Department",
    "final_address": "600 BLK S Broad St",
    "address_councildis": "B",
    "status": "Pending",
    "rowid": "1137830",
    "final_x": "3673931.9313",
    "final_y": "533263.224928",
    "longitude": "-90.0919079585769",
    "latitude": "29.96051658419824",
    "geocoded_column": {
      "latitude": "29.96051658419824",
      "longitude": "-90.0919079585769"
    }
  },
  {
    "service_request": "2024-1137829",
    "request_type": "Trash/Recycling",
    "request_reason": "Order Recycling Cart",
    "date_created": "2024-10-02T21:16:26.000",
    "date_modified": "2024-10-02T21:16:26.000",
    "request_status": "Pending",
    "responsible_agency": "Department of Sanitation",
    "final_address": "4648 Marigny St",
    "address_councildis": "D",
    "status": "Pending",
    "rowid": "1137829",
    "final_x": "3684366.21282",
    "final_y": "549813.114644",
    "longitude": "-90.05837714937782",
    "latitude": "30.00570798268607",
    "geocoded_column": {
      "latitude": "30.00570798268607",
      "longitude": "-90.05837714937782"
    }
  },
  {
    "service_request": "2024-1137828",
    "request_type": "Trash/Recycling",
    "request_reason": "Order Trash Cart",
    "date_created": "2024-10-02T21:11:51.000",
    "date_modified": "2024-10-02T21:11:52.000",
    "request_status": "Pending",
    "responsible_agency": "Department of Sanitation",
    "final_address": "4648 Marigny St",
    "address_councildis": "D",
    "status": "Assigned to Contractor",
    "contractor": "IV Waste",
    "rowid": "1137828",
    "final_x": "3684366.21282",
    "final_y": "549813.114644",
    "longitude": "-90.05837714937782",
    "latitude": "30.00570798268607",
    "geocoded_column": {
      "latitude": "30.00570798268607",
      "longitude": "-90.05837714937782"
    }
  },
  {
    "service_request": "2024-1137827",
    "request_type": "Abandoned Vehicles",
    "request_reason": "Abandoned/Junk Vehicles",
    "date_created": "2024-10-02T21:11:22.000",
    "date_modified": "2024-10-02T21:11:22.000",
    "request_status": "Pending",
    "responsible_agency": "Department of Public Works",
    "final_address": "252 Walnut St",
    "address_councildis": "A",
    "status": "Pending",
    "rowid": "1137827",
    "final_x": "3661464.24019",
    "final_y": "521487.993017",
    "longitude": "-90.13166858157456",
    "latitude": "29.928503976744977",
    "geocoded_column": {
      "latitude": "29.928503976744977",
      "longitude": "-90.13166858157456"
    }
  },
  {
    "service_request": "2024-1137826",
    "request_type": "Streetlights",
    "request_reason": "Streetlight Outage/Malfunction",
    "date_created": "2024-10-02T20:58:46.000",
    "date_modified": "2024-10-02T20:58:47.000",
    "request_status": "Pending",
    "responsible_agency": "Department of Public Works",
    "final_address": "1914 Magazine St",
    "address_councildis": "B",
    "status": "Pending",
    "contractor": "Legacy Professional Services",
    "rowid": "1137826",
    "final_x": "3679683.7124",
    "final_y": "522687.819514",
    "longitude": "-90.07411198752877",
    "latitude": "29.931265149568254",
    "geocoded_column": {
      "latitude": "29.931265149568254",
      "longitude": "-90.07411198752877"
    }
  },
  {
    "service_request": "2024-1137825",
    "request_type": "Trash/Recycling",
    "request_reason": "Request a Large Item Pick Up",
    "date_created": "2024-10-02T20:50:40.000",
    "date_modified": "2024-10-02T20:50:41.000",
    "request_status": "Pending",
    "responsible_agency": "Department of Sanitation",
    "final_address": "2114 First St",
    "address_councildis": "B",
    "status": "Assigned to Contractor",
    "contractor": "IV Waste",
    "rowid": "1137825",
    "final_x": "3675863.29819",
    "final_y": "524796.660412",
    "longitude": "-90.08610009924051",
    "latitude": "29.937178664188522",
    "geocoded_column": {
      "latitude": "29.937178664188522",
      "longitude": "-90.08610009924051"
    }
  },
  {
    "service_request": "2024-1137824",
    "request_type": "Trash/Recycling",
    "request_reason": "Request a Large Item Pick Up",
    "date_created": "2024-10-02T20:49:43.000",
    "date_modified": "2024-10-02T20:49:45.000",
    "request_status": "Pending",
    "responsible_agency": "Department of Sanitation",
    "final_address": "8903 Middleboro Rd",
    "address_councildis": "E",
    "status": "Assigned to Contractor",
    "contractor": "Waste Pro",
    "rowid": "1137824",
    "final_x": "3706120.78135",
    "final_y": "560872.781406",
    "longitude": "-89.98924020084614",
    "latitude": "30.035434272453273",
    "geocoded_column": {
      "latitude": "30.035434272453273",
      "longitude": "-89.98924020084614"
    }
  },
  {
    "service_request": "2024-1137823",
    "request_type": "Trash/Recycling",
    "request_reason": "Return Trash Cart",
    "date_created": "2024-10-02T20:27:00.000",
    "date_modified": "2024-10-02T20:27:01.000",
    "request_status": "Pending",
    "responsible_agency": "Department of Sanitation",
    "final_address": "4534 Chestnut St",
    "address_councildis": "B",
    "status": "Assigned to Contractor",
    "contractor": "IV Waste",
    "rowid": "1137823",
    "final_x": "3670271.69742",
    "final_y": "519410.643127",
    "longitude": "-90.10393560801512",
    "latitude": "29.922535013176166",
    "geocoded_column": {
      "latitude": "29.922535013176166",
      "longitude": "-90.10393560801512"
    }
  },
  {
    "service_request": "2024-1137822",
    "request_type": "Streetlights",
    "request_reason": "Streetlight Outage/Malfunction",
    "date_created": "2024-10-02T20:00:22.000",
    "date_modified": "2024-10-02T20:00:23.000",
    "request_status": "Pending",
    "responsible_agency": "Department of Public Works",
    "final_address": "2514 Laharpe St",
    "address_councildis": "D",
    "status": "Pending",
    "contractor": "Legacy Professional Services",
    "rowid": "1137822",
    "final_x": "3679193.46184",
    "final_y": "539569.70657",
    "longitude": "-90.07507441988197",
    "latitude": "29.97769945740482",
    "geocoded_column": {
      "latitude": "29.97769945740482",
      "longitude": "-90.07507441988197"
    }
  },
  {
    "service_request": "2024-1137821",
    "request_type": "Trash/Recycling",
    "request_reason": "Storm Debris Collection",
    "date_created": "2024-10-02T19:53:57.000",
    "date_modified": "2024-10-02T19:53:57.000",
    "request_status": "Pending",
    "responsible_agency": "Department of Sanitation",
    "final_address": "4936 Mirabeau Ave",
    "address_councildis": "D",
    "status": "Pending",
    "rowid": "1137821",
    "final_x": "3692040.7103",
    "final_y": "551964.279574",
    "longitude": "-90.03405468585083",
    "latitude": "30.011385859489266",
    "geocoded_column": {
      "latitude": "30.011385859489266",
      "longitude": "-90.03405468585083"
    }
  },
  {
    "service_request": "2024-1137820",
    "request_type": "Drainage",
    "request_reason": "Street Flooding",
    "date_created": "2024-10-02T19:40:29.000",
    "date_modified": "2024-10-02T19:40:29.000",
    "request_status": "Pending",
    "responsible_agency": "Department of Public Works",
    "final_address": "S NORMAN C FRANCIS PKWY & DHEMECOURT ST",
    "address_councildis": "B",
    "status": "Pending",
    "rowid": "1137820",
    "final_x": "3671940.5",
    "final_y": "535213.18",
    "longitude": "-90.09813013364315",
    "latitude": "29.965937484228466",
    "geocoded_column": {
      "latitude": "29.965937484228466",
      "longitude": "-90.09813013364315"
    }
  },
  {
    "service_request": "2024-1137819",
    "request_type": "Trash/Recycling",
    "request_reason": "Request a Large Item Pick Up",
    "date_created": "2024-10-02T19:30:13.000",
    "date_modified": "2024-10-02T19:30:15.000",
    "request_status": "Pending",
    "responsible_agency": "Department of Sanitation",
    "final_address": "100 BLK N Genois St",
    "address_councildis": "B",
    "status": "Assigned to Contractor",
    "contractor": "IV Waste",
    "rowid": "1137819",
    "final_x": "3672745.62429",
    "final_y": "537389.808866",
    "longitude": "-90.09551331505293",
    "latitude": "29.9718985906979",
    "geocoded_column": {
      "latitude": "29.9718985906979",
      "longitude": "-90.09551331505293"
    }
  },
  {
    "service_request": "2024-1137818",
    "request_type": "Health Related Request",
    "request_reason": "Noise Ordinance Complaint",
    "date_created": "2024-10-02T19:29:02.000",
    "date_modified": "2024-10-02T19:29:02.000",
    "request_status": "Pending",
    "responsible_agency": "Health Department",
    "final_address": "600 BLK S Broad St",
    "address_councildis": "B",
    "status": "Pending",
    "rowid": "1137818",
    "final_x": "3673931.9313",
    "final_y": "533263.224928",
    "longitude": "-90.0919079585769",
    "latitude": "29.96051658419824",
    "geocoded_column": {
      "latitude": "29.96051658419824",
      "longitude": "-90.0919079585769"
    }
  },
  {
    "service_request": "2024-1137817",
    "request_type": "Trash/Recycling",
    "request_reason": "Request a Large Item Pick Up",
    "date_created": "2024-10-02T19:14:07.000",
    "date_modified": "2024-10-02T19:14:08.000",
    "request_status": "Pending",
    "responsible_agency": "Department of Sanitation",
    "final_address": "7755 Scottwood Dr",
    "address_councildis": "E",
    "status": "Assigned to Contractor",
    "contractor": "Waste Pro",
    "rowid": "1137817",
    "final_x": "3716849.93029",
    "final_y": "571449.054824",
    "longitude": "-89.9549325964996",
    "latitude": "30.06416427140382",
    "geocoded_column": {
      "latitude": "30.06416427140382",
      "longitude": "-89.9549325964996"
    }
  },
  {
    "service_request": "2024-1137815",
    "request_type": "Property Maintenance",
    "request_reason": "Property Maintenance",
    "date_created": "2024-10-02T19:02:03.000",
    "date_modified": "2024-10-02T19:02:03.000",
    "request_status": "Pending",
    "responsible_agency": "Department of Code Enforcement",
    "final_address": "ST CLAUDE AVE & CAFFIN AVE",
    "address_councildis": "E",
    "status": "Pending",
    "rowid": "1137815",
    "final_x": "3698024.58",
    "final_y": "533826.9",
    "longitude": "-90.01580819331191",
    "latitude": "29.961326769889972",
    "geocoded_column": {
      "latitude": "29.961326769889972",
      "longitude": "-90.01580819331191"
    }
  },
  {
    "service_request": "2024-1137814",
    "request_type": "Mosquito, Termite & Rodent Control",
    "request_reason": "Mosquito Complaint",
    "date_created": "2024-10-02T19:01:49.000",
    "date_modified": "2024-10-02T19:01:49.000",
    "request_status": "Pending",
    "responsible_agency": "Mosquito, Termite & Rodent Control Board",
    "final_address": "5524 Dayna Ct",
    "address_councildis": "A",
    "status": "Pending",
    "rowid": "1137814",
    "final_x": "3664368.24064",
    "final_y": "544067.054542",
    "longitude": "-90.12174756285931",
    "latitude": "29.99050495874657",
    "geocoded_column": {
      "latitude": "29.99050495874657",
      "longitude": "-90.12174756285931"
    }
  },
  {
    "service_request": "2024-1137813",
    "request_type": "General Services",
    "request_reason": "General Service Request",
    "date_created": "2024-10-02T18:28:03.000",
    "date_modified": "2024-10-02T18:28:03.000",
    "request_status": "Pending",
    "responsible_agency": "Orleans Parish Communication District",
    "final_address": "1476 N Derbigny St",
    "address_councildis": "D",
    "status": "Pending",
    "rowid": "1137813",
    "final_x": "3681408.80444",
    "final_y": "537324.730952",
    "longitude": "-90.0681559020888",
    "latitude": "29.97145947571705",
    "geocoded_column": {
      "latitude": "29.97145947571705",
      "longitude": "-90.0681559020888"
    }
  },
  {
    "service_request": "2024-1137812",
    "request_type": "Trash/Recycling",
    "request_reason": "Repair Trash Cart",
    "date_created": "2024-10-02T17:53:09.000",
    "date_modified": "2024-10-02T17:53:10.000",
    "request_status": "Pending",
    "responsible_agency": "Department of Sanitation",
    "final_address": "1137 State St",
    "address_councildis": "A",
    "status": "Assigned to Contractor",
    "contractor": "IV Waste",
    "rowid": "1137812",
    "final_x": "3665175.50068",
    "final_y": "520444.232824",
    "longitude": "-90.11998776767778",
    "latitude": "29.925526424072796",
    "geocoded_column": {
      "latitude": "29.925526424072796",
      "longitude": "-90.11998776767778"
    }
  },
  {
    "service_request": "2024-1137811",
    "request_type": "Trash/Recycling",
    "request_reason": "Request a Large Item Pick Up",
    "date_created": "2024-10-02T17:52:39.000",
    "date_modified": "2024-10-02T17:52:40.000",
    "request_status": "Pending",
    "responsible_agency": "Department of Sanitation",
    "final_address": "7209 Lake Willow Dr",
    "address_councildis": "E",
    "status": "Assigned to Contractor",
    "contractor": "Waste Pro",
    "rowid": "1137811",
    "final_x": "3702528.75652",
    "final_y": "559856.062493",
    "longitude": "-90.00062890180962",
    "latitude": "30.03275405840936",
    "geocoded_column": {
      "latitude": "30.03275405840936",
      "longitude": "-90.00062890180962"
    }
  },
  {
    "service_request": "2024-1137810",
    "request_type": "Trash/Recycling",
    "request_reason": "Order Second Trash Cart",
    "date_created": "2024-10-02T17:40:17.000",
    "date_modified": "2024-10-02T17:40:18.000",
    "request_status": "Pending",
    "responsible_agency": "Department of Sanitation",
    "final_address": "7021 General Meyer Ave",
    "address_councildis": "C",
    "status": "Assigned to Contractor",
    "contractor": "Richards Disposal",
    "rowid": "1137810",
    "final_x": "3709931.64401",
    "final_y": "519281.244087",
    "longitude": "-89.97875113780219",
    "latitude": "29.92094959698623",
    "geocoded_column": {
      "latitude": "29.92094959698623",
      "longitude": "-89.97875113780219"
    }
  },
  {
    "service_request": "2024-1137809",
    "request_type": "Abandoned Vehicles",
    "request_reason": "Abandoned/Junk Vehicles",
    "date_created": "2024-10-02T17:36:34.000",
    "date_modified": "2024-10-02T17:36:34.000",
    "request_status": "Pending",
    "responsible_agency": "Department of Public Works",
    "final_address": "815 Milan St, New Orleans, Louisiana, 70115",
    "address_councildis": "B",
    "status": "Pending",
    "rowid": "1137809",
    "final_x": "3671867.30235",
    "final_y": "518625.574967",
    "longitude": "-90.09892561158783",
    "latitude": "29.920329156017758",
    "geocoded_column": {
      "latitude": "29.920329156017758",
      "longitude": "-90.09892561158783"
    }
  },
  {
    "service_request": "2024-1137807",
    "request_type": "Trash/Recycling",
    "request_reason": "Order Trash Cart",
    "date_created": "2024-10-02T17:36:10.000",
    "date_modified": "2024-10-02T17:36:11.000",
    "request_status": "Pending",
    "responsible_agency": "Department of Sanitation",
    "final_address": "3923 Franklin Ave",
    "address_councildis": "D",
    "status": "Assigned to Contractor",
    "contractor": "IV Waste",
    "rowid": "1137807",
    "final_x": "3687111.14671",
    "final_y": "547425.789585",
    "longitude": "-90.04978977905543",
    "latitude": "29.999059438435506",
    "geocoded_column": {
      "latitude": "29.999059438435506",
      "longitude": "-90.04978977905543"
    }
  },
  {
    "service_request": "2024-1137808",
    "request_type": "General Services",
    "request_reason": "General Service Request",
    "date_created": "2024-10-02T17:36:10.000",
    "date_modified": "2024-10-02T17:36:10.000",
    "request_status": "Pending",
    "responsible_agency": "Orleans Parish Communication District",
    "final_address": "7021 General Meyer Ave",
    "address_councildis": "C",
    "status": "Pending",
    "rowid": "1137808",
    "final_x": "3709931.64401",
    "final_y": "519281.244087",
    "longitude": "-89.97875113780219",
    "latitude": "29.92094959698623",
    "geocoded_column": {
      "latitude": "29.92094959698623",
      "longitude": "-89.97875113780219"
    }
  },
  {
    "service_request": "2024-1137806",
    "request_type": "Trash/Recycling",
    "request_reason": "Request a Large Item Pick Up",
    "date_created": "2024-10-02T17:21:13.000",
    "date_modified": "2024-10-02T17:21:14.000",
    "request_status": "Pending",
    "responsible_agency": "Department of Sanitation",
    "final_address": "921 France St",
    "address_councildis": "C",
    "status": "Assigned to Contractor",
    "contractor": "IV Waste",
    "rowid": "1137806",
    "final_x": "3692256.16688",
    "final_y": "534518.277189",
    "longitude": "-90.0339989989348",
    "latitude": "29.963408930582027",
    "geocoded_column": {
      "latitude": "29.963408930582027",
      "longitude": "-90.0339989989348"
    }
  },
  {
    "service_request": "2024-1137805",
    "request_type": "Parks & Parkways",
    "request_reason": "Park Maintenance/Clean Up",
    "date_created": "2024-10-02T17:19:42.000",
    "date_modified": "2024-10-02T17:19:42.000",
    "request_status": "Pending",
    "responsible_agency": "Department of Parks & Parkway",
    "final_address": "127 Alvin Callender St",
    "address_councildis": "A",
    "status": "Pending",
    "rowid": "1137805",
    "final_x": "3661079.35078",
    "final_y": "523318.053627",
    "longitude": "-90.13282307405838",
    "latitude": "29.933547163249973",
    "geocoded_column": {
      "latitude": "29.933547163249973",
      "longitude": "-90.13282307405838"
    }
  },
  {
    "service_request": "2024-1137804",
    "request_type": "Trash/Recycling",
    "request_reason": "Request a Large Item Pick Up",
    "date_created": "2024-10-02T17:17:52.000",
    "date_modified": "2024-10-02T17:17:53.000",
    "request_status": "Pending",
    "responsible_agency": "Department of Sanitation",
    "final_address": "12960 Chanelle Ct",
    "address_councildis": "E",
    "status": "Assigned to Contractor",
    "contractor": "Waste Pro",
    "rowid": "1137804",
    "final_x": "3717140.82821",
    "final_y": "567696.807524",
    "longitude": "-89.95415582029591",
    "latitude": "30.053837521394176",
    "geocoded_column": {
      "latitude": "30.053837521394176",
      "longitude": "-89.95415582029591"
    }
  },
  {
    "service_request": "2024-1137803",
    "request_type": "Property Maintenance",
    "request_reason": "Property Maintenance",
    "date_created": "2024-10-02T17:07:02.000",
    "date_modified": "2024-10-02T17:07:02.000",
    "request_status": "Pending",
    "responsible_agency": "Department of Code Enforcement",
    "final_address": "2432 Delachaise St",
    "address_councildis": "B",
    "status": "Pending",
    "rowid": "1137803",
    "final_x": "3672559.0722",
    "final_y": "524225.258812",
    "longitude": "-90.09655123245986",
    "latitude": "29.935705976592367",
    "geocoded_column": {
      "latitude": "29.935705976592367",
      "longitude": "-90.09655123245986"
    }
  },
  {
    "service_request": "2024-1137802",
    "request_type": "Streetlights",
    "request_reason": "Streetlight Outage/Malfunction",
    "date_created": "2024-10-02T17:03:28.000",
    "date_modified": "2024-10-02T17:03:30.000",
    "request_status": "Pending",
    "responsible_agency": "Department of Public Works",
    "final_address": "CLEMATIS AVE & ACACIA ST",
    "address_councildis": "D",
    "status": "Pending",
    "contractor": "Legacy Professional Services",
    "rowid": "1137802",
    "final_x": "3686253.6",
    "final_y": "546278.58",
    "longitude": "-90.0525392883517",
    "latitude": "29.995931410293345",
    "geocoded_column": {
      "latitude": "29.995931410293345",
      "longitude": "-90.0525392883517"
    }
  },
  {
    "service_request": "2024-1137801",
    "request_type": "Roads and Streets",
    "request_reason": "Street Subsidence (Sinking)",
    "date_created": "2024-10-02T17:03:08.000",
    "date_modified": "2024-10-02T17:03:08.000",
    "request_status": "Pending",
    "responsible_agency": "Department of Public Works",
    "final_address": "4711 Iberville St",
    "address_councildis": "A",
    "status": "Pending",
    "rowid": "1137801",
    "final_x": "3669343.42791",
    "final_y": "540327.335563",
    "longitude": "-90.10615866673808",
    "latitude": "29.980076418419284",
    "geocoded_column": {
      "latitude": "29.980076418419284",
      "longitude": "-90.10615866673808"
    }
  },
  {
    "service_request": "2024-1137800",
    "request_type": "Streetlights",
    "request_reason": "Streetlight Outage/Malfunction",
    "date_created": "2024-10-02T17:02:43.000",
    "date_modified": "2024-10-02T17:02:44.000",
    "request_status": "Pending",
    "responsible_agency": "Department of Public Works",
    "final_address": "GENTILLY BLVD & PIEDMONT DR",
    "address_councildis": "D",
    "status": "Pending",
    "contractor": "Legacy Professional Services",
    "rowid": "1137800",
    "final_x": "3684768.76",
    "final_y": "548224.3",
    "longitude": "-90.05716131614173",
    "latitude": "30.001326994320596",
    "geocoded_column": {
      "latitude": "30.001326994320596",
      "longitude": "-90.05716131614173"
    }
  },
  {
    "service_request": "2024-1137799",
    "request_type": "Streetlights",
    "request_reason": "Streetlight Outage/Malfunction",
    "date_created": "2024-10-02T17:02:02.000",
    "date_modified": "2024-10-02T17:02:03.000",
    "request_status": "Pending",
    "responsible_agency": "Department of Public Works",
    "final_address": "WISTERIA ST & CLEMATIS AVE",
    "address_councildis": "D",
    "status": "Pending",
    "contractor": "Legacy Professional Services",
    "rowid": "1137799",
    "final_x": "3685127.9",
    "final_y": "548227.18",
    "longitude": "-90.0560266609281",
    "latitude": "30.001323910104137",
    "geocoded_column": {
      "latitude": "30.001323910104137",
      "longitude": "-90.0560266609281"
    }
  },
  {
    "service_request": "2024-1137798",
    "request_type": "Streetlights",
    "request_reason": "Streetlight Outage/Malfunction",
    "date_created": "2024-10-02T17:01:26.000",
    "date_modified": "2024-10-02T17:01:27.000",
    "request_status": "Pending",
    "responsible_agency": "Department of Public Works",
    "final_address": "GENTILLY BLVD & CLEMATIS AVE",
    "address_councildis": "D",
    "status": "Pending",
    "contractor": "Legacy Professional Services",
    "rowid": "1137798",
    "final_x": "3685013.64",
    "final_y": "548431.58",
    "longitude": "-90.05638042194524",
    "latitude": "30.00188943810654",
    "geocoded_column": {
      "latitude": "30.00188943810654",
      "longitude": "-90.05638042194524"
    }
  },
  {
    "service_request": "2024-1137797",
    "request_type": "Drainage",
    "request_reason": "Catch Basin Clogged",
    "date_created": "2024-10-02T16:58:13.000",
    "date_modified": "2024-10-02T16:58:13.000",
    "request_status": "Pending",
    "responsible_agency": "Department of Public Works",
    "final_address": "4739 Magazine St",
    "address_councildis": "B",
    "status": "Pending",
    "rowid": "1137797",
    "final_x": "3669620.23809",
    "final_y": "518683.325367",
    "longitude": "-90.10601659969858",
    "latitude": "29.92055432294459",
    "geocoded_column": {
      "latitude": "29.92055432294459",
      "longitude": "-90.10601659969858"
    }
  },
  {
    "service_request": "2024-1137796",
    "request_type": "Healthy Homes",
    "request_reason": "Healthy Homes",
    "date_created": "2024-10-02T16:55:58.000",
    "date_modified": "2024-10-02T16:55:58.000",
    "request_status": "Pending",
    "responsible_agency": "Department of Code Enforcement",
    "final_address": "1913 Old Prieur St",
    "address_councildis": "D",
    "status": "Pending",
    "rowid": "1137796",
    "final_x": "3682265.94677",
    "final_y": "539714.085066",
    "longitude": "-90.06536542284108",
    "latitude": "29.978003318922344",
    "geocoded_column": {
      "latitude": "29.978003318922344",
      "longitude": "-90.06536542284108"
    }
  },
  {
    "service_request": "2024-1137795",
    "request_type": "Trash/Recycling",
    "request_reason": "Request a Large Item Pick Up",
    "date_created": "2024-10-02T16:54:50.000",
    "date_modified": "2024-10-02T16:54:51.000",
    "request_status": "Pending",
    "responsible_agency": "Department of Sanitation",
    "final_address": "4650 Redwood St",
    "address_councildis": "E",
    "status": "Assigned to Contractor",
    "contractor": "Waste Pro",
    "rowid": "1137795",
    "final_x": "3712465.6924",
    "final_y": "555624.536345",
    "longitude": "-89.96938682754148",
    "latitude": "30.02079750449508",
    "geocoded_column": {
      "latitude": "30.02079750449508",
      "longitude": "-89.96938682754148"
    }
  },
  {
    "service_request": "2024-1137794",
    "request_type": "Abandoned Vehicles",
    "request_reason": "Abandoned/Junk Vehicles",
    "date_created": "2024-10-02T16:45:49.000",
    "date_modified": "2024-10-02T16:45:49.000",
    "request_status": "Pending",
    "responsible_agency": "Department of Public Works",
    "final_address": "3615 General Ogden St",
    "address_councildis": "A",
    "status": "Pending",
    "rowid": "1137794",
    "final_x": "3665756.22708",
    "final_y": "536680.332935",
    "longitude": "-90.11761080415054",
    "latitude": "29.970153528224092",
    "geocoded_column": {
      "latitude": "29.970153528224092",
      "longitude": "-90.11761080415054"
    }
  },
  {
    "service_request": "2024-1137793",
    "request_type": "Trash/Recycling",
    "request_reason": "Request a Large Item Pick Up",
    "date_created": "2024-10-02T16:45:30.000",
    "date_modified": "2024-10-02T16:45:31.000",
    "request_status": "Pending",
    "responsible_agency": "Department of Sanitation",
    "final_address": "5002 Burgundy St",
    "address_councildis": "E",
    "status": "Assigned to Contractor",
    "contractor": "Waste Pro",
    "rowid": "1137793",
    "final_x": "3695782.54294",
    "final_y": "533444.600004",
    "longitude": "-90.02290192287434",
    "latitude": "29.960346274762294",
    "geocoded_column": {
      "latitude": "29.960346274762294",
      "longitude": "-90.02290192287434"
    }
  },
  {
    "service_request": "2024-1137792",
    "request_type": "Trash/Recycling",
    "request_reason": "Request a Large Item Pick Up",
    "date_created": "2024-10-02T16:45:16.000",
    "date_modified": "2024-10-02T16:45:17.000",
    "request_status": "Pending",
    "responsible_agency": "Department of Sanitation",
    "final_address": "4819 Camelot Dr",
    "address_councildis": "E",
    "status": "Assigned to Contractor",
    "contractor": "Waste Pro",
    "rowid": "1137792",
    "final_x": "3708385.6538",
    "final_y": "556170.02985",
    "longitude": "-89.9822581147727",
    "latitude": "30.022430307999134",
    "geocoded_column": {
      "latitude": "30.022430307999134",
      "longitude": "-89.9822581147727"
    }
  },
  {
    "service_request": "2024-1137791",
    "request_type": "Trash/Recycling",
    "request_reason": "Replace Trash Cart",
    "date_created": "2024-10-02T16:42:37.000",
    "date_modified": "2024-10-02T16:42:39.000",
    "request_status": "Pending",
    "responsible_agency": "Department of Sanitation",
    "final_address": "1428 Webster St",
    "address_councildis": "A",
    "status": "Assigned to Contractor",
    "contractor": "IV Waste",
    "rowid": "1137791",
    "final_x": "3664881.133",
    "final_y": "521602.785593",
    "longitude": "-90.12087830156476",
    "latitude": "29.928720647048124",
    "geocoded_column": {
      "latitude": "29.928720647048124",
      "longitude": "-90.12087830156476"
    }
  },
  {
    "service_request": "2024-1137790",
    "request_type": "Trash/Recycling",
    "request_reason": "Request a Large Item Pick Up",
    "date_created": "2024-10-02T16:35:42.000",
    "date_modified": "2024-10-02T16:35:44.000",
    "request_status": "Pending",
    "responsible_agency": "Department of Sanitation",
    "final_address": "5101 Dauphine St",
    "address_councildis": "E",
    "status": "Assigned to Contractor",
    "contractor": "Waste Pro",
    "rowid": "1137790",
    "final_x": "3695974.72054",
    "final_y": "533088.065028",
    "longitude": "-90.02230795052985",
    "latitude": "29.95935988480757",
    "geocoded_column": {
      "latitude": "29.95935988480757",
      "longitude": "-90.02230795052985"
    }
  },
  {
    "service_request": "2024-1137789",
    "request_type": "Property Maintenance",
    "request_reason": "Property Maintenance",
    "date_created": "2024-10-02T16:32:37.000",
    "date_modified": "2024-10-02T16:32:37.000",
    "request_status": "Pending",
    "responsible_agency": "Department of Code Enforcement",
    "final_address": "8830 Stroelitz St",
    "address_councildis": "A",
    "status": "Pending",
    "rowid": "1137789",
    "final_x": "3665883.47872",
    "final_y": "536790.598856",
    "longitude": "-90.11720523274704",
    "latitude": "29.97045300989812",
    "geocoded_column": {
      "latitude": "29.97045300989812",
      "longitude": "-90.11720523274704"
    }
  },
  {
    "service_request": "2024-1137788",
    "request_type": "Property Maintenance",
    "request_reason": "Property Maintenance",
    "date_created": "2024-10-02T16:27:50.000",
    "date_modified": "2024-10-02T16:27:51.000",
    "request_status": "Pending",
    "responsible_agency": "Department of Code Enforcement",
    "final_address": "1316 S Prieur St",
    "address_councildis": "B",
    "status": "Pending",
    "rowid": "1137788",
    "final_x": "3674432.2994",
    "final_y": "529065.912768",
    "longitude": "-90.0904716599774",
    "latitude": "29.94896045754081",
    "geocoded_column": {
      "latitude": "29.94896045754081",
      "longitude": "-90.0904716599774"
    }
  },
  {
    "service_request": "2024-1137787",
    "request_type": "Trash/Recycling",
    "request_reason": "Order Trash Cart",
    "date_created": "2024-10-02T16:24:51.000",
    "date_modified": "2024-10-02T16:24:52.000",
    "request_status": "Pending",
    "responsible_agency": "Department of Sanitation",
    "final_address": "7521 Chef Menteur Hwy",
    "address_councildis": "E",
    "status": "Assigned to Contractor",
    "contractor": "Waste Pro",
    "rowid": "1137787",
    "final_x": "3703015.85854",
    "final_y": "552497.21487",
    "longitude": "-89.99936035515056",
    "latitude": "30.01250447560911",
    "geocoded_column": {
      "latitude": "30.01250447560911",
      "longitude": "-89.99936035515056"
    }
  },
  {
    "service_request": "2024-1137786",
    "request_type": "Trash/Recycling",
    "request_reason": "Missed Trash Pick-Up",
    "date_created": "2024-10-02T16:24:24.000",
    "date_modified": "2024-10-02T17:25:51.000",
    "case_close_date": "2024-10-02T12:25:51.000",
    "request_status": "Closed",
    "responsible_agency": "Department of Sanitation",
    "final_address": "5571 St Anthony Ave",
    "address_councildis": "D",
    "status": "Invalid Request",
    "contractor": "IV Waste",
    "contractor_action": "Invalid Request",
    "rowid": "1137786",
    "final_x": "3682236.4205",
    "final_y": "553633.683991",
    "longitude": "-90.0649720391604",
    "latitude": "30.016278152831383",
    "geocoded_column": {
      "latitude": "30.016278152831383",
      "longitude": "-90.0649720391604"
    }
  },
  {
    "service_request": "2024-1137785",
    "request_type": "Abandoned Vehicles",
    "request_reason": "Abandoned/Junk Vehicles",
    "date_created": "2024-10-02T16:23:15.000",
    "date_modified": "2024-10-02T16:23:15.000",
    "request_status": "Pending",
    "responsible_agency": "Department of Public Works",
    "final_address": "8830 Stroelitz St",
    "address_councildis": "A",
    "status": "Pending",
    "rowid": "1137785",
    "final_x": "3665883.47872",
    "final_y": "536790.598856",
    "longitude": "-90.11720523274704",
    "latitude": "29.97045300989812",
    "geocoded_column": {
      "latitude": "29.97045300989812",
      "longitude": "-90.11720523274704"
    }
  },
  {
    "service_request": "2024-1137784",
    "request_type": "Roads and Streets",
    "request_reason": "Debris in Driving Lanes",
    "date_created": "2024-10-02T16:23:01.000",
    "date_modified": "2024-10-02T16:23:01.000",
    "request_status": "Pending",
    "responsible_agency": "Department of Public Works",
    "final_address": "501 S Cortez St",
    "address_councildis": "B",
    "status": "Pending",
    "rowid": "1137784",
    "final_x": "3671042.87502",
    "final_y": "536310.541127",
    "longitude": "-90.10092754119889",
    "latitude": "29.96898143561401",
    "geocoded_column": {
      "latitude": "29.96898143561401",
      "longitude": "-90.10092754119889"
    }
  },
  {
    "service_request": "2024-1137783",
    "request_type": "General Services",
    "request_reason": "General Service Request",
    "date_created": "2024-10-02T16:21:54.000",
    "date_modified": "2024-10-02T16:48:28.000",
    "case_close_date": "2024-10-02T11:48:28.000",
    "request_status": "Closed",
    "responsible_agency": "Orleans Parish Communication District",
    "final_address": "815 Milan St, New Orleans, Louisiana, 70115",
    "address_councildis": "B",
    "status": "Question Answered.",
    "rowid": "1137783",
    "final_x": "3671867.30235",
    "final_y": "518625.574967",
    "longitude": "-90.09892561158783",
    "latitude": "29.920329156017758",
    "geocoded_column": {
      "latitude": "29.920329156017758",
      "longitude": "-90.09892561158783"
    }
  },
  {
    "service_request": "2024-1137782",
    "request_type": "Trash/Recycling",
    "request_reason": "Request a Large Item Pick Up",
    "date_created": "2024-10-02T16:17:38.000",
    "date_modified": "2024-10-02T16:18:09.000",
    "request_status": "Pending",
    "responsible_agency": "Department of Sanitation",
    "final_address": "4642 Pecan St",
    "address_councildis": "E",
    "status": "Assigned to Contractor",
    "contractor": "Waste Pro",
    "rowid": "1137782",
    "final_x": "3701797.9041",
    "final_y": "553740.807767",
    "longitude": "-90.00316277666032",
    "latitude": "30.015962814464665",
    "geocoded_column": {
      "latitude": "30.015962814464665",
      "longitude": "-90.00316277666032"
    }
  },
  {
    "service_request": "2024-1137781",
    "request_type": "Trash/Recycling",
    "request_reason": "Request a Large Item Pick Up",
    "date_created": "2024-10-02T16:17:26.000",
    "date_modified": "2024-10-02T16:17:27.000",
    "request_status": "Pending",
    "responsible_agency": "Department of Sanitation",
    "final_address": "4642 Hauck Dr",
    "address_councildis": "E",
    "status": "Assigned to Contractor",
    "contractor": "Waste Pro",
    "rowid": "1137781",
    "final_x": "3714544.51538",
    "final_y": "556215.81385",
    "longitude": "-89.96279608228528",
    "latitude": "30.02235508020616",
    "geocoded_column": {
      "latitude": "30.02235508020616",
      "longitude": "-89.96279608228528"
    }
  },
  {
    "service_request": "2024-1137780",
    "request_type": "Property Maintenance",
    "request_reason": "Property Maintenance",
    "date_created": "2024-10-02T16:17:23.000",
    "date_modified": "2024-10-02T16:17:23.000",
    "request_status": "Pending",
    "responsible_agency": "Department of Code Enforcement",
    "final_address": "415 Wallace Dr",
    "address_councildis": "D",
    "status": "Pending",
    "rowid": "1137780",
    "final_x": "3681808.78767",
    "final_y": "548499.308626",
    "longitude": "-90.066502524763",
    "latitude": "30.002173483590013",
    "geocoded_column": {
      "latitude": "30.002173483590013",
      "longitude": "-90.066502524763"
    }
  },
  {
    "service_request": "2024-1137779",
    "request_type": "Drainage",
    "request_reason": "Catch Basin Clogged",
    "date_created": "2024-10-02T16:15:31.000",
    "date_modified": "2024-10-02T16:15:32.000",
    "request_status": "Pending",
    "responsible_agency": "Department of Public Works",
    "final_address": "7127 Parkside Ct",
    "address_councildis": "E",
    "status": "Pending",
    "rowid": "1137779",
    "final_x": "3704603.07524",
    "final_y": "560126.613533",
    "longitude": "-89.99406393471621",
    "latitude": "30.033431467368178",
    "geocoded_column": {
      "latitude": "30.033431467368178",
      "longitude": "-89.99406393471621"
    }
  },
  {
    "service_request": "2024-1137778",
    "request_type": "Abandoned Vehicles",
    "request_reason": "Abandoned/Junk Vehicles",
    "date_created": "2024-10-02T16:15:20.000",
    "date_modified": "2024-10-02T16:15:21.000",
    "request_status": "Pending",
    "responsible_agency": "Department of Public Works",
    "final_address": "4301 Perlita St",
    "address_councildis": "D",
    "status": "Pending",
    "rowid": "1137778",
    "final_x": "3678919.82363",
    "final_y": "548090.423698",
    "longitude": "-90.07564328057572",
    "latitude": "30.001136703019863",
    "geocoded_column": {
      "latitude": "30.001136703019863",
      "longitude": "-90.07564328057572"
    }
  },
  {
    "service_request": "2024-1137777",
    "request_type": "Property Maintenance",
    "request_reason": "Property Maintenance",
    "date_created": "2024-10-02T16:15:19.000",
    "date_modified": "2024-10-02T16:15:19.000",
    "request_status": "Pending",
    "responsible_agency": "Department of Code Enforcement",
    "final_address": "3108 Upperline St",
    "address_councildis": "B",
    "status": "Pending",
    "rowid": "1137777",
    "final_x": "3669216.39975",
    "final_y": "526432.872062",
    "longitude": "-90.10702953829498",
    "latitude": "29.94187498473501",
    "geocoded_column": {
      "latitude": "29.94187498473501",
      "longitude": "-90.10702953829498"
    }
  },
  {
    "service_request": "2024-1137776",
    "request_type": "Trash/Recycling",
    "request_reason": "Request a Large Item Pick Up",
    "date_created": "2024-10-02T16:12:58.000",
    "date_modified": "2024-10-02T16:12:59.000",
    "request_status": "Pending",
    "responsible_agency": "Department of Sanitation",
    "final_address": "5434 N Rampart St",
    "address_councildis": "E",
    "status": "Assigned to Contractor",
    "contractor": "Waste Pro",
    "rowid": "1137776",
    "final_x": "3697322.60259",
    "final_y": "533422.6713",
    "longitude": "-90.01803955482936",
    "latitude": "29.960237459673728",
    "geocoded_column": {
      "latitude": "29.960237459673728",
      "longitude": "-90.01803955482936"
    }
  },
  {
    "service_request": "2024-1137775",
    "request_type": "Roads and Streets",
    "request_reason": "Pothole",
    "date_created": "2024-10-02T16:12:50.000",
    "date_modified": "2024-10-02T16:12:51.000",
    "request_status": "Pending",
    "responsible_agency": "Department of Public Works",
    "final_address": "3600 BLK Mimosa Ct",
    "address_councildis": "C",
    "status": "Pending",
    "rowid": "1137775",
    "final_x": "3703513.15462",
    "final_y": "513294.356401",
    "longitude": "-89.99923127726437",
    "latitude": "29.904694784170538",
    "geocoded_column": {
      "latitude": "29.904694784170538",
      "longitude": "-89.99923127726437"
    }
  },
  {
    "service_request": "2024-1137774",
    "request_type": "Trash/Recycling",
    "request_reason": "Request a Large Item Pick Up",
    "date_created": "2024-10-02T16:11:50.000",
    "date_modified": "2024-10-02T16:11:51.000",
    "request_status": "Pending",
    "responsible_agency": "Department of Sanitation",
    "final_address": "5438 N Rampart St",
    "address_councildis": "E",
    "status": "Assigned to Contractor",
    "contractor": "Waste Pro",
    "rowid": "1137774",
    "final_x": "3697350.15875",
    "final_y": "533415.78234",
    "longitude": "-90.01795278847887",
    "latitude": "29.960217647694172",
    "geocoded_column": {
      "latitude": "29.960217647694172",
      "longitude": "-90.01795278847887"
    }
  },
  {
    "service_request": "2024-1137773",
    "request_type": "Property Maintenance",
    "request_reason": "Property Maintenance",
    "date_created": "2024-10-02T16:10:57.000",
    "date_modified": "2024-10-02T16:10:57.000",
    "request_status": "Pending",
    "responsible_agency": "Department of Code Enforcement",
    "final_address": "418 Wallace Dr",
    "address_councildis": "D",
    "status": "Pending",
    "rowid": "1137773",
    "final_x": "3681623.76098",
    "final_y": "548441.416274",
    "longitude": "-90.06708906645922",
    "latitude": "30.002019923823312",
    "geocoded_column": {
      "latitude": "30.002019923823312",
      "longitude": "-90.06708906645922"
    }
  },
  {
    "service_request": "2024-1137772",
    "request_type": "Trash/Recycling",
    "request_reason": "Missed Trash Pick-Up",
    "date_created": "2024-10-02T16:01:44.000",
    "date_modified": "2024-10-02T17:18:35.000",
    "case_close_date": "2024-10-02T12:18:35.000",
    "request_status": "Closed",
    "responsible_agency": "Department of Sanitation",
    "final_address": "2710 Jasmine St",
    "address_councildis": "D",
    "status": "Invalid Request",
    "contractor": "IV Waste",
    "contractor_action": "Invalid Request",
    "rowid": "1137772",
    "final_x": "3687831.21948",
    "final_y": "548071.393618",
    "longitude": "-90.04749217496855",
    "latitude": "30.000812417124095",
    "geocoded_column": {
      "latitude": "30.000812417124095",
      "longitude": "-90.04749217496855"
    }
  },
  {
    "service_request": "2024-1137771",
    "request_type": "Trash/Recycling",
    "request_reason": "Start Trash Service",
    "date_created": "2024-10-02T15:57:56.000",
    "date_modified": "2024-10-02T18:11:47.000",
    "case_close_date": "2024-10-02T13:11:47.000",
    "request_status": "Closed",
    "responsible_agency": "Department of Sanitation",
    "final_address": "863 Camp St",
    "address_councildis": "B",
    "status": "Assigned to Contractor",
    "contractor": "Empire Services",
    "contractor_action": "Completed",
    "rowid": "1137771",
    "final_x": "3680623.84744",
    "final_y": "527444.075967",
    "longitude": "-90.07097868475589",
    "latitude": "29.94431483515845",
    "geocoded_column": {
      "latitude": "29.94431483515845",
      "longitude": "-90.07097868475589"
    }
  },
  {
    "service_request": "2024-1137770",
    "request_type": "Street and Traffic Signs",
    "request_reason": "Traffic or Parking Sign Damaged or Missing",
    "date_created": "2024-10-02T15:56:47.000",
    "date_modified": "2024-10-02T15:56:47.000",
    "request_status": "Pending",
    "responsible_agency": "Department of Public Works",
    "final_address": "1700 Moss St",
    "address_councildis": "A",
    "status": "Pending",
    "rowid": "1137770",
    "final_x": "3675246.92693",
    "final_y": "542599.746637",
    "longitude": "-90.08743488821789",
    "latitude": "29.9861495966134",
    "geocoded_column": {
      "latitude": "29.9861495966134",
      "longitude": "-90.08743488821789"
    }
  },
  {
    "service_request": "2024-1137769",
    "request_type": "Trash/Recycling",
    "request_reason": "Start Trash Service",
    "date_created": "2024-10-02T15:56:16.000",
    "date_modified": "2024-10-02T15:56:17.000",
    "request_status": "Pending",
    "responsible_agency": "Department of Sanitation",
    "final_address": "863 Camp St",
    "address_councildis": "B",
    "status": "Assigned to Contractor",
    "contractor": "Empire Services",
    "rowid": "1137769",
    "final_x": "3680623.84744",
    "final_y": "527444.075967",
    "longitude": "-90.07097868475589",
    "latitude": "29.94431483515845",
    "geocoded_column": {
      "latitude": "29.94431483515845",
      "longitude": "-90.07097868475589"
    }
  },
  {
    "service_request": "2024-1137768",
    "request_type": "Trash/Recycling",
    "request_reason": "Request a Large Item Pick Up",
    "date_created": "2024-10-02T15:55:01.000",
    "date_modified": "2024-10-02T15:55:02.000",
    "request_status": "Pending",
    "responsible_agency": "Department of Sanitation",
    "final_address": "4734 Francis Dr",
    "address_councildis": "D",
    "status": "Assigned to Contractor",
    "contractor": "Waste Pro",
    "rowid": "1137768",
    "final_x": "3698202.14487",
    "final_y": "554338.126936",
    "longitude": "-90.01450198447209",
    "latitude": "30.017719501247967",
    "geocoded_column": {
      "latitude": "30.017719501247967",
      "longitude": "-90.01450198447209"
    }
  },
  {
    "service_request": "2024-1137767",
    "request_type": "Trash/Recycling",
    "request_reason": "Missed Trash Pick-Up",
    "date_created": "2024-10-02T15:53:48.000",
    "date_modified": "2024-10-02T17:24:20.000",
    "case_close_date": "2024-10-02T12:24:20.000",
    "request_status": "Closed",
    "responsible_agency": "Department of Sanitation",
    "final_address": "2069 Timoleon St",
    "address_councildis": "D",
    "status": "Invalid Request",
    "contractor": "IV Waste",
    "contractor_action": "Invalid Request",
    "rowid": "1137767",
    "final_x": "3682878.0356",
    "final_y": "551081.686677",
    "longitude": "-90.06303420727644",
    "latitude": "30.00924154392315",
    "geocoded_column": {
      "latitude": "30.00924154392315",
      "longitude": "-90.06303420727644"
    }
  },
  {
    "service_request": "2024-1137766",
    "request_type": "Trash/Recycling",
    "request_reason": "Request a Large Item Pick Up",
    "date_created": "2024-10-02T15:53:19.000",
    "date_modified": "2024-10-02T15:53:20.000",
    "request_status": "Pending",
    "responsible_agency": "Department of Sanitation",
    "final_address": "11267 Waverly Dr",
    "address_councildis": "E",
    "status": "Assigned to Contractor",
    "contractor": "Waste Pro",
    "rowid": "1137766",
    "final_x": "3717395.46399",
    "final_y": "560301.722269",
    "longitude": "-89.95363243349323",
    "latitude": "30.03349562141164",
    "geocoded_column": {
      "latitude": "30.03349562141164",
      "longitude": "-89.95363243349323"
    }
  },
  {
    "service_request": "2024-1137765",
    "request_type": "Street and Traffic Signs",
    "request_reason": "Traffic or Parking Sign Damaged or Missing",
    "date_created": "2024-10-02T15:52:55.000",
    "date_modified": "2024-10-02T15:52:55.000",
    "request_status": "Pending",
    "responsible_agency": "Department of Public Works",
    "final_address": "ESPLANADE AVE & N CLAIBORNE AVE",
    "address_councildis": "D",
    "status": "Pending",
    "rowid": "1137765",
    "final_x": "3681314.4",
    "final_y": "536499.88",
    "longitude": "-90.06848280042382",
    "latitude": "29.969194285734545",
    "geocoded_column": {
      "latitude": "29.969194285734545",
      "longitude": "-90.06848280042382"
    }
  },
  {
    "service_request": "2024-1137764",
    "request_type": "Safety & Permits",
    "request_reason": "Zoning Enforcement",
    "date_created": "2024-10-02T15:52:45.000",
    "date_modified": "2024-10-02T15:52:45.000",
    "request_status": "Pending",
    "responsible_agency": "Safety and Permits",
    "final_address": "1850 Moss St",
    "address_councildis": "A",
    "status": "Pending",
    "rowid": "1137764",
    "final_x": "3675404.20853",
    "final_y": "543552.772814",
    "longitude": "-90.08690535146648",
    "latitude": "29.98876538491296",
    "geocoded_column": {
      "latitude": "29.98876538491296",
      "longitude": "-90.08690535146648"
    }
  },
  {
    "service_request": "2024-1137763",
    "request_type": "Streetlights",
    "request_reason": "Streetlight Outage/Malfunction",
    "date_created": "2024-10-02T15:51:21.000",
    "date_modified": "2024-10-02T15:51:23.000",
    "request_status": "Pending",
    "responsible_agency": "Department of Public Works",
    "final_address": "2431 Memorial Park Dr",
    "address_councildis": "C",
    "status": "Pending",
    "contractor": "Legacy Professional Services",
    "rowid": "1137763",
    "final_x": "3692470.71683",
    "final_y": "521330.386617",
    "longitude": "-90.03379379732799",
    "latitude": "29.927140084089803",
    "geocoded_column": {
      "latitude": "29.927140084089803",
      "longitude": "-90.03379379732799"
    }
  },
  {
    "service_request": "2024-1137762",
    "request_type": "Property Maintenance",
    "request_reason": "Property Maintenance",
    "date_created": "2024-10-02T15:49:42.000",
    "date_modified": "2024-10-02T15:49:42.000",
    "request_status": "Pending",
    "responsible_agency": "Department of Code Enforcement",
    "final_address": "418 Warrington Dr",
    "address_councildis": "D",
    "status": "Pending",
    "rowid": "1137762",
    "final_x": "3681431.55253",
    "final_y": "548261.684434",
    "longitude": "-90.06770254572069",
    "latitude": "30.001531564541246",
    "geocoded_column": {
      "latitude": "30.001531564541246",
      "longitude": "-90.06770254572069"
    }
  },
  {
    "service_request": "2024-1137761",
    "request_type": "Drainage",
    "request_reason": "Catch Basin Damaged",
    "date_created": "2024-10-02T15:47:36.000",
    "date_modified": "2024-10-02T15:47:37.000",
    "request_status": "Pending",
    "responsible_agency": "Department of Public Works",
    "final_address": "READ BLVD & PLAINFIELD DR",
    "address_councildis": "E",
    "status": "Pending",
    "rowid": "1137761",
    "final_x": "3709686.8",
    "final_y": "562464.08",
    "longitude": "-89.97791159370864",
    "latitude": "30.039694211492243",
    "geocoded_column": {
      "latitude": "30.039694211492243",
      "longitude": "-89.97791159370864"
    }
  },
  {
    "service_request": "2024-1137760",
    "request_type": "Trash/Recycling",
    "request_reason": "Illegal Dumping",
    "date_created": "2024-10-02T15:44:35.000",
    "date_modified": "2024-10-02T15:44:35.000",
    "request_status": "Pending",
    "responsible_agency": "Department of Sanitation",
    "final_address": "1221 S Saratoga St",
    "address_councildis": "B",
    "status": "Pending",
    "rowid": "1137760",
    "final_x": "3677944.39541",
    "final_y": "527266.642751",
    "longitude": "-90.07944461514658",
    "latitude": "29.943907848428648",
    "geocoded_column": {
      "latitude": "29.943907848428648",
      "longitude": "-90.07944461514658"
    }
  },
  {
    "service_request": "2024-1137759",
    "request_type": "Trash/Recycling",
    "request_reason": "Return Trash Cart",
    "date_created": "2024-10-02T15:43:15.000",
    "date_modified": "2024-10-02T15:43:16.000",
    "request_status": "Pending",
    "responsible_agency": "Department of Sanitation",
    "final_address": "2730 Bell St",
    "address_councildis": "A",
    "status": "Assigned to Contractor",
    "contractor": "IV Waste",
    "rowid": "1137759",
    "final_x": "3677436.18658",
    "final_y": "539107.53825",
    "longitude": "-90.08064045824524",
    "latitude": "29.976481596147682",
    "geocoded_column": {
      "latitude": "29.976481596147682",
      "longitude": "-90.08064045824524"
    }
  },
  {
    "service_request": "2024-1137758",
    "request_type": "Trash/Recycling",
    "request_reason": "Request a Large Item Pick Up",
    "date_created": "2024-10-02T15:37:44.000",
    "date_modified": "2024-10-02T15:38:22.000",
    "request_status": "Pending",
    "responsible_agency": "Department of Sanitation",
    "final_address": "8128 Spruce St",
    "address_councildis": "A",
    "status": "Assigned to Contractor",
    "contractor": "IV Waste",
    "rowid": "1137758",
    "final_x": "3663668.53159",
    "final_y": "530567.77581",
    "longitude": "-90.12440766289474",
    "latitude": "29.95340673491651",
    "geocoded_column": {
      "latitude": "29.95340673491651",
      "longitude": "-90.12440766289474"
    }
  },
  {
    "service_request": "2024-1137757",
    "request_type": "Trash/Recycling",
    "request_reason": "Illegal Dumping",
    "date_created": "2024-10-02T15:37:30.000",
    "date_modified": "2024-10-02T15:37:30.000",
    "request_status": "Pending",
    "responsible_agency": "Department of Sanitation",
    "final_address": "1234 Simon Bolivar Ave",
    "address_councildis": "B",
    "status": "Pending",
    "rowid": "1137757",
    "final_x": "3677747.10862",
    "final_y": "527280.282431",
    "longitude": "-90.08006703271779",
    "latitude": "29.943951287813185",
    "geocoded_column": {
      "latitude": "29.943951287813185",
      "longitude": "-90.08006703271779"
    }
  },
  {
    "service_request": "2024-1137756",
    "request_type": "Trash/Recycling",
    "request_reason": "Request a Large Item Pick Up",
    "date_created": "2024-10-02T15:33:08.000",
    "date_modified": "2024-10-02T15:33:09.000",
    "request_status": "Pending",
    "responsible_agency": "Department of Sanitation",
    "final_address": "3423 St Anthony Ave",
    "address_councildis": "D",
    "status": "Assigned to Contractor",
    "contractor": "IV Waste",
    "rowid": "1137756",
    "final_x": "3682885.25288",
    "final_y": "545230.958863",
    "longitude": "-90.06321629787222",
    "latitude": "29.993153920770954",
    "geocoded_column": {
      "latitude": "29.993153920770954",
      "longitude": "-90.06321629787222"
    }
  },
  {
    "service_request": "2024-1137755",
    "request_type": "Trash/Recycling",
    "request_reason": "Request a Large Item Pick Up",
    "date_created": "2024-10-02T15:31:39.000",
    "date_modified": "2024-10-02T15:31:40.000",
    "request_status": "Pending",
    "responsible_agency": "Department of Sanitation",
    "final_address": "6561 E Hermes St",
    "address_councildis": "D",
    "status": "Assigned to Contractor",
    "contractor": "Waste Pro",
    "rowid": "1137755",
    "final_x": "3697930.7137",
    "final_y": "555763.915993",
    "longitude": "-90.01530777728833",
    "latitude": "30.021648467446955",
    "geocoded_column": {
      "latitude": "30.021648467446955",
      "longitude": "-90.01530777728833"
    }
  },
  {
    "service_request": "2024-1137754",
    "request_type": "Trash/Recycling",
    "request_reason": "Request a Large Item Pick Up",
    "date_created": "2024-10-02T15:27:53.000",
    "date_modified": "2024-10-02T15:27:54.000",
    "request_status": "Pending",
    "responsible_agency": "Department of Sanitation",
    "final_address": "7625 Tricia Ct",
    "address_councildis": "E",
    "status": "Assigned to Contractor",
    "contractor": "Waste Pro",
    "rowid": "1137754",
    "final_x": "3717797.39557",
    "final_y": "571079.377895",
    "longitude": "-89.9519517056192",
    "latitude": "30.063116441062547",
    "geocoded_column": {
      "latitude": "30.063116441062547",
      "longitude": "-89.9519517056192"
    }
  },
  {
    "service_request": "2024-1137753",
    "request_type": "Trash/Recycling",
    "request_reason": "Request a Large Item Pick Up",
    "date_created": "2024-10-02T15:26:20.000",
    "date_modified": "2024-10-02T15:26:21.000",
    "request_status": "Pending",
    "responsible_agency": "Department of Sanitation",
    "final_address": "5214 Annunciation St",
    "address_councildis": "B",
    "status": "Assigned to Contractor",
    "contractor": "IV Waste",
    "rowid": "1137753",
    "final_x": "3667884.35431",
    "final_y": "517524.058166",
    "longitude": "-90.11153501405431",
    "latitude": "29.91741771377367",
    "geocoded_column": {
      "latitude": "29.91741771377367",
      "longitude": "-90.11153501405431"
    }
  },
  {
    "service_request": "2024-1137752",
    "request_type": "Streetlights",
    "request_reason": "Streetlight Outage/Malfunction",
    "date_created": "2024-10-02T15:17:29.000",
    "date_modified": "2024-10-02T15:17:30.000",
    "request_status": "Pending",
    "responsible_agency": "Department of Public Works",
    "final_address": "1601 N Tonti St",
    "address_councildis": "D",
    "status": "Pending",
    "contractor": "Legacy Professional Services",
    "rowid": "1137752",
    "final_x": "3680205.09973",
    "final_y": "539326.887178",
    "longitude": "-90.07188776460063",
    "latitude": "29.977001203824504",
    "geocoded_column": {
      "latitude": "29.977001203824504",
      "longitude": "-90.07188776460063"
    }
  },
  {
    "service_request": "2024-1137751",
    "request_type": "Trash/Recycling",
    "request_reason": "Request a Large Item Pick Up",
    "date_created": "2024-10-02T15:16:39.000",
    "date_modified": "2024-10-02T15:16:40.000",
    "request_status": "Pending",
    "responsible_agency": "Department of Sanitation",
    "final_address": "7641 Means Ave",
    "address_councildis": "E",
    "status": "Assigned to Contractor",
    "contractor": "Waste Pro",
    "rowid": "1137751",
    "final_x": "3708066.01944",
    "final_y": "564892.336482",
    "longitude": "-89.9829432708833",
    "latitude": "30.046423565170983",
    "geocoded_column": {
      "latitude": "30.046423565170983",
      "longitude": "-89.9829432708833"
    }
  },
  {
    "service_request": "2024-1137750",
    "request_type": "Trash/Recycling",
    "request_reason": "Illegal Dumping",
    "date_created": "2024-10-02T15:12:29.000",
    "date_modified": "2024-10-02T15:12:30.000",
    "request_status": "Pending",
    "responsible_agency": "Department of Sanitation",
    "final_address": "1923 Flood St",
    "address_councildis": "E",
    "status": "Pending",
    "rowid": "1137750",
    "final_x": "3698600.7793",
    "final_y": "537009.599688",
    "longitude": "-90.01387293565199",
    "latitude": "29.970059825787967",
    "geocoded_column": {
      "latitude": "29.970059825787967",
      "longitude": "-90.01387293565199"
    }
  },
  {
    "service_request": "2024-1137749",
    "request_type": "Trash/Recycling",
    "request_reason": "Order Second Trash Cart",
    "date_created": "2024-10-02T15:06:59.000",
    "date_modified": "2024-10-02T15:07:00.000",
    "request_status": "Pending",
    "responsible_agency": "Department of Sanitation",
    "final_address": "4390 San Giorgio St",
    "address_councildis": "E",
    "status": "Assigned to Contractor",
    "contractor": "Waste Pro",
    "rowid": "1137749",
    "final_x": "3759814.79497",
    "final_y": "574052.718698",
    "longitude": "-89.81901198785779",
    "latitude": "30.069832010057052",
    "geocoded_column": {
      "latitude": "30.069832010057052",
      "longitude": "-89.81901198785779"
    }
  },
  {
    "service_request": "2024-1137748",
    "request_type": "Trash/Recycling",
    "request_reason": "Order Trash Cart",
    "date_created": "2024-10-02T15:06:09.000",
    "date_modified": "2024-10-02T15:06:10.000",
    "request_status": "Pending",
    "responsible_agency": "Department of Sanitation",
    "final_address": "1300 Governor Nicholls St",
    "address_councildis": "C",
    "status": "Assigned to Contractor",
    "contractor": "IV Waste",
    "rowid": "1137748",
    "final_x": "3681897.80655",
    "final_y": "535282.678662",
    "longitude": "-90.06668285419298",
    "latitude": "29.96582968015933",
    "geocoded_column": {
      "latitude": "29.96582968015933",
      "longitude": "-90.06668285419298"
    }
  },
  {
    "service_request": "2024-1137747",
    "request_type": "Parks & Parkways",
    "request_reason": "Request Grass Cutting Service (City Owned Property)",
    "date_created": "2024-10-02T15:04:50.000",
    "date_modified": "2024-10-02T15:04:51.000",
    "request_status": "Pending",
    "responsible_agency": "Department of Parks & Parkway",
    "final_address": "3085 Behrman Hwy",
    "address_councildis": "C",
    "status": "Pending",
    "rowid": "1137747",
    "final_x": "3694429.77418",
    "final_y": "519140.242359",
    "longitude": "-90.02768836511835",
    "latitude": "29.921056690038906",
    "geocoded_column": {
      "latitude": "29.921056690038906",
      "longitude": "-90.02768836511835"
    }
  },
  {
    "service_request": "2024-1137746",
    "request_type": "Parks & Parkways",
    "request_reason": "Request Tree Service (Right of Way/Public Property)",
    "date_created": "2024-10-02T15:04:32.000",
    "date_modified": "2024-10-02T15:04:33.000",
    "request_status": "Pending",
    "responsible_agency": "Department of Parks & Parkway",
    "final_address": "3085 Behrman Hwy",
    "address_councildis": "C",
    "status": "Pending",
    "rowid": "1137746",
    "final_x": "3694429.77418",
    "final_y": "519140.242359",
    "longitude": "-90.02768836511835",
    "latitude": "29.921056690038906",
    "geocoded_column": {
      "latitude": "29.921056690038906",
      "longitude": "-90.02768836511835"
    }
  },
  {
    "service_request": "2024-1137745",
    "request_type": "Property Maintenance",
    "request_reason": "Property Maintenance",
    "date_created": "2024-10-02T15:03:49.000",
    "date_modified": "2024-10-02T15:03:50.000",
    "request_status": "Pending",
    "responsible_agency": "Department of Code Enforcement",
    "final_address": "3085 Behrman Hwy",
    "address_councildis": "C",
    "status": "Pending",
    "rowid": "1137745",
    "final_x": "3694429.77418",
    "final_y": "519140.242359",
    "longitude": "-90.02768836511835",
    "latitude": "29.921056690038906",
    "geocoded_column": {
      "latitude": "29.921056690038906",
      "longitude": "-90.02768836511835"
    }
  },
  {
    "service_request": "2024-1137744",
    "request_type": "Trash/Recycling",
    "request_reason": "Request a Large Item Pick Up",
    "date_created": "2024-10-02T15:00:53.000",
    "date_modified": "2024-10-02T15:00:54.000",
    "request_status": "Pending",
    "responsible_agency": "Department of Sanitation",
    "final_address": "1600 S Rampart St",
    "address_councildis": "B",
    "status": "Assigned to Contractor",
    "contractor": "IV Waste",
    "rowid": "1137744",
    "final_x": "3677605.62517",
    "final_y": "526140.802686",
    "longitude": "-90.08055306919913",
    "latitude": "29.940822349850926",
    "geocoded_column": {
      "latitude": "29.940822349850926",
      "longitude": "-90.08055306919913"
    }
  },
  {
    "service_request": "2024-1137743",
    "request_type": "Property Maintenance",
    "request_reason": "Property Maintenance",
    "date_created": "2024-10-02T14:59:34.000",
    "date_modified": "2024-10-02T14:59:35.000",
    "request_status": "Pending",
    "responsible_agency": "Department of Code Enforcement",
    "final_address": "EASTERN ST & GENTILLY BLVD",
    "address_councildis": "D",
    "status": "Pending",
    "rowid": "1137743",
    "final_x": "3688165.95",
    "final_y": "548791.11",
    "longitude": "-90.04640920343587",
    "latitude": "30.002781042976363",
    "geocoded_column": {
      "latitude": "30.002781042976363",
      "longitude": "-90.04640920343587"
    }
  },
  {
    "service_request": "2024-1137742",
    "request_type": "Trash/Recycling",
    "request_reason": "Request a Large Item Pick Up",
    "date_created": "2024-10-02T14:57:23.000",
    "date_modified": "2024-10-02T14:57:24.000",
    "request_status": "Pending",
    "responsible_agency": "Department of Sanitation",
    "final_address": "6965 Mayo Rd",
    "address_councildis": "E",
    "status": "Assigned to Contractor",
    "contractor": "Waste Pro",
    "rowid": "1137742",
    "final_x": "3701857.93597",
    "final_y": "558609.146076",
    "longitude": "-90.00279449273143",
    "latitude": "30.02934695799574",
    "geocoded_column": {
      "latitude": "30.02934695799574",
      "longitude": "-90.00279449273143"
    }
  },
  {
    "service_request": "2024-1137741",
    "request_type": "Trash/Recycling",
    "request_reason": "Illegal Dumping",
    "date_created": "2024-10-02T14:56:36.000",
    "date_modified": "2024-10-02T14:56:38.000",
    "request_status": "Pending",
    "responsible_agency": "Department of Sanitation",
    "final_address": "10336 Brookfield Dr",
    "address_councildis": "E",
    "status": "Pending",
    "rowid": "1137741",
    "final_x": "3710622.45976",
    "final_y": "563225.570784",
    "longitude": "-89.97492612177898",
    "latitude": "30.04175754056776",
    "geocoded_column": {
      "latitude": "30.04175754056776",
      "longitude": "-89.97492612177898"
    }
  },
  {
    "service_request": "2024-1137740",
    "request_type": "Streetlights",
    "request_reason": "Streetlight Outage/Malfunction",
    "date_created": "2024-10-02T14:49:49.000",
    "date_modified": "2024-10-02T14:49:50.000",
    "request_status": "Pending",
    "responsible_agency": "Department of Public Works",
    "final_address": "7300 BLK Weaver Ave",
    "address_councildis": "E",
    "status": "Pending",
    "contractor": "Legacy Professional Services",
    "rowid": "1137740",
    "final_x": "3707915.26786",
    "final_y": "563461.886643",
    "longitude": "-89.98347297910105",
    "latitude": "30.042495283597678",
    "geocoded_column": {
      "latitude": "30.042495283597678",
      "longitude": "-89.98347297910105"
    }
  },
  {
    "service_request": "2024-1137739",
    "request_type": "Trash/Recycling",
    "request_reason": "Request a Large Item Pick Up",
    "date_created": "2024-10-02T14:47:43.000",
    "date_modified": "2024-10-02T14:47:44.000",
    "request_status": "Pending",
    "responsible_agency": "Department of Sanitation",
    "final_address": "4700 Papania Dr",
    "address_councildis": "E",
    "status": "Assigned to Contractor",
    "contractor": "Waste Pro",
    "rowid": "1137739",
    "final_x": "3715553.1036",
    "final_y": "556674.490842",
    "longitude": "-89.959591849865",
    "latitude": "30.023583050804245",
    "geocoded_column": {
      "latitude": "30.023583050804245",
      "longitude": "-89.959591849865"
    }
  },
  {
    "service_request": "2024-1137738",
    "request_type": "Abandoned Vehicles",
    "request_reason": "Vehicle Blocking Your Driveway",
    "date_created": "2024-10-02T14:47:09.000",
    "date_modified": "2024-10-02T14:47:09.000",
    "request_status": "Pending",
    "responsible_agency": "Department of Public Works",
    "final_address": "1510 Governor Nicholls St, New Orleans, Louisiana, 70116",
    "address_councildis": "C",
    "status": "Pending",
    "rowid": "1137738",
    "final_x": "3681342.56661",
    "final_y": "535740.742279",
    "longitude": "-90.06842031370492",
    "latitude": "29.967106063088643",
    "geocoded_column": {
      "latitude": "29.967106063088643",
      "longitude": "-90.06842031370492"
    }
  },
  {
    "service_request": "2024-1137737",
    "request_type": "Trash/Recycling",
    "request_reason": "Replace Trash Cart",
    "date_created": "2024-10-02T14:46:44.000",
    "date_modified": "2024-10-02T14:46:45.000",
    "request_status": "Pending",
    "responsible_agency": "Department of Sanitation",
    "final_address": "1221 Conery St",
    "address_councildis": "B",
    "status": "Assigned to Contractor",
    "contractor": "IV Waste",
    "rowid": "1137737",
    "final_x": "3676573.94869",
    "final_y": "521212.457465",
    "longitude": "-90.08397990857948",
    "latitude": "29.927301986838916",
    "geocoded_column": {
      "latitude": "29.927301986838916",
      "longitude": "-90.08397990857948"
    }
  },
  {
    "service_request": "2024-1137736",
    "request_type": "Streetlights",
    "request_reason": "Streetlight Outage/Malfunction",
    "date_created": "2024-10-02T14:46:08.000",
    "date_modified": "2024-10-02T14:46:09.000",
    "request_status": "Pending",
    "responsible_agency": "Department of Public Works",
    "final_address": "7300 Weaver Ave",
    "address_councildis": "E",
    "status": "Pending",
    "contractor": "Legacy Professional Services",
    "rowid": "1137736",
    "final_x": "3707964.88798",
    "final_y": "563286.932768",
    "longitude": "-89.9833226757682",
    "latitude": "30.0420126227598",
    "geocoded_column": {
      "latitude": "30.0420126227598",
      "longitude": "-89.9833226757682"
    }
  },
  {
    "service_request": "2024-1137735",
    "request_type": "Trash/Recycling",
    "request_reason": "Illegal Dumping",
    "date_created": "2024-10-02T14:44:48.000",
    "date_modified": "2024-10-02T14:44:49.000",
    "request_status": "Pending",
    "responsible_agency": "Department of Sanitation",
    "final_address": "BUNDY RD & I 10 E SERVICE RD",
    "address_councildis": "E",
    "status": "Pending",
    "rowid": "1137735",
    "final_x": "3707412.6",
    "final_y": "560003.18",
    "longitude": "-89.98519020141723",
    "latitude": "30.033001482370505",
    "geocoded_column": {
      "latitude": "30.033001482370505",
      "longitude": "-89.98519020141723"
    }
  },
  {
    "service_request": "2024-1137734",
    "request_type": "Trash/Recycling",
    "request_reason": "MIssed Recycling Pick-Up",
    "date_created": "2024-10-02T14:44:09.000",
    "date_modified": "2024-10-02T14:44:10.000",
    "request_status": "Pending",
    "responsible_agency": "Department of Sanitation",
    "final_address": "11321 Old Spanish Trl",
    "address_councildis": "E",
    "status": "Assigned to Contractor",
    "contractor": "Waste Pro",
    "rowid": "1137734",
    "final_x": "3717487.299",
    "final_y": "556372.907546",
    "longitude": "-89.95349173720686",
    "latitude": "30.022689914153144",
    "geocoded_column": {
      "latitude": "30.022689914153144",
      "longitude": "-89.95349173720686"
    }
  },
  {
    "service_request": "2024-1137733",
    "request_type": "Trash/Recycling",
    "request_reason": "Request a Large Item Pick Up",
    "date_created": "2024-10-02T14:43:15.000",
    "date_modified": "2024-10-02T14:43:17.000",
    "request_status": "Pending",
    "responsible_agency": "Department of Sanitation",
    "final_address": "9102 Morrison Rd",
    "address_councildis": "E",
    "status": "Assigned to Contractor",
    "contractor": "Waste Pro",
    "rowid": "1137733",
    "final_x": "3706231.57387",
    "final_y": "562027.740127",
    "longitude": "-89.9888472544199",
    "latitude": "30.03860637939348",
    "geocoded_column": {
      "latitude": "30.03860637939348",
      "longitude": "-89.9888472544199"
    }
  },
  {
    "service_request": "2024-1137732",
    "request_type": "Trash/Recycling",
    "request_reason": "Request a Large Item Pick Up",
    "date_created": "2024-10-02T14:42:14.000",
    "date_modified": "2024-10-02T14:42:15.000",
    "request_status": "Pending",
    "responsible_agency": "Department of Sanitation",
    "final_address": "2910 N Rampart St",
    "address_councildis": "C",
    "status": "Assigned to Contractor",
    "contractor": "IV Waste",
    "rowid": "1137732",
    "final_x": "3688166.89052",
    "final_y": "535712.937415",
    "longitude": "-90.04687009372843",
    "latitude": "29.96682069969533",
    "geocoded_column": {
      "latitude": "29.96682069969533",
      "longitude": "-90.04687009372843"
    }
  },
  {
    "service_request": "2024-1137731",
    "request_type": "Property Maintenance",
    "request_reason": "Property Maintenance",
    "date_created": "2024-10-02T14:40:58.000",
    "date_modified": "2024-10-02T14:42:33.000",
    "request_status": "Pending",
    "responsible_agency": "Department of Code Enforcement",
    "final_address": "6042 Kuebel Dr",
    "address_councildis": "E",
    "status": "Pending",
    "rowid": "1137731",
    "final_x": "3695179.58461",
    "final_y": "559721.054045",
    "longitude": "-90.02385768077957",
    "latitude": "30.03261581812353",
    "geocoded_column": {
      "latitude": "30.03261581812353",
      "longitude": "-90.02385768077957"
    }
  },
  {
    "service_request": "2024-1137730",
    "request_type": "Trash/Recycling",
    "request_reason": "Order Trash Cart",
    "date_created": "2024-10-02T14:38:19.000",
    "date_modified": "2024-10-02T14:38:20.000",
    "request_status": "Pending",
    "responsible_agency": "Department of Sanitation",
    "final_address": "9331 Fig St",
    "address_councildis": "A",
    "status": "Assigned to Contractor",
    "contractor": "IV Waste",
    "rowid": "1137730",
    "final_x": "3663013.11085",
    "final_y": "536186.184903",
    "longitude": "-90.12629033072389",
    "latitude": "29.968874525273815",
    "geocoded_column": {
      "latitude": "29.968874525273815",
      "longitude": "-90.12629033072389"
    }
  },
  {
    "service_request": "2024-1137729",
    "request_type": "Abandoned Vehicles",
    "request_reason": "Abandoned/Junk Vehicles",
    "date_created": "2024-10-02T14:36:43.000",
    "date_modified": "2024-10-02T14:36:44.000",
    "request_status": "Pending",
    "responsible_agency": "Department of Public Works",
    "final_address": "3216 Second St",
    "address_councildis": "B",
    "status": "Pending",
    "rowid": "1137729",
    "final_x": "3673422.88827",
    "final_y": "527945.808447",
    "longitude": "-90.0936970752596",
    "latitude": "29.945910606513554",
    "geocoded_column": {
      "latitude": "29.945910606513554",
      "longitude": "-90.0936970752596"
    }
  },
  {
    "service_request": "2024-1137728",
    "request_type": "Trash/Recycling",
    "request_reason": "Order Second Trash Cart",
    "date_created": "2024-10-02T14:36:27.000",
    "date_modified": "2024-10-02T14:36:28.000",
    "request_status": "Pending",
    "responsible_agency": "Department of Sanitation",
    "final_address": "241 Oakmont Dr",
    "address_councildis": "E",
    "status": "Assigned to Contractor",
    "contractor": "Waste Pro",
    "rowid": "1137728",
    "final_x": "3720039.08236",
    "final_y": "562836.834528",
    "longitude": "-89.94518136448107",
    "latitude": "30.040378358561913",
    "geocoded_column": {
      "latitude": "30.040378358561913",
      "longitude": "-89.94518136448107"
    }
  },
  {
    "service_request": "2024-1137727",
    "request_type": "Property Maintenance",
    "request_reason": "Property Maintenance",
    "date_created": "2024-10-02T14:36:16.000",
    "date_modified": "2024-10-02T14:36:17.000",
    "request_status": "Pending",
    "responsible_agency": "Department of Code Enforcement",
    "final_address": "1117 Monroe St",
    "address_councildis": "A",
    "status": "Pending",
    "rowid": "1137727",
    "final_x": "3660282.60781",
    "final_y": "529638.712769",
    "longitude": "-90.1351297034451",
    "latitude": "29.9509499024811",
    "geocoded_column": {
      "latitude": "29.9509499024811",
      "longitude": "-90.1351297034451"
    }
  },
  {
    "service_request": "2024-1137726",
    "request_type": "Street and Traffic Signs",
    "request_reason": "Stop Sign Missing or Damaged",
    "date_created": "2024-10-02T14:35:12.000",
    "date_modified": "2024-10-02T14:36:31.000",
    "request_status": "Pending",
    "responsible_agency": "Department of Public Works",
    "final_address": "7100 BLK S Claiborne Ave",
    "address_councildis": "A",
    "status": "Pending",
    "rowid": "1137726",
    "final_x": "3666419.16712",
    "final_y": "529386.835371",
    "longitude": "-90.11576191854859",
    "latitude": "29.95007944878006",
    "geocoded_column": {
      "latitude": "29.95007944878006",
      "longitude": "-90.11576191854859"
    }
  },
  {
    "service_request": "2024-1137725",
    "request_type": "Parks & Parkways",
    "request_reason": "Request Tree Service (Right of Way/Public Property)",
    "date_created": "2024-10-02T14:34:56.000",
    "date_modified": "2024-10-02T14:37:42.000",
    "request_status": "Pending",
    "responsible_agency": "Department of Parks & Parkway",
    "final_address": "FELICITY ST & ANNUNCIATION ST",
    "address_councildis": "B",
    "rowid": "1137725",
    "final_x": "3680680.2",
    "final_y": "522364.58",
    "longitude": "-90.07097744561173",
    "latitude": "29.93034619831975",
    "geocoded_column": {
      "latitude": "29.93034619831975",
      "longitude": "-90.07097744561173"
    }
  },
  {
    "service_request": "2024-1137724",
    "request_type": "Trash/Recycling",
    "request_reason": "Replace Recycling Cart",
    "date_created": "2024-10-02T14:34:44.000",
    "date_modified": "2024-10-02T14:34:44.000",
    "request_status": "Pending",
    "responsible_agency": "Department of Sanitation",
    "final_address": "6475 Canal Blvd",
    "address_councildis": "A",
    "status": "Pending",
    "rowid": "1137724",
    "final_x": "3668946.09153",
    "final_y": "550641.107988",
    "longitude": "-90.10706500756473",
    "latitude": "30.00844743694873",
    "geocoded_column": {
      "latitude": "30.00844743694873",
      "longitude": "-90.10706500756473"
    }
  },
  {
    "service_request": "2024-1137723",
    "request_type": "Trash/Recycling",
    "request_reason": "Order Second Trash Cart",
    "date_created": "2024-10-02T14:34:27.000",
    "date_modified": "2024-10-02T14:34:28.000",
    "request_status": "Pending",
    "responsible_agency": "Department of Sanitation",
    "final_address": "2216 DAbadie St",
    "address_councildis": "D",
    "status": "Assigned to Contractor",
    "contractor": "IV Waste",
    "rowid": "1137723",
    "final_x": "3680787.15714",
    "final_y": "539729.965322",
    "longitude": "-90.07003540615865",
    "latitude": "29.97809189667526",
    "geocoded_column": {
      "latitude": "29.97809189667526",
      "longitude": "-90.07003540615865"
    }
  },
  {
    "service_request": "2024-1137722",
    "request_type": "Roads and Streets",
    "request_reason": "Pothole",
    "date_created": "2024-10-02T14:34:03.000",
    "date_modified": "2024-10-02T14:34:03.000",
    "request_status": "Pending",
    "responsible_agency": "Department of Public Works",
    "final_address": "815 Constance St",
    "address_councildis": "B",
    "status": "Pending",
    "rowid": "1137722",
    "final_x": "3681381.27093",
    "final_y": "527583.852159",
    "longitude": "-90.0685824125184",
    "latitude": "29.944676206790593",
    "geocoded_column": {
      "latitude": "29.944676206790593",
      "longitude": "-90.0685824125184"
    }
  },
  {
    "service_request": "2024-1137721",
    "request_type": "Trash/Recycling",
    "request_reason": "Order Trash Cart",
    "date_created": "2024-10-02T14:33:47.000",
    "date_modified": "2024-10-02T14:33:48.000",
    "request_status": "Pending",
    "responsible_agency": "Department of Sanitation",
    "final_address": "2216 DAbadie St",
    "address_councildis": "D",
    "status": "Assigned to Contractor",
    "contractor": "IV Waste",
    "rowid": "1137721",
    "final_x": "3680787.15714",
    "final_y": "539729.965322",
    "longitude": "-90.07003540615865",
    "latitude": "29.97809189667526",
    "geocoded_column": {
      "latitude": "29.97809189667526",
      "longitude": "-90.07003540615865"
    }
  },
  {
    "service_request": "2024-1137720",
    "request_type": "Parks & Parkways",
    "request_reason": "Request Tree Service (Right of Way/Public Property)",
    "date_created": "2024-10-02T14:33:27.000",
    "date_modified": "2024-10-02T14:33:28.000",
    "request_status": "Pending",
    "responsible_agency": "Department of Parks & Parkway",
    "final_address": "3311 Louisiana Avenue Prkwy",
    "address_councildis": "B",
    "status": "Pending",
    "rowid": "1137720",
    "final_x": "3671894.49524",
    "final_y": "527329.518271",
    "longitude": "-90.09854370605271",
    "latitude": "29.944261387553844",
    "geocoded_column": {
      "latitude": "29.944261387553844",
      "longitude": "-90.09854370605271"
    }
  },
  {
    "service_request": "2024-1137719",
    "request_type": "Trash/Recycling",
    "request_reason": "Order Trash Cart",
    "date_created": "2024-10-02T14:32:56.000",
    "date_modified": "2024-10-02T14:32:57.000",
    "request_status": "Pending",
    "responsible_agency": "Department of Sanitation",
    "final_address": "3503 Leonidas St",
    "address_councildis": "A",
    "status": "Assigned to Contractor",
    "contractor": "IV Waste",
    "rowid": "1137719",
    "final_x": "3666229.45818",
    "final_y": "535642.114438",
    "longitude": "-90.1161511149492",
    "latitude": "29.967284957394494",
    "geocoded_column": {
      "latitude": "29.967284957394494",
      "longitude": "-90.1161511149492"
    }
  },
  {
    "service_request": "2024-1137718",
    "request_type": "Property Maintenance",
    "request_reason": "Property Maintenance",
    "date_created": "2024-10-02T14:32:11.000",
    "date_modified": "2024-10-02T14:32:13.000",
    "request_status": "Pending",
    "responsible_agency": "Department of Code Enforcement",
    "final_address": "4709 Eastview Dr",
    "address_councildis": "E",
    "status": "Pending",
    "rowid": "1137718",
    "final_x": "3705176.31863",
    "final_y": "555114.345305",
    "longitude": "-89.99243779414347",
    "latitude": "30.019631243522905",
    "geocoded_column": {
      "latitude": "30.019631243522905",
      "longitude": "-89.99243779414347"
    }
  },
  {
    "service_request": "2024-1137717",
    "request_type": "Abandoned Vehicles",
    "request_reason": "Abandoned/Junk Vehicles",
    "date_created": "2024-10-02T14:29:42.000",
    "date_modified": "2024-10-02T14:29:42.000",
    "request_status": "Pending",
    "responsible_agency": "Department of Public Works",
    "final_address": "14161 Knightway Dr",
    "address_councildis": "E",
    "status": "Pending",
    "rowid": "1137717",
    "final_x": "3718789.29317",
    "final_y": "570684.421735",
    "longitude": "-89.94883139343887",
    "latitude": "30.06199755964532",
    "geocoded_column": {
      "latitude": "30.06199755964532",
      "longitude": "-89.94883139343887"
    }
  },
  {
    "service_request": "2024-1137716",
    "request_type": "Trash/Recycling",
    "request_reason": "Order Second Trash Cart",
    "date_created": "2024-10-02T14:29:21.000",
    "date_modified": "2024-10-02T14:29:22.000",
    "request_status": "Pending",
    "responsible_agency": "Department of Sanitation",
    "final_address": "15001 Emory Rd",
    "address_councildis": "E",
    "status": "Assigned to Contractor",
    "contractor": "Waste Pro",
    "rowid": "1137716",
    "final_x": "3720915.04601",
    "final_y": "574138.401898",
    "longitude": "-89.94197937600815",
    "latitude": "30.071423753550658",
    "geocoded_column": {
      "latitude": "30.071423753550658",
      "longitude": "-89.94197937600815"
    }
  },
  {
    "service_request": "2024-1137715",
    "request_type": "Trash/Recycling",
    "request_reason": "Request a Large Item Pick Up",
    "date_created": "2024-10-02T14:26:31.000",
    "date_modified": "2024-10-02T14:26:32.000",
    "request_status": "Pending",
    "responsible_agency": "Department of Sanitation",
    "final_address": "2621 Fats Domino Ave",
    "address_councildis": "E",
    "status": "Assigned to Contractor",
    "contractor": "Waste Pro",
    "rowid": "1137715",
    "final_x": "3699695.32874",
    "final_y": "539553.356234",
    "longitude": "-90.01032350474644",
    "latitude": "29.977019534260414",
    "geocoded_column": {
      "latitude": "29.977019534260414",
      "longitude": "-90.01032350474644"
    }
  },
  {
    "service_request": "2024-1137714",
    "request_type": "Trash/Recycling",
    "request_reason": "Repair Trash Cart",
    "date_created": "2024-10-02T14:25:35.000",
    "date_modified": "2024-10-02T14:25:36.000",
    "request_status": "Pending",
    "responsible_agency": "Department of Sanitation",
    "final_address": "241 Oakmont Dr",
    "address_councildis": "E",
    "status": "Assigned to Contractor",
    "contractor": "Waste Pro",
    "rowid": "1137714",
    "final_x": "3720039.08236",
    "final_y": "562836.834528",
    "longitude": "-89.94518136448107",
    "latitude": "30.040378358561913",
    "geocoded_column": {
      "latitude": "30.040378358561913",
      "longitude": "-89.94518136448107"
    }
  },
  {
    "service_request": "2024-1137713",
    "request_type": "Trash/Recycling",
    "request_reason": "Order Trash Cart",
    "date_created": "2024-10-02T14:25:00.000",
    "date_modified": "2024-10-02T14:25:01.000",
    "request_status": "Pending",
    "responsible_agency": "Department of Sanitation",
    "final_address": "7040 Bundy Rd",
    "address_councildis": "E",
    "status": "Assigned to Contractor",
    "contractor": "Waste Pro",
    "rowid": "1137713",
    "final_x": "3706872.42372",
    "final_y": "560936.93123",
    "longitude": "-89.9868625206201",
    "latitude": "30.03558639457767",
    "geocoded_column": {
      "latitude": "30.03558639457767",
      "longitude": "-89.9868625206201"
    }
  },
  {
    "service_request": "2024-1137712",
    "request_type": "Trash/Recycling",
    "request_reason": "Request a Large Item Pick Up",
    "date_created": "2024-10-02T14:23:30.000",
    "date_modified": "2024-10-02T14:23:31.000",
    "request_status": "Pending",
    "responsible_agency": "Department of Sanitation",
    "final_address": "5226 Wickfield Dr",
    "address_councildis": "D",
    "status": "Assigned to Contractor",
    "contractor": "IV Waste",
    "rowid": "1137712",
    "final_x": "3681280.71413",
    "final_y": "551760.013077",
    "longitude": "-90.06805702348929",
    "latitude": "30.01115529099409",
    "geocoded_column": {
      "latitude": "30.01115529099409",
      "longitude": "-90.06805702348929"
    }
  },
  {
    "service_request": "2024-1137711",
    "request_type": "Abandoned Vehicles",
    "request_reason": "Abandoned/Junk Vehicles",
    "date_created": "2024-10-02T14:23:07.000",
    "date_modified": "2024-10-02T14:23:07.000",
    "request_status": "Pending",
    "responsible_agency": "Department of Public Works",
    "final_address": "6993 Queensway Dr",
    "address_councildis": "E",
    "status": "Pending",
    "rowid": "1137711",
    "final_x": "3719395.34117",
    "final_y": "569234.147814",
    "longitude": "-89.9469711581549",
    "latitude": "30.057989762417456",
    "geocoded_column": {
      "latitude": "30.057989762417456",
      "longitude": "-89.9469711581549"
    }
  },
  {
    "service_request": "2024-1137710",
    "request_type": "Abandoned Vehicles",
    "request_reason": "Abandoned/Junk Vehicles",
    "date_created": "2024-10-02T14:18:27.000",
    "date_modified": "2024-10-02T14:18:27.000",
    "request_status": "Pending",
    "responsible_agency": "Department of Public Works",
    "final_address": "7160 Ridgefield Dr",
    "address_councildis": "E",
    "status": "Pending",
    "rowid": "1137710",
    "final_x": "3718942.51794",
    "final_y": "570078.682727",
    "longitude": "-89.94837019725762",
    "latitude": "30.060326938562252",
    "geocoded_column": {
      "latitude": "30.060326938562252",
      "longitude": "-89.94837019725762"
    }
  },
  {
    "service_request": "2024-1137709",
    "request_type": "Streetlights",
    "request_reason": "Streetlight Outage/Malfunction",
    "date_created": "2024-10-02T14:16:22.000",
    "date_modified": "2024-10-02T14:16:23.000",
    "request_status": "Pending",
    "responsible_agency": "Department of Public Works",
    "final_address": "18 New Basin Way",
    "address_councildis": "A",
    "status": "Pending",
    "contractor": "Legacy Professional Services",
    "rowid": "1137709",
    "final_x": "3666710.41402",
    "final_y": "554328.336088",
    "longitude": "-90.11400428355779",
    "latitude": "30.01865162005467",
    "geocoded_column": {
      "latitude": "30.01865162005467",
      "longitude": "-90.11400428355779"
    }
  },