[
  {
    "service_request": "2021-838510",
    "request_type": "Health Related Questions",
    "request_reason": "Smoke-Free Ordinance Complaint",
    "date_created": "2021-10-31T23:25:36.000",
    "date_modified": "2021-10-31T23:25:36.000",
    "request_status": "Pending",
    "responsible_agency": "Health Department",
    "final_address": "124 S Lopez St",
    "address_councildis": "B",
    "status": "Pending",
    "rowid": "838510",
    "final_x": "3673800.0578",
    "final_y": "535992.501319",
    "longitude": "-90.09223103894614",
    "latitude": "29.9680251048724",
    "geocoded_column": {
      "latitude": "29.9680251048724",
      "longitude": "-90.09223103894614"
    }
  },
  {
    "service_request": "2021-838508",
    "request_type": "Abandoned Vehicles",
    "request_reason": "Vehicle Blocking Your Driveway",
    "date_created": "2021-10-31T22:16:21.000",
    "date_modified": "2021-10-31T22:16:21.000",
    "request_status": "Pending",
    "responsible_agency": "Department of Public Works",
    "final_address": "726 Upperline St",
    "address_councildis": "B",
    "status": "Pending",
    "rowid": "838508",
    "final_x": "3668862.63412",
    "final_y": "518044.35519",
    "longitude": "-90.10842957133552",
    "latitude": "29.918819647747018",
    "geocoded_column": {
      "latitude": "29.918819647747018",
      "longitude": "-90.10842957133552"
    }
  },
  {
    "service_request": "2021-838507",
    "request_type": "Trash/Recycling",
    "request_reason": "Illegal Dumping",
    "date_created": "2021-10-31T21:35:40.000",
    "date_modified": "2021-10-31T21:35:40.000",
    "request_status": "Pending",
    "responsible_agency": "Department of Sanitation",
    "final_address": "1920 S Lopez St",
    "address_councildis": "B",
    "status": "Pending",
    "rowid": "838507",
    "final_x": "3669590.86881",
    "final_y": "529860.909633",
    "longitude": "-90.1057313046256",
    "latitude": "29.95128994587979",
    "geocoded_column": {
      "latitude": "29.95128994587979",
      "longitude": "-90.1057313046256"
    }
  },
  {
    "service_request": "2021-838506",
    "request_type": "Safety & Permits",
    "request_reason": "Licenses & Permits",
    "date_created": "2021-10-31T20:44:28.000",
    "date_modified": "2021-10-31T20:44:28.000",
    "request_status": "Pending",
    "responsible_agency": "Safety and Permits",
    "status": "Pending",
    "rowid": "838506",
    "longitude": "0.0",
    "latitude": "0.0",
    "geocoded_column": {
      "latitude": "0.0",
      "longitude": "0.0"
    }
  },
  {
    "service_request": "2021-838504",
    "request_type": "Trash/Recycling",
    "request_reason": "Return Trash Cart",
    "date_created": "2021-10-31T20:18:17.000",
    "date_modified": "2021-10-31T20:18:17.000",
    "request_status": "Pending",
    "responsible_agency": "Department of Sanitation",
    "final_address": "4651 Spain St",
    "address_councildis": "D",
    "status": "Assigned to Contractor",
    "contractor": "Metro Disposal",
    "rowid": "838504",
    "final_x": "3685119.12021",
    "final_y": "549967.539796",
    "longitude": "-90.05599310792047",
    "latitude": "30.00610953936148",
    "geocoded_column": {
      "latitude": "30.00610953936148",
      "longitude": "-90.05599310792047"
    }
  },
  {
    "service_request": "2021-838503",
    "request_type": "Safety & Permits",
    "request_reason": "Licenses & Permits",
    "date_created": "2021-10-31T20:04:32.000",
    "date_modified": "2021-10-31T20:04:32.000",
    "request_status": "Pending",
    "responsible_agency": "Safety and Permits",
    "final_address": "700 Frenchmen St",
    "address_councildis": "C",
    "status": "Pending",
    "rowid": "838503",
    "final_x": "3684674.15349",
    "final_y": "534862.19559",
    "longitude": "-90.05793003716528",
    "latitude": "29.964588816083072",
    "geocoded_column": {
      "latitude": "29.964588816083072",
      "longitude": "-90.05793003716528"
    }
  },
  {
    "service_request": "2021-838502",
    "request_type": "Abandoned Vehicles",
    "request_reason": "Vehicle Blocking Your Driveway",
    "date_created": "2021-10-31T19:56:17.000",
    "date_modified": "2021-10-31T20:00:48.000",
    "request_status": "Pending",
    "responsible_agency": "Department of Public Works",
    "final_address": "1450 State St",
    "address_councildis": "A",
    "status": "Pending",
    "rowid": "838502",
    "final_x": "3665403.60756",
    "final_y": "521613.739321",
    "longitude": "-90.11922858441115",
    "latitude": "29.92873555443688",
    "geocoded_column": {
      "latitude": "29.92873555443688",
      "longitude": "-90.11922858441115"
    }
  },
  {
    "service_request": "2021-838501",
    "request_type": "Abandoned Vehicles",
    "request_reason": "Abandoned/Junk Vehicles",
    "date_created": "2021-10-31T19:45:13.000",
    "date_modified": "2021-10-31T19:45:13.000",
    "request_status": "Pending",
    "responsible_agency": "Department of Public Works",
    "final_address": "1941 Congress St",
    "address_councildis": "D",
    "status": "Pending",
    "rowid": "838501",
    "final_x": "3691583.58966",
    "final_y": "538904.589898",
    "longitude": "-90.03596608384248",
    "latitude": "29.97549069564322",
    "geocoded_column": {
      "latitude": "29.97549069564322",
      "longitude": "-90.03596608384248"
    }
  },
  {
    "service_request": "2021-838500",
    "request_type": "Traffic Signals/Signs/Striping/Streetlights",
    "request_reason": "Street Light Outage/Malfunction",
    "date_created": "2021-10-31T18:57:04.000",
    "date_modified": "2021-10-31T18:57:05.000",
    "request_status": "Pending",
    "responsible_agency": "Department of Public Works",
    "final_address": "6468 Bellaire Dr",
    "address_councildis": "A",
    "status": "Pending",
    "contractor": "Royal Engineering",
    "rowid": "838500",
    "final_x": "3664409.4393",
    "final_y": "551022.552661",
    "longitude": "-90.12138504340078",
    "latitude": "30.00962899493372",
    "geocoded_column": {
      "latitude": "30.00962899493372",
      "longitude": "-90.12138504340078"
    }
  },
  {
    "service_request": "2021-838499",
    "request_type": "Property Maintenance",
    "request_reason": "Property Maintenance",
    "date_created": "2021-10-31T17:52:54.000",
    "date_modified": "2021-10-31T18:01:01.000",
    "request_status": "Pending",
    "responsible_agency": "Department of Code Enforcement",
    "final_address": "3401 Havana St",
    "address_councildis": "D",
    "status": "Pending",
    "rowid": "838499",
    "final_x": "3680964.19746",
    "final_y": "544921.642319",
    "longitude": "-90.06929536446933",
    "latitude": "29.992361821036123",
    "geocoded_column": {
      "latitude": "29.992361821036123",
      "longitude": "-90.06929536446933"
    }
  },
  {
    "service_request": "2021-838498",
    "request_type": "Traffic Signals/Signs/Striping/Streetlights",
    "request_reason": "Street Light Outage/Malfunction",
    "date_created": "2021-10-31T16:44:03.000",
    "date_modified": "2021-10-31T17:00:49.000",
    "request_status": "Pending",
    "responsible_agency": "Department of Public Works",
    "final_address": "4700 Sandalwood St",
    "address_councildis": "E",
    "status": "Pending",
    "contractor": "Royal Engineering",
    "rowid": "838498",
    "final_x": "3712184.40606",
    "final_y": "555844.530137",
    "longitude": "-89.97026733193147",
    "latitude": "30.02141160454548",
    "geocoded_column": {
      "latitude": "30.02141160454548",
      "longitude": "-89.97026733193147"
    }
  },
  {
    "service_request": "2021-838497",
    "request_type": "Mosquito, Termite & Rodent Control",
    "request_reason": "Non-Rodent Complaint (Mice, Possums, Snakes)",
    "date_created": "2021-10-31T16:21:07.000",
    "date_modified": "2021-10-31T16:21:07.000",
    "request_status": "Pending",
    "responsible_agency": "Mosquito, Termite & Rodent Control Board",
    "final_address": "4672 Venus St",
    "address_councildis": "D",
    "status": "Pending",
    "rowid": "838497",
    "final_x": "3686445.98562",
    "final_y": "550168.33826",
    "longitude": "-90.05179413303094",
    "latitude": "30.006620924309644",
    "geocoded_column": {
      "latitude": "30.006620924309644",
      "longitude": "-90.05179413303094"
    }
  },
  {
    "service_request": "2021-838496",
    "request_type": "Trash/Recycling",
    "request_reason": "Request a Large Item Pick Up",
    "date_created": "2021-10-31T16:08:18.000",
    "date_modified": "2021-10-31T16:08:18.000",
    "request_status": "Pending",
    "responsible_agency": "Department of Sanitation",
    "final_address": "1916 S Lopez St",
    "address_councildis": "B",
    "status": "Assigned to Contractor",
    "contractor": "Richards Disposal",
    "rowid": "838496",
    "final_x": "3669591.81038",
    "final_y": "529896.087553",
    "longitude": "-90.10572714159562",
    "latitude": "29.951386645895244",
    "geocoded_column": {
      "latitude": "29.951386645895244",
      "longitude": "-90.10572714159562"
    }
  },
  {
    "service_request": "2021-838495",
    "request_type": "COVID-19",
    "request_reason": "COVID-19 Business Non-Compliance",
    "date_created": "2021-10-31T15:51:10.000",
    "date_modified": "2021-10-31T16:01:08.000",
    "request_status": "Pending",
    "responsible_agency": "Safety and Permits",
    "final_address": "5342 Saint Charles Ave, New Orleans, Louisiana, 70115",
    "status": "Pending",
    "rowid": "838495",
    "longitude": "0.0",
    "latitude": "0.0",
    "geocoded_column": {
      "latitude": "0.0",
      "longitude": "0.0"
    }
  },
  {
    "service_request": "2021-838494",
    "request_type": "Abandoned Vehicles",
    "request_reason": "Abandoned/Junk Vehicles",
    "date_created": "2021-10-31T15:33:14.000",
    "date_modified": "2021-10-31T15:33:14.000",
    "request_status": "Pending",
    "responsible_agency": "Department of Public Works",
    "final_address": "900 Napoleon Ave",
    "address_councildis": "B",
    "status": "Pending",
    "rowid": "838494",
    "final_x": "3670816.23329",
    "final_y": "518803.454263",
    "longitude": "-90.10223731581735",
    "latitude": "29.920849360685466",
    "geocoded_column": {
      "latitude": "29.920849360685466",
      "longitude": "-90.10223731581735"
    }
  },
  {
    "service_request": "2021-838493",
    "request_type": "Abandoned Vehicles",
    "request_reason": "Abandoned/Junk Vehicles",
    "date_created": "2021-10-31T15:21:46.000",
    "date_modified": "2021-10-31T16:01:10.000",
    "request_status": "Pending",
    "responsible_agency": "Department of Public Works",
    "final_address": "600 Loyola Ave, New Orleans, Louisiana, 70113",
    "address_councildis": "B",
    "status": "Pending",
    "rowid": "838493",
    "final_x": "3672740.19976",
    "final_y": "523210.975867",
    "longitude": "-90.09601398662733",
    "latitude": "29.932911650087114",
    "geocoded_column": {
      "latitude": "29.932911650087114",
      "longitude": "-90.09601398662733"
    }
  },
  {
    "service_request": "2021-838492",
    "request_type": "Traffic Signals/Signs/Striping/Streetlights",
    "request_reason": "Traffic Signal Malfunctioning/Damaged",
    "date_created": "2021-10-31T15:19:14.000",
    "date_modified": "2021-10-31T15:19:14.000",
    "request_status": "Pending",
    "responsible_agency": "Department of Public Works",
    "final_address": "ESPLANADE AVE & N BROAD ST",
    "address_councildis": "D",
    "status": "Pending",
    "rowid": "838492",
    "final_x": "3678205.46",
    "final_y": "538920.34",
    "longitude": "-90.07821733427264",
    "latitude": "29.975943718140513",
    "geocoded_column": {
      "latitude": "29.975943718140513",
      "longitude": "-90.07821733427264"
    }
  },
  {
    "service_request": "2021-838491",
    "request_type": "Roads/Drainage",
    "request_reason": "Street Flooding / Drainage",
    "date_created": "2021-10-31T15:18:49.000",
    "date_modified": "2021-10-31T16:01:12.000",
    "request_status": "Pending",
    "responsible_agency": "Department of Public Works",
    "final_address": "8123 Panola St",
    "address_councildis": "A",
    "status": "Pending",
    "rowid": "838491",
    "final_x": "3663981.22656",
    "final_y": "530865.04397",
    "longitude": "-90.12341038956264",
    "latitude": "29.95421505086143",
    "geocoded_column": {
      "latitude": "29.95421505086143",
      "longitude": "-90.12341038956264"
    }
  },
  {
    "service_request": "2021-838489",
    "request_type": "Traffic Signals/Signs/Striping/Streetlights",
    "request_reason": "Traffic Signal Malfunctioning/Damaged",
    "date_created": "2021-10-31T14:52:37.000",
    "date_modified": "2021-10-31T14:52:37.000",
    "request_status": "Pending",
    "responsible_agency": "Department of Public Works",
    "final_address": "1233 N Broad St",
    "address_councildis": "A",
    "status": "Pending",
    "rowid": "838489",
    "final_x": "3678011.8148",
    "final_y": "538848.458121",
    "longitude": "-90.0788314071433",
    "latitude": "29.97575189865515",
    "geocoded_column": {
      "latitude": "29.97575189865515",
      "longitude": "-90.0788314071433"
    }
  },
  {
    "service_request": "2021-838488",
    "request_type": "Mosquito, Termite & Rodent Control",
    "request_reason": "Rodent Complaint (Rats)",
    "date_created": "2021-10-31T14:46:13.000",
    "date_modified": "2021-10-31T14:46:13.000",
    "request_status": "Pending",
    "responsible_agency": "Mosquito, Termite & Rodent Control Board",
    "final_address": "3601 Rue Delphine",
    "address_councildis": "C",
    "status": "Pending",
    "rowid": "838488",
    "final_x": "3702987.6778",
    "final_y": "517425.83775",
    "longitude": "-90.00073804500423",
    "latitude": "29.916071761022536",
    "geocoded_column": {
      "latitude": "29.916071761022536",
      "longitude": "-90.00073804500423"
    }
  },
  {
    "service_request": "2021-838487",
    "request_type": "Taxi Issues",
    "request_reason": "Taxi Lost & Found Item",
    "date_created": "2021-10-31T14:36:53.000",
    "date_modified": "2021-10-31T14:42:18.000",
    "request_status": "Pending",
    "responsible_agency": "Ground Transportation Bureau",
    "final_address": "1500 Sugar Bowl Dr",
    "address_councildis": "B",
    "status": "Pending",
    "rowid": "838487",
    "final_x": "3677419.94741",
    "final_y": "529887.900033",
    "longitude": "-90.08100999051224",
    "latitude": "29.951131203927932",
    "geocoded_column": {
      "latitude": "29.951131203927932",
      "longitude": "-90.08100999051224"
    }
  },
  {
    "service_request": "2021-838486",
    "request_type": "Abandoned Vehicles",
    "request_reason": "Abandoned/Junk Vehicles",
    "date_created": "2021-10-31T14:33:13.000",
    "date_modified": "2021-10-31T14:33:13.000",
    "request_status": "Pending",
    "responsible_agency": "Department of Public Works",
    "final_address": "1429 Numa St",
    "address_councildis": "C",
    "status": "Pending",
    "rowid": "838486",
    "final_x": "3691713.99228",
    "final_y": "525983.439357",
    "longitude": "-90.03601627057141",
    "latitude": "29.93995797602207",
    "geocoded_column": {
      "latitude": "29.93995797602207",
      "longitude": "-90.03601627057141"
    }
  },
  {
    "service_request": "2021-838485",
    "request_type": "Trash/Recycling",
    "request_reason": "Request a Large Item Pick Up",
    "date_created": "2021-10-31T14:28:50.000",
    "date_modified": "2021-10-31T15:00:57.000",
    "request_status": "Pending",
    "responsible_agency": "Department of Sanitation",
    "final_address": "836 Mandeville St",
    "address_councildis": "C",
    "status": "Assigned to Contractor",
    "contractor": "Metro Disposal",
    "rowid": "838485",
    "final_x": "3685812.05142",
    "final_y": "535582.80679",
    "longitude": "-90.05431124373891",
    "latitude": "29.966535371918678",
    "geocoded_column": {
      "latitude": "29.966535371918678",
      "longitude": "-90.05431124373891"
    }
  },
  {
    "service_request": "2021-838484",
    "request_type": "Traffic Signals/Signs/Striping/Streetlights",
    "request_reason": "Traffic Sign Missing/Damaged",
    "date_created": "2021-10-31T13:55:04.000",
    "date_modified": "2021-10-31T13:55:04.000",
    "request_status": "Pending",
    "responsible_agency": "Department of Public Works",
    "final_address": "ESPLANADE AVE & N BROAD ST",
    "address_councildis": "D",
    "status": "Pending",
    "rowid": "838484",
    "final_x": "3678205.46",
    "final_y": "538920.34",
    "longitude": "-90.07821733427264",
    "latitude": "29.975943718140513",
    "geocoded_column": {
      "latitude": "29.975943718140513",
      "longitude": "-90.07821733427264"
    }
  },
  {
    "service_request": "2021-838483",
    "request_type": "Abandoned Vehicles",
    "request_reason": "Abandoned/Junk Vehicles",
    "date_created": "2021-10-31T13:22:54.000",
    "date_modified": "2021-10-31T14:01:00.000",
    "request_status": "Pending",
    "responsible_agency": "Department of Public Works",
    "final_address": "2312 Burdette St",
    "address_councildis": "A",
    "status": "Pending",
    "rowid": "838483",
    "final_x": "3665470.23725",
    "final_y": "530611.81485",
    "longitude": "-90.11871714702852",
    "latitude": "29.953475436539943",
    "geocoded_column": {
      "latitude": "29.953475436539943",
      "longitude": "-90.11871714702852"
    }
  },
  {
    "service_request": "2021-838482",
    "request_type": "Property Maintenance",
    "request_reason": "Property Maintenance",
    "date_created": "2021-10-31T13:14:03.000",
    "date_modified": "2021-10-31T13:14:03.000",
    "request_status": "Pending",
    "responsible_agency": "Department of Code Enforcement",
    "final_address": "4501 Walmsley Ave",
    "address_councildis": "B",
    "status": "Pending",
    "rowid": "838482",
    "final_x": "3669314.90106",
    "final_y": "530288.320897",
    "longitude": "-90.10658822881886",
    "latitude": "29.952473313574476",
    "geocoded_column": {
      "latitude": "29.952473313574476",
      "longitude": "-90.10658822881886"
    }
  },
  {
    "service_request": "2021-838481",
    "request_type": "Roads/Drainage",
    "request_reason": "Pothole",
    "date_created": "2021-10-31T12:50:31.000",
    "date_modified": "2021-10-31T12:50:31.000",
    "request_status": "Pending",
    "responsible_agency": "Department of Public Works",
    "final_address": "6466 Memphis St",
    "address_councildis": "A",
    "status": "Pending",
    "rowid": "838481",
    "final_x": "3669393.52993",
    "final_y": "550494.024148",
    "longitude": "-90.1056563827353",
    "latitude": "30.00802983382561",
    "geocoded_column": {
      "latitude": "30.00802983382561",
      "longitude": "-90.1056563827353"
    }
  },
  {
    "service_request": "2021-838480",
    "request_type": "Trash/Recycling",
    "request_reason": "Request a Large Item Pick Up",
    "date_created": "2021-10-31T12:37:46.000",
    "date_modified": "2021-10-31T12:37:46.000",
    "request_status": "Pending",
    "responsible_agency": "Department of Sanitation",
    "final_address": "1526 Mandeville St",
    "address_councildis": "C",
    "status": "Assigned to Contractor",
    "contractor": "Metro Disposal",
    "rowid": "838480",
    "final_x": "3685608.29583",
    "final_y": "538052.661257",
    "longitude": "-90.0548676749164",
    "latitude": "29.973332863991242",
    "geocoded_column": {
      "latitude": "29.973332863991242",
      "longitude": "-90.0548676749164"
    }
  },
  {
    "service_request": "2021-838479",
    "request_type": "Trash/Recycling",
    "request_reason": "Illegal Dumping",
    "date_created": "2021-10-31T12:33:02.000",
    "date_modified": "2021-10-31T13:00:58.000",
    "request_status": "Pending",
    "responsible_agency": "Department of Sanitation",
    "final_address": "N GALVEZ ST & ST ROCH AVE",
    "address_councildis": "D",
    "status": "Pending",
    "rowid": "838479",
    "final_x": "3686156.8",
    "final_y": "540102.58",
    "longitude": "-90.05306305439461",
    "latitude": "29.97895258179575",
    "geocoded_column": {
      "latitude": "29.97895258179575",
      "longitude": "-90.05306305439461"
    }
  },
  {
    "service_request": "2021-838478",
    "request_type": "Traffic Signals/Signs/Striping/Streetlights",
    "request_reason": "Traffic Signal Malfunctioning/Damaged",
    "date_created": "2021-10-31T12:24:09.000",
    "date_modified": "2021-10-31T12:24:09.000",
    "request_status": "Pending",
    "responsible_agency": "Department of Public Works",
    "final_address": "ORLEANS AVE & N GALVEZ ST",
    "address_councildis": "D",
    "status": "Pending",
    "rowid": "838478",
    "final_x": "3678374.2",
    "final_y": "535783.38",
    "longitude": "-90.07779296410732",
    "latitude": "29.96731307006448",
    "geocoded_column": {
      "latitude": "29.96731307006448",
      "longitude": "-90.07779296410732"
    }
  },
  {
    "service_request": "2021-838477",
    "request_type": "Abandoned Vehicles",
    "request_reason": "Abandoned/Junk Vehicles",
    "date_created": "2021-10-31T12:23:31.000",
    "date_modified": "2021-10-31T12:23:31.000",
    "request_status": "Pending",
    "responsible_agency": "Department of Public Works",
    "final_address": "938 Seventh St",
    "address_councildis": "B",
    "status": "Pending",
    "rowid": "838477",
    "final_x": "3676563.60622",
    "final_y": "520004.827",
    "longitude": "-90.08405412042285",
    "latitude": "29.923981704297933",
    "geocoded_column": {
      "latitude": "29.923981704297933",
      "longitude": "-90.08405412042285"
    }
  },
  {
    "service_request": "2021-838476",
    "request_type": "Trash/Recycling",
    "request_reason": "Illegal Dumping",
    "date_created": "2021-10-31T12:14:16.000",
    "date_modified": "2021-10-31T12:14:16.000",
    "request_status": "Pending",
    "responsible_agency": "Department of Sanitation",
    "final_address": "2759 Palmyra St",
    "address_councildis": "B",
    "status": "Pending",
    "rowid": "838476",
    "final_x": "3674489.43182",
    "final_y": "534848.370566",
    "longitude": "-90.09009317101592",
    "latitude": "29.964858582109052",
    "geocoded_column": {
      "latitude": "29.964858582109052",
      "longitude": "-90.09009317101592"
    }
  },
  {
    "service_request": "2021-838474",
    "request_type": "Trash/Recycling",
    "request_reason": "Illegal Dumping",
    "date_created": "2021-10-31T12:06:35.000",
    "date_modified": "2021-10-31T12:06:35.000",
    "request_status": "Pending",
    "responsible_agency": "Department of Sanitation",
    "final_address": "2762 Palmyra St",
    "address_councildis": "B",
    "status": "Pending",
    "rowid": "838474",
    "final_x": "3674412.46888",
    "final_y": "534752.962566",
    "longitude": "-90.09033948380404",
    "latitude": "29.96459853812009",
    "geocoded_column": {
      "latitude": "29.96459853812009",
      "longitude": "-90.09033948380404"
    }
  },
  {
    "service_request": "2021-838473",
    "request_type": "Trash/Recycling",
    "request_reason": "Missed Trash Pick-Up",
    "date_created": "2021-10-31T12:02:27.000",
    "date_modified": "2021-10-31T12:02:28.000",
    "request_status": "Pending",
    "responsible_agency": "Department of Sanitation",
    "final_address": "816 Solomon Pl",
    "address_councildis": "A",
    "status": "Assigned to Contractor",
    "contractor": "Richards Disposal",
    "rowid": "838473",
    "final_x": "3672541.61339",
    "final_y": "540715.572171",
    "longitude": "-90.09604419962777",
    "latitude": "29.98104936769916",
    "geocoded_column": {
      "latitude": "29.98104936769916",
      "longitude": "-90.09604419962777"
    }
  },
  {
    "service_request": "2021-838472",
    "request_type": "Roads/Drainage",
    "request_reason": "Pothole",
    "date_created": "2021-10-31T12:02:23.000",
    "date_modified": "2021-10-31T12:02:23.000",
    "request_status": "Pending",
    "responsible_agency": "Department of Public Works",
    "final_address": "1000 Race St",
    "address_councildis": "B",
    "status": "Pending",
    "rowid": "838472",
    "final_x": "3680508.50728",
    "final_y": "523719.305275",
    "longitude": "-90.0714723557563",
    "latitude": "29.934076446289726",
    "geocoded_column": {
      "latitude": "29.934076446289726",
      "longitude": "-90.0714723557563"
    }
  },
  {
    "service_request": "2021-838471",
    "request_type": "Trash/Recycling",
    "request_reason": "Repair Trash Cart",
    "date_created": "2021-10-31T11:57:40.000",
    "date_modified": "2021-10-31T11:57:40.000",
    "request_status": "Pending",
    "responsible_agency": "Department of Sanitation",
    "final_address": "5639 Milne St",
    "address_councildis": "A",
    "status": "Assigned to Contractor",
    "contractor": "Metro Disposal",
    "rowid": "838471",
    "final_x": "3666868.64513",
    "final_y": "545020.193359",
    "longitude": "-90.11381734294781",
    "latitude": "29.993052830773657",
    "geocoded_column": {
      "latitude": "29.993052830773657",
      "longitude": "-90.11381734294781"
    }
  },
  {
    "service_request": "2021-838470",
    "request_type": "Traffic Signals/Signs/Striping/Streetlights",
    "request_reason": "Street Light Outage/Malfunction",
    "date_created": "2021-10-31T11:57:27.000",
    "date_modified": "2021-10-31T11:57:28.000",
    "request_status": "Pending",
    "responsible_agency": "Department of Public Works",
    "final_address": "1000 Race St",
    "address_councildis": "B",
    "status": "Pending",
    "contractor": "Royal Engineering",
    "rowid": "838470",
    "final_x": "3680508.50728",
    "final_y": "523719.305275",
    "longitude": "-90.0714723557563",
    "latitude": "29.934076446289726",
    "geocoded_column": {
      "latitude": "29.934076446289726",
      "longitude": "-90.0714723557563"
    }
  },
  {
    "service_request": "2021-838469",
    "request_type": "Trash/Recycling",
    "request_reason": "Request a Large Item Pick Up",
    "date_created": "2021-10-31T11:36:22.000",
    "date_modified": "2021-10-31T12:00:53.000",
    "request_status": "Pending",
    "responsible_agency": "Department of Sanitation",
    "final_address": "2517 Gladiolus St",
    "address_councildis": "D",
    "status": "Assigned to Contractor",
    "contractor": "Metro Disposal",
    "rowid": "838469",
    "final_x": "3686464.19567",
    "final_y": "547512.485842",
    "longitude": "-90.05183044208762",
    "latitude": "29.99931773264366",
    "geocoded_column": {
      "latitude": "29.99931773264366",
      "longitude": "-90.05183044208762"
    }
  },
  {
    "service_request": "2021-838468",
    "request_type": "Trash/Recycling",
    "request_reason": "Request a Large Item Pick Up",
    "date_created": "2021-10-31T11:24:52.000",
    "date_modified": "2021-10-31T11:24:52.000",
    "request_status": "Pending",
    "responsible_agency": "Department of Sanitation",
    "final_address": "1925 Napoleon Ave",
    "address_councildis": "B",
    "status": "Assigned to Contractor",
    "contractor": "Richards Disposal",
    "rowid": "838468",
    "final_x": "3670832.46574",
    "final_y": "522163.044858",
    "longitude": "-90.10207212455205",
    "latitude": "29.930086683036908",
    "geocoded_column": {
      "latitude": "29.930086683036908",
      "longitude": "-90.10207212455205"
    }
  },
  {
    "service_request": "2021-838467",
    "request_type": "Abandoned Vehicles",
    "request_reason": "Vehicle Blocking Your Driveway",
    "date_created": "2021-10-31T11:19:53.000",
    "date_modified": "2021-10-31T11:19:53.000",
    "request_status": "Pending",
    "responsible_agency": "Department of Public Works",
    "final_address": "1314 Elysian Fields Ave",
    "address_councildis": "C",
    "status": "Pending",
    "rowid": "838467",
    "final_x": "3684830.23951",
    "final_y": "537173.842312",
    "longitude": "-90.05735583869718",
    "latitude": "29.97094026520374",
    "geocoded_column": {
      "latitude": "29.97094026520374",
      "longitude": "-90.05735583869718"
    }
  },
  {
    "service_request": "2021-838464",
    "request_type": "Trash/Recycling",
    "request_reason": "Replace Trash Cart",
    "date_created": "2021-10-31T10:48:15.000",
    "date_modified": "2021-10-31T11:00:56.000",
    "request_status": "Pending",
    "responsible_agency": "Department of Sanitation",
    "final_address": "2412 Magazine St",
    "address_councildis": "B",
    "status": "Assigned to Contractor",
    "contractor": "Richards Disposal",
    "rowid": "838464",
    "final_x": "3678005.39221",
    "final_y": "521394.465785",
    "longitude": "-90.07945491309229",
    "latitude": "29.927759457081613",
    "geocoded_column": {
      "latitude": "29.927759457081613",
      "longitude": "-90.07945491309229"
    }
  },
  {
    "service_request": "2021-838463",
    "request_type": "Abandoned Vehicles",
    "request_reason": "Abandoned/Junk Vehicles",
    "date_created": "2021-10-31T10:45:45.000",
    "date_modified": "2021-10-31T10:45:45.000",
    "request_status": "Pending",
    "responsible_agency": "Department of Public Works",
    "final_address": "4711 Laurel St",
    "address_councildis": "B",
    "status": "Pending",
    "rowid": "838463",
    "final_x": "3669930.61793",
    "final_y": "517972.332278",
    "longitude": "-90.105060929543",
    "latitude": "29.918590171905134",
    "geocoded_column": {
      "latitude": "29.918590171905134",
      "longitude": "-90.105060929543"
    }
  },
  {
    "service_request": "2021-838462",
    "request_type": "Abandoned Vehicles",
    "request_reason": "Abandoned/Junk Vehicles",
    "date_created": "2021-10-31T10:39:01.000",
    "date_modified": "2021-10-31T10:39:01.000",
    "request_status": "Pending",
    "responsible_agency": "Department of Public Works",
    "final_address": "4718 Laurel St",
    "address_councildis": "B",
    "status": "Pending",
    "rowid": "838462",
    "final_x": "3669849.97146",
    "final_y": "517882.501814",
    "longitude": "-90.10531852745154",
    "latitude": "29.918345543304987",
    "geocoded_column": {
      "latitude": "29.918345543304987",
      "longitude": "-90.10531852745154"
    }
  },
  {
    "service_request": "2021-838461",
    "request_type": "Trash/Recycling",
    "request_reason": "Request a Large Item Pick Up",
    "date_created": "2021-10-31T10:33:20.000",
    "date_modified": "2021-10-31T10:33:21.000",
    "request_status": "Pending",
    "responsible_agency": "Department of Sanitation",
    "final_address": "2808 Seine St",
    "address_councildis": "C",
    "status": "Assigned to Contractor",
    "contractor": "Richards Disposal",
    "rowid": "838461",
    "final_x": "3693363.14576",
    "final_y": "521041.724089",
    "longitude": "-90.03098699779967",
    "latitude": "29.926318499274164",
    "geocoded_column": {
      "latitude": "29.926318499274164",
      "longitude": "-90.03098699779967"
    }
  },
  {
    "service_request": "2021-838460",
    "request_type": "Roads/Drainage",
    "request_reason": "Man hole cover issue",
    "date_created": "2021-10-31T10:20:06.000",
    "date_modified": "2021-10-31T10:20:06.000",
    "request_status": "Pending",
    "responsible_agency": "Department of Public Works",
    "final_address": "714 Piety St",
    "address_councildis": "C",
    "status": "Pending",
    "rowid": "838460",
    "final_x": "3689469.23055",
    "final_y": "534438.724037",
    "longitude": "-90.04280263989885",
    "latitude": "29.963276789370997",
    "geocoded_column": {
      "latitude": "29.963276789370997",
      "longitude": "-90.04280263989885"
    }
  },
  {
    "service_request": "2021-838459",
    "request_type": "Traffic Signals/Signs/Striping/Streetlights",
    "request_reason": "Traffic Signal Malfunctioning/Damaged",
    "date_created": "2021-10-31T10:02:23.000",
    "date_modified": "2021-10-31T10:02:23.000",
    "request_status": "Pending",
    "responsible_agency": "Department of Public Works",
    "final_address": "5334 Forest Park Ln",
    "address_councildis": "C",
    "status": "Pending",
    "rowid": "838459",
    "final_x": "3704243.12068",
    "final_y": "510533.034927",
    "longitude": "-89.99702913190835",
    "latitude": "29.8970786964387",
    "geocoded_column": {
      "latitude": "29.8970786964387",
      "longitude": "-89.99702913190835"
    }
  },
  {
    "service_request": "2021-838457",
    "request_type": "Traffic Signals/Signs/Striping/Streetlights",
    "request_reason": "Street Name Sign Damaged or Missing",
    "date_created": "2021-10-31T09:53:30.000",
    "date_modified": "2021-10-31T09:53:30.000",
    "request_status": "Pending",
    "responsible_agency": "Department of Public Works",
    "final_address": "5312 Forest Park Ln",
    "address_councildis": "C",
    "status": "Pending",
    "rowid": "838457",
    "final_x": "3704144.19415",
    "final_y": "510538.999023",
    "longitude": "-89.99734110164601",
    "latitude": "29.897098267628216",
    "geocoded_column": {
      "latitude": "29.897098267628216",
      "longitude": "-89.99734110164601"
    }
  },
  {
    "service_request": "2021-838456",
    "request_type": "Abandoned Vehicles",
    "request_reason": "Abandoned/Junk Vehicles",
    "date_created": "2021-10-31T09:52:42.000",
    "date_modified": "2021-10-31T09:54:47.000",
    "request_status": "Pending",
    "responsible_agency": "Department of Public Works",
    "final_address": "2300 BLK S Robertson St",
    "address_councildis": "B",
    "status": "Pending",
    "rowid": "838456",
    "final_x": "3675051.04127",
    "final_y": "526296.174229",
    "longitude": "-90.08861302080822",
    "latitude": "29.941326121630016",
    "geocoded_column": {
      "latitude": "29.941326121630016",
      "longitude": "-90.08861302080822"
    }
  },
  {
    "service_request": "2021-838455",
    "request_type": "Abandoned Vehicles",
    "request_reason": "Abandoned/Junk Vehicles",
    "date_created": "2021-10-31T09:48:44.000",
    "date_modified": "2021-10-31T09:48:44.000",
    "request_status": "Pending",
    "responsible_agency": "Department of Public Works",
    "final_address": "3636 Timber Wolf Ln",
    "address_councildis": "C",
    "status": "Pending",
    "rowid": "838455",
    "final_x": "3704359.91428",
    "final_y": "510834.125167",
    "longitude": "-89.99664947411294",
    "latitude": "29.897902847079695",
    "geocoded_column": {
      "latitude": "29.897902847079695",
      "longitude": "-89.99664947411294"
    }
  },
  {
    "service_request": "2021-838454",
    "request_type": "Safety & Permits",
    "request_reason": "Construction permit",
    "date_created": "2021-10-31T09:38:22.000",
    "date_modified": "2021-10-31T09:38:22.000",
    "request_status": "Pending",
    "responsible_agency": "Department of Code Enforcement",
    "status": "Pending",
    "rowid": "838454",
    "longitude": "0.0",
    "latitude": "0.0",
    "geocoded_column": {
      "latitude": "0.0",
      "longitude": "0.0"
    }
  },
  {
    "service_request": "2021-838453",
    "request_type": "Trash/Recycling",
    "request_reason": "Illegal Dumping",
    "date_created": "2021-10-31T09:25:50.000",
    "date_modified": "2021-10-31T09:32:06.000",
    "request_status": "Pending",
    "responsible_agency": "Department of Sanitation",
    "final_address": "FILMORE ST & ST ANTHONY AVE",
    "address_councildis": "D",
    "status": "Pending",
    "rowid": "838453",
    "final_x": "3682204.1",
    "final_y": "552101.78",
    "longitude": "-90.06512772807451",
    "latitude": "30.0120669575522",
    "geocoded_column": {
      "latitude": "30.0120669575522",
      "longitude": "-90.06512772807451"
    }
  },
  {
    "service_request": "2021-838452",
    "request_type": "Mosquito, Termite & Rodent Control",
    "request_reason": "Non-Rodent Complaint (Mice, Possums, Snakes)",
    "date_created": "2021-10-31T08:23:46.000",
    "date_modified": "2021-10-31T08:23:46.000",
    "request_status": "Pending",
    "responsible_agency": "Mosquito, Termite & Rodent Control Board",
    "final_address": "10410 Heritage Dr",
    "address_councildis": "E",
    "status": "Pending",
    "rowid": "838452",
    "final_x": "3709802.65054",
    "final_y": "564379.425697",
    "longitude": "-89.97747384890134",
    "latitude": "30.044956877246463",
    "geocoded_column": {
      "latitude": "30.044956877246463",
      "longitude": "-89.97747384890134"
    }
  },
  {
    "service_request": "2021-838451",
    "request_type": "Traffic Signals/Signs/Striping/Streetlights",
    "request_reason": "Street Light Knocked Down/Leaning",
    "date_created": "2021-10-31T04:59:42.000",
    "date_modified": "2021-10-31T04:59:43.000",
    "request_status": "Pending",
    "responsible_agency": "Department of Public Works",
    "final_address": "BASIN ST & ST PETER ST",
    "address_councildis": "C",
    "status": "Pending",
    "contractor": "Royal Engineering",
    "rowid": "838451",
    "final_x": "3680502.3",
    "final_y": "534069.48",
    "longitude": "-90.07113201905058",
    "latitude": "29.962536141819836",
    "geocoded_column": {
      "latitude": "29.962536141819836",
      "longitude": "-90.07113201905058"
    }
  },
  {
    "service_request": "2021-838450",
    "request_type": "Traffic Signals/Signs/Striping/Streetlights",
    "request_reason": "Street Light Outage/Malfunction",
    "date_created": "2021-10-31T00:53:53.000",
    "date_modified": "2021-10-31T00:53:54.000",
    "request_status": "Pending",
    "responsible_agency": "Department of Public Works",
    "final_address": "5827 Fleur-De-Lis Dr",
    "address_councildis": "A",
    "status": "Pending",
    "contractor": "Royal Engineering",
    "rowid": "838450",
    "final_x": "3665189.27572",
    "final_y": "546555.314385",
    "longitude": "-90.11907081780579",
    "latitude": "29.99732292822179",
    "geocoded_column": {
      "latitude": "29.99732292822179",
      "longitude": "-90.11907081780579"
    }
  },
  {
    "service_request": "2021-838449",
    "request_type": "Traffic Signals/Signs/Striping/Streetlights",
    "request_reason": "Street Light Outage/Malfunction",
    "date_created": "2021-10-31T00:51:57.000",
    "date_modified": "2021-10-31T00:51:58.000",
    "request_status": "Pending",
    "responsible_agency": "Department of Public Works",
    "final_address": "5827 Fleur-De-Lis Dr",
    "address_councildis": "A",
    "status": "Pending",
    "contractor": "Royal Engineering",
    "rowid": "838449",
    "final_x": "3665189.27572",
    "final_y": "546555.314385",
    "longitude": "-90.11907081780579",
    "latitude": "29.99732292822179",
    "geocoded_column": {
      "latitude": "29.99732292822179",
      "longitude": "-90.11907081780579"
    }
  },
  {
    "service_request": "2021-838448",
    "request_type": "Traffic Signals/Signs/Striping/Streetlights",
    "request_reason": "Street Light Outage/Malfunction",
    "date_created": "2021-10-31T00:50:16.000",
    "date_modified": "2021-10-31T00:50:16.000",
    "request_status": "Pending",
    "responsible_agency": "Department of Public Works",
    "final_address": "5827 Fleur-De-Lis Dr",
    "address_councildis": "A",
    "status": "Pending",
    "contractor": "Royal Engineering",
    "rowid": "838448",
    "final_x": "3665189.27572",
    "final_y": "546555.314385",
    "longitude": "-90.11907081780579",
    "latitude": "29.99732292822179",
    "geocoded_column": {
      "latitude": "29.99732292822179",
      "longitude": "-90.11907081780579"
    }
  },
  {
    "service_request": "2021-838446",
    "request_type": "Health Related Questions",
    "request_reason": "Noise Ordinance Complaint",
    "date_created": "2021-10-31T00:01:58.000",
    "date_modified": "2021-10-31T01:00:56.000",
    "request_status": "Pending",
    "responsible_agency": "Health Department",
    "final_address": "824 Independence St, New Orleans, Louisiana, 70117",
    "address_councildis": "C",
    "status": "Pending",
    "rowid": "838446",
    "final_x": "3690686.86332",
    "final_y": "534584.480965",
    "longitude": "-90.03895230830625",
    "latitude": "29.963639805264773",
    "geocoded_column": {
      "latitude": "29.963639805264773",
      "longitude": "-90.03895230830625"
    }
  },
  {
    "service_request": "2021-838445",
    "request_type": "Trash/Recycling",
    "request_reason": "Illegal Dumping",
    "date_created": "2021-10-30T23:57:53.000",
    "date_modified": "2021-10-31T00:01:08.000",
    "request_status": "Pending",
    "responsible_agency": "Department of Sanitation",
    "final_address": "1201 N Claiborne Ave",
    "address_councildis": "D",
    "status": "Pending",
    "rowid": "838445",
    "final_x": "3680951.51867",
    "final_y": "536356.234567",
    "longitude": "-90.06963380872918",
    "latitude": "29.968810319533404",
    "geocoded_column": {
      "latitude": "29.968810319533404",
      "longitude": "-90.06963380872918"
    }
  },
  {
    "service_request": "2021-838444",
    "request_type": "Health Related Questions",
    "request_reason": "Noise Ordinance Complaint",
    "date_created": "2021-10-30T23:30:17.000",
    "date_modified": "2021-10-31T00:01:09.000",
    "request_status": "Pending",
    "responsible_agency": "Health Department",
    "final_address": "6020 Coliseum St, New Orleans, Louisiana, 70118",
    "address_councildis": "A",
    "status": "Pending",
    "rowid": "838444",
    "final_x": "3664711.24013",
    "final_y": "520156.719864",
    "longitude": "-90.1214629004335",
    "latitude": "29.924749363309566",
    "geocoded_column": {
      "latitude": "29.924749363309566",
      "longitude": "-90.1214629004335"
    }
  },
  {
    "service_request": "2021-838442",
    "request_type": "Health Related Questions",
    "request_reason": "Noise Ordinance Complaint",
    "date_created": "2021-10-30T22:53:45.000",
    "date_modified": "2021-10-30T23:01:00.000",
    "request_status": "Pending",
    "responsible_agency": "Health Department",
    "final_address": "541 S Rendon St, New Orleans, Louisiana, 70119",
    "address_councildis": "B",
    "status": "Pending",
    "rowid": "838442",
    "final_x": "3672378.25863",
    "final_y": "534933.755846",
    "longitude": "-90.09675722494117",
    "latitude": "29.965156178651057",
    "geocoded_column": {
      "latitude": "29.965156178651057",
      "longitude": "-90.09675722494117"
    }
  },
  {
    "service_request": "2021-838441",
    "request_type": "Abandoned Vehicles",
    "request_reason": "Abandoned/Junk Vehicles",
    "date_created": "2021-10-30T22:42:31.000",
    "date_modified": "2021-10-30T23:01:01.000",
    "request_status": "Pending",
    "responsible_agency": "Department of Public Works",
    "final_address": "1313 Hillary St, New Orleans, Louisiana, 70118",
    "address_councildis": "A",
    "status": "Pending",
    "rowid": "838441",
    "final_x": "3663685.35731",
    "final_y": "527460.739711",
    "longitude": "-90.12445803836086",
    "latitude": "29.944862898254055",
    "geocoded_column": {
      "latitude": "29.944862898254055",
      "longitude": "-90.12445803836086"
    }
  },
  {
    "service_request": "2021-838440",
    "request_type": "Abandoned Vehicles",
    "request_reason": "Vehicle Blocking Your Driveway",
    "date_created": "2021-10-30T22:38:27.000",
    "date_modified": "2021-10-30T23:01:03.000",
    "request_status": "Pending",
    "responsible_agency": "Department of Public Works",
    "final_address": "1313 Hillary St, New Orleans, Louisiana, 70118",
    "address_councildis": "A",
    "status": "Pending",
    "rowid": "838440",
    "final_x": "3663685.35731",
    "final_y": "527460.739711",
    "longitude": "-90.12445803836086",
    "latitude": "29.944862898254055",
    "geocoded_column": {
      "latitude": "29.944862898254055",
      "longitude": "-90.12445803836086"
    }
  },
  {
    "service_request": "2021-838439",
    "request_type": "Health Related Questions",
    "request_reason": "Noise Ordinance Complaint",
    "date_created": "2021-10-30T22:24:34.000",
    "date_modified": "2021-10-30T23:01:04.000",
    "request_status": "Pending",
    "responsible_agency": "Health Department",
    "final_address": "1301 Music St, New Orleans, Louisiana, 70117",
    "address_councildis": "C",
    "status": "Pending",
    "rowid": "838439",
    "final_x": "3686875.90927",
    "final_y": "537241.888136",
    "longitude": "-90.05089296037777",
    "latitude": "29.971064571620396",
    "geocoded_column": {
      "latitude": "29.971064571620396",
      "longitude": "-90.05089296037777"
    }
  },
  {
    "service_request": "2021-838438",
    "request_type": "Roads/Drainage",
    "request_reason": "Pothole",
    "date_created": "2021-10-30T22:12:16.000",
    "date_modified": "2021-10-30T23:01:06.000",
    "request_status": "Pending",
    "responsible_agency": "Department of Public Works",
    "final_address": "1901 Poydras St, New Orleans, Louisiana, 70112",
    "address_councildis": "B",
    "status": "Pending",
    "rowid": "838438",
    "final_x": "3676746.55534",
    "final_y": "530971.736258",
    "longitude": "-90.08309888873029",
    "latitude": "29.954131611045042",
    "geocoded_column": {
      "latitude": "29.954131611045042",
      "longitude": "-90.08309888873029"
    }
  },
  {
    "service_request": "2021-838437",
    "request_type": "Abandoned Vehicles",
    "request_reason": "Vehicle Blocking Your Driveway",
    "date_created": "2021-10-30T22:05:23.000",
    "date_modified": "2021-10-30T22:05:23.000",
    "request_status": "Pending",
    "responsible_agency": "Department of Public Works",
    "final_address": "4117 S Derbigny St",
    "address_councildis": "B",
    "status": "Pending",
    "rowid": "838437",
    "final_x": "3671203.30759",
    "final_y": "526449.041598",
    "longitude": "-90.10075589082207",
    "latitude": "29.941860826256615",
    "geocoded_column": {
      "latitude": "29.941860826256615",
      "longitude": "-90.10075589082207"
    }
  },
  {
    "service_request": "2021-838436",
    "request_type": "Abandoned Vehicles",
    "request_reason": "Vehicle Blocking Your Driveway",
    "date_created": "2021-10-30T22:05:22.000",
    "date_modified": "2021-10-30T22:05:22.000",
    "request_status": "Pending",
    "responsible_agency": "Department of Public Works",
    "final_address": "4117 S Derbigny St",
    "address_councildis": "B",
    "status": "Pending",
    "rowid": "838436",
    "final_x": "3671203.30759",
    "final_y": "526449.041598",
    "longitude": "-90.10075589082207",
    "latitude": "29.941860826256615",
    "geocoded_column": {
      "latitude": "29.941860826256615",
      "longitude": "-90.10075589082207"
    }
  },
  {
    "service_request": "2021-838432",
    "request_type": "Trash/Recycling",
    "request_reason": "Request a Large Item Pick Up",
    "date_created": "2021-10-30T19:46:14.000",
    "date_modified": "2021-10-30T19:46:15.000",
    "request_status": "Pending",
    "responsible_agency": "Department of Sanitation",
    "final_address": "2547 Esplanade Ave",
    "address_councildis": "D",
    "status": "Assigned to Contractor",
    "contractor": "Metro Disposal",
    "rowid": "838432",
    "final_x": "3678352.03323",
    "final_y": "538899.433354",
    "longitude": "-90.07775513734985",
    "latitude": "29.97588181663879",
    "geocoded_column": {
      "latitude": "29.97588181663879",
      "longitude": "-90.07775513734985"
    }
  },
  {
    "service_request": "2021-838431",
    "request_type": "Traffic Signals/Signs/Striping/Streetlights",
    "request_reason": "Additional signage",
    "date_created": "2021-10-30T19:09:37.000",
    "date_modified": "2021-10-30T19:09:37.000",
    "request_status": "Pending",
    "responsible_agency": "Department of Public Works",
    "final_address": "2322 S Johnson St",
    "address_councildis": "B",
    "status": "Pending",
    "rowid": "838431",
    "final_x": "3673611.29217",
    "final_y": "528566.216128",
    "longitude": "-90.093081017364",
    "latitude": "29.947610917491083",
    "geocoded_column": {
      "latitude": "29.947610917491083",
      "longitude": "-90.093081017364"
    }
  },
  {
    "service_request": "2021-838430",
    "request_type": "Abandoned Vehicles",
    "request_reason": "Abandoned/Junk Vehicles",
    "date_created": "2021-10-30T19:07:37.000",
    "date_modified": "2021-10-30T19:07:37.000",
    "request_status": "Pending",
    "responsible_agency": "Department of Public Works",
    "final_address": "2610 N Rampart St",
    "address_councildis": "C",
    "status": "Pending",
    "rowid": "838430",
    "final_x": "3687102.10722",
    "final_y": "535979.242695",
    "longitude": "-90.0502232520365",
    "latitude": "29.967585774481286",
    "geocoded_column": {
      "latitude": "29.967585774481286",
      "longitude": "-90.0502232520365"
    }
  },
  {
    "service_request": "2021-838429",
    "request_type": "Traffic Signals/Signs/Striping/Streetlights",
    "request_reason": "Traffic Sign Missing/Damaged",
    "date_created": "2021-10-30T19:02:24.000",
    "date_modified": "2021-10-30T20:01:10.000",
    "request_status": "Pending",
    "responsible_agency": "Department of Public Works",
    "final_address": "4120 DHemecourt St",
    "address_councildis": "A",
    "status": "Pending",
    "rowid": "838429",
    "final_x": "3669567.3001",
    "final_y": "536971.430216",
    "longitude": "-90.10556515494237",
    "latitude": "29.97084221530115",
    "geocoded_column": {
      "latitude": "29.97084221530115",
      "longitude": "-90.10556515494237"
    }
  },
  {
    "service_request": "2021-838428",
    "request_type": "Abandoned Vehicles",
    "request_reason": "Abandoned/Junk Vehicles",
    "date_created": "2021-10-30T18:58:35.000",
    "date_modified": "2021-10-30T19:01:09.000",
    "request_status": "Pending",
    "responsible_agency": "Department of Public Works",
    "final_address": "2610 N Rampart St",
    "address_councildis": "C",
    "status": "Pending",
    "rowid": "838428",
    "final_x": "3687102.10722",
    "final_y": "535979.242695",
    "longitude": "-90.0502232520365",
    "latitude": "29.967585774481286",
    "geocoded_column": {
      "latitude": "29.967585774481286",
      "longitude": "-90.0502232520365"
    }
  },
  {
    "service_request": "2021-838426",
    "request_type": "Trash/Recycling",
    "request_reason": "Replace Trash Cart",
    "date_created": "2021-10-30T18:48:41.000",
    "date_modified": "2021-10-30T19:01:14.000",
    "request_status": "Pending",
    "responsible_agency": "Department of Sanitation",
    "final_address": "120 Filmore Ave",
    "address_councildis": "A",
    "status": "Assigned to Contractor",
    "contractor": "Metro Disposal",
    "rowid": "838426",
    "final_x": "3666909.77549",
    "final_y": "552124.727446",
    "longitude": "-90.11344849629873",
    "latitude": "30.012586636372735",
    "geocoded_column": {
      "latitude": "30.012586636372735",
      "longitude": "-90.11344849629873"
    }
  },
  {
    "service_request": "2021-838425",
    "request_type": "Trash/Recycling",
    "request_reason": "Request a Large Item Pick Up",
    "date_created": "2021-10-30T17:35:28.000",
    "date_modified": "2021-10-30T18:00:59.000",
    "request_status": "Pending",
    "responsible_agency": "Department of Sanitation",
    "final_address": "2708 Jasmine St",
    "address_councildis": "D",
    "status": "Assigned to Contractor",
    "contractor": "Metro Disposal",
    "rowid": "838425",
    "final_x": "3687831.21948",
    "final_y": "548071.393618",
    "longitude": "-90.04749217496855",
    "latitude": "30.000812417124095",
    "geocoded_column": {
      "latitude": "30.000812417124095",
      "longitude": "-90.04749217496855"
    }
  },
  {
    "service_request": "2021-838424",
    "request_type": "Abandoned Vehicles",
    "request_reason": "Vehicle Blocking Your Driveway",
    "date_created": "2021-10-30T17:31:23.000",
    "date_modified": "2021-10-30T17:31:23.000",
    "request_status": "Pending",
    "responsible_agency": "Department of Public Works",
    "final_address": "2637 Clover St",
    "address_councildis": "D",
    "status": "Pending",
    "rowid": "838424",
    "final_x": "3687425.40086",
    "final_y": "546749.367057",
    "longitude": "-90.04882100107828",
    "latitude": "29.997189837754004",
    "geocoded_column": {
      "latitude": "29.997189837754004",
      "longitude": "-90.04882100107828"
    }
  },
  {
    "service_request": "2021-838422",
    "request_type": "Roads/Drainage",
    "request_reason": "Accessibility Ramps, Curbs and Sidewalk Repair",
    "date_created": "2021-10-30T17:03:10.000",
    "date_modified": "2021-10-30T18:01:03.000",
    "request_status": "Pending",
    "responsible_agency": "Department of Public Works",
    "final_address": "201 S Rampart St",
    "address_councildis": "B",
    "status": "Pending",
    "rowid": "838422",
    "final_x": "3679551.01851",
    "final_y": "530937.520386",
    "longitude": "-90.0742447130598",
    "latitude": "29.95395309208869",
    "geocoded_column": {
      "latitude": "29.95395309208869",
      "longitude": "-90.0742447130598"
    }
  },
  {
    "service_request": "2021-838420",
    "request_type": "Traffic Signals/Signs/Striping/Streetlights",
    "request_reason": "Traffic Sign Missing/Damaged",
    "date_created": "2021-10-30T17:00:33.000",
    "date_modified": "2021-10-30T17:00:33.000",
    "request_status": "Pending",
    "responsible_agency": "Department of Public Works",
    "final_address": "2405 Marengo St",
    "address_councildis": "B",
    "status": "Pending",
    "rowid": "838420",
    "final_x": "3671713.86855",
    "final_y": "523864.085564",
    "longitude": "-90.09923183867426",
    "latitude": "29.934737924743803",
    "geocoded_column": {
      "latitude": "29.934737924743803",
      "longitude": "-90.09923183867426"
    }
  },
  {
    "service_request": "2021-838419",
    "request_type": "Mosquito, Termite & Rodent Control",
    "request_reason": "Non-Rodent Complaint (Mice, Possums, Snakes)",
    "date_created": "2021-10-30T16:51:02.000",
    "date_modified": "2021-10-30T17:01:02.000",
    "request_status": "Pending",
    "responsible_agency": "Mosquito, Termite & Rodent Control Board",
    "final_address": "4300 Woodland Dr",
    "address_councildis": "C",
    "status": "Pending",
    "rowid": "838419",
    "final_x": "3705502.72612",
    "final_y": "514618.189939",
    "longitude": "-89.99290329910589",
    "latitude": "29.908271028759305",
    "geocoded_column": {
      "latitude": "29.908271028759305",
      "longitude": "-89.99290329910589"
    }
  },
  {
    "service_request": "2021-838417",
    "request_type": "Trash/Recycling",
    "request_reason": "Damaged Caused By Contractor",
    "date_created": "2021-10-30T16:18:22.000",
    "date_modified": "2021-10-30T17:01:04.000",
    "request_status": "Pending",
    "responsible_agency": "Department of Sanitation",
    "final_address": "2615 St Peter St",
    "address_councildis": "D",
    "status": "Assigned to Contractor",
    "contractor": "Richards Disposal",
    "rowid": "838417",
    "final_x": "3677005.11822",
    "final_y": "536647.969991",
    "longitude": "-90.08208673063699",
    "latitude": "29.96973157632129",
    "geocoded_column": {
      "latitude": "29.96973157632129",
      "longitude": "-90.08208673063699"
    }
  },
  {
    "service_request": "2021-838416",
    "request_type": "Property Maintenance",
    "request_reason": "Property Maintenance",
    "date_created": "2021-10-30T16:09:39.000",
    "date_modified": "2021-10-30T17:01:05.000",
    "request_status": "Pending",
    "responsible_agency": "Department of Code Enforcement",
    "final_address": "DREUX AVE & READ BLVD",
    "address_councildis": "E",
    "status": "Pending",
    "rowid": "838416",
    "final_x": "3712818.2",
    "final_y": "555893.18",
    "longitude": "-89.9682629060937",
    "latitude": "30.021524626574017",
    "geocoded_column": {
      "latitude": "30.021524626574017",
      "longitude": "-89.9682629060937"
    }
  },
  {
    "service_request": "2021-838415",
    "request_type": "Trash/Recycling",
    "request_reason": "Request a Large Item Pick Up",
    "date_created": "2021-10-30T16:00:13.000",
    "date_modified": "2021-10-30T16:00:14.000",
    "request_status": "Pending",
    "responsible_agency": "Department of Sanitation",
    "final_address": "3834 S Inwood Ave",
    "address_councildis": "C",
    "status": "Assigned to Contractor",
    "contractor": "Richards Disposal",
    "rowid": "838415",
    "final_x": "3705105.55089",
    "final_y": "514343.170419",
    "longitude": "-89.99416697661597",
    "latitude": "29.90752758884572",
    "geocoded_column": {
      "latitude": "29.90752758884572",
      "longitude": "-89.99416697661597"
    }
  },
  {
    "service_request": "2021-838414",
    "request_type": "Trash/Recycling",
    "request_reason": "Missed Trash Pick-Up",
    "date_created": "2021-10-30T15:47:00.000",
    "date_modified": "2021-10-30T15:47:00.000",
    "request_status": "Pending",
    "responsible_agency": "Department of Sanitation",
    "final_address": "8640 Oak St",
    "address_councildis": "A",
    "status": "Assigned to Contractor",
    "contractor": "Richards Disposal",
    "rowid": "838414",
    "final_x": "3660396.07706",
    "final_y": "529738.489025",
    "longitude": "-90.13476812734157",
    "latitude": "29.951220992138218",
    "geocoded_column": {
      "latitude": "29.951220992138218",
      "longitude": "-90.13476812734157"
    }
  },
  {
    "service_request": "2021-838413",
    "request_type": "Traffic Signals/Signs/Striping/Streetlights",
    "request_reason": "Street Light Outage/Malfunction",
    "date_created": "2021-10-30T15:40:27.000",
    "date_modified": "2021-10-30T15:40:27.000",
    "request_status": "Pending",
    "responsible_agency": "Department of Public Works",
    "final_address": "5323 Timber Haven Ln",
    "address_councildis": "C",
    "status": "Pending",
    "contractor": "Royal Engineering",
    "rowid": "838413",
    "final_x": "3703861.90628",
    "final_y": "511327.259056",
    "longitude": "-89.99820295173951",
    "latitude": "29.89927476360019",
    "geocoded_column": {
      "latitude": "29.89927476360019",
      "longitude": "-89.99820295173951"
    }
  },
  {
    "service_request": "2021-838412",
    "request_type": "Abandoned Vehicles",
    "request_reason": "Abandoned/Junk Vehicles",
    "date_created": "2021-10-30T15:40:26.000",
    "date_modified": "2021-10-30T15:40:26.000",
    "request_status": "Pending",
    "responsible_agency": "Department of Public Works",
    "final_address": "DECATUR ST & MANDEVILLE ST",
    "address_councildis": "C",
    "status": "Pending",
    "rowid": "838412",
    "final_x": "3685947.2",
    "final_y": "534221.58",
    "longitude": "-90.05393244487364",
    "latitude": "29.96278832099598",
    "geocoded_column": {
      "latitude": "29.96278832099598",
      "longitude": "-90.05393244487364"
    }
  },
  {
    "service_request": "2021-838410",
    "request_type": "Abandoned Vehicles",
    "request_reason": "Vehicle Blocking Your Driveway",
    "date_created": "2021-10-30T15:33:02.000",
    "date_modified": "2021-10-30T15:33:02.000",
    "request_status": "Pending",
    "responsible_agency": "Department of Public Works",
    "final_address": "1413 Chartres St",
    "address_councildis": "C",
    "status": "Pending",
    "rowid": "838410",
    "final_x": "3684401.04853",
    "final_y": "534330.485637",
    "longitude": "-90.05881115819784",
    "latitude": "29.96313515275919",
    "geocoded_column": {
      "latitude": "29.96313515275919",
      "longitude": "-90.05881115819784"
    }
  },
  {
    "service_request": "2021-838409",
    "request_type": "Trash/Recycling",
    "request_reason": "Illegal Dumping",
    "date_created": "2021-10-30T15:24:21.000",
    "date_modified": "2021-10-30T15:24:21.000",
    "request_status": "Pending",
    "responsible_agency": "Department of Sanitation",
    "final_address": "741 Second St",
    "address_councildis": "B",
    "status": "Pending",
    "rowid": "838409",
    "final_x": "3678489.77038",
    "final_y": "520400.108344",
    "longitude": "-90.07796023596877",
    "latitude": "29.925010714555395",
    "geocoded_column": {
      "latitude": "29.925010714555395",
      "longitude": "-90.07796023596877"
    }
  },
  {
    "service_request": "2021-838407",
    "request_type": "Traffic Signals/Signs/Striping/Streetlights",
    "request_reason": "Street Light Outage/Malfunction",
    "date_created": "2021-10-30T15:20:47.000",
    "date_modified": "2021-10-30T15:20:48.000",
    "request_status": "Pending",
    "responsible_agency": "Department of Public Works",
    "final_address": "741 Second St",
    "address_councildis": "B",
    "status": "Pending",
    "contractor": "Royal Engineering",
    "rowid": "838407",
    "final_x": "3678489.77038",
    "final_y": "520400.108344",
    "longitude": "-90.07796023596877",
    "latitude": "29.925010714555395",
    "geocoded_column": {
      "latitude": "29.925010714555395",
      "longitude": "-90.07796023596877"
    }
  },
  {
    "service_request": "2021-838406",
    "request_type": "COVID-19",
    "request_reason": "COVID-19 Business Non-Compliance",
    "date_created": "2021-10-30T15:19:25.000",
    "date_modified": "2021-10-30T15:19:26.000",
    "request_status": "Pending",
    "responsible_agency": "Safety and Permits",
    "final_address": "6801 Franklin Ave",
    "address_councildis": "D",
    "status": "Pending",
    "rowid": "838406",
    "final_x": "3686785.95247",
    "final_y": "558538.472732",
    "longitude": "-90.05042402606901",
    "latitude": "30.029625244502746",
    "geocoded_column": {
      "latitude": "30.029625244502746",
      "longitude": "-90.05042402606901"
    }
  },
  {
    "service_request": "2021-838405",
    "request_type": "Trash/Recycling",
    "request_reason": "Missed Trash Pick-Up",
    "date_created": "2021-10-30T15:09:25.000",
    "date_modified": "2021-10-30T16:00:59.000",
    "request_status": "Pending",
    "responsible_agency": "Department of Sanitation",
    "final_address": "2011 N Galvez St",
    "address_councildis": "D",
    "status": "Assigned to Contractor",
    "contractor": "Metro Disposal",
    "rowid": "838405",
    "final_x": "3683685.41711",
    "final_y": "539938.976714",
    "longitude": "-90.06087435389044",
    "latitude": "29.978578425409907",
    "geocoded_column": {
      "latitude": "29.978578425409907",
      "longitude": "-90.06087435389044"
    }
  },
  {
    "service_request": "2021-838404",
    "request_type": "Traffic Signals/Signs/Striping/Streetlights",
    "request_reason": "Disabled Parking Sign ",
    "date_created": "2021-10-30T14:46:31.000",
    "date_modified": "2021-10-30T14:46:31.000",
    "request_status": "Pending",
    "responsible_agency": "Department of Public Works",
    "final_address": "522 Common St",
    "address_councildis": "B",
    "status": "Pending",
    "rowid": "838404",
    "final_x": "3681507.28034",
    "final_y": "530016.643841",
    "longitude": "-90.06809974972022",
    "latitude": "29.951361740892715",
    "geocoded_column": {
      "latitude": "29.951361740892715",
      "longitude": "-90.06809974972022"
    }
  },
  {
    "service_request": "2021-838403",
    "request_type": "Abandoned Vehicles",
    "request_reason": "Abandoned/Junk Vehicles",
    "date_created": "2021-10-30T14:42:02.000",
    "date_modified": "2021-10-30T15:00:59.000",
    "request_status": "Pending",
    "responsible_agency": "Department of Public Works",
    "final_address": "3504 Napoleon Ave",
    "address_councildis": "B",
    "status": "Pending",
    "rowid": "838403",
    "final_x": "3670022.10766",
    "final_y": "527614.148223",
    "longitude": "-90.1044457446155",
    "latitude": "29.94509937555158",
    "geocoded_column": {
      "latitude": "29.94509937555158",
      "longitude": "-90.1044457446155"
    }
  },
  {
    "service_request": "2021-838401",
    "request_type": "Property Maintenance",
    "request_reason": "Property Maintenance",
    "date_created": "2021-10-30T14:33:18.000",
    "date_modified": "2021-10-30T14:33:18.000",
    "request_status": "Pending",
    "responsible_agency": "Department of Code Enforcement",
    "final_address": "13933 Explorers Ave",
    "address_councildis": "E",
    "status": "Pending",
    "rowid": "838401",
    "final_x": "3726288.88819",
    "final_y": "570352.294375",
    "longitude": "-89.92513833389398",
    "latitude": "30.060833057589694",
    "geocoded_column": {
      "latitude": "30.060833057589694",
      "longitude": "-89.92513833389398"
    }
  },
  {
    "service_request": "2021-838400",
    "request_type": "Trash/Recycling",
    "request_reason": "Missed Trash Pick-Up",
    "date_created": "2021-10-30T14:31:47.000",
    "date_modified": "2021-10-30T15:01:02.000",
    "request_status": "Pending",
    "responsible_agency": "Department of Sanitation",
    "final_address": "2020 General Taylor St",
    "address_councildis": "B",
    "status": "Assigned to Contractor",
    "contractor": "Richards Disposal",
    "rowid": "838400",
    "final_x": "3672215.73095",
    "final_y": "522631.657594",
    "longitude": "-90.09768942105293",
    "latitude": "29.93133427385365",
    "geocoded_column": {
      "latitude": "29.93133427385365",
      "longitude": "-90.09768942105293"
    }
  },
  {
    "service_request": "2021-838399",
    "request_type": "Abandoned Vehicles",
    "request_reason": "Abandoned/Junk Vehicles",
    "date_created": "2021-10-30T14:29:56.000",
    "date_modified": "2021-10-30T15:01:04.000",
    "request_status": "Pending",
    "responsible_agency": "Department of Public Works",
    "final_address": "Decatur St & Mandeville St, New Orleans, Louisiana, 70117",
    "address_councildis": "C",
    "status": "Pending",
    "rowid": "838399",
    "final_x": "3685947.2",
    "final_y": "534221.58",
    "longitude": "-90.05393244487364",
    "latitude": "29.96278832099598",
    "geocoded_column": {
      "latitude": "29.96278832099598",
      "longitude": "-90.05393244487364"
    }
  },
  {
    "service_request": "2021-838398",
    "request_type": "Trash/Recycling",
    "request_reason": "Replace Recycling Cart",
    "date_created": "2021-10-30T14:26:42.000",
    "date_modified": "2021-10-30T14:26:42.000",
    "request_status": "Pending",
    "responsible_agency": "Department of Sanitation",
    "final_address": "1400 Eighth St Apt A",
    "address_councildis": "B",
    "status": "Pending",
    "rowid": "838398",
    "final_x": "3675495.58088",
    "final_y": "521078.614329",
    "longitude": "-90.08738864210004",
    "latitude": "29.926966247744623",
    "geocoded_column": {
      "latitude": "29.926966247744623",
      "longitude": "-90.08738864210004"
    }
  },
  {
    "service_request": "2021-838397",
    "request_type": "Abandoned Vehicles",
    "request_reason": "Vehicle Blocking Your Driveway",
    "date_created": "2021-10-30T14:22:42.000",
    "date_modified": "2021-10-30T15:01:06.000",
    "request_status": "Pending",
    "responsible_agency": "Department of Public Works",
    "final_address": "1010 Joseph St",
    "address_councildis": "A",
    "status": "Pending",
    "rowid": "838397",
    "final_x": "3666234.2626",
    "final_y": "519638.903736",
    "longitude": "-90.11667256258782",
    "latitude": "29.923281152686286",
    "geocoded_column": {
      "latitude": "29.923281152686286",
      "longitude": "-90.11667256258782"
    }
  },
  {
    "service_request": "2021-838395",
    "request_type": "Property Maintenance",
    "request_reason": "Property Maintenance",
    "date_created": "2021-10-30T13:55:04.000",
    "date_modified": "2021-10-30T13:55:04.000",
    "request_status": "Pending",
    "responsible_agency": "Department of Code Enforcement",
    "final_address": "58 Park Timbers Dr",
    "address_councildis": "C",
    "status": "Pending",
    "rowid": "838395",
    "final_x": "3699427.41962",
    "final_y": "516935.466357",
    "longitude": "-90.01199339718076",
    "latitude": "29.91483677712094",
    "geocoded_column": {
      "latitude": "29.91483677712094",
      "longitude": "-90.01199339718076"
    }
  },
  {
    "service_request": "2021-838394",
    "request_type": "Trash/Recycling",
    "request_reason": "Repair Trash Cart",
    "date_created": "2021-10-30T13:33:02.000",
    "date_modified": "2021-10-30T14:01:21.000",
    "request_status": "Pending",
    "responsible_agency": "Department of Sanitation",
    "final_address": "206 Rhodes Ave",
    "address_councildis": "C",
    "status": "Assigned to Contractor",
    "contractor": "Richards Disposal",
    "rowid": "838394",
    "final_x": "3706361.7418",
    "final_y": "519474.855927",
    "longitude": "-89.99001244226223",
    "latitude": "29.921597522173368",
    "geocoded_column": {
      "latitude": "29.921597522173368",
      "longitude": "-89.99001244226223"
    }
  },
  {
    "service_request": "2021-838392",
    "request_type": "Trash/Recycling",
    "request_reason": "Missed Trash Pick-Up",
    "date_created": "2021-10-30T13:12:51.000",
    "date_modified": "2021-10-30T14:01:25.000",
    "request_status": "Pending",
    "responsible_agency": "Department of Sanitation",
    "final_address": "7700 BLK Plum St",
    "address_councildis": "A",
    "status": "Assigned to Contractor",
    "contractor": "Richards Disposal",
    "rowid": "838392",
    "final_x": "3663160.91183",
    "final_y": "527756.308776",
    "longitude": "-90.12610404779218",
    "latitude": "29.94569082194207",
    "geocoded_column": {
      "latitude": "29.94569082194207",
      "longitude": "-90.12610404779218"
    }
  },
  {
    "service_request": "2021-838391",
    "request_type": "Trash/Recycling",
    "request_reason": "Missed Trash Pick-Up",
    "date_created": "2021-10-30T13:09:43.000",
    "date_modified": "2021-10-30T14:01:26.000",
    "request_status": "Pending",
    "responsible_agency": "Department of Sanitation",
    "final_address": "4952 Treves St",
    "address_councildis": "E",
    "status": "Assigned to Contractor",
    "contractor": "Metro Disposal",
    "rowid": "838391",
    "final_x": "3729778.85421",
    "final_y": "563002.83536",
    "longitude": "-89.91439449582727",
    "latitude": "30.040506755293183",
    "geocoded_column": {
      "latitude": "30.040506755293183",
      "longitude": "-89.91439449582727"
    }
  },
  {
    "service_request": "2021-838390",
    "request_type": "Trash/Recycling",
    "request_reason": "Request a Large Item Pick Up",
    "date_created": "2021-10-30T12:58:49.000",
    "date_modified": "2021-10-30T13:02:01.000",
    "request_status": "Pending",
    "responsible_agency": "Department of Sanitation",
    "final_address": "2016 Pauline St",
    "address_councildis": "D",
    "status": "Assigned to Contractor",
    "contractor": "Metro Disposal",
    "rowid": "838390",
    "final_x": "3692035.46909",
    "final_y": "538950.945482",
    "longitude": "-90.0345372715457",
    "latitude": "29.975604081049923",
    "geocoded_column": {
      "latitude": "29.975604081049923",
      "longitude": "-90.0345372715457"
    }
  },
  {
    "service_request": "2021-838386",
    "request_type": "Trash/Recycling",
    "request_reason": "Illegal Dumping",
    "date_created": "2021-10-30T12:42:15.000",
    "date_modified": "2021-10-30T12:42:15.000",
    "request_status": "Pending",
    "responsible_agency": "Department of Sanitation",
    "final_address": "2730 N Prieur St",
    "address_councildis": "D",
    "status": "Pending",
    "rowid": "838386",
    "final_x": "3688429.05372",
    "final_y": "539291.529098",
    "longitude": "-90.04591520988794",
    "latitude": "29.976652473916804",
    "geocoded_column": {
      "latitude": "29.976652473916804",
      "longitude": "-90.04591520988794"
    }
  },
  {
    "service_request": "2021-838384",
    "request_type": "Trash/Recycling",
    "request_reason": "Illegal Dumping",
    "date_created": "2021-10-30T12:20:35.000",
    "date_modified": "2021-10-30T12:20:35.000",
    "request_status": "Pending",
    "responsible_agency": "Department of Sanitation",
    "final_address": "1837 Third St",
    "address_councildis": "B",
    "status": "Pending",
    "rowid": "838384",
    "final_x": "3675885.00526",
    "final_y": "523768.434939",
    "longitude": "-90.08606690375161",
    "latitude": "29.934350730681214",
    "geocoded_column": {
      "latitude": "29.934350730681214",
      "longitude": "-90.08606690375161"
    }
  },
  {
    "service_request": "2021-838381",
    "request_type": "Abandoned Vehicles",
    "request_reason": "Abandoned/Junk Vehicles",
    "date_created": "2021-10-30T12:05:58.000",
    "date_modified": "2021-10-30T13:02:08.000",
    "request_status": "Pending",
    "responsible_agency": "Department of Public Works",
    "final_address": "1208 Oretha Castle Haley Blvd",
    "address_councildis": "B",
    "status": "Pending",
    "rowid": "838381",
    "final_x": "3678562.10498",
    "final_y": "526992.028414",
    "longitude": "-90.07750383942653",
    "latitude": "29.94313414917292",
    "geocoded_column": {
      "latitude": "29.94313414917292",
      "longitude": "-90.07750383942653"
    }
  },
  {
    "service_request": "2021-838380",
    "request_type": "Trash/Recycling",
    "request_reason": "Request a Large Item Pick Up",
    "date_created": "2021-10-30T11:56:00.000",
    "date_modified": "2021-10-30T11:56:01.000",
    "request_status": "Pending",
    "responsible_agency": "Department of Sanitation",
    "final_address": "1834 Dante St",
    "address_councildis": "A",
    "status": "Assigned to Contractor",
    "contractor": "Richards Disposal",
    "rowid": "838380",
    "final_x": "3662999.52781",
    "final_y": "530649.27341",
    "longitude": "-90.12651739156234",
    "latitude": "29.953650218174587",
    "geocoded_column": {
      "latitude": "29.953650218174587",
      "longitude": "-90.12651739156234"
    }
  },
  {
    "service_request": "2021-838378",
    "request_type": "Abandoned Vehicles",
    "request_reason": "Abandoned/Junk Vehicles",
    "date_created": "2021-10-30T11:33:47.000",
    "date_modified": "2021-10-30T11:33:47.000",
    "request_status": "Pending",
    "responsible_agency": "Department of Public Works",
    "final_address": "937 France St",
    "address_councildis": "C",
    "status": "Pending",
    "rowid": "838378",
    "final_x": "3692288.57814",
    "final_y": "534642.14119",
    "longitude": "-90.033892212322",
    "latitude": "29.963748502443654",
    "geocoded_column": {
      "latitude": "29.963748502443654",
      "longitude": "-90.033892212322"
    }
  },
  {
    "service_request": "2021-838377",
    "request_type": "Trash/Recycling",
    "request_reason": "Repair Recycling Cart",
    "date_created": "2021-10-30T11:30:19.000",
    "date_modified": "2021-10-30T11:30:19.000",
    "request_status": "Pending",
    "responsible_agency": "Department of Sanitation",
    "final_address": "1608 Pauger St",
    "address_councildis": "C",
    "status": "Pending",
    "rowid": "838377",
    "final_x": "3683892.64098",
    "final_y": "535590.003718",
    "longitude": "-90.0603724601317",
    "latitude": "29.966613932914164",
    "geocoded_column": {
      "latitude": "29.966613932914164",
      "longitude": "-90.0603724601317"
    }
  },
  {
    "service_request": "2021-838376",
    "request_type": "Trash/Recycling",
    "request_reason": "Repair Trash Cart",
    "date_created": "2021-10-30T11:28:29.000",
    "date_modified": "2021-10-30T11:28:30.000",
    "request_status": "Pending",
    "responsible_agency": "Department of Sanitation",
    "final_address": "1608 Pauger St",
    "address_councildis": "C",
    "status": "Assigned to Contractor",
    "contractor": "Metro Disposal",
    "rowid": "838376",
    "final_x": "3683892.64098",
    "final_y": "535590.003718",
    "longitude": "-90.0603724601317",
    "latitude": "29.966613932914164",
    "geocoded_column": {
      "latitude": "29.966613932914164",
      "longitude": "-90.0603724601317"
    }
  },
  {
    "service_request": "2021-838375",
    "request_type": "Safety & Permits",
    "request_reason": "Licenses & Permits",
    "date_created": "2021-10-30T11:26:51.000",
    "date_modified": "2021-10-30T11:26:51.000",
    "request_status": "Pending",
    "responsible_agency": "Safety and Permits",
    "final_address": "6302 St Claude Ave",
    "address_councildis": "E",
    "status": "Pending",
    "rowid": "838375",
    "final_x": "3700159.28464",
    "final_y": "532974.41562",
    "longitude": "-90.00909832575472",
    "latitude": "29.958915077619622",
    "geocoded_column": {
      "latitude": "29.958915077619622",
      "longitude": "-90.00909832575472"
    }
  },
  {
    "service_request": "2021-838374",
    "request_type": "Trash/Recycling",
    "request_reason": "Repair Trash Cart",
    "date_created": "2021-10-30T11:08:17.000",
    "date_modified": "2021-10-30T12:01:18.000",
    "request_status": "Pending",
    "responsible_agency": "Department of Sanitation",
    "final_address": "8010 Hickory St",
    "address_councildis": "A",
    "status": "Assigned to Contractor",
    "contractor": "Richards Disposal",
    "rowid": "838374",
    "final_x": "3663619.92723",
    "final_y": "529655.960897",
    "longitude": "-90.12459150723997",
    "latitude": "29.950900948533977",
    "geocoded_column": {
      "latitude": "29.950900948533977",
      "longitude": "-90.12459150723997"
    }
  },
  {
    "service_request": "2021-838372",
    "request_type": "Trash/Recycling",
    "request_reason": "Missed Trash Pick-Up",
    "date_created": "2021-10-30T10:50:58.000",
    "date_modified": "2021-10-30T11:03:36.000",
    "request_status": "Pending",
    "responsible_agency": "Department of Sanitation",
    "final_address": "2419 Governor Nicholls St",
    "address_councildis": "D",
    "status": "Assigned to Contractor",
    "contractor": "Richards Disposal",
    "rowid": "838372",
    "final_x": "3678799.51912",
    "final_y": "537716.234632",
    "longitude": "-90.07638284153659",
    "latitude": "29.97261493706656",
    "geocoded_column": {
      "latitude": "29.97261493706656",
      "longitude": "-90.07638284153659"
    }
  },
  {
    "service_request": "2021-838369",
    "request_type": "Trash/Recycling",
    "request_reason": "Missed Trash Pick-Up",
    "date_created": "2021-10-30T10:06:45.000",
    "date_modified": "2021-10-30T10:06:46.000",
    "request_status": "Pending",
    "responsible_agency": "Department of Sanitation",
    "final_address": "2160 St Denis St",
    "address_councildis": "D",
    "status": "Assigned to Contractor",
    "contractor": "Metro Disposal",
    "rowid": "838369",
    "final_x": "3683945.17122",
    "final_y": "546178.147728",
    "longitude": "-90.05983494536615",
    "latitude": "29.99572600477988",
    "geocoded_column": {
      "latitude": "29.99572600477988",
      "longitude": "-90.05983494536615"
    }
  },
  {
    "service_request": "2021-838367",
    "request_type": "Abandoned Vehicles",
    "request_reason": "Abandoned/Junk Vehicles",
    "date_created": "2021-10-30T09:51:03.000",
    "date_modified": "2021-10-30T09:51:03.000",
    "request_status": "Pending",
    "responsible_agency": "Department of Public Works",
    "final_address": "444 Audubon St",
    "address_councildis": "A",
    "status": "Pending",
    "rowid": "838367",
    "final_x": "3662295.23987",
    "final_y": "523227.254331",
    "longitude": "-90.12898757200293",
    "latitude": "29.933262409653565",
    "geocoded_column": {
      "latitude": "29.933262409653565",
      "longitude": "-90.12898757200293"
    }
  },
  {
    "service_request": "2021-838366",
    "request_type": "Roads/Drainage",
    "request_reason": "Street Flooding / Drainage",
    "date_created": "2021-10-30T09:49:44.000",
    "date_modified": "2021-10-30T10:02:57.000",
    "request_status": "Pending",
    "responsible_agency": "Department of Public Works",
    "final_address": "6038 Louis Xiv St",
    "address_councildis": "A",
    "status": "Pending",
    "rowid": "838366",
    "final_x": "3668012.50701",
    "final_y": "547624.986258",
    "longitude": "-90.1101162298285",
    "latitude": "30.000181589922203",
    "geocoded_column": {
      "latitude": "30.000181589922203",
      "longitude": "-90.1101162298285"
    }
  },
  {
    "service_request": "2021-838365",
    "request_type": "Trash/Recycling",
    "request_reason": "Missed Trash Pick-Up",
    "date_created": "2021-10-30T09:46:55.000",
    "date_modified": "2021-10-30T09:46:56.000",
    "request_status": "Pending",
    "responsible_agency": "Department of Sanitation",
    "final_address": "1227 Leonidas St",
    "address_councildis": "A",
    "status": "Assigned to Contractor",
    "contractor": "Richards Disposal",
    "rowid": "838365",
    "final_x": "3660847.15021",
    "final_y": "529727.962049",
    "longitude": "-90.13334420214194",
    "latitude": "29.951179064887057",
    "geocoded_column": {
      "latitude": "29.951179064887057",
      "longitude": "-90.13334420214194"
    }
  },
  {
    "service_request": "2021-838364",
    "request_type": "Trash/Recycling",
    "request_reason": "Missed Trash Pick-Up",
    "date_created": "2021-10-30T09:45:42.000",
    "date_modified": "2021-10-30T10:02:58.000",
    "request_status": "Pending",
    "responsible_agency": "Department of Sanitation",
    "final_address": "3500 Pittari Pl",
    "address_councildis": "C",
    "status": "Assigned to Contractor",
    "contractor": "Richards Disposal",
    "rowid": "838364",
    "final_x": "3709669.30609",
    "final_y": "517855.123254",
    "longitude": "-89.97963239405318",
    "latitude": "29.917036788795976",
    "geocoded_column": {
      "latitude": "29.917036788795976",
      "longitude": "-89.97963239405318"
    }
  },
  {
    "service_request": "2021-838363",
    "request_type": "Trash/Recycling",
    "request_reason": "Dead Animal Pick Up",
    "date_created": "2021-10-30T09:33:14.000",
    "date_modified": "2021-10-30T09:33:15.000",
    "request_status": "Pending",
    "responsible_agency": "Department of Sanitation",
    "final_address": "4759 Franklin Ave",
    "address_councildis": "D",
    "status": "Assigned to Contractor",
    "contractor": "Metro Disposal",
    "rowid": "838363",
    "final_x": "3686892.5343",
    "final_y": "550734.076437",
    "longitude": "-90.0503633615844",
    "latitude": "30.008162757853828",
    "geocoded_column": {
      "latitude": "30.008162757853828",
      "longitude": "-90.0503633615844"
    }
  },
  {
    "service_request": "2021-838362",
    "request_type": "Trash/Recycling",
    "request_reason": "Replace Trash Cart",
    "date_created": "2021-10-30T09:29:38.000",
    "date_modified": "2021-10-30T10:03:00.000",
    "request_status": "Pending",
    "responsible_agency": "Department of Sanitation",
    "final_address": "3611 Bennett St, New Orleans, Louisiana, 70131",
    "address_councildis": "C",
    "status": "Assigned to Contractor",
    "contractor": "Richards Disposal",
    "rowid": "838362",
    "final_x": "3710266.59947",
    "final_y": "516919.487029",
    "longitude": "-89.97778203915418",
    "latitude": "29.91444469970385",
    "geocoded_column": {
      "latitude": "29.91444469970385",
      "longitude": "-89.97778203915418"
    }
  },
  {
    "service_request": "2021-838361",
    "request_type": "Trash/Recycling",
    "request_reason": "Missed Trash Pick-Up",
    "date_created": "2021-10-30T09:23:07.000",
    "date_modified": "2021-10-30T10:03:02.000",
    "request_status": "Pending",
    "responsible_agency": "Department of Sanitation",
    "final_address": "2011 N Galvez St",
    "address_councildis": "D",
    "status": "Assigned to Contractor",
    "contractor": "Metro Disposal",
    "rowid": "838361",
    "final_x": "3683685.41711",
    "final_y": "539938.976714",
    "longitude": "-90.06087435389044",
    "latitude": "29.978578425409907",
    "geocoded_column": {
      "latitude": "29.978578425409907",
      "longitude": "-90.06087435389044"
    }
  },
  {
    "service_request": "2021-838360",
    "request_type": "Trash/Recycling",
    "request_reason": "Replace Trash Cart",
    "date_created": "2021-10-30T09:21:53.000",
    "date_modified": "2021-10-30T10:03:03.000",
    "request_status": "Pending",
    "responsible_agency": "Department of Sanitation",
    "final_address": "3501 Paris Ave",
    "address_councildis": "D",
    "status": "Assigned to Contractor",
    "contractor": "Metro Disposal",
    "rowid": "838360",
    "final_x": "3679786.018",
    "final_y": "545176.739471",
    "longitude": "-90.07300814199638",
    "latitude": "29.993098933196386",
    "geocoded_column": {
      "latitude": "29.993098933196386",
      "longitude": "-90.07300814199638"
    }
  },
  {
    "service_request": "2021-838359",
    "request_type": "Safety & Permits",
    "request_reason": "Licenses & Permits",
    "date_created": "2021-10-30T09:19:55.000",
    "date_modified": "2021-10-30T09:19:55.000",
    "request_status": "Pending",
    "responsible_agency": "Safety and Permits",
    "final_address": "827 Carondelet St",
    "address_councildis": "B",
    "status": "Pending",
    "rowid": "838359",
    "final_x": "3679898.66024",
    "final_y": "527889.239103",
    "longitude": "-90.0732528514264",
    "latitude": "29.94556083313033",
    "geocoded_column": {
      "latitude": "29.94556083313033",
      "longitude": "-90.0732528514264"
    }
  },
  {
    "service_request": "2021-838358",
    "request_type": "Trash/Recycling",
    "request_reason": "Illegal Dumping",
    "date_created": "2021-10-30T09:19:34.000",
    "date_modified": "2021-10-30T10:03:05.000",
    "request_status": "Pending",
    "responsible_agency": "Department of Code Enforcement",
    "final_address": "2300 BLK Danneel St",
    "address_councildis": "B",
    "status": "Pending",
    "rowid": "838358",
    "final_x": "3676253.69798",
    "final_y": "524472.583388",
    "longitude": "-90.08487872997216",
    "latitude": "29.936275868193682",
    "geocoded_column": {
      "latitude": "29.936275868193682",
      "longitude": "-90.08487872997216"
    }
  },
  {
    "service_request": "2021-838357",
    "request_type": "Property Maintenance",
    "request_reason": "Property Maintenance",
    "date_created": "2021-10-30T09:18:08.000",
    "date_modified": "2021-10-30T10:03:07.000",
    "request_status": "Pending",
    "responsible_agency": "Department of Code Enforcement",
    "final_address": "2005 First St",
    "address_councildis": "B",
    "status": "Pending",
    "rowid": "838357",
    "final_x": "3676147.70241",
    "final_y": "524480.719036",
    "longitude": "-90.08521308190282",
    "latitude": "29.936301413672076",
    "geocoded_column": {
      "latitude": "29.936301413672076",
      "longitude": "-90.08521308190282"
    }
  },
  {
    "service_request": "2021-838356",
    "request_type": "Roads/Drainage",
    "request_reason": "Street Flooding / Drainage",
    "date_created": "2021-10-30T09:15:35.000",
    "date_modified": "2021-10-30T10:03:09.000",
    "request_status": "Pending",
    "responsible_agency": "Department of Public Works",
    "final_address": "1006 Marengo St",
    "address_councildis": "B",
    "status": "Pending",
    "rowid": "838356",
    "final_x": "3672068.33153",
    "final_y": "519327.041271",
    "longitude": "-90.09826718990797",
    "latitude": "29.9222520083748",
    "geocoded_column": {
      "latitude": "29.9222520083748",
      "longitude": "-90.09826718990797"
    }
  },
  {
    "service_request": "2021-838355",
    "request_type": "Abandoned Vehicles",
    "request_reason": "Vehicle Blocking Your Driveway",
    "date_created": "2021-10-30T09:13:12.000",
    "date_modified": "2021-10-30T09:13:12.000",
    "request_status": "Pending",
    "responsible_agency": "Department of Public Works",
    "final_address": "1313 Esplanade Ave",
    "address_councildis": "C",
    "status": "Pending",
    "rowid": "838355",
    "final_x": "3682090.92008",
    "final_y": "536041.728583",
    "longitude": "-90.06604649744112",
    "latitude": "29.967910935114475",
    "geocoded_column": {
      "latitude": "29.967910935114475",
      "longitude": "-90.06604649744112"
    }
  },
  {
    "service_request": "2021-838354",
    "request_type": "Health Related Questions",
    "request_reason": "Noise Ordinance Complaint",
    "date_created": "2021-10-30T09:11:54.000",
    "date_modified": "2021-10-30T10:03:10.000",
    "request_status": "Pending",
    "responsible_agency": "Health Department",
    "final_address": "827 Carondelet St, New Orleans, Louisiana, 70130",
    "address_councildis": "B",
    "status": "Pending",
    "rowid": "838354",
    "final_x": "3675476.19822",
    "final_y": "522745.285306",
    "longitude": "-90.08739261948608",
    "latitude": "29.931549631909576",
    "geocoded_column": {
      "latitude": "29.931549631909576",
      "longitude": "-90.08739261948608"
    }
  },
  {
    "service_request": "2021-838353",
    "request_type": "Abandoned Vehicles",
    "request_reason": "Abandoned/Junk Vehicles",
    "date_created": "2021-10-30T09:06:56.000",
    "date_modified": "2021-10-30T09:06:56.000",
    "request_status": "Pending",
    "responsible_agency": "Department of Public Works",
    "final_address": "6023 Franklin Ave",
    "address_councildis": "D",
    "status": "Pending",
    "rowid": "838353",
    "final_x": "3686489.40079",
    "final_y": "555424.886553",
    "longitude": "-90.05147119201342",
    "latitude": "30.02107316728389",
    "geocoded_column": {
      "latitude": "30.02107316728389",
      "longitude": "-90.05147119201342"
    }
  },
  {
    "service_request": "2021-838351",
    "request_type": "Trash/Recycling",
    "request_reason": "Repair Trash Cart",
    "date_created": "2021-10-30T09:00:05.000",
    "date_modified": "2021-10-30T09:00:06.000",
    "request_status": "Pending",
    "responsible_agency": "Department of Sanitation",
    "final_address": "2302 Napoleon Ave",
    "address_councildis": "B",
    "status": "Assigned to Contractor",
    "contractor": "Richards Disposal",
    "rowid": "838351",
    "final_x": "3670491.1602",
    "final_y": "523405.710907",
    "longitude": "-90.10310745503828",
    "latitude": "29.933513695581908",
    "geocoded_column": {
      "latitude": "29.933513695581908",
      "longitude": "-90.10310745503828"
    }
  },
  {
    "service_request": "2021-838350",
    "request_type": "Trash/Recycling",
    "request_reason": "Missed Trash Pick-Up",
    "date_created": "2021-10-30T08:57:31.000",
    "date_modified": "2021-10-30T09:02:20.000",
    "request_status": "Pending",
    "responsible_agency": "Department of Sanitation",
    "final_address": "2100 BLK Milton St",
    "address_councildis": "D",
    "status": "Assigned to Contractor",
    "contractor": "Metro Disposal",
    "rowid": "838350",
    "final_x": "3683581.69973",
    "final_y": "546569.509995",
    "longitude": "-90.06096939089038",
    "latitude": "29.996813213856438",
    "geocoded_column": {
      "latitude": "29.996813213856438",
      "longitude": "-90.06096939089038"
    }
  },
  {
    "service_request": "2021-838349",
    "request_type": "Abandoned Vehicles",
    "request_reason": "Abandoned/Junk Vehicles",
    "date_created": "2021-10-30T08:55:53.000",
    "date_modified": "2021-10-30T08:55:53.000",
    "request_status": "Pending",
    "responsible_agency": "Department of Public Works",
    "final_address": "2302 Napoleon Ave",
    "address_councildis": "B",
    "status": "Pending",
    "rowid": "838349",
    "final_x": "3670491.1602",
    "final_y": "523405.710907",
    "longitude": "-90.10310745503828",
    "latitude": "29.933513695581908",
    "geocoded_column": {
      "latitude": "29.933513695581908",
      "longitude": "-90.10310745503828"
    }
  },
  {
    "service_request": "2021-838348",
    "request_type": "Trash/Recycling",
    "request_reason": "Request a Large Item Pick Up",
    "date_created": "2021-10-30T08:52:50.000",
    "date_modified": "2021-10-30T09:02:22.000",
    "request_status": "Pending",
    "responsible_agency": "Department of Sanitation",
    "final_address": "1122 Adams St",
    "address_councildis": "A",
    "status": "Assigned to Contractor",
    "contractor": "Richards Disposal",
    "rowid": "838348",
    "final_x": "3662918.96",
    "final_y": "527296.230143",
    "longitude": "-90.12688326776944",
    "latitude": "29.94443275999311",
    "geocoded_column": {
      "latitude": "29.94443275999311",
      "longitude": "-90.12688326776944"
    }
  },
  {
    "service_request": "2021-838347",
    "request_type": "Abandoned Vehicles",
    "request_reason": "Abandoned/Junk Vehicles",
    "date_created": "2021-10-30T08:47:02.000",
    "date_modified": "2021-10-30T09:02:24.000",
    "request_status": "Pending",
    "responsible_agency": "Department of Public Works",
    "final_address": "7001 Cohn St",
    "address_councildis": "A",
    "status": "Pending",
    "rowid": "838347",
    "final_x": "3665968.98624",
    "final_y": "528346.388416",
    "longitude": "-90.1172182227523",
    "latitude": "29.947231702199108",
    "geocoded_column": {
      "latitude": "29.947231702199108",
      "longitude": "-90.1172182227523"
    }
  },
  {
    "service_request": "2021-838346",
    "request_type": "Abandoned Vehicles",
    "request_reason": "Abandoned/Junk Vehicles",
    "date_created": "2021-10-30T08:43:48.000",
    "date_modified": "2021-10-30T08:43:48.000",
    "request_status": "Pending",
    "responsible_agency": "Department of Public Works",
    "final_address": "2302 Napoleon Ave",
    "address_councildis": "B",
    "status": "Pending",
    "rowid": "838346",
    "final_x": "3670491.1602",
    "final_y": "523405.710907",
    "longitude": "-90.10310745503828",
    "latitude": "29.933513695581908",
    "geocoded_column": {
      "latitude": "29.933513695581908",
      "longitude": "-90.10310745503828"
    }
  },
  {
    "service_request": "2021-838345",
    "request_type": "Abandoned Vehicles",
    "request_reason": "Abandoned/Junk Vehicles",
    "date_created": "2021-10-30T08:29:11.000",
    "date_modified": "2021-10-30T08:29:11.000",
    "request_status": "Pending",
    "responsible_agency": "Department of Public Works",
    "final_address": "4951 Dreux Ave",
    "address_councildis": "D",
    "status": "Pending",
    "rowid": "838345",
    "final_x": "3691709.72508",
    "final_y": "553386.609367",
    "longitude": "-90.03504948397884",
    "latitude": "30.01530705370075",
    "geocoded_column": {
      "latitude": "30.01530705370075",
      "longitude": "-90.03504948397884"
    }
  },
  {
    "service_request": "2021-838344",
    "request_type": "Trash/Recycling",
    "request_reason": "Illegal Dumping",
    "date_created": "2021-10-30T08:16:56.000",
    "date_modified": "2021-10-30T08:16:56.000",
    "request_status": "Pending",
    "responsible_agency": "Department of Sanitation",
    "final_address": "1631 Eighth St",
    "address_councildis": "B",
    "status": "Pending",
    "rowid": "838344",
    "final_x": "3674856.86177",
    "final_y": "522169.921466",
    "longitude": "-90.08936751341353",
    "latitude": "29.92998607088005",
    "geocoded_column": {
      "latitude": "29.92998607088005",
      "longitude": "-90.08936751341353"
    }
  },
  {
    "service_request": "2021-838343",
    "request_type": "Abandoned Vehicles",
    "request_reason": "Vehicle Blocking Your Driveway",
    "date_created": "2021-10-30T08:01:26.000",
    "date_modified": "2021-10-30T08:01:26.000",
    "request_status": "Pending",
    "responsible_agency": "Department of Public Works",
    "final_address": "3221 Deers St",
    "address_councildis": "D",
    "status": "Pending",
    "rowid": "838343",
    "final_x": "3688001.07395",
    "final_y": "544957.734735",
    "longitude": "-90.04706601091534",
    "latitude": "29.992245737124247",
    "geocoded_column": {
      "latitude": "29.992245737124247",
      "longitude": "-90.04706601091534"
    }
  },
  {
    "service_request": "2021-838341",
    "request_type": "Trash/Recycling",
    "request_reason": "Request a Large Item Pick Up",
    "date_created": "2021-10-30T06:36:45.000",
    "date_modified": "2021-10-30T06:36:46.000",
    "request_status": "Pending",
    "responsible_agency": "Department of Sanitation",
    "final_address": "3210 Desaix Blvd",
    "address_councildis": "A",
    "status": "Assigned to Contractor",
    "contractor": "Metro Disposal",
    "rowid": "838341",
    "final_x": "3678174.10133",
    "final_y": "543462.568398",
    "longitude": "-90.07815922903296",
    "latitude": "29.988434215240027",
    "geocoded_column": {
      "latitude": "29.988434215240027",
      "longitude": "-90.07815922903296"
    }
  },
  {
    "service_request": "2021-838340",
    "request_type": "Abandoned Vehicles",
    "request_reason": "Abandoned/Junk Vehicles",
    "date_created": "2021-10-30T06:07:59.000",
    "date_modified": "2021-10-30T06:07:59.000",
    "request_status": "Pending",
    "responsible_agency": "Department of Public Works",
    "final_address": "6232 Pasteur Blvd",
    "address_councildis": "D",
    "status": "Pending",
    "rowid": "838340",
    "final_x": "3682675.01589",
    "final_y": "556126.53705",
    "longitude": "-90.06349898388004",
    "latitude": "30.023119228761402",
    "geocoded_column": {
      "latitude": "30.023119228761402",
      "longitude": "-90.06349898388004"
    }
  },
  {
    "service_request": "2021-838339",
    "request_type": "Abandoned Vehicles",
    "request_reason": "Abandoned/Junk Vehicles",
    "date_created": "2021-10-30T06:05:46.000",
    "date_modified": "2021-10-30T06:05:46.000",
    "request_status": "Pending",
    "responsible_agency": "Department of Public Works",
    "final_address": "6232 Pasteur Blvd",
    "address_councildis": "D",
    "status": "Pending",
    "rowid": "838339",
    "final_x": "3682675.01589",
    "final_y": "556126.53705",
    "longitude": "-90.06349898388004",
    "latitude": "30.023119228761402",
    "geocoded_column": {
      "latitude": "30.023119228761402",
      "longitude": "-90.06349898388004"
    }
  },
  {
    "service_request": "2021-838338",
    "request_type": "Abandoned Vehicles",
    "request_reason": "Abandoned/Junk Vehicles",
    "date_created": "2021-10-30T06:04:38.000",
    "date_modified": "2021-10-30T06:04:38.000",
    "request_status": "Pending",
    "responsible_agency": "Department of Public Works",
    "final_address": "6232 Pasteur Blvd",
    "address_councildis": "D",
    "status": "Pending",
    "rowid": "838338",
    "final_x": "3682675.01589",
    "final_y": "556126.53705",
    "longitude": "-90.06349898388004",
    "latitude": "30.023119228761402",
    "geocoded_column": {
      "latitude": "30.023119228761402",
      "longitude": "-90.06349898388004"
    }
  },
  {
    "service_request": "2021-838337",
    "request_type": "Abandoned Vehicles",
    "request_reason": "Abandoned/Junk Vehicles",
    "date_created": "2021-10-30T06:02:03.000",
    "date_modified": "2021-10-30T06:02:16.000",
    "request_status": "Pending",
    "responsible_agency": "Department of Public Works",
    "final_address": "6232 Pasteur Blvd",
    "address_councildis": "D",
    "status": "Pending",
    "rowid": "838337",
    "final_x": "3682675.01589",
    "final_y": "556126.53705",
    "longitude": "-90.06349898388004",
    "latitude": "30.023119228761402",
    "geocoded_column": {
      "latitude": "30.023119228761402",
      "longitude": "-90.06349898388004"
    }
  },