[
  {
    "service_request": "2022-886280",
    "request_type": "Traffic Signals/Signs/Striping/Streetlights",
    "request_reason": "Street Light Outage/Malfunction",
    "date_created": "2022-05-25T22:31:14.000",
    "date_modified": "2022-05-25T22:31:15.000",
    "request_status": "Pending",
    "responsible_agency": "Department of Public Works",
    "final_address": "3338 Nashville Ave",
    "address_councildis": "A",
    "status": "Pending",
    "contractor": "Royal Engineering",
    "rowid": "886280",
    "final_x": "3667970.0514",
    "final_y": "528110.834815",
    "longitude": "-90.11090801599322",
    "latitude": "29.946525457349917",
    "geocoded_column": {
      "latitude": "29.946525457349917",
      "longitude": "-90.11090801599322"
    }
  },
  {
    "service_request": "2022-886279",
    "request_type": "Safety & Permits",
    "request_reason": "Licenses & Permits",
    "date_created": "2022-05-25T22:25:15.000",
    "date_modified": "2022-05-25T22:25:15.000",
    "request_status": "Pending",
    "responsible_agency": "Safety and Permits",
    "final_address": "4227 Fontainebleau Dr",
    "address_councildis": "B",
    "status": "Pending",
    "rowid": "886279",
    "final_x": "3669627.99758",
    "final_y": "529355.935681",
    "longitude": "-90.10563115366931",
    "latitude": "29.9499003390365",
    "geocoded_column": {
      "latitude": "29.9499003390365",
      "longitude": "-90.10563115366931"
    }
  },
  {
    "service_request": "2022-886278",
    "request_type": "Traffic Signals/Signs/Striping/Streetlights",
    "request_reason": "Street Light Outage/Malfunction",
    "date_created": "2022-05-25T22:24:29.000",
    "date_modified": "2022-05-25T22:24:30.000",
    "request_status": "Pending",
    "responsible_agency": "Department of Public Works",
    "final_address": "33 Maryland Dr",
    "address_councildis": "A",
    "status": "Pending",
    "contractor": "Royal Engineering",
    "rowid": "886278",
    "final_x": "3663703.19847",
    "final_y": "541008.716235",
    "longitude": "-90.12395023579445",
    "latitude": "29.98211487703856",
    "geocoded_column": {
      "latitude": "29.98211487703856",
      "longitude": "-90.12395023579445"
    }
  },
  {
    "service_request": "2022-886277",
    "request_type": "Trash/Recycling",
    "request_reason": "Missed Trash Pick-Up",
    "date_created": "2022-05-25T22:17:13.000",
    "date_modified": "2022-05-25T22:17:13.000",
    "request_status": "Pending",
    "responsible_agency": "Department of Sanitation",
    "final_address": "4956 Venus St",
    "address_councildis": "D",
    "status": "Assigned to Contractor",
    "contractor": "Metro Disposal",
    "rowid": "886277",
    "final_x": "3686336.67478",
    "final_y": "551460.660949",
    "longitude": "-90.05209382123702",
    "latitude": "30.010177701662567",
    "geocoded_column": {
      "latitude": "30.010177701662567",
      "longitude": "-90.05209382123702"
    }
  },
  {
    "service_request": "2022-886276",
    "request_type": "Property Maintenance",
    "request_reason": "Property Maintenance",
    "date_created": "2022-05-25T22:16:40.000",
    "date_modified": "2022-05-25T22:16:40.000",
    "request_status": "Pending",
    "responsible_agency": "Department of Code Enforcement",
    "final_address": "937 Caffin Ave",
    "address_councildis": "E",
    "status": "Pending",
    "rowid": "886276",
    "final_x": "3697942.42627",
    "final_y": "533287.40378",
    "longitude": "-90.01608720362415",
    "latitude": "29.959845944005593",
    "geocoded_column": {
      "latitude": "29.959845944005593",
      "longitude": "-90.01608720362415"
    }
  },
  {
    "service_request": "2022-886275",
    "request_type": "Roads/Drainage",
    "request_reason": "Catch Basin - Clogged",
    "date_created": "2022-05-25T22:15:57.000",
    "date_modified": "2022-05-25T22:15:57.000",
    "request_status": "Pending",
    "responsible_agency": "Department of Public Works",
    "final_address": "2433 Palmer Ave",
    "address_councildis": "A",
    "status": "Pending",
    "rowid": "886275",
    "final_x": "3666475.76135",
    "final_y": "525789.877885",
    "longitude": "-90.11570391186079",
    "latitude": "29.940187323188283",
    "geocoded_column": {
      "latitude": "29.940187323188283",
      "longitude": "-90.11570391186079"
    }
  },
  {
    "service_request": "2022-886274",
    "request_type": "Abandoned Vehicles",
    "request_reason": "Abandoned/Junk Vehicles",
    "date_created": "2022-05-25T22:13:18.000",
    "date_modified": "2022-05-25T22:13:18.000",
    "request_status": "Pending",
    "responsible_agency": "Department of Public Works",
    "final_address": "3913 Downman Rd",
    "address_councildis": "D",
    "status": "Pending",
    "rowid": "886274",
    "final_x": "3696292.92906",
    "final_y": "551725.698581",
    "longitude": "-90.02062889265262",
    "latitude": "30.01059658839242",
    "geocoded_column": {
      "latitude": "30.01059658839242",
      "longitude": "-90.02062889265262"
    }
  },
  {
    "service_request": "2022-886273",
    "request_type": "Roads/Drainage",
    "request_reason": "Catch Basin - Clogged",
    "date_created": "2022-05-25T22:12:53.000",
    "date_modified": "2022-05-25T22:12:53.000",
    "request_status": "Pending",
    "responsible_agency": "Department of Public Works",
    "final_address": "1834 Broadway St",
    "address_councildis": "A",
    "status": "Pending",
    "rowid": "886273",
    "final_x": "3665456.008",
    "final_y": "528520.851968",
    "longitude": "-90.118832057248",
    "latitude": "29.947726380948694",
    "geocoded_column": {
      "latitude": "29.947726380948694",
      "longitude": "-90.118832057248"
    }
  },
  {
    "service_request": "2022-886272",
    "request_type": "Traffic Signals/Signs/Striping/Streetlights",
    "request_reason": "Street Light Outage/Malfunction",
    "date_created": "2022-05-25T22:12:48.000",
    "date_modified": "2022-05-25T22:12:48.000",
    "request_status": "Pending",
    "responsible_agency": "Department of Public Works",
    "final_address": "426 S Gayoso St",
    "address_councildis": "B",
    "status": "Pending",
    "contractor": "Royal Engineering",
    "rowid": "886272",
    "final_x": "3673489.21934",
    "final_y": "534677.84007",
    "longitude": "-90.09325761175919",
    "latitude": "29.964419482870234",
    "geocoded_column": {
      "latitude": "29.964419482870234",
      "longitude": "-90.09325761175919"
    }
  },
  {
    "service_request": "2022-886271",
    "request_type": "Roads/Drainage",
    "request_reason": "Debris in Roadway",
    "date_created": "2022-05-25T21:57:07.000",
    "date_modified": "2022-05-25T21:57:07.000",
    "request_status": "Pending",
    "responsible_agency": "Department of Public Works",
    "final_address": "1426 N Roman St",
    "address_councildis": "D",
    "status": "Pending",
    "rowid": "886271",
    "final_x": "3680885.69141",
    "final_y": "537198.6706",
    "longitude": "-90.06981235814075",
    "latitude": "29.97112872469053",
    "geocoded_column": {
      "latitude": "29.97112872469053",
      "longitude": "-90.06981235814075"
    }
  },
  {
    "service_request": "2022-886270",
    "request_type": "Traffic Signals/Signs/Striping/Streetlights",
    "request_reason": "Traffic Sign Missing/Damaged",
    "date_created": "2022-05-25T21:45:36.000",
    "date_modified": "2022-05-25T21:45:36.000",
    "request_status": "Pending",
    "responsible_agency": "Department of Public Works",
    "final_address": "EARHART EXIT & EARHART BLVD",
    "address_councildis": "B",
    "status": "Pending",
    "rowid": "886270",
    "final_x": "3672103.2",
    "final_y": "531630.18",
    "longitude": "-90.09773834406349",
    "latitude": "29.956080605336847",
    "geocoded_column": {
      "latitude": "29.956080605336847",
      "longitude": "-90.09773834406349"
    }
  },
  {
    "service_request": "2022-886268",
    "request_type": "Trash/Recycling",
    "request_reason": "Order Recycling Cart",
    "date_created": "2022-05-25T21:08:19.000",
    "date_modified": "2022-05-25T21:08:19.000",
    "request_status": "Pending",
    "responsible_agency": "Department of Sanitation",
    "final_address": "3509 Palmyra St",
    "address_councildis": "B",
    "status": "Pending",
    "rowid": "886268",
    "final_x": "3672321.02343",
    "final_y": "536467.390471",
    "longitude": "-90.09688570987709",
    "latitude": "29.969374856753852",
    "geocoded_column": {
      "latitude": "29.969374856753852",
      "longitude": "-90.09688570987709"
    }
  },
  {
    "service_request": "2022-886267",
    "request_type": "Property Maintenance",
    "request_reason": "Property Maintenance",
    "date_created": "2022-05-25T21:02:24.000",
    "date_modified": "2022-05-25T21:02:24.000",
    "request_status": "Pending",
    "responsible_agency": "Department of Code Enforcement",
    "status": "Pending",
    "rowid": "886267",
    "longitude": "0.0",
    "latitude": "0.0",
    "geocoded_column": {
      "latitude": "0.0",
      "longitude": "0.0"
    }
  },
  {
    "service_request": "2022-886266",
    "request_type": "Trash/Recycling",
    "request_reason": "Request a Large Item Pick Up",
    "date_created": "2022-05-25T20:57:22.000",
    "date_modified": "2022-05-25T20:57:23.000",
    "request_status": "Pending",
    "responsible_agency": "Department of Sanitation",
    "final_address": "4674 Venus St",
    "address_councildis": "D",
    "status": "Assigned to Contractor",
    "contractor": "Metro Disposal",
    "rowid": "886266",
    "final_x": "3686442.36399",
    "final_y": "550219.611924",
    "longitude": "-90.0518037629815",
    "latitude": "30.006762019598067",
    "geocoded_column": {
      "latitude": "30.006762019598067",
      "longitude": "-90.0518037629815"
    }
  },
  {
    "service_request": "2022-886265",
    "request_type": "Abandoned Vehicles",
    "request_reason": "Abandoned/Junk Vehicles",
    "date_created": "2022-05-25T20:14:34.000",
    "date_modified": "2022-05-25T20:14:34.000",
    "request_status": "Pending",
    "responsible_agency": "Department of Public Works",
    "status": "Pending",
    "rowid": "886265",
    "longitude": "0.0",
    "latitude": "0.0",
    "geocoded_column": {
      "latitude": "0.0",
      "longitude": "0.0"
    }
  },
  {
    "service_request": "2022-886263",
    "request_type": "Parks & Parkways",
    "request_reason": "Request Tree Service (Right of Way/Public Property)",
    "date_created": "2022-05-25T20:10:40.000",
    "date_modified": "2022-05-26T01:02:43.000",
    "request_status": "Pending",
    "responsible_agency": "Department of Parks & Parkway",
    "status": "Pending",
    "rowid": "886263",
    "longitude": "0.0",
    "latitude": "0.0",
    "geocoded_column": {
      "latitude": "0.0",
      "longitude": "0.0"
    }
  },
  {
    "service_request": "2022-886262",
    "request_type": "Traffic Signals/Signs/Striping/Streetlights",
    "request_reason": "Request for Traffic Calming due to Speeding",
    "date_created": "2022-05-25T20:08:48.000",
    "date_modified": "2022-05-25T20:08:48.000",
    "request_status": "Pending",
    "responsible_agency": "Department of Public Works",
    "final_address": "4481 De Montluzin St",
    "address_councildis": "D",
    "status": "Pending",
    "rowid": "886262",
    "final_x": "3687279.03548",
    "final_y": "549535.731667",
    "longitude": "-90.04918471778284",
    "latitude": "30.00485584175965",
    "geocoded_column": {
      "latitude": "30.00485584175965",
      "longitude": "-90.04918471778284"
    }
  },
  {
    "service_request": "2022-886261",
    "request_type": "Mosquito, Termite & Rodent Control",
    "request_reason": "Rodent Complaint (Rats)",
    "date_created": "2022-05-25T19:38:17.000",
    "date_modified": "2022-05-25T19:38:17.000",
    "request_status": "Pending",
    "responsible_agency": "Mosquito, Termite & Rodent Control Board",
    "final_address": "1209 Annette St",
    "address_councildis": "C",
    "status": "Pending",
    "rowid": "886261",
    "final_x": "3683169.46031",
    "final_y": "536257.085319",
    "longitude": "-90.06263289401691",
    "latitude": "29.968470248294057",
    "geocoded_column": {
      "latitude": "29.968470248294057",
      "longitude": "-90.06263289401691"
    }
  },
  {
    "service_request": "2022-886260",
    "request_type": "Property Maintenance",
    "request_reason": "Property Maintenance",
    "date_created": "2022-05-25T19:28:41.000",
    "date_modified": "2022-05-25T19:28:41.000",
    "request_status": "Pending",
    "responsible_agency": "Department of Code Enforcement",
    "status": "Pending",
    "rowid": "886260",
    "longitude": "0.0",
    "latitude": "0.0",
    "geocoded_column": {
      "latitude": "0.0",
      "longitude": "0.0"
    }
  },
  {
    "service_request": "2022-886259",
    "request_type": "Trash/Recycling",
    "request_reason": "Request a Large Item Pick Up",
    "date_created": "2022-05-25T18:50:17.000",
    "date_modified": "2022-05-25T18:50:17.000",
    "request_status": "Pending",
    "responsible_agency": "Department of Sanitation",
    "final_address": "8623 Marks St, New Orleans, Louisiana, 70118",
    "address_councildis": "A",
    "status": "Assigned to Contractor",
    "contractor": "Richards Disposal",
    "rowid": "886259",
    "final_x": "3667510.02119",
    "final_y": "537366.874376",
    "longitude": "-90.11204901179528",
    "latitude": "29.97199000716756",
    "geocoded_column": {
      "latitude": "29.97199000716756",
      "longitude": "-90.11204901179528"
    }
  },
  {
    "service_request": "2022-886258",
    "request_type": "Trash/Recycling",
    "request_reason": "Order Recycling Cart",
    "date_created": "2022-05-25T18:49:51.000",
    "date_modified": "2022-05-25T18:49:51.000",
    "request_status": "Pending",
    "responsible_agency": "Department of Sanitation",
    "final_address": "5216 Danneel St",
    "address_councildis": "B",
    "status": "Pending",
    "rowid": "886258",
    "final_x": "3668011.29313",
    "final_y": "522117.241978",
    "longitude": "-90.11097967640912",
    "latitude": "29.9300437942745",
    "geocoded_column": {
      "latitude": "29.9300437942745",
      "longitude": "-90.11097967640912"
    }
  },
  {
    "service_request": "2022-886257",
    "request_type": "Trash/Recycling",
    "request_reason": "Missed Trash Pick-Up",
    "date_created": "2022-05-25T18:48:30.000",
    "date_modified": "2022-05-25T18:48:31.000",
    "request_status": "Pending",
    "responsible_agency": "Department of Sanitation",
    "final_address": "5200 Atlanta St",
    "address_councildis": "B",
    "status": "Assigned to Contractor",
    "contractor": "Richards Disposal",
    "rowid": "886257",
    "final_x": "3667983.80449",
    "final_y": "520661.062009",
    "longitude": "-90.11111548717626",
    "latitude": "29.92604056837358",
    "geocoded_column": {
      "latitude": "29.92604056837358",
      "longitude": "-90.11111548717626"
    }
  },
  {
    "service_request": "2022-886256",
    "request_type": "Roads/Drainage",
    "request_reason": "Catch Basin - Clogged",
    "date_created": "2022-05-25T18:47:24.000",
    "date_modified": "2022-05-25T18:47:24.000",
    "request_status": "Pending",
    "responsible_agency": "Department of Public Works",
    "final_address": "5216 Danneel St",
    "address_councildis": "B",
    "status": "Pending",
    "rowid": "886256",
    "final_x": "3668011.29313",
    "final_y": "522117.241978",
    "longitude": "-90.11097967640912",
    "latitude": "29.9300437942745",
    "geocoded_column": {
      "latitude": "29.9300437942745",
      "longitude": "-90.11097967640912"
    }
  },
  {
    "service_request": "2022-886255",
    "request_type": "Trash/Recycling",
    "request_reason": "Missed Trash Pick-Up",
    "date_created": "2022-05-25T18:46:50.000",
    "date_modified": "2022-05-25T18:46:51.000",
    "request_status": "Pending",
    "responsible_agency": "Department of Sanitation",
    "final_address": "5200 Atlanta St",
    "address_councildis": "B",
    "status": "Assigned to Contractor",
    "contractor": "Richards Disposal",
    "rowid": "886255",
    "final_x": "3667983.80449",
    "final_y": "520661.062009",
    "longitude": "-90.11111548717626",
    "latitude": "29.92604056837358",
    "geocoded_column": {
      "latitude": "29.92604056837358",
      "longitude": "-90.11111548717626"
    }
  },
  {
    "service_request": "2022-886254",
    "request_type": "Trash/Recycling",
    "request_reason": "Request a Large Item Pick Up",
    "date_created": "2022-05-25T18:45:52.000",
    "date_modified": "2022-05-25T18:45:52.000",
    "request_status": "Pending",
    "responsible_agency": "Department of Sanitation",
    "final_address": "805 Pacific Ave",
    "address_councildis": "C",
    "status": "Assigned to Contractor",
    "contractor": "Richards Disposal",
    "rowid": "886254",
    "final_x": "3688408.76463",
    "final_y": "528623.569152",
    "longitude": "-90.04635771568243",
    "latitude": "29.94731991742576",
    "geocoded_column": {
      "latitude": "29.94731991742576",
      "longitude": "-90.04635771568243"
    }
  },
  {
    "service_request": "2022-886252",
    "request_type": "Trash/Recycling",
    "request_reason": "Missed Trash Pick-Up",
    "date_created": "2022-05-25T18:36:39.000",
    "date_modified": "2022-05-25T18:36:40.000",
    "request_status": "Pending",
    "responsible_agency": "Department of Sanitation",
    "final_address": "2708 S Carrollton Ave",
    "address_councildis": "A",
    "status": "Assigned to Contractor",
    "contractor": "Richards Disposal",
    "rowid": "886252",
    "final_x": "3665652.67418",
    "final_y": "532454.124164",
    "longitude": "-90.11807938984224",
    "latitude": "29.958535867283196",
    "geocoded_column": {
      "latitude": "29.958535867283196",
      "longitude": "-90.11807938984224"
    }
  },
  {
    "service_request": "2022-886251",
    "request_type": "Trash/Recycling",
    "request_reason": "MIssed Recycling Pick-Up",
    "date_created": "2022-05-25T18:35:07.000",
    "date_modified": "2022-05-25T18:35:08.000",
    "request_status": "Pending",
    "responsible_agency": "Department of Sanitation",
    "final_address": "2708 S Carrollton Ave",
    "address_councildis": "A",
    "status": "Assigned to Contractor",
    "contractor": "Richards Disposal",
    "rowid": "886251",
    "final_x": "3665652.67418",
    "final_y": "532454.124164",
    "longitude": "-90.11807938984224",
    "latitude": "29.958535867283196",
    "geocoded_column": {
      "latitude": "29.958535867283196",
      "longitude": "-90.11807938984224"
    }
  },
  {
    "service_request": "2022-886250",
    "request_type": "Trash/Recycling",
    "request_reason": "Missed Trash Pick-Up",
    "date_created": "2022-05-25T18:27:24.000",
    "date_modified": "2022-05-25T18:27:25.000",
    "request_status": "Pending",
    "responsible_agency": "Department of Sanitation",
    "final_address": "7815 Dominican St",
    "address_councildis": "A",
    "status": "Assigned to Contractor",
    "contractor": "Richards Disposal",
    "rowid": "886250",
    "final_x": "3660825.7079",
    "final_y": "525662.009341",
    "longitude": "-90.13354633380379",
    "latitude": "29.939999607304223",
    "geocoded_column": {
      "latitude": "29.939999607304223",
      "longitude": "-90.13354633380379"
    }
  },
  {
    "service_request": "2022-886249",
    "request_type": "Trash/Recycling",
    "request_reason": "Request a Large Item Pick Up",
    "date_created": "2022-05-25T17:59:04.000",
    "date_modified": "2022-05-25T17:59:05.000",
    "request_status": "Pending",
    "responsible_agency": "Department of Sanitation",
    "final_address": "5520 Glouster Rd",
    "address_councildis": "E",
    "status": "Assigned to Contractor",
    "contractor": "Metro Disposal",
    "rowid": "886249",
    "final_x": "3707360.52996",
    "final_y": "558033.376283",
    "longitude": "-89.98542797078997",
    "latitude": "30.02758697965074",
    "geocoded_column": {
      "latitude": "30.02758697965074",
      "longitude": "-89.98542797078997"
    }
  },
  {
    "service_request": "2022-886247",
    "request_type": "Roads/Drainage",
    "request_reason": "Street Subsidence (Sinking)",
    "date_created": "2022-05-25T17:54:22.000",
    "date_modified": "2022-05-25T17:54:22.000",
    "request_status": "Pending",
    "responsible_agency": "Department of Public Works",
    "final_address": "2116 Philip St",
    "address_councildis": "B",
    "status": "Pending",
    "rowid": "886247",
    "final_x": "3676044.26792",
    "final_y": "524942.370364",
    "longitude": "-90.08552375679847",
    "latitude": "29.937573901168292",
    "geocoded_column": {
      "latitude": "29.937573901168292",
      "longitude": "-90.08552375679847"
    }
  },
  {
    "service_request": "2022-886246",
    "request_type": "Trash/Recycling",
    "request_reason": "Request a Large Item Pick Up",
    "date_created": "2022-05-25T17:46:51.000",
    "date_modified": "2022-05-25T17:46:52.000",
    "request_status": "Pending",
    "responsible_agency": "Department of Sanitation",
    "final_address": "2804 Upperline St",
    "address_councildis": "B",
    "status": "Assigned to Contractor",
    "contractor": "Richards Disposal",
    "rowid": "886246",
    "final_x": "3669160.92238",
    "final_y": "525022.839037",
    "longitude": "-90.10725232767882",
    "latitude": "29.937999481887694",
    "geocoded_column": {
      "latitude": "29.937999481887694",
      "longitude": "-90.10725232767882"
    }
  },
  {
    "service_request": "2022-886245",
    "request_type": "Traffic Signals/Signs/Striping/Streetlights",
    "request_reason": "Traffic Signal Malfunctioning/Damaged",
    "date_created": "2022-05-25T17:45:11.000",
    "date_modified": "2022-05-25T17:45:12.000",
    "request_status": "Pending",
    "responsible_agency": "Department of Public Works",
    "final_address": "ESPLANADE AVE & N CLAIBORNE AVE",
    "address_councildis": "D",
    "status": "Pending",
    "rowid": "886245",
    "final_x": "3681231.3",
    "final_y": "536639.18",
    "longitude": "-90.06874038104324",
    "latitude": "29.969579834804723",
    "geocoded_column": {
      "latitude": "29.969579834804723",
      "longitude": "-90.06874038104324"
    }
  },
  {
    "service_request": "2022-886244",
    "request_type": "Safety & Permits",
    "request_reason": "Licenses & Permits",
    "date_created": "2022-05-25T17:45:02.000",
    "date_modified": "2022-05-25T17:45:02.000",
    "request_status": "Pending",
    "responsible_agency": "Safety and Permits",
    "status": "Pending",
    "rowid": "886244",
    "longitude": "0.0",
    "latitude": "0.0",
    "geocoded_column": {
      "latitude": "0.0",
      "longitude": "0.0"
    }
  },
  {
    "service_request": "2022-886243",
    "request_type": "Trash/Recycling",
    "request_reason": "Replace Trash Cart",
    "date_created": "2022-05-25T17:44:56.000",
    "date_modified": "2022-05-25T17:44:57.000",
    "request_status": "Pending",
    "responsible_agency": "Department of Sanitation",
    "final_address": "2119 Short St",
    "address_councildis": "A",
    "status": "Assigned to Contractor",
    "contractor": "Richards Disposal",
    "rowid": "886243",
    "final_x": "3664561.2418",
    "final_y": "530497.321602",
    "longitude": "-90.12159120485326",
    "latitude": "29.953187080508314",
    "geocoded_column": {
      "latitude": "29.953187080508314",
      "longitude": "-90.12159120485326"
    }
  },
  {
    "service_request": "2022-886242",
    "request_type": "Trash/Recycling",
    "request_reason": "Request a Large Item Pick Up",
    "date_created": "2022-05-25T17:41:03.000",
    "date_modified": "2022-05-25T17:41:04.000",
    "request_status": "Pending",
    "responsible_agency": "Department of Sanitation",
    "final_address": "4905 Iberville St",
    "address_councildis": "A",
    "status": "Assigned to Contractor",
    "contractor": "Richards Disposal",
    "rowid": "886242",
    "final_x": "3668755.86266",
    "final_y": "540772.837451",
    "longitude": "-90.10799940210694",
    "latitude": "29.981318687533065",
    "geocoded_column": {
      "latitude": "29.981318687533065",
      "longitude": "-90.10799940210694"
    }
  },
  {
    "service_request": "2022-886241",
    "request_type": "Trash/Recycling",
    "request_reason": "Missed Trash Pick-Up",
    "date_created": "2022-05-25T17:40:45.000",
    "date_modified": "2022-05-25T17:40:46.000",
    "request_status": "Pending",
    "responsible_agency": "Department of Sanitation",
    "final_address": "4814 Walmsley Ave, New Orleans, Louisiana, 70125",
    "address_councildis": "B",
    "status": "Assigned to Contractor",
    "contractor": "Richards Disposal",
    "rowid": "886241",
    "final_x": "3668219.68052",
    "final_y": "530542.170818",
    "longitude": "-90.11003789024738",
    "latitude": "29.953203513614355",
    "geocoded_column": {
      "latitude": "29.953203513614355",
      "longitude": "-90.11003789024738"
    }
  },
  {
    "service_request": "2022-886240",
    "request_type": "Trash/Recycling",
    "request_reason": "Request a Large Item Pick Up",
    "date_created": "2022-05-25T17:35:45.000",
    "date_modified": "2022-05-25T17:35:46.000",
    "request_status": "Pending",
    "responsible_agency": "Department of Sanitation",
    "final_address": "2612 Jackson Ave",
    "address_councildis": "B",
    "status": "Assigned to Contractor",
    "contractor": "Richards Disposal",
    "rowid": "886240",
    "final_x": "3675109.78491",
    "final_y": "526905.575998",
    "longitude": "-90.08840665189022",
    "latitude": "29.94300002138372",
    "geocoded_column": {
      "latitude": "29.94300002138372",
      "longitude": "-90.08840665189022"
    }
  },
  {
    "service_request": "2022-886239",
    "request_type": "Trash/Recycling",
    "request_reason": "Request a Large Item Pick Up",
    "date_created": "2022-05-25T17:35:36.000",
    "date_modified": "2022-05-25T17:35:37.000",
    "request_status": "Pending",
    "responsible_agency": "Department of Sanitation",
    "final_address": "2127 Jefferson Ave",
    "address_councildis": "B",
    "status": "Assigned to Contractor",
    "contractor": "Richards Disposal",
    "rowid": "886239",
    "final_x": "3667916.69114",
    "final_y": "523518.671675",
    "longitude": "-90.11123113493339",
    "latitude": "29.933900053306946",
    "geocoded_column": {
      "latitude": "29.933900053306946",
      "longitude": "-90.11123113493339"
    }
  },
  {
    "service_request": "2022-886238",
    "request_type": "Roads/Drainage",
    "request_reason": "Catch Basin - Clogged",
    "date_created": "2022-05-25T17:30:17.000",
    "date_modified": "2022-05-25T19:29:38.000",
    "request_status": "Pending",
    "responsible_agency": "Department of Public Works",
    "final_address": "New Orleans,LA",
    "address_councildis": "A",
    "rowid": "886238",
    "final_x": "3664019.00698",
    "final_y": "542396.754381",
    "longitude": "-90.12290644353483",
    "latitude": "29.98592234652699",
    "geocoded_column": {
      "latitude": "29.98592234652699",
      "longitude": "-90.12290644353483"
    }
  },
  {
    "service_request": "2022-886237",
    "request_type": "Roads/Drainage",
    "request_reason": "Debris in Roadway",
    "date_created": "2022-05-25T17:21:17.000",
    "date_modified": "2022-05-25T17:21:17.000",
    "request_status": "Pending",
    "responsible_agency": "Department of Public Works",
    "final_address": "1418 Sixth St",
    "address_councildis": "B",
    "status": "Pending",
    "rowid": "886237",
    "final_x": "3675930.48417",
    "final_y": "521521.571385",
    "longitude": "-90.08600054370864",
    "latitude": "29.92817122578206",
    "geocoded_column": {
      "latitude": "29.92817122578206",
      "longitude": "-90.08600054370864"
    }
  },
  {
    "service_request": "2022-886236",
    "request_type": "Trash/Recycling",
    "request_reason": "Order Recycling Cart",
    "date_created": "2022-05-25T17:09:36.000",
    "date_modified": "2022-05-25T17:09:36.000",
    "request_status": "Pending",
    "responsible_agency": "Department of Sanitation",
    "final_address": "2521 Dreux Ave",
    "address_councildis": "D",
    "status": "Pending",
    "rowid": "886236",
    "final_x": "3686227.9485",
    "final_y": "552269.17135",
    "longitude": "-90.05240877195156",
    "latitude": "30.012404151942697",
    "geocoded_column": {
      "latitude": "30.012404151942697",
      "longitude": "-90.05240877195156"
    }
  },
  {
    "service_request": "2022-886235",
    "request_type": "Traffic Signals/Signs/Striping/Streetlights",
    "request_reason": "Street Light Outage/Malfunction",
    "date_created": "2022-05-25T17:07:07.000",
    "date_modified": "2022-05-25T17:07:08.000",
    "request_status": "Pending",
    "responsible_agency": "Department of Public Works",
    "final_address": "909 Julia St",
    "address_councildis": "B",
    "status": "Pending",
    "contractor": "Royal Engineering",
    "rowid": "886235",
    "final_x": "3679480.17442",
    "final_y": "528297.651968",
    "longitude": "-90.07455998146625",
    "latitude": "29.94669647973353",
    "geocoded_column": {
      "latitude": "29.94669647973353",
      "longitude": "-90.07455998146625"
    }
  },
  {
    "service_request": "2022-886234",
    "request_type": "Roads/Drainage",
    "request_reason": "Man hole cover issue",
    "date_created": "2022-05-25T17:04:07.000",
    "date_modified": "2022-05-25T17:04:07.000",
    "request_status": "Pending",
    "responsible_agency": "Department of Public Works",
    "final_address": "131 Carondelet St",
    "address_councildis": "B",
    "status": "Pending",
    "rowid": "886234",
    "final_x": "3680681.33877",
    "final_y": "530654.194882",
    "longitude": "-90.07068548371211",
    "latitude": "29.953139842447058",
    "geocoded_column": {
      "latitude": "29.953139842447058",
      "longitude": "-90.07068548371211"
    }
  },
  {
    "service_request": "2022-886233",
    "request_type": "Traffic Signals/Signs/Striping/Streetlights",
    "request_reason": "Street Light Outage/Malfunction",
    "date_created": "2022-05-25T17:01:43.000",
    "date_modified": "2022-05-25T17:01:44.000",
    "request_status": "Pending",
    "responsible_agency": "Department of Public Works",
    "final_address": "131 Carondelet St",
    "address_councildis": "B",
    "status": "Pending",
    "contractor": "Royal Engineering",
    "rowid": "886233",
    "final_x": "3680681.33877",
    "final_y": "530654.194882",
    "longitude": "-90.07068548371211",
    "latitude": "29.953139842447058",
    "geocoded_column": {
      "latitude": "29.953139842447058",
      "longitude": "-90.07068548371211"
    }
  },
  {
    "service_request": "2022-886232",
    "request_type": "Property Maintenance",
    "request_reason": "Property Maintenance",
    "date_created": "2022-05-25T17:00:29.000",
    "date_modified": "2022-05-25T17:00:29.000",
    "request_status": "Pending",
    "responsible_agency": "Department of Code Enforcement",
    "final_address": "1335 Music St",
    "address_councildis": "C",
    "status": "Pending",
    "rowid": "886232",
    "final_x": "3686802.21218",
    "final_y": "537479.176328",
    "longitude": "-90.05111731924461",
    "latitude": "29.97171929894355",
    "geocoded_column": {
      "latitude": "29.97171929894355",
      "longitude": "-90.05111731924461"
    }
  },
  {
    "service_request": "2022-886231",
    "request_type": "Trash/Recycling",
    "request_reason": "Repair Trash Cart",
    "date_created": "2022-05-25T17:00:10.000",
    "date_modified": "2022-05-25T17:00:11.000",
    "request_status": "Pending",
    "responsible_agency": "Department of Sanitation",
    "final_address": "3535 Mimosa Ct",
    "address_councildis": "C",
    "status": "Assigned to Contractor",
    "contractor": "Richards Disposal",
    "rowid": "886231",
    "final_x": "3703428.56561",
    "final_y": "512963.322033",
    "longitude": "-89.99951040249738",
    "latitude": "29.903787259804012",
    "geocoded_column": {
      "latitude": "29.903787259804012",
      "longitude": "-89.99951040249738"
    }
  },
  {
    "service_request": "2022-886230",
    "request_type": "Traffic Signals/Signs/Striping/Streetlights",
    "request_reason": "Traffic Signal Malfunctioning/Damaged",
    "date_created": "2022-05-25T17:00:05.000",
    "date_modified": "2022-05-25T17:00:05.000",
    "request_status": "Pending",
    "responsible_agency": "Department of Public Works",
    "final_address": "ESPLANADE AVE & N CLAIBORNE AVE",
    "address_councildis": "D",
    "status": "Pending",
    "rowid": "886230",
    "final_x": "3681231.3",
    "final_y": "536639.18",
    "longitude": "-90.06874038104324",
    "latitude": "29.969579834804723",
    "geocoded_column": {
      "latitude": "29.969579834804723",
      "longitude": "-90.06874038104324"
    }
  },
  {
    "service_request": "2022-886229",
    "request_type": "Trash/Recycling",
    "request_reason": "Replace Trash Cart",
    "date_created": "2022-05-25T17:00:04.000",
    "date_modified": "2022-05-25T17:00:05.000",
    "request_status": "Pending",
    "responsible_agency": "Department of Sanitation",
    "final_address": "4311 Macarthur Blvd, New Orleans, Louisiana, 70131",
    "address_councildis": "C",
    "status": "Assigned to Contractor",
    "contractor": "Richards Disposal",
    "rowid": "886229",
    "final_x": "3699820.06525",
    "final_y": "520288.351672",
    "longitude": "-90.01063191313905",
    "latitude": "29.924043610877817",
    "geocoded_column": {
      "latitude": "29.924043610877817",
      "longitude": "-90.01063191313905"
    }
  },
  {
    "service_request": "2022-886228",
    "request_type": "Traffic Signals/Signs/Striping/Streetlights",
    "request_reason": "Street Light Outage/Malfunction",
    "date_created": "2022-05-25T16:57:17.000",
    "date_modified": "2022-05-25T16:57:17.000",
    "request_status": "Pending",
    "responsible_agency": "Department of Public Works",
    "final_address": "824 Gravier St",
    "address_councildis": "B",
    "status": "Pending",
    "contractor": "Royal Engineering",
    "rowid": "886228",
    "final_x": "3680294.00891",
    "final_y": "530286.283649",
    "longitude": "-90.07192129141158",
    "latitude": "29.9521399408123",
    "geocoded_column": {
      "latitude": "29.9521399408123",
      "longitude": "-90.07192129141158"
    }
  },
  {
    "service_request": "2022-886227",
    "request_type": "Trash/Recycling",
    "request_reason": "Order Recycling Cart",
    "date_created": "2022-05-25T16:57:11.000",
    "date_modified": "2022-05-25T16:57:11.000",
    "request_status": "Pending",
    "responsible_agency": "Department of Sanitation",
    "final_address": "4536 Urquhart St",
    "address_councildis": "D",
    "status": "Pending",
    "rowid": "886227",
    "final_x": "3693767.92835",
    "final_y": "535540.450054",
    "longitude": "-90.02918830489513",
    "latitude": "29.96617232182886",
    "geocoded_column": {
      "latitude": "29.96617232182886",
      "longitude": "-90.02918830489513"
    }
  },
  {
    "service_request": "2022-886226",
    "request_type": "Traffic Signals/Signs/Striping/Streetlights",
    "request_reason": "Street Light Outage/Malfunction",
    "date_created": "2022-05-25T16:49:05.000",
    "date_modified": "2022-05-25T16:49:05.000",
    "request_status": "Pending",
    "responsible_agency": "Department of Public Works",
    "final_address": "121 Royal St",
    "address_councildis": "C",
    "status": "Pending",
    "contractor": "Royal Engineering",
    "rowid": "886226",
    "final_x": "3681305.83714",
    "final_y": "530874.972994",
    "longitude": "-90.06870589664537",
    "latitude": "29.953727970747384",
    "geocoded_column": {
      "latitude": "29.953727970747384",
      "longitude": "-90.06870589664537"
    }
  },
  {
    "service_request": "2022-886225",
    "request_type": "Trash/Recycling",
    "request_reason": "Repair Recycling Cart",
    "date_created": "2022-05-25T16:44:51.000",
    "date_modified": "2022-05-25T16:44:52.000",
    "request_status": "Pending",
    "responsible_agency": "Department of Sanitation",
    "final_address": "2931 Bacchus Dr",
    "address_councildis": "C",
    "status": "Pending",
    "rowid": "886225",
    "final_x": "3710161.84862",
    "final_y": "518643.020343",
    "longitude": "-89.97804832129685",
    "latitude": "29.919187220615434",
    "geocoded_column": {
      "latitude": "29.919187220615434",
      "longitude": "-89.97804832129685"
    }
  },
  {
    "service_request": "2022-886224",
    "request_type": "Traffic Signals/Signs/Striping/Streetlights",
    "request_reason": "Street Light Outage/Malfunction",
    "date_created": "2022-05-25T16:44:12.000",
    "date_modified": "2022-05-25T16:44:12.000",
    "request_status": "Pending",
    "responsible_agency": "Department of Public Works",
    "final_address": "333 Royal St",
    "address_councildis": "C",
    "status": "Pending",
    "contractor": "Royal Engineering",
    "rowid": "886224",
    "final_x": "3681808.24309",
    "final_y": "531528.987011",
    "longitude": "-90.06709668803855",
    "latitude": "29.955511031431836",
    "geocoded_column": {
      "latitude": "29.955511031431836",
      "longitude": "-90.06709668803855"
    }
  },
  {
    "service_request": "2022-886223",
    "request_type": "Traffic Signals/Signs/Striping/Streetlights",
    "request_reason": "Traffic Sign Missing/Damaged",
    "date_created": "2022-05-25T16:42:58.000",
    "date_modified": "2022-05-25T16:42:59.000",
    "request_status": "Pending",
    "responsible_agency": "Department of Public Works",
    "final_address": "SUMNER ST & LAWRENCE ST",
    "address_councildis": "C",
    "status": "Pending",
    "rowid": "886223",
    "final_x": "3691012.6",
    "final_y": "525542.78",
    "longitude": "-90.03824638635969",
    "latitude": "29.93876812992951",
    "geocoded_column": {
      "latitude": "29.93876812992951",
      "longitude": "-90.03824638635969"
    }
  },
  {
    "service_request": "2022-886222",
    "request_type": "Trash/Recycling",
    "request_reason": "Request a Large Item Pick Up",
    "date_created": "2022-05-25T16:42:25.000",
    "date_modified": "2022-05-25T16:42:26.000",
    "request_status": "Pending",
    "responsible_agency": "Department of Sanitation",
    "final_address": "3721 General Taylor St, New Orleans, Louisiana, 70125",
    "address_councildis": "B",
    "status": "Assigned to Contractor",
    "contractor": "Richards Disposal",
    "rowid": "886222",
    "final_x": "3670945.14798",
    "final_y": "528427.753472",
    "longitude": "-90.10150379625588",
    "latitude": "29.947309271730756",
    "geocoded_column": {
      "latitude": "29.947309271730756",
      "longitude": "-90.10150379625588"
    }
  },
  {
    "service_request": "2022-886221",
    "request_type": "Traffic Signals/Signs/Striping/Streetlights",
    "request_reason": "Street Light Outage/Malfunction",
    "date_created": "2022-05-25T16:39:09.000",
    "date_modified": "2022-05-25T16:39:10.000",
    "request_status": "Pending",
    "responsible_agency": "Department of Public Works",
    "final_address": "417 Royal St",
    "address_councildis": "C",
    "status": "Pending",
    "contractor": "Royal Engineering",
    "rowid": "886221",
    "final_x": "3681967.61423",
    "final_y": "531749.918531",
    "longitude": "-90.066585739373",
    "latitude": "29.95611367451012",
    "geocoded_column": {
      "latitude": "29.95611367451012",
      "longitude": "-90.066585739373"
    }
  },
  {
    "service_request": "2022-886220",
    "request_type": "Traffic Signals/Signs/Striping/Streetlights",
    "request_reason": "Street Light Outage/Malfunction",
    "date_created": "2022-05-25T16:35:48.000",
    "date_modified": "2022-05-25T16:35:49.000",
    "request_status": "Pending",
    "responsible_agency": "Department of Public Works",
    "final_address": "400 Royal St",
    "address_councildis": "C",
    "status": "Pending",
    "contractor": "Royal Engineering",
    "rowid": "886220",
    "final_x": "3682132.51036",
    "final_y": "531622.623235",
    "longitude": "-90.06606949950942",
    "latitude": "29.95575864215333",
    "geocoded_column": {
      "latitude": "29.95575864215333",
      "longitude": "-90.06606949950942"
    }
  },
  {
    "service_request": "2022-886218",
    "request_type": "Traffic Signals/Signs/Striping/Streetlights",
    "request_reason": "Street Light Outage/Malfunction",
    "date_created": "2022-05-25T16:32:32.000",
    "date_modified": "2022-05-25T16:32:33.000",
    "request_status": "Pending",
    "responsible_agency": "Department of Public Works",
    "final_address": "501 Royal St",
    "address_councildis": "C",
    "status": "Pending",
    "contractor": "Royal Engineering",
    "rowid": "886218",
    "final_x": "3682101.60373",
    "final_y": "531910.979715",
    "longitude": "-90.0661570222278",
    "latitude": "29.956552464325615",
    "geocoded_column": {
      "latitude": "29.956552464325615",
      "longitude": "-90.0661570222278"
    }
  },
  {
    "service_request": "2022-886217",
    "request_type": "Roads/Drainage",
    "request_reason": "Catch Basin - Clogged",
    "date_created": "2022-05-25T16:32:31.000",
    "date_modified": "2022-05-25T16:32:31.000",
    "request_status": "Pending",
    "responsible_agency": "Department of Public Works",
    "final_address": "3011 Laurel St",
    "address_councildis": "B",
    "status": "Pending",
    "rowid": "886217",
    "final_x": "3676680.02581",
    "final_y": "519735.298296",
    "longitude": "-90.08369590382084",
    "latitude": "29.92323709684266",
    "geocoded_column": {
      "latitude": "29.92323709684266",
      "longitude": "-90.08369590382084"
    }
  },
  {
    "service_request": "2022-886216",
    "request_type": "Roads/Drainage",
    "request_reason": "Catch Basin - Clogged",
    "date_created": "2022-05-25T16:31:52.000",
    "date_modified": "2022-05-25T16:31:53.000",
    "request_status": "Pending",
    "responsible_agency": "Department of Public Works",
    "final_address": "3002 Laurel St",
    "address_councildis": "B",
    "status": "Pending",
    "rowid": "886216",
    "final_x": "3676763.34478",
    "final_y": "519721.428024",
    "longitude": "-90.08343337493233",
    "latitude": "29.923196459281233",
    "geocoded_column": {
      "latitude": "29.923196459281233",
      "longitude": "-90.08343337493233"
    }
  },
  {
    "service_request": "2022-886215",
    "request_type": "Property Maintenance",
    "request_reason": "Property Maintenance",
    "date_created": "2022-05-25T16:30:25.000",
    "date_modified": "2022-05-25T16:30:25.000",
    "request_status": "Pending",
    "responsible_agency": "Department of Code Enforcement",
    "final_address": "3200 Canal St",
    "address_councildis": "B",
    "status": "Pending",
    "rowid": "886215",
    "final_x": "3673677.72577",
    "final_y": "536249.897863",
    "longitude": "-90.09260856679315",
    "latitude": "29.968736501266164",
    "geocoded_column": {
      "latitude": "29.968736501266164",
      "longitude": "-90.09260856679315"
    }
  },
  {
    "service_request": "2022-886214",
    "request_type": "Trash/Recycling",
    "request_reason": "Request a Large Item Pick Up",
    "date_created": "2022-05-25T16:30:24.000",
    "date_modified": "2022-05-25T16:30:25.000",
    "request_status": "Pending",
    "responsible_agency": "Department of Sanitation",
    "final_address": "5517 Freret St, New Orleans, Louisiana, 70115",
    "address_councildis": "A",
    "status": "Assigned to Contractor",
    "contractor": "Richards Disposal",
    "rowid": "886214",
    "final_x": "3667448.62817",
    "final_y": "524200.447292",
    "longitude": "-90.11268586609954",
    "latitude": "29.935788436707824",
    "geocoded_column": {
      "latitude": "29.935788436707824",
      "longitude": "-90.11268586609954"
    }
  },
  {
    "service_request": "2022-886213",
    "request_type": "Trash/Recycling",
    "request_reason": "Replace Trash Cart",
    "date_created": "2022-05-25T16:26:49.000",
    "date_modified": "2022-05-25T16:26:51.000",
    "request_status": "Pending",
    "responsible_agency": "Department of Sanitation",
    "final_address": "1933 Chippewa St",
    "address_councildis": "B",
    "status": "Assigned to Contractor",
    "contractor": "Richards Disposal",
    "rowid": "886213",
    "final_x": "3680645.37877",
    "final_y": "521560.036281",
    "longitude": "-90.07111534852787",
    "latitude": "29.92813502224652",
    "geocoded_column": {
      "latitude": "29.92813502224652",
      "longitude": "-90.07111534852787"
    }
  },
  {
    "service_request": "2022-886212",
    "request_type": "Trash/Recycling",
    "request_reason": "Request a Large Item Pick Up",
    "date_created": "2022-05-25T16:26:45.000",
    "date_modified": "2022-05-25T16:26:46.000",
    "request_status": "Pending",
    "responsible_agency": "Department of Sanitation",
    "final_address": "2731 Orleans Ave",
    "address_councildis": "A",
    "status": "Assigned to Contractor",
    "contractor": "Richards Disposal",
    "rowid": "886212",
    "final_x": "3676576.60097",
    "final_y": "537245.139784",
    "longitude": "-90.08341945583209",
    "latitude": "29.97138644940224",
    "geocoded_column": {
      "latitude": "29.97138644940224",
      "longitude": "-90.08341945583209"
    }
  },
  {
    "service_request": "2022-886211",
    "request_type": "Traffic Signals/Signs/Striping/Streetlights",
    "request_reason": "Street Light Outage/Malfunction",
    "date_created": "2022-05-25T16:24:38.000",
    "date_modified": "2022-05-25T16:24:39.000",
    "request_status": "Pending",
    "responsible_agency": "Department of Public Works",
    "final_address": "533 Royal St",
    "address_councildis": "C",
    "status": "Pending",
    "contractor": "Royal Engineering",
    "rowid": "886211",
    "final_x": "3682228.93743",
    "final_y": "532079.842947",
    "longitude": "-90.06574904568734",
    "latitude": "29.957012908153253",
    "geocoded_column": {
      "latitude": "29.957012908153253",
      "longitude": "-90.06574904568734"
    }
  },
  {
    "service_request": "2022-886210",
    "request_type": "Traffic Signals/Signs/Striping/Streetlights",
    "request_reason": "Street Light Outage/Malfunction",
    "date_created": "2022-05-25T16:22:57.000",
    "date_modified": "2022-05-25T16:22:58.000",
    "request_status": "Pending",
    "responsible_agency": "Department of Public Works",
    "final_address": "629 Royal St",
    "address_councildis": "C",
    "status": "Pending",
    "contractor": "Royal Engineering",
    "rowid": "886210",
    "final_x": "3682446.70556",
    "final_y": "532362.367043",
    "longitude": "-90.06505152805039",
    "latitude": "29.957783127301745",
    "geocoded_column": {
      "latitude": "29.957783127301745",
      "longitude": "-90.06505152805039"
    }
  },
  {
    "service_request": "2022-886209",
    "request_type": "Traffic Signals/Signs/Striping/Streetlights",
    "request_reason": "Street Light Outage/Malfunction",
    "date_created": "2022-05-25T16:19:26.000",
    "date_modified": "2022-05-25T16:19:29.000",
    "request_status": "Pending",
    "responsible_agency": "Department of Public Works",
    "final_address": "630 Royal St",
    "address_councildis": "C",
    "status": "Pending",
    "contractor": "Royal Engineering",
    "rowid": "886209",
    "final_x": "3682503.23586",
    "final_y": "532348.803331",
    "longitude": "-90.0648734959434",
    "latitude": "29.957744111105455",
    "geocoded_column": {
      "latitude": "29.957744111105455",
      "longitude": "-90.0648734959434"
    }
  },
  {
    "service_request": "2022-886208",
    "request_type": "Trash/Recycling",
    "request_reason": "Missed Trash Pick-Up",
    "date_created": "2022-05-25T16:18:59.000",
    "date_modified": "2022-05-25T16:18:59.000",
    "request_status": "Pending",
    "responsible_agency": "Department of Sanitation",
    "final_address": "1342 Spain St",
    "address_councildis": "C",
    "status": "Assigned to Contractor",
    "contractor": "Metro Disposal",
    "rowid": "886208",
    "final_x": "3686020.28201",
    "final_y": "537464.916744",
    "longitude": "-90.05358727243568",
    "latitude": "29.971704126207488",
    "geocoded_column": {
      "latitude": "29.971704126207488",
      "longitude": "-90.05358727243568"
    }
  },
  {
    "service_request": "2022-886207",
    "request_type": "Trash/Recycling",
    "request_reason": "Request a Large Item Pick Up",
    "date_created": "2022-05-25T16:18:27.000",
    "date_modified": "2022-05-25T16:18:28.000",
    "request_status": "Pending",
    "responsible_agency": "Department of Sanitation",
    "final_address": "719 Ninth St",
    "address_councildis": "B",
    "status": "Assigned to Contractor",
    "contractor": "Richards Disposal",
    "rowid": "886207",
    "final_x": "3676638.94773",
    "final_y": "518953.604919",
    "longitude": "-90.0838524787258",
    "latitude": "29.92108892410324",
    "geocoded_column": {
      "latitude": "29.92108892410324",
      "longitude": "-90.0838524787258"
    }
  },
  {
    "service_request": "2022-886206",
    "request_type": "Traffic Signals/Signs/Striping/Streetlights",
    "request_reason": "Street Light Outage/Malfunction",
    "date_created": "2022-05-25T16:17:21.000",
    "date_modified": "2022-05-25T16:17:21.000",
    "request_status": "Pending",
    "responsible_agency": "Department of Public Works",
    "final_address": "640 Royal St",
    "address_councildis": "C",
    "status": "Pending",
    "contractor": "Royal Engineering",
    "rowid": "886206",
    "final_x": "3682533.05954",
    "final_y": "532390.138115",
    "longitude": "-90.06477787645703",
    "latitude": "29.957856859833726",
    "geocoded_column": {
      "latitude": "29.957856859833726",
      "longitude": "-90.06477787645703"
    }
  },
  {
    "service_request": "2022-886205",
    "request_type": "Traffic Signals/Signs/Striping/Streetlights",
    "request_reason": "Street Light Outage/Malfunction",
    "date_created": "2022-05-25T16:14:45.000",
    "date_modified": "2022-05-25T16:14:45.000",
    "request_status": "Pending",
    "responsible_agency": "Department of Public Works",
    "final_address": "800 Royal St",
    "address_councildis": "C",
    "status": "Pending",
    "contractor": "Royal Engineering",
    "rowid": "886205",
    "final_x": "3682814.15509",
    "final_y": "532767.737924",
    "longitude": "-90.06387704805003",
    "latitude": "29.958886570506237",
    "geocoded_column": {
      "latitude": "29.958886570506237",
      "longitude": "-90.06387704805003"
    }
  },
  {
    "service_request": "2022-886204",
    "request_type": "Traffic Signals/Signs/Striping/Streetlights",
    "request_reason": "Street Light Outage/Malfunction",
    "date_created": "2022-05-25T16:12:57.000",
    "date_modified": "2022-05-25T16:12:58.000",
    "request_status": "Pending",
    "responsible_agency": "Department of Public Works",
    "final_address": "821 Royal St",
    "address_councildis": "C",
    "status": "Pending",
    "contractor": "Royal Engineering",
    "rowid": "886204",
    "final_x": "3682867.75215",
    "final_y": "532915.987588",
    "longitude": "-90.06370261517786",
    "latitude": "29.959292573602546",
    "geocoded_column": {
      "latitude": "29.959292573602546",
      "longitude": "-90.06370261517786"
    }
  },
  {
    "service_request": "2022-886203",
    "request_type": "Abandoned Vehicles",
    "request_reason": "Abandoned/Junk Vehicles",
    "date_created": "2022-05-25T16:09:27.000",
    "date_modified": "2022-05-25T16:09:28.000",
    "request_status": "Pending",
    "responsible_agency": "Department of Public Works",
    "final_address": "1133 Governor Nicholls St",
    "address_councildis": "C",
    "status": "Pending",
    "rowid": "886203",
    "final_x": "3682296.78824",
    "final_y": "535040.458822",
    "longitude": "-90.06543134845776",
    "latitude": "29.965151525494342",
    "geocoded_column": {
      "latitude": "29.965151525494342",
      "longitude": "-90.06543134845776"
    }
  },
  {
    "service_request": "2022-886202",
    "request_type": "Traffic Signals/Signs/Striping/Streetlights",
    "request_reason": "Street Light Outage/Malfunction",
    "date_created": "2022-05-25T16:08:04.000",
    "date_modified": "2022-05-25T16:08:04.000",
    "request_status": "Pending",
    "responsible_agency": "Department of Public Works",
    "final_address": "837 Royal St",
    "address_councildis": "C",
    "status": "Pending",
    "contractor": "Royal Engineering",
    "rowid": "886202",
    "final_x": "3682939.87458",
    "final_y": "533003.749828",
    "longitude": "-90.06347179883261",
    "latitude": "29.959531692201413",
    "geocoded_column": {
      "latitude": "29.959531692201413",
      "longitude": "-90.06347179883261"
    }
  },
  {
    "service_request": "2022-886201",
    "request_type": "Trash/Recycling",
    "request_reason": "Replace Trash Cart",
    "date_created": "2022-05-25T16:04:43.000",
    "date_modified": "2022-05-25T16:04:45.000",
    "request_status": "Pending",
    "responsible_agency": "Department of Sanitation",
    "final_address": "518 Chartres St",
    "address_councildis": "C",
    "status": "Assigned to Contractor",
    "contractor": "Empire Services",
    "rowid": "886201",
    "final_x": "3682502.14056",
    "final_y": "531764.300163",
    "longitude": "-90.06489738623345",
    "latitude": "29.95613695974246",
    "geocoded_column": {
      "latitude": "29.95613695974246",
      "longitude": "-90.06489738623345"
    }
  },
  {
    "service_request": "2022-886200",
    "request_type": "Traffic Signals/Signs/Striping/Streetlights",
    "request_reason": "Street Light Outage/Malfunction",
    "date_created": "2022-05-25T16:03:14.000",
    "date_modified": "2022-05-25T16:03:15.000",
    "request_status": "Pending",
    "responsible_agency": "Department of Public Works",
    "final_address": "900 Royal St",
    "address_councildis": "C",
    "status": "Pending",
    "contractor": "Royal Engineering",
    "rowid": "886200",
    "final_x": "3683035.21973",
    "final_y": "533049.216964",
    "longitude": "-90.06316912983237",
    "latitude": "29.95965380550748",
    "geocoded_column": {
      "latitude": "29.95965380550748",
      "longitude": "-90.06316912983237"
    }
  },
  {
    "service_request": "2022-886199",
    "request_type": "Traffic Signals/Signs/Striping/Streetlights",
    "request_reason": "Street Light Outage/Malfunction",
    "date_created": "2022-05-25T16:01:34.000",
    "date_modified": "2022-05-25T16:01:36.000",
    "request_status": "Pending",
    "responsible_agency": "Department of Public Works",
    "final_address": "1500 Esplanade Ave",
    "address_councildis": "D",
    "status": "Pending",
    "contractor": "Royal Engineering",
    "rowid": "886199",
    "final_x": "3681501.83669",
    "final_y": "536307.698567",
    "longitude": "-90.0678975647068",
    "latitude": "29.96866016247136",
    "geocoded_column": {
      "latitude": "29.96866016247136",
      "longitude": "-90.0678975647068"
    }
  },
  {
    "service_request": "2022-886198",
    "request_type": "Traffic Signals/Signs/Striping/Streetlights",
    "request_reason": "Street Light Outage/Malfunction",
    "date_created": "2022-05-25T16:01:03.000",
    "date_modified": "2022-05-25T16:01:05.000",
    "request_status": "Pending",
    "responsible_agency": "Department of Public Works",
    "final_address": "905 Royal St",
    "address_councildis": "C",
    "status": "Pending",
    "contractor": "Royal Engineering",
    "rowid": "886198",
    "final_x": "3683024.79112",
    "final_y": "533123.2825",
    "longitude": "-90.06319946844175",
    "latitude": "29.959857778260805",
    "geocoded_column": {
      "latitude": "29.959857778260805",
      "longitude": "-90.06319946844175"
    }
  },
  {
    "service_request": "2022-886197",
    "request_type": "Traffic Signals/Signs/Striping/Streetlights",
    "request_reason": "Street Light Outage/Malfunction",
    "date_created": "2022-05-25T15:58:15.000",
    "date_modified": "2022-05-25T15:58:16.000",
    "request_status": "Pending",
    "responsible_agency": "Department of Public Works",
    "final_address": "1000 Royal St",
    "address_councildis": "C",
    "status": "Pending",
    "contractor": "Royal Engineering",
    "rowid": "886197",
    "final_x": "3683256.59765",
    "final_y": "533344.74906",
    "longitude": "-90.06245971926474",
    "latitude": "29.960459668155664",
    "geocoded_column": {
      "latitude": "29.960459668155664",
      "longitude": "-90.06245971926474"
    }
  },
  {
    "service_request": "2022-886196",
    "request_type": "Property Maintenance",
    "request_reason": "Property Maintenance",
    "date_created": "2022-05-25T15:56:36.000",
    "date_modified": "2022-05-25T15:56:36.000",
    "request_status": "Pending",
    "responsible_agency": "Department of Code Enforcement",
    "final_address": "1619 Mandeville St",
    "address_councildis": "D",
    "status": "Pending",
    "rowid": "886196",
    "final_x": "3685647.09583",
    "final_y": "538369.786953",
    "longitude": "-90.05473396094733",
    "latitude": "29.97420365834488",
    "geocoded_column": {
      "latitude": "29.97420365834488",
      "longitude": "-90.05473396094733"
    }
  },
  {
    "service_request": "2022-886195",
    "request_type": "Traffic Signals/Signs/Striping/Streetlights",
    "request_reason": "Street Light Outage/Malfunction",
    "date_created": "2022-05-25T15:56:25.000",
    "date_modified": "2022-05-25T15:56:26.000",
    "request_status": "Pending",
    "responsible_agency": "Department of Public Works",
    "final_address": "1134 Royal St",
    "address_councildis": "C",
    "status": "Pending",
    "contractor": "Royal Engineering",
    "rowid": "886195",
    "final_x": "3683632.05538",
    "final_y": "533828.968901",
    "longitude": "-90.06125712635365",
    "latitude": "29.961779650936577",
    "geocoded_column": {
      "latitude": "29.961779650936577",
      "longitude": "-90.06125712635365"
    }
  },
  {
    "service_request": "2022-886194",
    "request_type": "Parks & Parkways",
    "request_reason": "Request Tree Service (Right of Way/Public Property)",
    "date_created": "2022-05-25T15:55:52.000",
    "date_modified": "2022-05-25T15:55:53.000",
    "request_status": "Pending",
    "responsible_agency": "Department of Parks & Parkway",
    "final_address": "3067 N Rampart St",
    "address_councildis": "C",
    "status": "Pending",
    "rowid": "886194",
    "final_x": "3688810.30595",
    "final_y": "535618.97799",
    "longitude": "-90.04484153152492",
    "latitude": "29.96654246552033",
    "geocoded_column": {
      "latitude": "29.96654246552033",
      "longitude": "-90.04484153152492"
    }
  },
  {
    "service_request": "2022-886193",
    "request_type": "Roads/Drainage",
    "request_reason": "Street Flooding / Drainage",
    "date_created": "2022-05-25T15:55:31.000",
    "date_modified": "2022-05-25T15:55:31.000",
    "request_status": "Pending",
    "responsible_agency": "Department of Public Works",
    "final_address": "2204 Octavia St",
    "address_councildis": "A",
    "status": "Pending",
    "rowid": "886193",
    "final_x": "3667456.33172",
    "final_y": "523772.683899",
    "longitude": "-90.11267593212925",
    "latitude": "29.934611998580188",
    "geocoded_column": {
      "latitude": "29.934611998580188",
      "longitude": "-90.11267593212925"
    }
  },
  {
    "service_request": "2022-886192",
    "request_type": "Roads/Drainage",
    "request_reason": "Catch Basin - Clogged",
    "date_created": "2022-05-25T15:54:47.000",
    "date_modified": "2022-05-25T15:54:48.000",
    "request_status": "Pending",
    "responsible_agency": "Department of Public Works",
    "final_address": "1046 N Carrollton Ave",
    "address_councildis": "A",
    "status": "Pending",
    "rowid": "886192",
    "final_x": "3673967.63048",
    "final_y": "541277.820876",
    "longitude": "-90.09152094504896",
    "latitude": "29.982552941705215",
    "geocoded_column": {
      "latitude": "29.982552941705215",
      "longitude": "-90.09152094504896"
    }
  },
  {
    "service_request": "2022-886191",
    "request_type": "Property Maintenance",
    "request_reason": "Property Maintenance",
    "date_created": "2022-05-25T15:54:24.000",
    "date_modified": "2022-05-25T15:54:24.000",
    "request_status": "Pending",
    "responsible_agency": "Department of Code Enforcement",
    "final_address": "1711 Audubon St",
    "address_councildis": "A",
    "status": "Pending",
    "rowid": "886191",
    "final_x": "3665508.98215",
    "final_y": "527875.705279",
    "longitude": "-90.1186863893367",
    "latitude": "29.945950891728756",
    "geocoded_column": {
      "latitude": "29.945950891728756",
      "longitude": "-90.1186863893367"
    }
  },
  {
    "service_request": "2022-886190",
    "request_type": "Trash/Recycling",
    "request_reason": "Missed Trash Pick-Up",
    "date_created": "2022-05-25T15:54:15.000",
    "date_modified": "2022-05-25T15:54:16.000",
    "request_status": "Pending",
    "responsible_agency": "Department of Sanitation",
    "final_address": "2714 Palmer Ave",
    "address_councildis": "A",
    "status": "Assigned to Contractor",
    "contractor": "Richards Disposal",
    "rowid": "886190",
    "final_x": "3666711.39905",
    "final_y": "526656.182462",
    "longitude": "-90.11493088157681",
    "latitude": "29.942562494858546",
    "geocoded_column": {
      "latitude": "29.942562494858546",
      "longitude": "-90.11493088157681"
    }
  },
  {
    "service_request": "2022-886189",
    "request_type": "Trash/Recycling",
    "request_reason": "Order Trash Cart",
    "date_created": "2022-05-25T15:53:40.000",
    "date_modified": "2022-05-25T15:53:41.000",
    "request_status": "Pending",
    "responsible_agency": "Department of Sanitation",
    "final_address": "5016 Freret St Apt A",
    "address_councildis": "B",
    "status": "Assigned to Contractor",
    "contractor": "Richards Disposal",
    "rowid": "886189",
    "final_x": "3668653.74209",
    "final_y": "523878.364284",
    "longitude": "-90.10889215535433",
    "latitude": "29.93486745674674",
    "geocoded_column": {
      "latitude": "29.93486745674674",
      "longitude": "-90.10889215535433"
    }
  },
  {
    "service_request": "2022-886188",
    "request_type": "Traffic Signals/Signs/Striping/Streetlights",
    "request_reason": "Street Light Outage/Malfunction",
    "date_created": "2022-05-25T15:52:44.000",
    "date_modified": "2022-05-25T15:52:45.000",
    "request_status": "Pending",
    "responsible_agency": "Department of Public Works",
    "final_address": "1139 Royal St",
    "address_councildis": "C",
    "status": "Pending",
    "contractor": "Royal Engineering",
    "rowid": "886188",
    "final_x": "3683602.96668",
    "final_y": "533880.393605",
    "longitude": "-90.06134718096988",
    "latitude": "29.961921939143927",
    "geocoded_column": {
      "latitude": "29.961921939143927",
      "longitude": "-90.06134718096988"
    }
  },
  {
    "service_request": "2022-886187",
    "request_type": "Roads/Drainage",
    "request_reason": "Street Flooding / Drainage",
    "date_created": "2022-05-25T15:50:11.000",
    "date_modified": "2022-05-25T15:50:11.000",
    "request_status": "Pending",
    "responsible_agency": "Department of Public Works",
    "final_address": "2714 Palmer Ave",
    "address_councildis": "A",
    "status": "Pending",
    "rowid": "886187",
    "final_x": "3666711.39905",
    "final_y": "526656.182462",
    "longitude": "-90.11493088157681",
    "latitude": "29.942562494858546",
    "geocoded_column": {
      "latitude": "29.942562494858546",
      "longitude": "-90.11493088157681"
    }
  },
  {
    "service_request": "2022-886186",
    "request_type": "Roads/Drainage",
    "request_reason": "Street Subsidence (Sinking)",
    "date_created": "2022-05-25T15:49:15.000",
    "date_modified": "2022-05-25T15:49:15.000",
    "request_status": "Pending",
    "responsible_agency": "Department of Public Works",
    "final_address": "1452 Pressburg St",
    "address_councildis": "D",
    "status": "Pending",
    "rowid": "886186",
    "final_x": "3677904.59355",
    "final_y": "553901.682199",
    "longitude": "-90.07864945846532",
    "latitude": "30.017146185286805",
    "geocoded_column": {
      "latitude": "30.017146185286805",
      "longitude": "-90.07864945846532"
    }
  },
  {
    "service_request": "2022-886185",
    "request_type": "Abandoned Vehicles",
    "request_reason": "Abandoned/Junk Vehicles",
    "date_created": "2022-05-25T15:44:53.000",
    "date_modified": "2022-05-25T15:44:53.000",
    "request_status": "Pending",
    "responsible_agency": "Department of Public Works",
    "final_address": "7041 Walmsley Ave",
    "address_councildis": "B",
    "status": "Pending",
    "rowid": "886185",
    "final_x": "3667590.91508",
    "final_y": "531058.37613",
    "longitude": "-90.11200589301045",
    "latitude": "29.95464135205089",
    "geocoded_column": {
      "latitude": "29.95464135205089",
      "longitude": "-90.11200589301045"
    }
  },
  {
    "service_request": "2022-886184",
    "request_type": "Trash/Recycling",
    "request_reason": "Repair Trash Cart",
    "date_created": "2022-05-25T15:41:38.000",
    "date_modified": "2022-05-25T15:41:40.000",
    "request_status": "Pending",
    "responsible_agency": "Department of Sanitation",
    "final_address": "3583 Mimosa Ct",
    "address_councildis": "C",
    "status": "Assigned to Contractor",
    "contractor": "Richards Disposal",
    "rowid": "886184",
    "final_x": "3703041.0705",
    "final_y": "513018.316209",
    "longitude": "-90.00073131128478",
    "latitude": "29.903950872315548",
    "geocoded_column": {
      "latitude": "29.903950872315548",
      "longitude": "-90.00073131128478"
    }
  },
  {
    "service_request": "2022-886183",
    "request_type": "Trash/Recycling",
    "request_reason": "Request a Large Item Pick Up",
    "date_created": "2022-05-25T15:38:08.000",
    "date_modified": "2022-05-25T15:38:09.000",
    "request_status": "Pending",
    "responsible_agency": "Department of Sanitation",
    "final_address": "4627 S Claiborne Ave",
    "address_councildis": "B",
    "status": "Assigned to Contractor",
    "contractor": "Richards Disposal",
    "rowid": "886183",
    "final_x": "3669366.70708",
    "final_y": "525879.283709",
    "longitude": "-90.1065736974965",
    "latitude": "29.94034837190073",
    "geocoded_column": {
      "latitude": "29.94034837190073",
      "longitude": "-90.1065736974965"
    }
  },
  {
    "service_request": "2022-886182",
    "request_type": "Trash/Recycling",
    "request_reason": "Repair Trash Cart",
    "date_created": "2022-05-25T15:36:47.000",
    "date_modified": "2022-05-25T15:36:48.000",
    "request_status": "Pending",
    "responsible_agency": "Department of Sanitation",
    "final_address": "13610 Lourdes St",
    "address_councildis": "E",
    "status": "Assigned to Contractor",
    "contractor": "Metro Disposal",
    "rowid": "886182",
    "final_x": "3726900.34118",
    "final_y": "561200.13955",
    "longitude": "-89.92356150701123",
    "latitude": "30.035647785652696",
    "geocoded_column": {
      "latitude": "30.035647785652696",
      "longitude": "-89.92356150701123"
    }
  },
  {
    "service_request": "2022-886181",
    "request_type": "Abandoned Vehicles",
    "request_reason": "Abandoned/Junk Vehicles",
    "date_created": "2022-05-25T15:36:07.000",
    "date_modified": "2022-05-25T15:36:07.000",
    "request_status": "Pending",
    "responsible_agency": "Department of Public Works",
    "final_address": "7041 Walmsley Ave",
    "address_councildis": "B",
    "status": "Pending",
    "rowid": "886181",
    "final_x": "3667590.91508",
    "final_y": "531058.37613",
    "longitude": "-90.11200589301045",
    "latitude": "29.95464135205089",
    "geocoded_column": {
      "latitude": "29.95464135205089",
      "longitude": "-90.11200589301045"
    }
  },
  {
    "service_request": "2022-886180",
    "request_type": "Mayor's Request",
    "request_reason": "Requests to the Mayor",
    "date_created": "2022-05-25T15:34:35.000",
    "date_modified": "2022-05-25T15:34:35.000",
    "request_status": "Pending",
    "responsible_agency": "Executive Office of the Mayor",
    "final_address": "2722 Pauger St",
    "address_councildis": "D",
    "status": "Pending",
    "rowid": "886180",
    "final_x": "3683560.59119",
    "final_y": "539720.444938",
    "longitude": "-90.06127626217686",
    "latitude": "29.9779813504249",
    "geocoded_column": {
      "latitude": "29.9779813504249",
      "longitude": "-90.06127626217686"
    }
  },
  {
    "service_request": "2022-886179",
    "request_type": "Trash/Recycling",
    "request_reason": "Request a Large Item Pick Up",
    "date_created": "2022-05-25T15:33:56.000",
    "date_modified": "2022-05-25T15:33:57.000",
    "request_status": "Pending",
    "responsible_agency": "Department of Sanitation",
    "final_address": "2908 Conti St",
    "address_councildis": "B",
    "status": "Assigned to Contractor",
    "contractor": "Richards Disposal",
    "rowid": "886179",
    "final_x": "3675223.46792",
    "final_y": "536614.339015",
    "longitude": "-90.0877145046881",
    "latitude": "29.969692478101244",
    "geocoded_column": {
      "latitude": "29.969692478101244",
      "longitude": "-90.0877145046881"
    }
  },
  {
    "service_request": "2022-886178",
    "request_type": "Roads/Drainage",
    "request_reason": "Street Subsidence (Sinking)",
    "date_created": "2022-05-25T15:31:27.000",
    "date_modified": "2022-05-25T15:31:27.000",
    "request_status": "Pending",
    "responsible_agency": "Department of Public Works",
    "final_address": "2113 Josephine St",
    "address_councildis": "B",
    "status": "Pending",
    "rowid": "886178",
    "final_x": "3676707.17633",
    "final_y": "525565.108669",
    "longitude": "-90.08340945885618",
    "latitude": "29.93926636028515",
    "geocoded_column": {
      "latitude": "29.93926636028515",
      "longitude": "-90.08340945885618"
    }
  },
  {
    "service_request": "2022-886177",
    "request_type": "Traffic Signals/Signs/Striping/Streetlights",
    "request_reason": "Request for Stop Sign",
    "date_created": "2022-05-25T15:24:39.000",
    "date_modified": "2022-05-25T15:24:40.000",
    "request_status": "Pending",
    "responsible_agency": "Department of Public Works",
    "final_address": "LAMANCHE ST & N ROCHEBLAVE ST",
    "address_councildis": "E",
    "status": "Pending",
    "rowid": "886177",
    "final_x": "3699677.2",
    "final_y": "538547.88",
    "longitude": "-90.0104174243775",
    "latitude": "29.97425541467381",
    "geocoded_column": {
      "latitude": "29.97425541467381",
      "longitude": "-90.0104174243775"
    }
  },
  {
    "service_request": "2022-886176",
    "request_type": "Trash/Recycling",
    "request_reason": "Missed Trash Pick-Up",
    "date_created": "2022-05-25T15:22:44.000",
    "date_modified": "2022-05-25T15:22:45.000",
    "request_status": "Pending",
    "responsible_agency": "Department of Sanitation",
    "final_address": "2625 Pine St",
    "address_councildis": "A",
    "status": "Assigned to Contractor",
    "contractor": "Richards Disposal",
    "rowid": "886176",
    "final_x": "3666919.81319",
    "final_y": "530998.84781",
    "longitude": "-90.11412698075927",
    "latitude": "29.954497320293576",
    "geocoded_column": {
      "latitude": "29.954497320293576",
      "longitude": "-90.11412698075927"
    }
  },
  {
    "service_request": "2022-886175",
    "request_type": "Property Maintenance",
    "request_reason": "Property Maintenance",
    "date_created": "2022-05-25T15:19:27.000",
    "date_modified": "2022-05-25T15:19:27.000",
    "request_status": "Pending",
    "responsible_agency": "Department of Code Enforcement",
    "final_address": "4118 N Roman St",
    "address_councildis": "D",
    "status": "Pending",
    "rowid": "886175",
    "final_x": "3692951.8223",
    "final_y": "537764.63604",
    "longitude": "-90.03168574865765",
    "latitude": "29.972313560670244",
    "geocoded_column": {
      "latitude": "29.972313560670244",
      "longitude": "-90.03168574865765"
    }
  },
  {
    "service_request": "2022-886174",
    "request_type": "Abandoned Vehicles",
    "request_reason": "Abandoned/Junk Vehicles",
    "date_created": "2022-05-25T15:17:10.000",
    "date_modified": "2022-05-25T15:17:10.000",
    "request_status": "Pending",
    "responsible_agency": "Department of Public Works",
    "final_address": "3710 Dumaine St",
    "address_councildis": "A",
    "status": "Pending",
    "rowid": "886174",
    "final_x": "3673978.86824",
    "final_y": "539883.159754",
    "longitude": "-90.09153318995807",
    "latitude": "29.97871776674738",
    "geocoded_column": {
      "latitude": "29.97871776674738",
      "longitude": "-90.09153318995807"
    }
  },
  {
    "service_request": "2022-886173",
    "request_type": "Trash/Recycling",
    "request_reason": "MIssed Recycling Pick-Up",
    "date_created": "2022-05-25T15:17:04.000",
    "date_modified": "2022-05-25T15:17:05.000",
    "request_status": "Pending",
    "responsible_agency": "Department of Sanitation",
    "final_address": "1601 Constance St",
    "address_councildis": "B",
    "status": "Assigned to Contractor",
    "contractor": "Richards Disposal",
    "rowid": "886173",
    "final_x": "3680349.02395",
    "final_y": "522992.194299",
    "longitude": "-90.07200110670871",
    "latitude": "29.932081959191102",
    "geocoded_column": {
      "latitude": "29.932081959191102",
      "longitude": "-90.07200110670871"
    }
  },
  {
    "service_request": "2022-886172",
    "request_type": "Traffic Signals/Signs/Striping/Streetlights",
    "request_reason": "Disabled Parking Sign ",
    "date_created": "2022-05-25T15:11:58.000",
    "date_modified": "2022-05-25T15:15:54.000",
    "request_status": "Pending",
    "responsible_agency": "Department of Public Works",
    "final_address": "1924 Bayou Rd",
    "address_councildis": "D",
    "status": "Pending",
    "rowid": "886172",
    "final_x": "3680340.20155",
    "final_y": "536874.903368",
    "longitude": "-90.07154634762765",
    "latitude": "29.970255004454046",
    "geocoded_column": {
      "latitude": "29.970255004454046",
      "longitude": "-90.07154634762765"
    }
  },
  {
    "service_request": "2022-886171",
    "request_type": "Trash/Recycling",
    "request_reason": "Order Recycling Cart",
    "date_created": "2022-05-25T15:11:14.000",
    "date_modified": "2022-05-25T15:11:14.000",
    "request_status": "Pending",
    "responsible_agency": "Department of Sanitation",
    "final_address": "5524 Montegut Dr",
    "address_councildis": "D",
    "status": "Pending",
    "rowid": "886171",
    "final_x": "3689562.15881",
    "final_y": "553610.038615",
    "longitude": "-90.04182681333972",
    "latitude": "30.01598813283942",
    "geocoded_column": {
      "latitude": "30.01598813283942",
      "longitude": "-90.04182681333972"
    }
  },
  {
    "service_request": "2022-886170",
    "request_type": "Trash/Recycling",
    "request_reason": "Request a Large Item Pick Up",
    "date_created": "2022-05-25T15:05:49.000",
    "date_modified": "2022-05-25T15:05:49.000",
    "request_status": "Pending",
    "responsible_agency": "Department of Sanitation",
    "final_address": "1202 Lowerline St",
    "address_councildis": "A",
    "status": "Assigned to Contractor",
    "contractor": "Richards Disposal",
    "rowid": "886170",
    "final_x": "3663680.10554",
    "final_y": "526887.383358",
    "longitude": "-90.12449371779262",
    "latitude": "29.943286504211677",
    "geocoded_column": {
      "latitude": "29.943286504211677",
      "longitude": "-90.12449371779262"
    }
  },
  {
    "service_request": "2022-886169",
    "request_type": "Parks & Parkways",
    "request_reason": "Request Tree Service (Right of Way/Public Property)",
    "date_created": "2022-05-25T15:05:07.000",
    "date_modified": "2022-05-25T15:05:07.000",
    "request_status": "Pending",
    "responsible_agency": "Department of Parks & Parkway",
    "final_address": "6880 General Haig St",
    "address_councildis": "A",
    "status": "Pending",
    "rowid": "886169",
    "final_x": "3671001.11412",
    "final_y": "553099.136215",
    "longitude": "-90.10048897192232",
    "latitude": "30.01514551405195",
    "geocoded_column": {
      "latitude": "30.01514551405195",
      "longitude": "-90.10048897192232"
    }
  },
  {
    "service_request": "2022-886168",
    "request_type": "Property Maintenance",
    "request_reason": "Property Maintenance",
    "date_created": "2022-05-25T15:03:56.000",
    "date_modified": "2022-05-25T15:03:56.000",
    "request_status": "Pending",
    "responsible_agency": "Department of Code Enforcement",
    "final_address": "4117 Cadillac St",
    "address_councildis": "D",
    "status": "Pending",
    "rowid": "886168",
    "final_x": "3676992.63138",
    "final_y": "547336.605521",
    "longitude": "-90.08175745944918",
    "latitude": "29.999121992145767",
    "geocoded_column": {
      "latitude": "29.999121992145767",
      "longitude": "-90.08175745944918"
    }
  },
  {
    "service_request": "2022-886167",
    "request_type": "Traffic Signals/Signs/Striping/Streetlights",
    "request_reason": "Street Light Outage/Malfunction",
    "date_created": "2022-05-25T15:01:56.000",
    "date_modified": "2022-05-25T15:01:57.000",
    "request_status": "Pending",
    "responsible_agency": "Department of Public Works",
    "final_address": "3600 Toledano St",
    "address_councildis": "B",
    "status": "Pending",
    "contractor": "Royal Engineering",
    "rowid": "886167",
    "final_x": "3671596.25358",
    "final_y": "528535.368896",
    "longitude": "-90.0994443442599",
    "latitude": "29.94758591602241",
    "geocoded_column": {
      "latitude": "29.94758591602241",
      "longitude": "-90.0994443442599"
    }
  },
  {
    "service_request": "2022-886166",
    "request_type": "Parks & Parkways",
    "request_reason": "Request Tree Service (Right of Way/Public Property)",
    "date_created": "2022-05-25T15:00:38.000",
    "date_modified": "2022-05-25T15:00:39.000",
    "request_status": "Pending",
    "responsible_agency": "Department of Parks & Parkway",
    "final_address": "3118 Milan St",
    "address_councildis": "B",
    "status": "Pending",
    "rowid": "886166",
    "final_x": "3671002.30407",
    "final_y": "526475.985342",
    "longitude": "-90.10138958781624",
    "latitude": "29.941940856565264",
    "geocoded_column": {
      "latitude": "29.941940856565264",
      "longitude": "-90.10138958781624"
    }
  },
  {
    "service_request": "2022-886165",
    "request_type": "Property Maintenance",
    "request_reason": "Property Maintenance",
    "date_created": "2022-05-25T14:54:24.000",
    "date_modified": "2022-05-25T14:54:24.000",
    "request_status": "Pending",
    "responsible_agency": "Department of Code Enforcement",
    "final_address": "3028 Esplanade Ave",
    "address_councildis": "A",
    "status": "Pending",
    "rowid": "886165",
    "final_x": "3676611.22549",
    "final_y": "540063.087371",
    "longitude": "-90.08321301255751",
    "latitude": "29.979133800828198",
    "geocoded_column": {
      "latitude": "29.979133800828198",
      "longitude": "-90.08321301255751"
    }
  },
  {
    "service_request": "2022-886164",
    "request_type": "Roads/Drainage",
    "request_reason": "Catch Basin - Broken/Damage",
    "date_created": "2022-05-25T14:52:43.000",
    "date_modified": "2022-05-25T14:52:43.000",
    "request_status": "Pending",
    "responsible_agency": "Department of Public Works",
    "final_address": "302 Harney St",
    "address_councildis": "A",
    "status": "Pending",
    "rowid": "886164",
    "final_x": "3667027.13089",
    "final_y": "546810.534737",
    "longitude": "-90.11325649388152",
    "latitude": "29.99797101617962",
    "geocoded_column": {
      "latitude": "29.99797101617962",
      "longitude": "-90.11325649388152"
    }
  },
  {
    "service_request": "2022-886163",
    "request_type": "Abandoned Vehicles",
    "request_reason": "Abandoned/Junk Vehicles",
    "date_created": "2022-05-25T14:47:35.000",
    "date_modified": "2022-05-25T14:47:35.000",
    "request_status": "Pending",
    "responsible_agency": "Department of Public Works",
    "final_address": "1846 Burgundy St",
    "address_councildis": "C",
    "status": "Pending",
    "rowid": "886163",
    "final_x": "3683760.17609",
    "final_y": "535448.82247",
    "longitude": "-90.06079573405108",
    "latitude": "29.96622977896876",
    "geocoded_column": {
      "latitude": "29.96622977896876",
      "longitude": "-90.06079573405108"
    }
  },
  {
    "service_request": "2022-886162",
    "request_type": "Trash/Recycling",
    "request_reason": "Request a Large Item Pick Up",
    "date_created": "2022-05-25T14:45:43.000",
    "date_modified": "2022-05-25T14:45:44.000",
    "request_status": "Pending",
    "responsible_agency": "Department of Sanitation",
    "final_address": "608 Kerlerec St",
    "address_councildis": "C",
    "status": "Assigned to Contractor",
    "contractor": "Metro Disposal",
    "rowid": "886162",
    "final_x": "3684449.62786",
    "final_y": "534479.612933",
    "longitude": "-90.05865251188987",
    "latitude": "29.96354371556932",
    "geocoded_column": {
      "latitude": "29.96354371556932",
      "longitude": "-90.05865251188987"
    }
  },
  {
    "service_request": "2022-886161",
    "request_type": "Trash/Recycling",
    "request_reason": "Request a Large Item Pick Up",
    "date_created": "2022-05-25T14:41:03.000",
    "date_modified": "2022-05-25T14:41:04.000",
    "request_status": "Pending",
    "responsible_agency": "Department of Sanitation",
    "final_address": "5418 Story St, New Orleans, Louisiana, 70115",
    "address_councildis": "A",
    "status": "Assigned to Contractor",
    "contractor": "Richards Disposal",
    "rowid": "886161",
    "final_x": "3668162.72167",
    "final_y": "525970.042685",
    "longitude": "-90.11037182716561",
    "latitude": "29.94063331846636",
    "geocoded_column": {
      "latitude": "29.94063331846636",
      "longitude": "-90.11037182716561"
    }
  },
  {
    "service_request": "2022-886160",
    "request_type": "Roads/Drainage",
    "request_reason": "Catch Basin - Clogged",
    "date_created": "2022-05-25T14:38:24.000",
    "date_modified": "2022-05-25T14:38:24.000",
    "request_status": "Pending",
    "responsible_agency": "Department of Public Works",
    "final_address": "1327 Broadway St",
    "address_councildis": "A",
    "status": "Pending",
    "rowid": "886160",
    "final_x": "3664549.8985",
    "final_y": "526960.263934",
    "longitude": "-90.12174511579637",
    "latitude": "29.943461642376416",
    "geocoded_column": {
      "latitude": "29.943461642376416",
      "longitude": "-90.12174511579637"
    }
  },
  {
    "service_request": "2022-886159",
    "request_type": "Trash/Recycling",
    "request_reason": "Request a Large Item Pick Up",
    "date_created": "2022-05-25T14:34:34.000",
    "date_modified": "2022-05-25T14:34:35.000",
    "request_status": "Pending",
    "responsible_agency": "Department of Sanitation",
    "final_address": "2335 Prancer St",
    "address_councildis": "C",
    "status": "Assigned to Contractor",
    "contractor": "Richards Disposal",
    "rowid": "886159",
    "final_x": "3700142.35172",
    "final_y": "522704.09817",
    "longitude": "-90.00952647562674",
    "latitude": "29.930675847750482",
    "geocoded_column": {
      "latitude": "29.930675847750482",
      "longitude": "-90.00952647562674"
    }
  },
  {
    "service_request": "2022-886158",
    "request_type": "Trash/Recycling",
    "request_reason": "Request a Large Item Pick Up",
    "date_created": "2022-05-25T14:29:55.000",
    "date_modified": "2022-05-25T14:29:56.000",
    "request_status": "Pending",
    "responsible_agency": "Department of Sanitation",
    "final_address": "6227 Wainwright Dr",
    "address_councildis": "D",
    "status": "Assigned to Contractor",
    "contractor": "Metro Disposal",
    "rowid": "886158",
    "final_x": "3681405.07132",
    "final_y": "555950.164249",
    "longitude": "-90.06751788449667",
    "latitude": "30.02267290457533",
    "geocoded_column": {
      "latitude": "30.02267290457533",
      "longitude": "-90.06751788449667"
    }
  },
  {
    "service_request": "2022-886157",
    "request_type": "Roads/Drainage",
    "request_reason": "Catch Basin - Clogged",
    "date_created": "2022-05-25T14:28:27.000",
    "date_modified": "2022-05-25T19:48:08.000",
    "request_status": "Pending",
    "responsible_agency": "Department of Public Works",
    "final_address": "New Orleans,LA",
    "address_councildis": "B",
    "rowid": "886157",
    "final_x": "3668149.6",
    "final_y": "524956.88",
    "longitude": "-90.11044739274416",
    "latitude": "29.937847832382538",
    "geocoded_column": {
      "latitude": "29.937847832382538",
      "longitude": "-90.11044739274416"
    }
  },
  {
    "service_request": "2022-886156",
    "request_type": "Traffic Signals/Signs/Striping/Streetlights",
    "request_reason": "Street Light Outage/Malfunction",
    "date_created": "2022-05-25T14:26:43.000",
    "date_modified": "2022-05-25T14:26:44.000",
    "request_status": "Pending",
    "responsible_agency": "Department of Public Works",
    "final_address": "759 Camp St",
    "address_councildis": "B",
    "status": "Pending",
    "contractor": "Royal Engineering",
    "rowid": "886156",
    "final_x": "3680765.92213",
    "final_y": "528023.442431",
    "longitude": "-90.07050995474047",
    "latitude": "29.945903594534336",
    "geocoded_column": {
      "latitude": "29.945903594534336",
      "longitude": "-90.07050995474047"
    }
  },
  {
    "service_request": "2022-886155",
    "request_type": "Trash/Recycling",
    "request_reason": "Repair Trash Cart",
    "date_created": "2022-05-25T14:24:58.000",
    "date_modified": "2022-05-25T14:24:59.000",
    "request_status": "Pending",
    "responsible_agency": "Department of Sanitation",
    "final_address": "6007 Beechcraft St",
    "address_councildis": "D",
    "status": "Assigned to Contractor",
    "contractor": "Metro Disposal",
    "rowid": "886155",
    "final_x": "3696509.76675",
    "final_y": "553160.286871",
    "longitude": "-90.01989186913782",
    "latitude": "30.014534335743733",
    "geocoded_column": {
      "latitude": "30.014534335743733",
      "longitude": "-90.01989186913782"
    }
  },
  {
    "service_request": "2022-886154",
    "request_type": "Traffic Signals/Signs/Striping/Streetlights",
    "request_reason": "Street Light Outage/Malfunction",
    "date_created": "2022-05-25T14:24:30.000",
    "date_modified": "2022-05-25T14:24:31.000",
    "request_status": "Pending",
    "responsible_agency": "Department of Public Works",
    "final_address": "819 Magazine St",
    "address_councildis": "B",
    "status": "Pending",
    "contractor": "Royal Engineering",
    "rowid": "886154",
    "final_x": "3681097.21839",
    "final_y": "527668.214719",
    "longitude": "-90.0694763124927",
    "latitude": "29.94491679357561",
    "geocoded_column": {
      "latitude": "29.94491679357561",
      "longitude": "-90.0694763124927"
    }
  },
  {
    "service_request": "2022-886153",
    "request_type": "Trash/Recycling",
    "request_reason": "Request a Large Item Pick Up",
    "date_created": "2022-05-25T14:16:06.000",
    "date_modified": "2022-05-25T14:16:07.000",
    "request_status": "Pending",
    "responsible_agency": "Department of Sanitation",
    "final_address": "2122 Duels St",
    "address_councildis": "D",
    "status": "Assigned to Contractor",
    "contractor": "Metro Disposal",
    "rowid": "886153",
    "final_x": "3683950.57596",
    "final_y": "542488.982733",
    "longitude": "-90.05994738174631",
    "latitude": "29.98558194603524",
    "geocoded_column": {
      "latitude": "29.98558194603524",
      "longitude": "-90.05994738174631"
    }
  },
  {
    "service_request": "2022-886152",
    "request_type": "Property Maintenance",
    "request_reason": "Property Maintenance",
    "date_created": "2022-05-25T14:14:18.000",
    "date_modified": "2022-05-25T14:14:18.000",
    "request_status": "Pending",
    "responsible_agency": "Department of Code Enforcement",
    "final_address": "1818 N Johnson St",
    "address_councildis": "D",
    "status": "Pending",
    "rowid": "886152",
    "final_x": "3682686.63701",
    "final_y": "539413.056458",
    "longitude": "-90.06404726811128",
    "latitude": "29.977162788098568",
    "geocoded_column": {
      "latitude": "29.977162788098568",
      "longitude": "-90.06404726811128"
    }
  },
  {
    "service_request": "2022-886151",
    "request_type": "Trash/Recycling",
    "request_reason": "Missed Trash Pick-Up",
    "date_created": "2022-05-25T14:14:14.000",
    "date_modified": "2022-05-25T14:14:14.000",
    "request_status": "Pending",
    "responsible_agency": "Department of Sanitation",
    "final_address": "7011 Pritchard Pl, New Orleans, Louisiana, 70125",
    "address_councildis": "B",
    "status": "Assigned to Contractor",
    "contractor": "Richards Disposal",
    "rowid": "886151",
    "final_x": "3667960.91514",
    "final_y": "531203.347906",
    "longitude": "-90.1108326882297",
    "latitude": "29.955029127736783",
    "geocoded_column": {
      "latitude": "29.955029127736783",
      "longitude": "-90.1108326882297"
    }
  },
  {
    "service_request": "2022-886150",
    "request_type": "Trash/Recycling",
    "request_reason": "Request a Large Item Pick Up",
    "date_created": "2022-05-25T14:12:31.000",
    "date_modified": "2022-05-25T14:12:32.000",
    "request_status": "Pending",
    "responsible_agency": "Department of Sanitation",
    "final_address": "1919 Broadway St",
    "address_councildis": "A",
    "status": "Assigned to Contractor",
    "contractor": "Richards Disposal",
    "rowid": "886150",
    "final_x": "3665728.81978",
    "final_y": "528707.50272",
    "longitude": "-90.11796442858632",
    "latitude": "29.948231656434373",
    "geocoded_column": {
      "latitude": "29.948231656434373",
      "longitude": "-90.11796442858632"
    }
  },
  {
    "service_request": "2022-886149",
    "request_type": "Roads/Drainage",
    "request_reason": "Street Subsidence (Sinking)",
    "date_created": "2022-05-25T14:11:22.000",
    "date_modified": "2022-05-25T14:11:22.000",
    "request_status": "Pending",
    "responsible_agency": "Department of Public Works",
    "final_address": "2100 St Claude Ave",
    "address_councildis": "C",
    "status": "Pending",
    "rowid": "886149",
    "final_x": "3684658.44489",
    "final_y": "536222.456519",
    "longitude": "-90.057931830602",
    "latitude": "29.968329543766842",
    "geocoded_column": {
      "latitude": "29.968329543766842",
      "longitude": "-90.057931830602"
    }
  },
  {
    "service_request": "2022-886148",
    "request_type": "Property Maintenance",
    "request_reason": "Property Maintenance",
    "date_created": "2022-05-25T14:08:04.000",
    "date_modified": "2022-05-25T14:08:04.000",
    "request_status": "Pending",
    "responsible_agency": "Department of Code Enforcement",
    "final_address": "402 Franklin Ave",
    "address_councildis": "C",
    "status": "Pending",
    "rowid": "886148",
    "final_x": "3686448.79932",
    "final_y": "534064.875525",
    "longitude": "-90.05235399474087",
    "latitude": "29.962342028464786",
    "geocoded_column": {
      "latitude": "29.962342028464786",
      "longitude": "-90.05235399474087"
    }
  },
  {
    "service_request": "2022-886147",
    "request_type": "Property Maintenance",
    "request_reason": "Property Maintenance",
    "date_created": "2022-05-25T14:06:07.000",
    "date_modified": "2022-05-25T14:06:07.000",
    "request_status": "Pending",
    "responsible_agency": "Department of Code Enforcement",
    "final_address": "1818 N Johnson St",
    "address_councildis": "D",
    "status": "Pending",
    "rowid": "886147",
    "final_x": "3682686.63701",
    "final_y": "539413.056458",
    "longitude": "-90.06404726811128",
    "latitude": "29.977162788098568",
    "geocoded_column": {
      "latitude": "29.977162788098568",
      "longitude": "-90.06404726811128"
    }
  },
  {
    "service_request": "2022-886146",
    "request_type": "Trash/Recycling",
    "request_reason": "Request a Large Item Pick Up",
    "date_created": "2022-05-25T14:05:30.000",
    "date_modified": "2022-05-25T14:05:31.000",
    "request_status": "Pending",
    "responsible_agency": "Department of Sanitation",
    "final_address": "2650 Lepage St",
    "address_councildis": "A",
    "status": "Assigned to Contractor",
    "contractor": "Metro Disposal",
    "rowid": "886146",
    "final_x": "3678135.49307",
    "final_y": "539571.790346",
    "longitude": "-90.07841577673244",
    "latitude": "29.9777370892061",
    "geocoded_column": {
      "latitude": "29.9777370892061",
      "longitude": "-90.07841577673244"
    }
  },
  {
    "service_request": "2022-886145",
    "request_type": "Abandoned Vehicles",
    "request_reason": "Abandoned/Junk Vehicles",
    "date_created": "2022-05-25T14:02:46.000",
    "date_modified": "2022-05-25T14:02:46.000",
    "request_status": "Pending",
    "responsible_agency": "Department of Public Works",
    "final_address": "1815 Independence St",
    "address_councildis": "D",
    "status": "Pending",
    "rowid": "886145",
    "final_x": "3691683.87452",
    "final_y": "538300.804105",
    "longitude": "-90.03567095393329",
    "latitude": "29.97382737666785",
    "geocoded_column": {
      "latitude": "29.97382737666785",
      "longitude": "-90.03567095393329"
    }
  },
  {
    "service_request": "2022-886144",
    "request_type": "Roads/Drainage",
    "request_reason": "Catch Basin - Broken/Damage",
    "date_created": "2022-05-25T14:02:34.000",
    "date_modified": "2022-05-25T14:02:35.000",
    "request_status": "Pending",
    "responsible_agency": "Department of Public Works",
    "final_address": "1719 Laharpe St",
    "address_councildis": "D",
    "status": "Pending",
    "rowid": "886144",
    "final_x": "3681529.22012",
    "final_y": "537851.812297",
    "longitude": "-90.06775722674092",
    "latitude": "29.972905110845247",
    "geocoded_column": {
      "latitude": "29.972905110845247",
      "longitude": "-90.06775722674092"
    }
  },
  {
    "service_request": "2022-886143",
    "request_type": "Trash/Recycling",
    "request_reason": "Illegal Dumping",
    "date_created": "2022-05-25T13:59:23.000",
    "date_modified": "2022-05-25T13:59:23.000",
    "request_status": "Pending",
    "responsible_agency": "Department of Sanitation",
    "final_address": "501 S Bernadotte St",
    "address_councildis": "A",
    "status": "Pending",
    "rowid": "886143",
    "final_x": "3667796.06183",
    "final_y": "538790.940553",
    "longitude": "-90.11109767319047",
    "latitude": "29.975897325968997",
    "geocoded_column": {
      "latitude": "29.975897325968997",
      "longitude": "-90.11109767319047"
    }
  },
  {
    "service_request": "2022-886142",
    "request_type": "Trash/Recycling",
    "request_reason": "Illegal Dumping",
    "date_created": "2022-05-25T13:57:03.000",
    "date_modified": "2022-05-25T13:57:03.000",
    "request_status": "Pending",
    "responsible_agency": "Department of Sanitation",
    "final_address": "2920 Baudin St",
    "address_councildis": "B",
    "status": "Pending",
    "rowid": "886142",
    "final_x": "3673458.50849",
    "final_y": "534472.909701",
    "longitude": "-90.09336159759002",
    "latitude": "29.963856907020038",
    "geocoded_column": {
      "latitude": "29.963856907020038",
      "longitude": "-90.09336159759002"
    }
  },
  {
    "service_request": "2022-886141",
    "request_type": "Traffic Signals/Signs/Striping/Streetlights",
    "request_reason": "Street Light Outage/Malfunction",
    "date_created": "2022-05-25T13:56:42.000",
    "date_modified": "2022-05-25T13:56:43.000",
    "request_status": "Pending",
    "responsible_agency": "Department of Public Works",
    "final_address": "200 Audubon St",
    "address_councildis": "A",
    "status": "Pending",
    "contractor": "Royal Engineering",
    "rowid": "886141",
    "final_x": "3660930.32762",
    "final_y": "521199.399673",
    "longitude": "-90.13336357910838",
    "latitude": "29.927725820447968",
    "geocoded_column": {
      "latitude": "29.927725820447968",
      "longitude": "-90.13336357910838"
    }
  },
  {
    "service_request": "2022-886140",
    "request_type": "Roads/Drainage",
    "request_reason": "Catch Basin - Clogged",
    "date_created": "2022-05-25T13:55:29.000",
    "date_modified": "2022-05-25T13:55:29.000",
    "request_status": "Pending",
    "responsible_agency": "Department of Public Works",
    "final_address": "200 Audubon St",
    "address_councildis": "A",
    "status": "Pending",
    "rowid": "886140",
    "final_x": "3660930.32762",
    "final_y": "521199.399673",
    "longitude": "-90.13336357910838",
    "latitude": "29.927725820447968",
    "geocoded_column": {
      "latitude": "29.927725820447968",
      "longitude": "-90.13336357910838"
    }
  },
  {
    "service_request": "2022-886139",
    "request_type": "Property Maintenance",
    "request_reason": "Property Maintenance",
    "date_created": "2022-05-25T13:54:26.000",
    "date_modified": "2022-05-25T13:54:26.000",
    "request_status": "Pending",
    "responsible_agency": "Department of Code Enforcement",
    "final_address": "500 S Gayoso St",
    "address_councildis": "B",
    "status": "Pending",
    "rowid": "886139",
    "final_x": "3673379.19099",
    "final_y": "534541.839493",
    "longitude": "-90.09360972003024",
    "latitude": "29.96404880070456",
    "geocoded_column": {
      "latitude": "29.96404880070456",
      "longitude": "-90.09360972003024"
    }
  },
  {
    "service_request": "2022-886138",
    "request_type": "Roads/Drainage",
    "request_reason": "Catch Basin - Clogged",
    "date_created": "2022-05-25T13:52:09.000",
    "date_modified": "2022-05-25T13:52:10.000",
    "request_status": "Pending",
    "responsible_agency": "Department of Public Works",
    "final_address": "PEARL ST & ADAMS ST",
    "address_councildis": "A",
    "status": "Pending",
    "rowid": "886138",
    "final_x": "3661401.3",
    "final_y": "525557.88",
    "longitude": "-90.13173254133629",
    "latitude": "29.939696700014412",
    "geocoded_column": {
      "latitude": "29.939696700014412",
      "longitude": "-90.13173254133629"
    }
  },
  {
    "service_request": "2022-886137",
    "request_type": "Roads/Drainage",
    "request_reason": "Pothole",
    "date_created": "2022-05-25T13:45:27.000",
    "date_modified": "2022-05-25T13:45:27.000",
    "request_status": "Pending",
    "responsible_agency": "Department of Public Works",
    "final_address": "111 S Saratoga St",
    "address_councildis": "B",
    "status": "Pending",
    "rowid": "886137",
    "final_x": "3679409.39541",
    "final_y": "531658.141123",
    "longitude": "-90.07466690610133",
    "latitude": "29.955938834449142",
    "geocoded_column": {
      "latitude": "29.955938834449142",
      "longitude": "-90.07466690610133"
    }
  },