[
  {
    "service_request": "2024-1117861",
    "request_type": "Trash/Recycling",
    "request_reason": "Request a Large Item Pick Up",
    "date_created": "2024-07-31T23:59:10.000",
    "date_modified": "2024-07-31T23:59:11.000",
    "request_status": "Pending",
    "responsible_agency": "Department of Sanitation",
    "final_address": "48 Morrison Ct",
    "address_councildis": "E",
    "status": "Assigned to Contractor",
    "contractor": "Waste Pro",
    "rowid": "1117861",
    "final_x": "3704039.79594",
    "final_y": "561367.661342",
    "longitude": "-89.99579816478452",
    "latitude": "30.036861953283275",
    "geocoded_column": {
      "latitude": "30.036861953283275",
      "longitude": "-89.99579816478452"
    }
  },
  {
    "service_request": "2024-1117860",
    "request_type": "Roads/Drainage",
    "request_reason": "Pothole",
    "date_created": "2024-07-31T23:57:21.000",
    "date_modified": "2024-07-31T23:57:21.000",
    "request_status": "Pending",
    "responsible_agency": "Department of Public Works",
    "final_address": "1100 BLK Constantinople St",
    "address_councildis": "B",
    "status": "Pending",
    "rowid": "1117860",
    "final_x": "3672431.76698",
    "final_y": "519818.358445",
    "longitude": "-90.09710323917102",
    "latitude": "29.92359219713162",
    "geocoded_column": {
      "latitude": "29.92359219713162",
      "longitude": "-90.09710323917102"
    }
  },
  {
    "service_request": "2024-1117859",
    "request_type": "Roads/Drainage",
    "request_reason": "Pothole",
    "date_created": "2024-07-31T22:36:00.000",
    "date_modified": "2024-07-31T22:36:00.000",
    "request_status": "Pending",
    "responsible_agency": "Department of Public Works",
    "final_address": "900 BLK General Pershing St",
    "address_councildis": "B",
    "status": "Pending",
    "rowid": "1117859",
    "final_x": "3671434.25257",
    "final_y": "519008.473254",
    "longitude": "-90.10027954212089",
    "latitude": "29.921394825297973",
    "geocoded_column": {
      "latitude": "29.921394825297973",
      "longitude": "-90.10027954212089"
    }
  },
  {
    "service_request": "2024-1117858",
    "request_type": "Property Maintenance",
    "request_reason": "Property Maintenance",
    "date_created": "2024-07-31T22:12:38.000",
    "date_modified": "2024-07-31T22:12:38.000",
    "request_status": "Pending",
    "responsible_agency": "Department of Code Enforcement",
    "final_address": "VINCENNES PL & S ROCHEBLAVE ST",
    "address_councildis": "A",
    "status": "Pending",
    "rowid": "1117858",
    "final_x": "3667954.8",
    "final_y": "528512.48",
    "longitude": "-90.11094264166694",
    "latitude": "29.947630298560018",
    "geocoded_column": {
      "latitude": "29.947630298560018",
      "longitude": "-90.11094264166694"
    }
  },
  {
    "service_request": "2024-1117857",
    "request_type": "Trash/Recycling",
    "request_reason": "Missed Trash Pick-Up",
    "date_created": "2024-07-31T21:50:23.000",
    "date_modified": "2024-07-31T21:50:24.000",
    "request_status": "Pending",
    "responsible_agency": "Department of Sanitation",
    "final_address": "3027 Audubon St",
    "address_councildis": "B",
    "status": "Assigned to Contractor",
    "contractor": "IV Waste",
    "rowid": "1117857",
    "final_x": "3668075.57345",
    "final_y": "531820.719363",
    "longitude": "-90.11044983402758",
    "latitude": "29.956723332488394",
    "geocoded_column": {
      "latitude": "29.956723332488394",
      "longitude": "-90.11044983402758"
    }
  },
  {
    "service_request": "2024-1117856",
    "request_type": "Healthy Homes",
    "request_reason": "Healthy Homes",
    "date_created": "2024-07-31T21:45:16.000",
    "date_modified": "2024-07-31T21:45:16.000",
    "request_status": "Pending",
    "responsible_agency": "Department of Code Enforcement",
    "final_address": "5423 Constance St",
    "address_councildis": "A",
    "status": "Pending",
    "rowid": "1117856",
    "final_x": "3666502.20205",
    "final_y": "518534.904567",
    "longitude": "-90.11586380372046",
    "latitude": "29.920237676435452",
    "geocoded_column": {
      "latitude": "29.920237676435452",
      "longitude": "-90.11586380372046"
    }
  },
  {
    "service_request": "2024-1117855",
    "request_type": "Healthy Homes",
    "request_reason": "Healthy Homes",
    "date_created": "2024-07-31T21:44:58.000",
    "date_modified": "2024-07-31T21:44:58.000",
    "request_status": "Pending",
    "responsible_agency": "Department of Code Enforcement",
    "final_address": "5423 Constance St",
    "address_councildis": "A",
    "status": "Pending",
    "rowid": "1117855",
    "final_x": "3666502.20205",
    "final_y": "518534.904567",
    "longitude": "-90.11586380372046",
    "latitude": "29.920237676435452",
    "geocoded_column": {
      "latitude": "29.920237676435452",
      "longitude": "-90.11586380372046"
    }
  },
  {
    "service_request": "2024-1117854",
    "request_type": "Healthy Homes",
    "request_reason": "Healthy Homes",
    "date_created": "2024-07-31T21:44:56.000",
    "date_modified": "2024-07-31T21:44:56.000",
    "request_status": "Pending",
    "responsible_agency": "Department of Code Enforcement",
    "final_address": "5423 Constance St",
    "address_councildis": "A",
    "status": "Pending",
    "rowid": "1117854",
    "final_x": "3666502.20205",
    "final_y": "518534.904567",
    "longitude": "-90.11586380372046",
    "latitude": "29.920237676435452",
    "geocoded_column": {
      "latitude": "29.920237676435452",
      "longitude": "-90.11586380372046"
    }
  },
  {
    "service_request": "2024-1117853",
    "request_type": "Healthy Homes",
    "request_reason": "Healthy Homes",
    "date_created": "2024-07-31T21:44:46.000",
    "date_modified": "2024-07-31T21:44:46.000",
    "request_status": "Pending",
    "responsible_agency": "Department of Code Enforcement",
    "final_address": "5423 Constance St",
    "address_councildis": "A",
    "status": "Pending",
    "rowid": "1117853",
    "final_x": "3666502.20205",
    "final_y": "518534.904567",
    "longitude": "-90.11586380372046",
    "latitude": "29.920237676435452",
    "geocoded_column": {
      "latitude": "29.920237676435452",
      "longitude": "-90.11586380372046"
    }
  },
  {
    "service_request": "2024-1117852",
    "request_type": "Healthy Homes",
    "request_reason": "Healthy Homes",
    "date_created": "2024-07-31T21:44:37.000",
    "date_modified": "2024-07-31T21:44:37.000",
    "request_status": "Pending",
    "responsible_agency": "Department of Code Enforcement",
    "final_address": "5423 Constance St",
    "address_councildis": "A",
    "status": "Pending",
    "rowid": "1117852",
    "final_x": "3666502.20205",
    "final_y": "518534.904567",
    "longitude": "-90.11586380372046",
    "latitude": "29.920237676435452",
    "geocoded_column": {
      "latitude": "29.920237676435452",
      "longitude": "-90.11586380372046"
    }
  },
  {
    "service_request": "2024-1117851",
    "request_type": "Healthy Homes",
    "request_reason": "Healthy Homes",
    "date_created": "2024-07-31T21:44:29.000",
    "date_modified": "2024-07-31T21:44:29.000",
    "request_status": "Pending",
    "responsible_agency": "Department of Code Enforcement",
    "final_address": "5423 Constance St",
    "address_councildis": "A",
    "status": "Pending",
    "rowid": "1117851",
    "final_x": "3666502.20205",
    "final_y": "518534.904567",
    "longitude": "-90.11586380372046",
    "latitude": "29.920237676435452",
    "geocoded_column": {
      "latitude": "29.920237676435452",
      "longitude": "-90.11586380372046"
    }
  },
  {
    "service_request": "2024-1117850",
    "request_type": "Healthy Homes",
    "request_reason": "Healthy Homes",
    "date_created": "2024-07-31T21:44:16.000",
    "date_modified": "2024-07-31T21:44:16.000",
    "request_status": "Pending",
    "responsible_agency": "Department of Code Enforcement",
    "final_address": "5423 Constance St",
    "address_councildis": "A",
    "status": "Pending",
    "rowid": "1117850",
    "final_x": "3666502.20205",
    "final_y": "518534.904567",
    "longitude": "-90.11586380372046",
    "latitude": "29.920237676435452",
    "geocoded_column": {
      "latitude": "29.920237676435452",
      "longitude": "-90.11586380372046"
    }
  },
  {
    "service_request": "2024-1117849",
    "request_type": "Healthy Homes",
    "request_reason": "Healthy Homes",
    "date_created": "2024-07-31T21:43:45.000",
    "date_modified": "2024-07-31T21:43:45.000",
    "request_status": "Pending",
    "responsible_agency": "Department of Code Enforcement",
    "final_address": "5423 Constance St",
    "address_councildis": "A",
    "status": "Pending",
    "rowid": "1117849",
    "final_x": "3666502.20205",
    "final_y": "518534.904567",
    "longitude": "-90.11586380372046",
    "latitude": "29.920237676435452",
    "geocoded_column": {
      "latitude": "29.920237676435452",
      "longitude": "-90.11586380372046"
    }
  },
  {
    "service_request": "2024-1117848",
    "request_type": "Healthy Homes",
    "request_reason": "Healthy Homes",
    "date_created": "2024-07-31T21:43:21.000",
    "date_modified": "2024-07-31T21:43:21.000",
    "request_status": "Pending",
    "responsible_agency": "Department of Code Enforcement",
    "final_address": "5423 Constance St",
    "address_councildis": "A",
    "status": "Pending",
    "rowid": "1117848",
    "final_x": "3666502.20205",
    "final_y": "518534.904567",
    "longitude": "-90.11586380372046",
    "latitude": "29.920237676435452",
    "geocoded_column": {
      "latitude": "29.920237676435452",
      "longitude": "-90.11586380372046"
    }
  },
  {
    "service_request": "2024-1117847",
    "request_type": "Trash/Recycling",
    "request_reason": "Replace Trash Cart",
    "date_created": "2024-07-31T21:25:15.000",
    "date_modified": "2024-07-31T21:25:16.000",
    "request_status": "Pending",
    "responsible_agency": "Department of Sanitation",
    "final_address": "218 S Dorgenois St",
    "address_councildis": "B",
    "status": "Assigned to Contractor",
    "contractor": "IV Waste",
    "rowid": "1117847",
    "final_x": "3675493.21518",
    "final_y": "534256.298117",
    "longitude": "-90.08694362166528",
    "latitude": "29.96320059768868",
    "geocoded_column": {
      "latitude": "29.96320059768868",
      "longitude": "-90.08694362166528"
    }
  },
  {
    "service_request": "2024-1117846",
    "request_type": "Traffic Signals/Signs/Striping/Streetlights",
    "request_reason": "Street Light Outage/Malfunction",
    "date_created": "2024-07-31T21:18:51.000",
    "date_modified": "2024-07-31T21:18:52.000",
    "request_status": "Pending",
    "responsible_agency": "Department of Public Works",
    "final_address": "GENERAL MEYER AVE & HUDSON PL & NAVIGATIONAL CT",
    "address_councildis": "C",
    "status": "Assigned to Contractor",
    "contractor": "Legacy Professional Services",
    "rowid": "1117846",
    "final_x": "3703643.1",
    "final_y": "522455.28",
    "longitude": "-89.99848435634496",
    "latitude": "29.929880011019712",
    "geocoded_column": {
      "latitude": "29.929880011019712",
      "longitude": "-89.99848435634496"
    }
  },
  {
    "service_request": "2024-1117845",
    "request_type": "Roads/Drainage",
    "request_reason": "Catch Basin - Broken/Damage",
    "date_created": "2024-07-31T21:09:15.000",
    "date_modified": "2024-07-31T21:09:15.000",
    "request_status": "Pending",
    "responsible_agency": "Department of Public Works",
    "final_address": "2224 Delery St",
    "address_councildis": "E",
    "status": "Pending",
    "rowid": "1117845",
    "final_x": "3702080.64727",
    "final_y": "537142.595016",
    "longitude": "-90.00287836328351",
    "latitude": "29.97031487339651",
    "geocoded_column": {
      "latitude": "29.97031487339651",
      "longitude": "-90.00287836328351"
    }
  },
  {
    "service_request": "2024-1117844",
    "request_type": "Roads/Drainage",
    "request_reason": "Street Flooding / Drainage",
    "date_created": "2024-07-31T20:30:34.000",
    "date_modified": "2024-07-31T20:30:34.000",
    "request_status": "Pending",
    "responsible_agency": "Department of Public Works",
    "final_address": "920 Jena St",
    "address_councildis": "B",
    "status": "Pending",
    "rowid": "1117844",
    "final_x": "3670575.67124",
    "final_y": "518927.914359",
    "longitude": "-90.10299244412109",
    "latitude": "29.92119869110157",
    "geocoded_column": {
      "latitude": "29.92119869110157",
      "longitude": "-90.10299244412109"
    }
  },
  {
    "service_request": "2024-1117842",
    "request_type": "Trash/Recycling",
    "request_reason": "Request a Large Item Pick Up",
    "date_created": "2024-07-31T20:26:05.000",
    "date_modified": "2024-07-31T20:26:06.000",
    "request_status": "Pending",
    "responsible_agency": "Department of Sanitation",
    "final_address": "2106 Piety St",
    "address_councildis": "D",
    "status": "Assigned to Contractor",
    "contractor": "IV Waste",
    "rowid": "1117842",
    "final_x": "3690771.71388",
    "final_y": "539653.031626",
    "longitude": "-90.03850348849589",
    "latitude": "29.977573895447094",
    "geocoded_column": {
      "latitude": "29.977573895447094",
      "longitude": "-90.03850348849589"
    }
  },
  {
    "service_request": "2024-1117840",
    "request_type": "Traffic Signals/Signs/Striping/Streetlights",
    "request_reason": "Street Light Outage/Malfunction",
    "date_created": "2024-07-31T20:15:53.000",
    "date_modified": "2024-07-31T20:15:54.000",
    "request_status": "Pending",
    "responsible_agency": "Department of Public Works",
    "final_address": "6155 Memphis St",
    "address_councildis": "A",
    "status": "Assigned to Contractor",
    "contractor": "Legacy Professional Services",
    "rowid": "1117840",
    "final_x": "3669359.4331",
    "final_y": "548280.802642",
    "longitude": "-90.10583901046749",
    "latitude": "30.001945251701805",
    "geocoded_column": {
      "latitude": "30.001945251701805",
      "longitude": "-90.10583901046749"
    }
  },
  {
    "service_request": "2024-1117839",
    "request_type": "Roads/Drainage",
    "request_reason": "Catch Basin - Broken/Damage",
    "date_created": "2024-07-31T20:11:35.000",
    "date_modified": "2024-07-31T20:11:35.000",
    "request_status": "Pending",
    "responsible_agency": "Department of Public Works",
    "final_address": "ORLEANS AVE & N DORGENOIS ST",
    "address_councildis": "D",
    "status": "Pending",
    "rowid": "1117839",
    "final_x": "3677203.4",
    "final_y": "536662.78",
    "longitude": "-90.08146002747709",
    "latitude": "29.969766343697415",
    "geocoded_column": {
      "latitude": "29.969766343697415",
      "longitude": "-90.08146002747709"
    }
  },
  {
    "service_request": "2024-1117838",
    "request_type": "Roads/Drainage",
    "request_reason": "Street Subsidence (Sinking)",
    "date_created": "2024-07-31T20:00:51.000",
    "date_modified": "2024-07-31T20:00:51.000",
    "request_status": "Pending",
    "responsible_agency": "Department of Public Works",
    "final_address": "4655 Michoud Blvd",
    "address_councildis": "E",
    "status": "Pending",
    "rowid": "1117838",
    "final_x": "3725581.68896",
    "final_y": "560064.799389",
    "longitude": "-89.92777263182586",
    "latitude": "30.03257061013275",
    "geocoded_column": {
      "latitude": "30.03257061013275",
      "longitude": "-89.92777263182586"
    }
  },
  {
    "service_request": "2024-1117837",
    "request_type": "Trash/Recycling",
    "request_reason": "Order Recycling Cart",
    "date_created": "2024-07-31T19:56:54.000",
    "date_modified": "2024-07-31T19:56:54.000",
    "request_status": "Pending",
    "responsible_agency": "Department of Sanitation",
    "final_address": "218 S Dorgenois St",
    "address_councildis": "B",
    "status": "Pending",
    "rowid": "1117837",
    "final_x": "3675493.21518",
    "final_y": "534256.298117",
    "longitude": "-90.08694362166528",
    "latitude": "29.96320059768868",
    "geocoded_column": {
      "latitude": "29.96320059768868",
      "longitude": "-90.08694362166528"
    }
  },
  {
    "service_request": "2024-1117836",
    "request_type": "Abandoned Vehicles",
    "request_reason": "Abandoned/Junk Vehicles",
    "date_created": "2024-07-31T19:44:04.000",
    "date_modified": "2024-07-31T19:44:04.000",
    "request_status": "Pending",
    "responsible_agency": "Department of Public Works",
    "final_address": "4951 Brittany Ct",
    "address_councildis": "E",
    "status": "Pending",
    "rowid": "1117836",
    "final_x": "3727093.82016",
    "final_y": "561605.724767",
    "longitude": "-89.92293431194156",
    "latitude": "30.036756430703882",
    "geocoded_column": {
      "latitude": "30.036756430703882",
      "longitude": "-89.92293431194156"
    }
  },
  {
    "service_request": "2024-1117834",
    "request_type": "Property Maintenance",
    "request_reason": "Property Maintenance",
    "date_created": "2024-07-31T19:37:29.000",
    "date_modified": "2024-07-31T19:37:29.000",
    "request_status": "Pending",
    "responsible_agency": "Department of Code Enforcement",
    "final_address": "13450 Lourdes St",
    "address_councildis": "E",
    "status": "Pending",
    "rowid": "1117834",
    "final_x": "3726166.1079",
    "final_y": "560933.679646",
    "longitude": "-89.9258921229644",
    "latitude": "30.034939949029976",
    "geocoded_column": {
      "latitude": "30.034939949029976",
      "longitude": "-89.9258921229644"
    }
  },
  {
    "service_request": "2024-1117833",
    "request_type": "Abandoned Vehicles",
    "request_reason": "Abandoned/Junk Vehicles",
    "date_created": "2024-07-31T19:19:01.000",
    "date_modified": "2024-07-31T19:19:01.000",
    "request_status": "Pending",
    "responsible_agency": "Department of Public Works",
    "final_address": "MAGAZINE ST & HENRY CLAY AVE",
    "address_councildis": "A",
    "status": "Pending",
    "rowid": "1117833",
    "final_x": "3663792.1",
    "final_y": "519586.38",
    "longitude": "-90.1243833286967",
    "latitude": "29.923207804965596",
    "geocoded_column": {
      "latitude": "29.923207804965596",
      "longitude": "-90.1243833286967"
    }
  },
  {
    "service_request": "2024-1117832",
    "request_type": "Roads/Drainage",
    "request_reason": "Debris in Roadway",
    "date_created": "2024-07-31T19:14:06.000",
    "date_modified": "2024-07-31T19:14:06.000",
    "request_status": "Pending",
    "responsible_agency": "Department of Public Works",
    "final_address": "4655 Michoud Blvd",
    "address_councildis": "E",
    "status": "Pending",
    "rowid": "1117832",
    "final_x": "3725581.68896",
    "final_y": "560064.799389",
    "longitude": "-89.92777263182586",
    "latitude": "30.03257061013275",
    "geocoded_column": {
      "latitude": "30.03257061013275",
      "longitude": "-89.92777263182586"
    }
  },
  {
    "service_request": "2024-1117831",
    "request_type": "Trash/Recycling",
    "request_reason": "Request a Large Item Pick Up",
    "date_created": "2024-07-31T18:58:45.000",
    "date_modified": "2024-07-31T18:58:46.000",
    "request_status": "Pending",
    "responsible_agency": "Department of Sanitation",
    "final_address": "4957 Meadowbank Dr",
    "address_councildis": "E",
    "status": "Assigned to Contractor",
    "contractor": "Waste Pro",
    "rowid": "1117831",
    "final_x": "3718987.39404",
    "final_y": "558386.577628",
    "longitude": "-89.94867495748456",
    "latitude": "30.028176944115728",
    "geocoded_column": {
      "latitude": "30.028176944115728",
      "longitude": "-89.94867495748456"
    }
  },
  {
    "service_request": "2024-1117830",
    "request_type": "Abandoned Vehicles",
    "request_reason": "Abandoned/Junk Vehicles",
    "date_created": "2024-07-31T18:58:37.000",
    "date_modified": "2024-07-31T18:58:37.000",
    "request_status": "Pending",
    "responsible_agency": "Department of Public Works",
    "final_address": "2014 Amelia St",
    "address_councildis": "B",
    "status": "Pending",
    "rowid": "1117830",
    "final_x": "3672715.30568",
    "final_y": "522690.027258",
    "longitude": "-90.0961103330969",
    "latitude": "29.93147994886819",
    "geocoded_column": {
      "latitude": "29.93147994886819",
      "longitude": "-90.0961103330969"
    }
  },
  {
    "service_request": "2024-1117829",
    "request_type": "Abandoned Vehicles",
    "request_reason": "Abandoned/Junk Vehicles",
    "date_created": "2024-07-31T18:57:46.000",
    "date_modified": "2024-07-31T18:57:46.000",
    "request_status": "Pending",
    "responsible_agency": "Department of Public Works",
    "final_address": "1820 Amelia St",
    "address_councildis": "B",
    "status": "Pending",
    "rowid": "1117829",
    "final_x": "3672863.29518",
    "final_y": "522051.013882",
    "longitude": "-90.09566493664462",
    "latitude": "29.92971847367996",
    "geocoded_column": {
      "latitude": "29.92971847367996",
      "longitude": "-90.09566493664462"
    }
  },
  {
    "service_request": "2024-1117828",
    "request_type": "Abandoned Vehicles",
    "request_reason": "Abandoned/Junk Vehicles",
    "date_created": "2024-07-31T18:52:27.000",
    "date_modified": "2024-07-31T18:52:27.000",
    "request_status": "Pending",
    "responsible_agency": "Department of Public Works",
    "final_address": "4628 Cleveland Ave",
    "address_councildis": "A",
    "status": "Pending",
    "rowid": "1117828",
    "final_x": "3668876.72897",
    "final_y": "539451.272266",
    "longitude": "-90.10766229907482",
    "latitude": "29.97768127559951",
    "geocoded_column": {
      "latitude": "29.97768127559951",
      "longitude": "-90.10766229907482"
    }
  },
  {
    "service_request": "2024-1117827",
    "request_type": "Trash/Recycling",
    "request_reason": "Request a Large Item Pick Up",
    "date_created": "2024-07-31T18:42:59.000",
    "date_modified": "2024-07-31T18:43:00.000",
    "request_status": "Pending",
    "responsible_agency": "Department of Sanitation",
    "final_address": "1016 Mazant St",
    "address_councildis": "C",
    "status": "Assigned to Contractor",
    "contractor": "IV Waste",
    "rowid": "1117827",
    "final_x": "3692004.32086",
    "final_y": "534945.673734",
    "longitude": "-90.03477900241676",
    "latitude": "29.9645919710835",
    "geocoded_column": {
      "latitude": "29.9645919710835",
      "longitude": "-90.03477900241676"
    }
  },
  {
    "service_request": "2024-1117826",
    "request_type": "Property Maintenance",
    "request_reason": "Property Maintenance",
    "date_created": "2024-07-31T18:42:54.000",
    "date_modified": "2024-07-31T18:42:54.000",
    "request_status": "Pending",
    "responsible_agency": "Department of Code Enforcement",
    "final_address": "1923 N Villere St",
    "address_councildis": "C",
    "status": "Pending",
    "rowid": "1117826",
    "final_x": "3683976.93173",
    "final_y": "537362.118792",
    "longitude": "-90.06004408316758",
    "latitude": "29.971484060344977",
    "geocoded_column": {
      "latitude": "29.971484060344977",
      "longitude": "-90.06004408316758"
    }
  },
  {
    "service_request": "2024-1117824",
    "request_type": "Property Maintenance",
    "request_reason": "Property Maintenance",
    "date_created": "2024-07-31T18:37:30.000",
    "date_modified": "2024-07-31T18:37:30.000",
    "request_status": "Pending",
    "responsible_agency": "Department of Code Enforcement",
    "final_address": "207 S Pierce St",
    "address_councildis": "A",
    "status": "Pending",
    "rowid": "1117824",
    "final_x": "3671140.71796",
    "final_y": "537683.356104",
    "longitude": "-90.10057190270527",
    "latitude": "29.972753320871277",
    "geocoded_column": {
      "latitude": "29.972753320871277",
      "longitude": "-90.10057190270527"
    }
  },
  {
    "service_request": "2024-1117823",
    "request_type": "Traffic Signals/Signs/Striping/Streetlights",
    "request_reason": "Street Light Outage/Malfunction",
    "date_created": "2024-07-31T18:37:16.000",
    "date_modified": "2024-07-31T18:37:17.000",
    "request_status": "Pending",
    "responsible_agency": "Department of Public Works",
    "final_address": "5725 General Diaz St",
    "address_councildis": "A",
    "status": "Assigned to Contractor",
    "contractor": "Legacy Professional Services",
    "rowid": "1117823",
    "final_x": "3669398.32666",
    "final_y": "545538.721616",
    "longitude": "-90.10580894181041",
    "latitude": "29.99440433255263",
    "geocoded_column": {
      "latitude": "29.99440433255263",
      "longitude": "-90.10580894181041"
    }
  },
  {
    "service_request": "2024-1117822",
    "request_type": "Abandoned Vehicles",
    "request_reason": "Abandoned/Junk Vehicles",
    "date_created": "2024-07-31T18:30:48.000",
    "date_modified": "2024-07-31T18:30:48.000",
    "request_status": "Pending",
    "responsible_agency": "Department of Public Works",
    "final_address": "2761 Conti St",
    "address_councildis": "B",
    "status": "Pending",
    "rowid": "1117822",
    "final_x": "3675644.5595",
    "final_y": "536392.983175",
    "longitude": "-90.08639226592118",
    "latitude": "29.96907123117014",
    "geocoded_column": {
      "latitude": "29.96907123117014",
      "longitude": "-90.08639226592118"
    }
  },
  {
    "service_request": "2024-1117821",
    "request_type": "Abandoned Vehicles",
    "request_reason": "Abandoned/Junk Vehicles",
    "date_created": "2024-07-31T18:29:28.000",
    "date_modified": "2024-07-31T18:29:28.000",
    "request_status": "Pending",
    "responsible_agency": "Department of Public Works",
    "final_address": "2762 Conti St",
    "address_councildis": "B",
    "status": "Pending",
    "rowid": "1117821",
    "final_x": "3675591.79457",
    "final_y": "536336.123399",
    "longitude": "-90.08656085526373",
    "latitude": "29.968916464848455",
    "geocoded_column": {
      "latitude": "29.968916464848455",
      "longitude": "-90.08656085526373"
    }
  },
  {
    "service_request": "2024-1117820",
    "request_type": "Abandoned Vehicles",
    "request_reason": "Abandoned/Junk Vehicles",
    "date_created": "2024-07-31T18:28:03.000",
    "date_modified": "2024-07-31T18:28:03.000",
    "request_status": "Pending",
    "responsible_agency": "Department of Public Works",
    "final_address": "2763 Conti St",
    "address_councildis": "B",
    "status": "Pending",
    "rowid": "1117820",
    "final_x": "3675635.53435",
    "final_y": "536400.337607",
    "longitude": "-90.08642051525764",
    "latitude": "29.969091723414998",
    "geocoded_column": {
      "latitude": "29.969091723414998",
      "longitude": "-90.08642051525764"
    }
  },
  {
    "service_request": "2024-1117819",
    "request_type": "Abandoned Vehicles",
    "request_reason": "Abandoned/Junk Vehicles",
    "date_created": "2024-07-31T18:27:02.000",
    "date_modified": "2024-07-31T18:27:02.000",
    "request_status": "Pending",
    "responsible_agency": "Department of Public Works",
    "final_address": "315 N Dupre St",
    "address_councildis": "B",
    "status": "Pending",
    "rowid": "1117819",
    "final_x": "3675160.63547",
    "final_y": "536462.147591",
    "longitude": "-90.08791815942858",
    "latitude": "29.969275881290027",
    "geocoded_column": {
      "latitude": "29.969275881290027",
      "longitude": "-90.08791815942858"
    }
  },
  {
    "service_request": "2024-1117818",
    "request_type": "Abandoned Vehicles",
    "request_reason": "Abandoned/Junk Vehicles",
    "date_created": "2024-07-31T18:25:54.000",
    "date_modified": "2024-07-31T18:25:54.000",
    "request_status": "Pending",
    "responsible_agency": "Department of Public Works",
    "final_address": "310 N Dupre St",
    "address_councildis": "B",
    "status": "Pending",
    "rowid": "1117818",
    "final_x": "3675203.1812",
    "final_y": "536387.455047",
    "longitude": "-90.08778636072445",
    "latitude": "29.96906923053452",
    "geocoded_column": {
      "latitude": "29.96906923053452",
      "longitude": "-90.08778636072445"
    }
  },
  {
    "service_request": "2024-1117817",
    "request_type": "Trash/Recycling",
    "request_reason": "Replace Trash Cart",
    "date_created": "2024-07-31T18:19:41.000",
    "date_modified": "2024-07-31T18:19:42.000",
    "request_status": "Pending",
    "responsible_agency": "Department of Sanitation",
    "final_address": "7720 Wave Dr",
    "address_councildis": "E",
    "status": "Assigned to Contractor",
    "contractor": "Waste Pro",
    "rowid": "1117817",
    "final_x": "3714570.03493",
    "final_y": "569178.773094",
    "longitude": "-89.9622253261537",
    "latitude": "30.05799714877834",
    "geocoded_column": {
      "latitude": "30.05799714877834",
      "longitude": "-89.9622253261537"
    }
  },
  {
    "service_request": "2024-1117816",
    "request_type": "Parks & Parkways",
    "request_reason": "Request Tree Service (Right of Way/Public Property)",
    "date_created": "2024-07-31T18:19:09.000",
    "date_modified": "2024-07-31T18:19:09.000",
    "request_status": "Pending",
    "responsible_agency": "Department of Parks & Parkway",
    "final_address": "1451 Madrid St",
    "address_councildis": "D",
    "status": "Pending",
    "rowid": "1117816",
    "final_x": "3677883.7853",
    "final_y": "554665.627928",
    "longitude": "-90.07868877449656",
    "latitude": "30.019247386168256",
    "geocoded_column": {
      "latitude": "30.019247386168256",
      "longitude": "-90.07868877449656"
    }
  },
  {
    "service_request": "2024-1117815",
    "request_type": "Trash/Recycling",
    "request_reason": "Request a Large Item Pick Up",
    "date_created": "2024-07-31T18:15:48.000",
    "date_modified": "2024-07-31T18:15:49.000",
    "request_status": "Pending",
    "responsible_agency": "Department of Sanitation",
    "final_address": "9012 Oleander St",
    "address_councildis": "A",
    "status": "Assigned to Contractor",
    "contractor": "IV Waste",
    "rowid": "1117815",
    "final_x": "3664313.79399",
    "final_y": "535846.856519",
    "longitude": "-90.12219399980242",
    "latitude": "29.96790374543007",
    "geocoded_column": {
      "latitude": "29.96790374543007",
      "longitude": "-90.12219399980242"
    }
  },
  {
    "service_request": "2024-1117814",
    "request_type": "Trash/Recycling",
    "request_reason": "Illegal Dumping",
    "date_created": "2024-07-31T18:02:49.000",
    "date_modified": "2024-07-31T18:02:49.000",
    "request_status": "Pending",
    "responsible_agency": "Department of Sanitation",
    "final_address": "102 Fontainebleau Dr",
    "address_councildis": "A",
    "status": "Pending",
    "rowid": "1117814",
    "final_x": "3667190.98964",
    "final_y": "530345.428866",
    "longitude": "-90.11329267719117",
    "latitude": "29.95269269494452",
    "geocoded_column": {
      "latitude": "29.95269269494452",
      "longitude": "-90.11329267719117"
    }
  },
  {
    "service_request": "2024-1117813",
    "request_type": "Parks & Parkways",
    "request_reason": "Request Tree Service (Right of Way/Public Property)",
    "date_created": "2024-07-31T17:54:18.000",
    "date_modified": "2024-07-31T17:54:18.000",
    "request_status": "Pending",
    "responsible_agency": "Department of Parks & Parkway",
    "final_address": "4518 S Galvez St",
    "address_councildis": "B",
    "status": "Pending",
    "rowid": "1117813",
    "final_x": "3669628.15918",
    "final_y": "527366.695743",
    "longitude": "-90.10569793660622",
    "latitude": "29.944430573204468",
    "geocoded_column": {
      "latitude": "29.944430573204468",
      "longitude": "-90.10569793660622"
    }
  },
  {
    "service_request": "2024-1117812",
    "request_type": "Trash/Recycling",
    "request_reason": "MIssed Recycling Pick-Up",
    "date_created": "2024-07-31T17:39:19.000",
    "date_modified": "2024-07-31T17:39:20.000",
    "request_status": "Pending",
    "responsible_agency": "Department of Sanitation",
    "final_address": "2902 Aubry St",
    "address_councildis": "D",
    "status": "Assigned to Contractor",
    "contractor": "IV Waste",
    "rowid": "1117812",
    "final_x": "3678855.46107",
    "final_y": "541705.59438",
    "longitude": "-90.0760679236828",
    "latitude": "29.98358260954092",
    "geocoded_column": {
      "latitude": "29.98358260954092",
      "longitude": "-90.0760679236828"
    }
  },
  {
    "service_request": "2024-1117810",
    "request_type": "Trash/Recycling",
    "request_reason": "Request a Large Item Pick Up",
    "date_created": "2024-07-31T17:24:49.000",
    "date_modified": "2024-07-31T17:24:50.000",
    "request_status": "Pending",
    "responsible_agency": "Department of Sanitation",
    "final_address": "4722 Majestic Oaks Dr",
    "address_councildis": "D",
    "status": "Assigned to Contractor",
    "contractor": "Waste Pro",
    "rowid": "1117810",
    "final_x": "3697677.87914",
    "final_y": "554306.931928",
    "longitude": "-90.01615958323194",
    "latitude": "30.01765030807066",
    "geocoded_column": {
      "latitude": "30.01765030807066",
      "longitude": "-90.01615958323194"
    }
  },
  {
    "service_request": "2024-1117809",
    "request_type": "Parks & Parkways",
    "request_reason": "Request Tree Service (Right of Way/Public Property)",
    "date_created": "2024-07-31T17:22:19.000",
    "date_modified": "2024-07-31T17:22:19.000",
    "request_status": "Pending",
    "responsible_agency": "Department of Parks & Parkway",
    "final_address": "2400 BLK Burdette St",
    "address_councildis": "A",
    "status": "Pending",
    "rowid": "1117809",
    "final_x": "3665830.9288",
    "final_y": "530948.842746",
    "longitude": "-90.11756694016509",
    "latitude": "29.954391635474103",
    "geocoded_column": {
      "latitude": "29.954391635474103",
      "longitude": "-90.11756694016509"
    }
  },
  {
    "service_request": "2024-1117808",
    "request_type": "Property Maintenance",
    "request_reason": "Property Maintenance",
    "date_created": "2024-07-31T17:18:32.000",
    "date_modified": "2024-07-31T17:18:32.000",
    "request_status": "Pending",
    "responsible_agency": "Department of Code Enforcement",
    "final_address": "3523 Republic St",
    "address_councildis": "D",
    "status": "Pending",
    "rowid": "1117808",
    "final_x": "3680516.05794",
    "final_y": "545411.520016",
    "longitude": "-90.07069389844756",
    "latitude": "29.99372239738798",
    "geocoded_column": {
      "latitude": "29.99372239738798",
      "longitude": "-90.07069389844756"
    }
  },
  {
    "service_request": "2024-1117807",
    "request_type": "Trash/Recycling",
    "request_reason": "Replace Trash Cart",
    "date_created": "2024-07-31T17:13:41.000",
    "date_modified": "2024-07-31T17:13:42.000",
    "request_status": "Pending",
    "responsible_agency": "Department of Sanitation",
    "final_address": "207 W Kenilworth St",
    "address_councildis": "A",
    "status": "Assigned to Contractor",
    "contractor": "IV Waste",
    "rowid": "1117807",
    "final_x": "3665469.49178",
    "final_y": "546364.03528",
    "longitude": "-90.11819202965873",
    "latitude": "29.99678880818457",
    "geocoded_column": {
      "latitude": "29.99678880818457",
      "longitude": "-90.11819202965873"
    }
  },
  {
    "service_request": "2024-1117806",
    "request_type": "Property Maintenance",
    "request_reason": "Property Maintenance",
    "date_created": "2024-07-31T17:03:35.000",
    "date_modified": "2024-07-31T17:03:35.000",
    "request_status": "Pending",
    "responsible_agency": "Department of Code Enforcement",
    "final_address": "1717 Canal St Apt 201",
    "address_councildis": "B",
    "status": "Pending",
    "rowid": "1117806",
    "final_x": "3678194.74971",
    "final_y": "533077.1897",
    "longitude": "-90.07845326532099",
    "latitude": "29.959877370830746",
    "geocoded_column": {
      "latitude": "29.959877370830746",
      "longitude": "-90.07845326532099"
    }
  },
  {
    "service_request": "2024-1117805",
    "request_type": "Property Maintenance",
    "request_reason": "Property Maintenance",
    "date_created": "2024-07-31T17:00:28.000",
    "date_modified": "2024-07-31T17:00:28.000",
    "request_status": "Pending",
    "responsible_agency": "Department of Code Enforcement",
    "final_address": "1717 Canal St",
    "address_councildis": "B",
    "status": "Pending",
    "rowid": "1117805",
    "final_x": "3678269.8877",
    "final_y": "533011.431428",
    "longitude": "-90.07821827064988",
    "latitude": "29.959694294950538",
    "geocoded_column": {
      "latitude": "29.959694294950538",
      "longitude": "-90.07821827064988"
    }
  },
  {
    "service_request": "2024-1117804",
    "request_type": "Property Maintenance",
    "request_reason": "Property Maintenance",
    "date_created": "2024-07-31T16:58:02.000",
    "date_modified": "2024-07-31T16:58:02.000",
    "request_status": "Pending",
    "responsible_agency": "Department of Code Enforcement",
    "final_address": "1717 Canal St Apt 200",
    "address_councildis": "B",
    "status": "Pending",
    "rowid": "1117804",
    "final_x": "3678192.98216",
    "final_y": "533074.843204",
    "longitude": "-90.07845892800214",
    "latitude": "29.95987097198642",
    "geocoded_column": {
      "latitude": "29.95987097198642",
      "longitude": "-90.07845892800214"
    }
  },
  {
    "service_request": "2024-1117803",
    "request_type": "Property Maintenance",
    "request_reason": "Property Maintenance",
    "date_created": "2024-07-31T16:51:39.000",
    "date_modified": "2024-07-31T16:51:40.000",
    "request_status": "Pending",
    "responsible_agency": "Department of Code Enforcement",
    "final_address": "2612 Music St",
    "address_councildis": "D",
    "status": "Pending",
    "rowid": "1117803",
    "final_x": "3686362.62287",
    "final_y": "542082.739724",
    "longitude": "-90.05234307095243",
    "latitude": "29.984390996077767",
    "geocoded_column": {
      "latitude": "29.984390996077767",
      "longitude": "-90.05234307095243"
    }
  },
  {
    "service_request": "2024-1117802",
    "request_type": "Trash/Recycling",
    "request_reason": "MIssed Recycling Pick-Up",
    "date_created": "2024-07-31T16:47:25.000",
    "date_modified": "2024-07-31T16:47:26.000",
    "request_status": "Pending",
    "responsible_agency": "Department of Sanitation",
    "final_address": "321 Alonzo St",
    "address_councildis": "A",
    "status": "Assigned to Contractor",
    "contractor": "IV Waste",
    "rowid": "1117802",
    "final_x": "3664633.28365",
    "final_y": "517570.918774",
    "longitude": "-90.12179528947192",
    "latitude": "29.91764148554684",
    "geocoded_column": {
      "latitude": "29.91764148554684",
      "longitude": "-90.12179528947192"
    }
  },
  {
    "service_request": "2024-1117801",
    "request_type": "Trash/Recycling",
    "request_reason": "Request a Large Item Pick Up",
    "date_created": "2024-07-31T16:47:23.000",
    "date_modified": "2024-07-31T16:47:24.000",
    "request_status": "Pending",
    "responsible_agency": "Department of Sanitation",
    "final_address": "7718 Zimple St",
    "address_councildis": "A",
    "status": "Assigned to Contractor",
    "contractor": "IV Waste",
    "rowid": "1117801",
    "final_x": "3662701.14503",
    "final_y": "527181.460863",
    "longitude": "-90.12757478922585",
    "latitude": "29.944123485338586",
    "geocoded_column": {
      "latitude": "29.944123485338586",
      "longitude": "-90.12757478922585"
    }
  },
  {
    "service_request": "2024-1117800",
    "request_type": "Property Maintenance",
    "request_reason": "Property Maintenance",
    "date_created": "2024-07-31T16:44:01.000",
    "date_modified": "2024-07-31T16:44:02.000",
    "request_status": "Pending",
    "responsible_agency": "Department of Code Enforcement",
    "final_address": "8410 Lomond Rd",
    "address_councildis": "E",
    "status": "Pending",
    "rowid": "1117800",
    "final_x": "3703624.15249",
    "final_y": "561945.633055",
    "longitude": "-89.99709037786991",
    "latitude": "30.038464482694714",
    "geocoded_column": {
      "latitude": "30.038464482694714",
      "longitude": "-89.99709037786991"
    }
  },
  {
    "service_request": "2024-1117799",
    "request_type": "Abandoned Vehicles",
    "request_reason": "Abandoned/Junk Vehicles",
    "date_created": "2024-07-31T16:43:35.000",
    "date_modified": "2024-07-31T16:43:36.000",
    "request_status": "Pending",
    "responsible_agency": "Department of Public Works",
    "final_address": "2516 Willow St",
    "address_councildis": "B",
    "status": "Pending",
    "rowid": "1117799",
    "final_x": "3674065.90619",
    "final_y": "526767.862078",
    "longitude": "-90.09170714884054",
    "latitude": "29.94265249732196",
    "geocoded_column": {
      "latitude": "29.94265249732196",
      "longitude": "-90.09170714884054"
    }
  },
  {
    "service_request": "2024-1117798",
    "request_type": "Trash/Recycling",
    "request_reason": "Replace Trash Cart",
    "date_created": "2024-07-31T16:36:11.000",
    "date_modified": "2024-07-31T16:36:12.000",
    "request_status": "Pending",
    "responsible_agency": "Department of Sanitation",
    "final_address": "4828 Maid Marion Dr",
    "address_councildis": "E",
    "status": "Assigned to Contractor",
    "contractor": "Waste Pro",
    "rowid": "1117798",
    "final_x": "3716852.34418",
    "final_y": "557377.118555",
    "longitude": "-89.95545986673714",
    "latitude": "30.02547210347198",
    "geocoded_column": {
      "latitude": "30.02547210347198",
      "longitude": "-89.95545986673714"
    }
  },
  {
    "service_request": "2024-1117797",
    "request_type": "Trash/Recycling",
    "request_reason": "Order Trash Cart",
    "date_created": "2024-07-31T16:35:14.000",
    "date_modified": "2024-07-31T16:35:15.000",
    "request_status": "Pending",
    "responsible_agency": "Department of Sanitation",
    "final_address": "1715 Columbus St",
    "address_councildis": "D",
    "status": "Assigned to Contractor",
    "contractor": "IV Waste",
    "rowid": "1117797",
    "final_x": "3681343.90364",
    "final_y": "537527.972488",
    "longitude": "-90.06835378205542",
    "latitude": "29.972020290010576",
    "geocoded_column": {
      "latitude": "29.972020290010576",
      "longitude": "-90.06835378205542"
    }
  },
  {
    "service_request": "2024-1117796",
    "request_type": "Property Maintenance",
    "request_reason": "Property Maintenance",
    "date_created": "2024-07-31T16:35:03.000",
    "date_modified": "2024-07-31T16:35:04.000",
    "request_status": "Pending",
    "responsible_agency": "Department of Code Enforcement",
    "final_address": "2542 St Maurice Ave",
    "address_councildis": "E",
    "status": "Pending",
    "rowid": "1117796",
    "final_x": "3701945.93181",
    "final_y": "538508.293129",
    "longitude": "-90.00325374135386",
    "latitude": "29.974074347580324",
    "geocoded_column": {
      "latitude": "29.974074347580324",
      "longitude": "-90.00325374135386"
    }
  },
  {
    "service_request": "2024-1117795",
    "request_type": "Trash/Recycling",
    "request_reason": "Request a Large Item Pick Up",
    "date_created": "2024-07-31T16:34:28.000",
    "date_modified": "2024-07-31T16:34:29.000",
    "request_status": "Pending",
    "responsible_agency": "Department of Sanitation",
    "final_address": "4828 Maid Marion Dr",
    "address_councildis": "E",
    "status": "Assigned to Contractor",
    "contractor": "Waste Pro",
    "rowid": "1117795",
    "final_x": "3716852.34418",
    "final_y": "557377.118555",
    "longitude": "-89.95545986673714",
    "latitude": "30.02547210347198",
    "geocoded_column": {
      "latitude": "30.02547210347198",
      "longitude": "-89.95545986673714"
    }
  },
  {
    "service_request": "2024-1117793",
    "request_type": "Trash/Recycling",
    "request_reason": "Illegal Dumping",
    "date_created": "2024-07-31T16:31:53.000",
    "date_modified": "2024-07-31T16:32:14.000",
    "request_status": "Pending",
    "responsible_agency": "Department of Sanitation",
    "final_address": "2549 N Tonti St",
    "address_councildis": "D",
    "status": "Pending",
    "rowid": "1117793",
    "final_x": "3686923.25679",
    "final_y": "540939.446539",
    "longitude": "-90.05061270769134",
    "latitude": "29.98123009943322",
    "geocoded_column": {
      "latitude": "29.98123009943322",
      "longitude": "-90.05061270769134"
    }
  },
  {
    "service_request": "2024-1117792",
    "request_type": "Trash/Recycling",
    "request_reason": "Request a Large Item Pick Up",
    "date_created": "2024-07-31T16:31:42.000",
    "date_modified": "2024-07-31T16:31:43.000",
    "request_status": "Pending",
    "responsible_agency": "Department of Sanitation",
    "final_address": "5861 Colbert St",
    "address_councildis": "A",
    "status": "Assigned to Contractor",
    "contractor": "IV Waste",
    "rowid": "1117792",
    "final_x": "3667397.91661",
    "final_y": "546611.001489",
    "longitude": "-90.11209190144305",
    "latitude": "29.997411507418374",
    "geocoded_column": {
      "latitude": "29.997411507418374",
      "longitude": "-90.11209190144305"
    }
  },
  {
    "service_request": "2024-1117791",
    "request_type": "Trash/Recycling",
    "request_reason": "Request a Large Item Pick Up",
    "date_created": "2024-07-31T16:31:17.000",
    "date_modified": "2024-07-31T16:31:18.000",
    "request_status": "Pending",
    "responsible_agency": "Department of Sanitation",
    "final_address": "7718 Cohn St",
    "address_councildis": "A",
    "status": "Assigned to Contractor",
    "contractor": "IV Waste",
    "rowid": "1117791",
    "final_x": "3664551.26765",
    "final_y": "529286.268801",
    "longitude": "-90.12166313581278",
    "latitude": "29.949857367330175",
    "geocoded_column": {
      "latitude": "29.949857367330175",
      "longitude": "-90.12166313581278"
    }
  },
  {
    "service_request": "2024-1117790",
    "request_type": "Property Maintenance",
    "request_reason": "Property Maintenance",
    "date_created": "2024-07-31T16:29:19.000",
    "date_modified": "2024-07-31T16:29:20.000",
    "request_status": "Pending",
    "responsible_agency": "Department of Code Enforcement",
    "final_address": "3301 LaSalle St",
    "address_councildis": "B",
    "status": "Pending",
    "rowid": "1117790",
    "final_x": "3673348.24443",
    "final_y": "524375.984572",
    "longitude": "-90.09405465394819",
    "latitude": "29.93609697798072",
    "geocoded_column": {
      "latitude": "29.93609697798072",
      "longitude": "-90.09405465394819"
    }
  },
  {
    "service_request": "2024-1117789",
    "request_type": "Trash/Recycling",
    "request_reason": "Request a Large Item Pick Up",
    "date_created": "2024-07-31T16:29:15.000",
    "date_modified": "2024-07-31T16:29:17.000",
    "request_status": "Pending",
    "responsible_agency": "Department of Sanitation",
    "final_address": "8630 Zimple St",
    "address_councildis": "A",
    "status": "Assigned to Contractor",
    "contractor": "IV Waste",
    "rowid": "1117789",
    "final_x": "3660197.18554",
    "final_y": "529458.452289",
    "longitude": "-90.13540537590369",
    "latitude": "29.950456699719044",
    "geocoded_column": {
      "latitude": "29.950456699719044",
      "longitude": "-90.13540537590369"
    }
  },
  {
    "service_request": "2024-1117788",
    "request_type": "Trash/Recycling",
    "request_reason": "Order Recycling Cart",
    "date_created": "2024-07-31T16:28:20.000",
    "date_modified": "2024-07-31T16:28:21.000",
    "request_status": "Pending",
    "responsible_agency": "Department of Sanitation",
    "final_address": "3105 Banks St",
    "address_councildis": "B",
    "status": "Pending",
    "rowid": "1117788",
    "final_x": "3673321.93793",
    "final_y": "535202.79559",
    "longitude": "-90.09376794070151",
    "latitude": "29.96586791103564",
    "geocoded_column": {
      "latitude": "29.96586791103564",
      "longitude": "-90.09376794070151"
    }
  },
  {
    "service_request": "2024-1117787",
    "request_type": "Trash/Recycling",
    "request_reason": "Replace Trash Cart",
    "date_created": "2024-07-31T16:22:31.000",
    "date_modified": "2024-07-31T16:22:32.000",
    "request_status": "Pending",
    "responsible_agency": "Department of Sanitation",
    "final_address": "833 Washington Ave",
    "address_councildis": "B",
    "status": "Assigned to Contractor",
    "contractor": "IV Waste",
    "rowid": "1117787",
    "final_x": "3677546.21051",
    "final_y": "520156.09804",
    "longitude": "-90.0809471687402",
    "latitude": "29.924368156582094",
    "geocoded_column": {
      "latitude": "29.924368156582094",
      "longitude": "-90.0809471687402"
    }
  },
  {
    "service_request": "2024-1117785",
    "request_type": "Property Maintenance",
    "request_reason": "Property Maintenance",
    "date_created": "2024-07-31T16:18:34.000",
    "date_modified": "2024-07-31T16:18:35.000",
    "request_status": "Pending",
    "responsible_agency": "Department of Code Enforcement",
    "final_address": "5517 Mandeville St",
    "address_councildis": "D",
    "status": "Pending",
    "rowid": "1117785",
    "final_x": "3684468.20617",
    "final_y": "553256.172759",
    "longitude": "-90.05793385647728",
    "latitude": "30.01517201869307",
    "geocoded_column": {
      "latitude": "30.01517201869307",
      "longitude": "-90.05793385647728"
    }
  },
  {
    "service_request": "2024-1117784",
    "request_type": "Property Maintenance",
    "request_reason": "Property Maintenance",
    "date_created": "2024-07-31T16:18:21.000",
    "date_modified": "2024-07-31T16:18:22.000",
    "request_status": "Pending",
    "responsible_agency": "Department of Code Enforcement",
    "final_address": "4001 Paris Ave",
    "address_councildis": "D",
    "status": "Pending",
    "rowid": "1117784",
    "final_x": "3679634.7853",
    "final_y": "547034.996433",
    "longitude": "-90.07342131750138",
    "latitude": "29.998213055748188",
    "geocoded_column": {
      "latitude": "29.998213055748188",
      "longitude": "-90.07342131750138"
    }
  },
  {
    "service_request": "2024-1117783",
    "request_type": "Parks & Parkways",
    "request_reason": "Request Tree Service (Right of Way/Public Property)",
    "date_created": "2024-07-31T16:18:00.000",
    "date_modified": "2024-07-31T16:18:01.000",
    "request_status": "Pending",
    "responsible_agency": "Department of Parks & Parkway",
    "final_address": "823 N Claiborne Ave",
    "address_councildis": "D",
    "status": "Pending",
    "rowid": "1117783",
    "final_x": "3679982.92399",
    "final_y": "535143.478662",
    "longitude": "-90.07273482468943",
    "latitude": "29.96550499288831",
    "geocoded_column": {
      "latitude": "29.96550499288831",
      "longitude": "-90.07273482468943"
    }
  },
  {
    "service_request": "2024-1117782",
    "request_type": "Trash/Recycling",
    "request_reason": "Order Recycling Cart",
    "date_created": "2024-07-31T16:16:54.000",
    "date_modified": "2024-07-31T16:16:55.000",
    "request_status": "Pending",
    "responsible_agency": "Department of Sanitation",
    "final_address": "1700 Odeon St",
    "address_councildis": "C",
    "status": "Pending",
    "rowid": "1117782",
    "final_x": "3695975.25744",
    "final_y": "525074.151229",
    "longitude": "-90.02259573272111",
    "latitude": "29.93732439948479",
    "geocoded_column": {
      "latitude": "29.93732439948479",
      "longitude": "-90.02259573272111"
    }
  },
  {
    "service_request": "2024-1117781",
    "request_type": "Trash/Recycling",
    "request_reason": "Order Trash Cart",
    "date_created": "2024-07-31T16:16:17.000",
    "date_modified": "2024-07-31T16:16:18.000",
    "request_status": "Pending",
    "responsible_agency": "Department of Sanitation",
    "final_address": "1700 Odeon St",
    "address_councildis": "C",
    "status": "Assigned to Contractor",
    "contractor": "Richards Disposal",
    "rowid": "1117781",
    "final_x": "3695975.25744",
    "final_y": "525074.151229",
    "longitude": "-90.02259573272111",
    "latitude": "29.93732439948479",
    "geocoded_column": {
      "latitude": "29.93732439948479",
      "longitude": "-90.02259573272111"
    }
  },
  {
    "service_request": "2024-1117780",
    "request_type": "Property Maintenance",
    "request_reason": "Property Maintenance",
    "date_created": "2024-07-31T16:14:36.000",
    "date_modified": "2024-07-31T16:14:36.000",
    "request_status": "Pending",
    "responsible_agency": "Department of Code Enforcement",
    "final_address": "4235 Touro St",
    "address_councildis": "D",
    "status": "Pending",
    "rowid": "1117780",
    "final_x": "3683304.68092",
    "final_y": "548328.401298",
    "longitude": "-90.06178281956223",
    "latitude": "30.001657990160414",
    "geocoded_column": {
      "latitude": "30.001657990160414",
      "longitude": "-90.06178281956223"
    }
  },
  {
    "service_request": "2024-1117779",
    "request_type": "Trash/Recycling",
    "request_reason": "Request a Large Item Pick Up",
    "date_created": "2024-07-31T16:11:56.000",
    "date_modified": "2024-07-31T16:11:57.000",
    "request_status": "Pending",
    "responsible_agency": "Department of Sanitation",
    "final_address": "2634 Chartres St Apt 2A",
    "address_councildis": "C",
    "status": "Assigned to Contractor",
    "contractor": "IV Waste",
    "rowid": "1117779",
    "final_x": "3686906.04758",
    "final_y": "534533.863877",
    "longitude": "-90.05089349821914",
    "latitude": "29.963617520416182",
    "geocoded_column": {
      "latitude": "29.963617520416182",
      "longitude": "-90.05089349821914"
    }
  },
  {
    "service_request": "2024-1117778",
    "request_type": "Trash/Recycling",
    "request_reason": "Request a Large Item Pick Up",
    "date_created": "2024-07-31T16:09:31.000",
    "date_modified": "2024-07-31T16:09:32.000",
    "request_status": "Pending",
    "responsible_agency": "Department of Sanitation",
    "final_address": "4527 S Rocheblave St",
    "address_councildis": "B",
    "status": "Assigned to Contractor",
    "contractor": "IV Waste",
    "rowid": "1117778",
    "final_x": "3669508.8363",
    "final_y": "528467.871936",
    "longitude": "-90.1060374357152",
    "latitude": "29.947461963871504",
    "geocoded_column": {
      "latitude": "29.947461963871504",
      "longitude": "-90.1060374357152"
    }
  },
  {
    "service_request": "2024-1117777",
    "request_type": "Trash/Recycling",
    "request_reason": "Request a Large Item Pick Up",
    "date_created": "2024-07-31T16:07:14.000",
    "date_modified": "2024-07-31T16:07:15.000",
    "request_status": "Pending",
    "responsible_agency": "Department of Sanitation",
    "final_address": "2824 Carondelet St",
    "address_councildis": "B",
    "status": "Assigned to Contractor",
    "contractor": "IV Waste",
    "rowid": "1117777",
    "final_x": "3675535.22741",
    "final_y": "522704.100602",
    "longitude": "-90.08720768501283",
    "latitude": "29.93143462232989",
    "geocoded_column": {
      "latitude": "29.93143462232989",
      "longitude": "-90.08720768501283"
    }
  },
  {
    "service_request": "2024-1117776",
    "request_type": "Abandoned Vehicles",
    "request_reason": "Abandoned/Junk Vehicles",
    "date_created": "2024-07-31T16:05:09.000",
    "date_modified": "2024-07-31T16:05:10.000",
    "request_status": "Pending",
    "responsible_agency": "Department of Public Works",
    "final_address": "7500 Lafourche St",
    "address_councildis": "E",
    "status": "Pending",
    "rowid": "1117776",
    "final_x": "3710557.68926",
    "final_y": "564896.332002",
    "longitude": "-89.97506822766219",
    "latitude": "30.046353574166666",
    "geocoded_column": {
      "latitude": "30.046353574166666",
      "longitude": "-89.97506822766219"
    }
  },
  {
    "service_request": "2024-1117775",
    "request_type": "Property Maintenance",
    "request_reason": "Property Maintenance",
    "date_created": "2024-07-31T15:59:00.000",
    "date_modified": "2024-07-31T15:59:00.000",
    "request_status": "Pending",
    "responsible_agency": "Department of Code Enforcement",
    "final_address": "616 Olivier St",
    "address_councildis": "C",
    "status": "Pending",
    "rowid": "1117775",
    "final_x": "3687336.37545",
    "final_y": "529343.219137",
    "longitude": "-90.0497181945777",
    "latitude": "29.949331784785272",
    "geocoded_column": {
      "latitude": "29.949331784785272",
      "longitude": "-90.0497181945777"
    }
  },
  {
    "service_request": "2024-1117774",
    "request_type": "Property Maintenance",
    "request_reason": "Property Maintenance",
    "date_created": "2024-07-31T15:56:56.000",
    "date_modified": "2024-07-31T15:56:57.000",
    "request_status": "Pending",
    "responsible_agency": "Department of Code Enforcement",
    "final_address": "621 Olivier St",
    "address_councildis": "C",
    "status": "Pending",
    "rowid": "1117774",
    "final_x": "3687245.75887",
    "final_y": "529310.729473",
    "longitude": "-90.05000545966277",
    "latitude": "29.949245240239343",
    "geocoded_column": {
      "latitude": "29.949245240239343",
      "longitude": "-90.05000545966277"
    }
  },
  {
    "service_request": "2024-1117773",
    "request_type": "Trash/Recycling",
    "request_reason": "Replace Trash Cart",
    "date_created": "2024-07-31T15:56:49.000",
    "date_modified": "2024-07-31T15:56:50.000",
    "request_status": "Pending",
    "responsible_agency": "Department of Sanitation",
    "final_address": "3245 Elmwood Park Dr",
    "address_councildis": "C",
    "status": "Assigned to Contractor",
    "contractor": "Richards Disposal",
    "rowid": "1117773",
    "final_x": "3695024.53264",
    "final_y": "518171.901302",
    "longitude": "-90.02584586727687",
    "latitude": "29.91837543076131",
    "geocoded_column": {
      "latitude": "29.91837543076131",
      "longitude": "-90.02584586727687"
    }
  },
  {
    "service_request": "2024-1117772",
    "request_type": "Trash/Recycling",
    "request_reason": "Request a Large Item Pick Up",
    "date_created": "2024-07-31T15:56:27.000",
    "date_modified": "2024-07-31T15:57:06.000",
    "request_status": "Pending",
    "responsible_agency": "Department of Sanitation",
    "final_address": "5411 Royal St",
    "address_councildis": "E",
    "status": "Assigned to Contractor",
    "contractor": "Waste Pro",
    "rowid": "1117772",
    "final_x": "3696897.33898",
    "final_y": "532498.415428",
    "longitude": "-90.01941590777422",
    "latitude": "29.957709498503405",
    "geocoded_column": {
      "latitude": "29.957709498503405",
      "longitude": "-90.01941590777422"
    }
  },
  {
    "service_request": "2024-1117771",
    "request_type": "Property Maintenance",
    "request_reason": "Property Maintenance",
    "date_created": "2024-07-31T15:54:35.000",
    "date_modified": "2024-07-31T15:54:36.000",
    "request_status": "Pending",
    "responsible_agency": "Department of Code Enforcement",
    "final_address": "609 Olivier St",
    "address_councildis": "C",
    "status": "Pending",
    "rowid": "1117771",
    "final_x": "3687243.13705",
    "final_y": "529395.621441",
    "longitude": "-90.05001073586914",
    "latitude": "29.949478744894485",
    "geocoded_column": {
      "latitude": "29.949478744894485",
      "longitude": "-90.05001073586914"
    }
  },
  {
    "service_request": "2024-1117770",
    "request_type": "Roads/Drainage",
    "request_reason": "Road Shoulder Repair",
    "date_created": "2024-07-31T15:53:59.000",
    "date_modified": "2024-07-31T15:53:59.000",
    "request_status": "Pending",
    "responsible_agency": "Department of Public Works",
    "final_address": "5101 Congress Dr",
    "address_councildis": "D",
    "status": "Pending",
    "rowid": "1117770",
    "final_x": "3691988.74928",
    "final_y": "553146.125527",
    "longitude": "-90.03417651593844",
    "latitude": "30.014637116858342",
    "geocoded_column": {
      "latitude": "30.014637116858342",
      "longitude": "-90.03417651593844"
    }
  },
  {
    "service_request": "2024-1117769",
    "request_type": "Roads/Drainage",
    "request_reason": "Catch Basin - Clogged",
    "date_created": "2024-07-31T15:53:57.000",
    "date_modified": "2024-07-31T15:53:58.000",
    "request_status": "Pending",
    "responsible_agency": "Department of Public Works",
    "final_address": "2736 Acacia St",
    "address_councildis": "D",
    "status": "Pending",
    "rowid": "1117769",
    "final_x": "3688174.7286",
    "final_y": "546393.430608",
    "longitude": "-90.0464665391789",
    "latitude": "29.996188022445246",
    "geocoded_column": {
      "latitude": "29.996188022445246",
      "longitude": "-90.0464665391789"
    }
  },
  {
    "service_request": "2024-1117768",
    "request_type": "Roads/Drainage",
    "request_reason": "Street Subsidence (Sinking)",
    "date_created": "2024-07-31T15:53:45.000",
    "date_modified": "2024-07-31T15:53:46.000",
    "request_status": "Pending",
    "responsible_agency": "Department of Public Works",
    "final_address": "931 France St",
    "address_councildis": "C",
    "status": "Pending",
    "rowid": "1117768",
    "final_x": "3692287.24393",
    "final_y": "534588.660933",
    "longitude": "-90.03389834084214",
    "latitude": "29.963601492133467",
    "geocoded_column": {
      "latitude": "29.963601492133467",
      "longitude": "-90.03389834084214"
    }
  },
  {
    "service_request": "2024-1117767",
    "request_type": "Trash/Recycling",
    "request_reason": "Request a Large Item Pick Up",
    "date_created": "2024-07-31T15:52:20.000",
    "date_modified": "2024-07-31T15:52:21.000",
    "request_status": "Pending",
    "responsible_agency": "Department of Sanitation",
    "final_address": "3629 Somerset Dr",
    "address_councildis": "C",
    "status": "Assigned to Contractor",
    "contractor": "Richards Disposal",
    "rowid": "1117767",
    "final_x": "3702402.19588",
    "final_y": "517259.831221",
    "longitude": "-90.00259212802656",
    "latitude": "29.915634009631123",
    "geocoded_column": {
      "latitude": "29.915634009631123",
      "longitude": "-90.00259212802656"
    }
  },
  {
    "service_request": "2024-1117766",
    "request_type": "Abandoned Vehicles",
    "request_reason": "Abandoned/Junk Vehicles",
    "date_created": "2024-07-31T15:51:12.000",
    "date_modified": "2024-07-31T15:51:13.000",
    "request_status": "Pending",
    "responsible_agency": "Department of Public Works",
    "final_address": "609 Olivier St",
    "address_councildis": "C",
    "status": "Pending",
    "rowid": "1117766",
    "final_x": "3687243.13705",
    "final_y": "529395.621441",
    "longitude": "-90.05001073586914",
    "latitude": "29.949478744894485",
    "geocoded_column": {
      "latitude": "29.949478744894485",
      "longitude": "-90.05001073586914"
    }
  },
  {
    "service_request": "2024-1117765",
    "request_type": "Trash/Recycling",
    "request_reason": "Missed Trash Pick-Up",
    "date_created": "2024-07-31T15:50:37.000",
    "date_modified": "2024-07-31T16:23:44.000",
    "case_close_date": "2024-07-31T11:23:44.000",
    "request_status": "Closed",
    "responsible_agency": "Department of Sanitation",
    "final_address": "2732 Acacia St",
    "address_councildis": "D",
    "status": "Invalid Request",
    "contractor": "IV Waste",
    "contractor_action": "Invalid",
    "rowid": "1117765",
    "final_x": "3688120.52412",
    "final_y": "546383.460176",
    "longitude": "-90.04663812043543",
    "latitude": "29.996162281112404",
    "geocoded_column": {
      "latitude": "29.996162281112404",
      "longitude": "-90.04663812043543"
    }
  },
  {
    "service_request": "2024-1117763",
    "request_type": "Property Maintenance",
    "request_reason": "Property Maintenance",
    "date_created": "2024-07-31T15:49:24.000",
    "date_modified": "2024-07-31T15:49:24.000",
    "request_status": "Pending",
    "responsible_agency": "Department of Code Enforcement",
    "final_address": "606 Olivier St",
    "address_councildis": "C",
    "status": "Pending",
    "rowid": "1117763",
    "final_x": "3687331.11298",
    "final_y": "529423.771009",
    "longitude": "-90.04973196133388",
    "latitude": "29.949553437007154",
    "geocoded_column": {
      "latitude": "29.949553437007154",
      "longitude": "-90.04973196133388"
    }
  },
  {
    "service_request": "2024-1117760",
    "request_type": "Trash/Recycling",
    "request_reason": "Request a Large Item Pick Up",
    "date_created": "2024-07-31T15:42:58.000",
    "date_modified": "2024-07-31T15:42:59.000",
    "request_status": "Pending",
    "responsible_agency": "Department of Sanitation",
    "final_address": "4769 Laine Ave",
    "address_councildis": "E",
    "status": "Assigned to Contractor",
    "contractor": "Waste Pro",
    "rowid": "1117760",
    "final_x": "3705725.64183",
    "final_y": "555610.086745",
    "longitude": "-89.99068377407312",
    "latitude": "30.020976653846173",
    "geocoded_column": {
      "latitude": "30.020976653846173",
      "longitude": "-89.99068377407312"
    }
  },
  {
    "service_request": "2024-1117759",
    "request_type": "Trash/Recycling",
    "request_reason": "Request a Large Item Pick Up",
    "date_created": "2024-07-31T15:39:37.000",
    "date_modified": "2024-07-31T15:39:38.000",
    "request_status": "Pending",
    "responsible_agency": "Department of Sanitation",
    "final_address": "13035 Laval St",
    "address_councildis": "E",
    "status": "Assigned to Contractor",
    "contractor": "Waste Pro",
    "rowid": "1117759",
    "final_x": "3723860.80947",
    "final_y": "562545.271328",
    "longitude": "-89.93311488583099",
    "latitude": "30.039448821317812",
    "geocoded_column": {
      "latitude": "30.039448821317812",
      "longitude": "-89.93311488583099"
    }
  },
  {
    "service_request": "2024-1117758",
    "request_type": "Trash/Recycling",
    "request_reason": "Request a Large Item Pick Up",
    "date_created": "2024-07-31T15:38:34.000",
    "date_modified": "2024-07-31T15:38:35.000",
    "request_status": "Pending",
    "responsible_agency": "Department of Sanitation",
    "final_address": "6216 Campus Blvd",
    "address_councildis": "D",
    "status": "Assigned to Contractor",
    "contractor": "IV Waste",
    "rowid": "1117758",
    "final_x": "3688434.90179",
    "final_y": "556405.414874",
    "longitude": "-90.04528915148427",
    "latitude": "30.023709267082612",
    "geocoded_column": {
      "latitude": "30.023709267082612",
      "longitude": "-90.04528915148427"
    }
  },
  {
    "service_request": "2024-1117757",
    "request_type": "Traffic Signals/Signs/Striping/Streetlights",
    "request_reason": "Request for Stop Sign",
    "date_created": "2024-07-31T15:38:27.000",
    "date_modified": "2024-07-31T15:38:28.000",
    "request_status": "Pending",
    "responsible_agency": "Department of Public Works",
    "final_address": "BERKLEY DR & HUNTLEE DR",
    "address_councildis": "C",
    "status": "Pending",
    "rowid": "1117757",
    "final_x": "3701724.1",
    "final_y": "518246.28",
    "longitude": "-90.00469633759542",
    "latitude": "29.918368042860944",
    "geocoded_column": {
      "latitude": "29.918368042860944",
      "longitude": "-90.00469633759542"
    }
  },
  {
    "service_request": "2024-1117756",
    "request_type": "Trash/Recycling",
    "request_reason": "Request a Large Item Pick Up",
    "date_created": "2024-07-31T15:38:11.000",
    "date_modified": "2024-07-31T15:38:12.000",
    "request_status": "Pending",
    "responsible_agency": "Department of Sanitation",
    "final_address": "4909 Carondelet St",
    "address_councildis": "B",
    "status": "Assigned to Contractor",
    "contractor": "IV Waste",
    "rowid": "1117756",
    "final_x": "3668967.87502",
    "final_y": "521173.868281",
    "longitude": "-90.10799174322814",
    "latitude": "29.927421723435902",
    "geocoded_column": {
      "latitude": "29.927421723435902",
      "longitude": "-90.10799174322814"
    }
  },
  {
    "service_request": "2024-1117755",
    "request_type": "Trash/Recycling",
    "request_reason": "Illegal Dumping",
    "date_created": "2024-07-31T15:37:36.000",
    "date_modified": "2024-07-31T15:37:36.000",
    "request_status": "Pending",
    "responsible_agency": "Department of Sanitation",
    "final_address": "6401 Florida Ave",
    "address_councildis": "E",
    "status": "Pending",
    "rowid": "1117755",
    "final_x": "3702982.03838",
    "final_y": "538679.735753",
    "longitude": "-89.99997520434388",
    "latitude": "29.97451264148602",
    "geocoded_column": {
      "latitude": "29.97451264148602",
      "longitude": "-89.99997520434388"
    }
  },
  {
    "service_request": "2024-1117754",
    "request_type": "Trash/Recycling",
    "request_reason": "Repair Trash Cart",
    "date_created": "2024-07-31T15:36:32.000",
    "date_modified": "2024-07-31T15:36:33.000",
    "request_status": "Pending",
    "responsible_agency": "Department of Sanitation",
    "final_address": "2263 Odin St",
    "address_councildis": "D",
    "status": "Assigned to Contractor",
    "contractor": "IV Waste",
    "rowid": "1117754",
    "final_x": "3684322.55881",
    "final_y": "553136.154711",
    "longitude": "-90.05839825208044",
    "latitude": "30.014846469743556",
    "geocoded_column": {
      "latitude": "30.014846469743556",
      "longitude": "-90.05839825208044"
    }
  },
  {
    "service_request": "2024-1117753",
    "request_type": "Property Maintenance",
    "request_reason": "Property Maintenance",
    "date_created": "2024-07-31T15:33:46.000",
    "date_modified": "2024-07-31T15:39:36.000",
    "request_status": "Pending",
    "responsible_agency": "Department of Code Enforcement",
    "final_address": "1300 Perdido St, New Orleans, Louisiana, 70112",
    "address_councildis": "B",
    "rowid": "1117753",
    "final_x": "3678683.48347",
    "final_y": "530227.987073",
    "longitude": "-90.07700859883013",
    "latitude": "29.952028297123956",
    "geocoded_column": {
      "latitude": "29.952028297123956",
      "longitude": "-90.07700859883013"
    }
  },
  {
    "service_request": "2024-1117752",
    "request_type": "Roads/Drainage",
    "request_reason": "Road Shoulder Repair",
    "date_created": "2024-07-31T15:30:29.000",
    "date_modified": "2024-07-31T15:30:30.000",
    "request_status": "Pending",
    "responsible_agency": "Department of Public Works",
    "final_address": "1712 Bayou Rd",
    "address_councildis": "D",
    "status": "Pending",
    "rowid": "1117752",
    "final_x": "3680801.22939",
    "final_y": "536302.336647",
    "longitude": "-90.0701103077498",
    "latitude": "29.968666675414664",
    "geocoded_column": {
      "latitude": "29.968666675414664",
      "longitude": "-90.0701103077498"
    }
  },
  {
    "service_request": "2024-1117751",
    "request_type": "Traffic Signals/Signs/Striping/Streetlights",
    "request_reason": "Additional signage",
    "date_created": "2024-07-31T15:29:49.000",
    "date_modified": "2024-07-31T15:31:36.000",
    "request_status": "Pending",
    "responsible_agency": "Department of Public Works",
    "final_address": "ST CHARLES AVE & BURDETTE ST",
    "address_councildis": "A",
    "status": "Pending",
    "rowid": "1117751",
    "final_x": "3661372.9",
    "final_y": "526056.58",
    "longitude": "-90.13180569471992",
    "latitude": "29.94106878581876",
    "geocoded_column": {
      "latitude": "29.94106878581876",
      "longitude": "-90.13180569471992"
    }
  },
  {
    "service_request": "2024-1117750",
    "request_type": "Trash/Recycling",
    "request_reason": "Order Recycling Cart",
    "date_created": "2024-07-31T15:29:01.000",
    "date_modified": "2024-07-31T15:29:02.000",
    "request_status": "Pending",
    "responsible_agency": "Department of Sanitation",
    "final_address": "1360 Constance St",
    "address_councildis": "B",
    "status": "Pending",
    "rowid": "1117750",
    "final_x": "3680814.24968",
    "final_y": "524653.779068",
    "longitude": "-90.07047462524456",
    "latitude": "29.93663667826864",
    "geocoded_column": {
      "latitude": "29.93663667826864",
      "longitude": "-90.07047462524456"
    }
  },
  {
    "service_request": "2024-1117747",
    "request_type": "Property Maintenance",
    "request_reason": "Property Maintenance",
    "date_created": "2024-07-31T15:21:10.000",
    "date_modified": "2024-07-31T15:21:11.000",
    "request_status": "Pending",
    "responsible_agency": "Department of Code Enforcement",
    "final_address": "4601 Francisco Verrett Dr",
    "address_councildis": "E",
    "status": "Pending",
    "rowid": "1117747",
    "final_x": "3704356.77649",
    "final_y": "554321.944728",
    "longitude": "-89.9950564989628",
    "latitude": "30.017478791620384",
    "geocoded_column": {
      "latitude": "30.017478791620384",
      "longitude": "-89.9950564989628"
    }
  },
  {
    "service_request": "2024-1117746",
    "request_type": "Roads/Drainage",
    "request_reason": "Pothole",
    "date_created": "2024-07-31T15:15:47.000",
    "date_modified": "2024-07-31T15:15:47.000",
    "request_status": "Pending",
    "responsible_agency": "Department of Public Works",
    "final_address": "1112 Constantinople St",
    "address_councildis": "B",
    "status": "Pending",
    "rowid": "1117746",
    "final_x": "3672348.95259",
    "final_y": "519796.384952",
    "longitude": "-90.09736540233975",
    "latitude": "29.923534233550217",
    "geocoded_column": {
      "latitude": "29.923534233550217",
      "longitude": "-90.09736540233975"
    }
  },
  {
    "service_request": "2024-1117745",
    "request_type": "Roads/Drainage",
    "request_reason": "Pothole",
    "date_created": "2024-07-31T15:15:02.000",
    "date_modified": "2024-07-31T15:15:02.000",
    "request_status": "Pending",
    "responsible_agency": "Department of Public Works",
    "final_address": "1312 Milan St",
    "address_councildis": "B",
    "status": "Pending",
    "rowid": "1117745",
    "final_x": "3671625.82823",
    "final_y": "520286.919608",
    "longitude": "-90.09963137110304",
    "latitude": "29.92490447494246",
    "geocoded_column": {
      "latitude": "29.92490447494246",
      "longitude": "-90.09963137110304"
    }
  },
  {
    "service_request": "2024-1117744",
    "request_type": "Parks & Parkways",
    "request_reason": "Request Tree Service (Right of Way/Public Property)",
    "date_created": "2024-07-31T15:10:26.000",
    "date_modified": "2024-07-31T15:10:27.000",
    "request_status": "Pending",
    "responsible_agency": "Department of Parks & Parkway",
    "final_address": "5534 S Liberty St",
    "address_councildis": "A",
    "status": "Pending",
    "rowid": "1117744",
    "final_x": "3667159.26644",
    "final_y": "523372.620027",
    "longitude": "-90.11362720855008",
    "latitude": "29.933520648995206",
    "geocoded_column": {
      "latitude": "29.933520648995206",
      "longitude": "-90.11362720855008"
    }
  },
  {
    "service_request": "2024-1117743",
    "request_type": "Parks & Parkways",
    "request_reason": "Request Tree Service (Right of Way/Public Property)",
    "date_created": "2024-07-31T15:07:39.000",
    "date_modified": "2024-07-31T15:07:40.000",
    "request_status": "Pending",
    "responsible_agency": "Department of Parks & Parkway",
    "final_address": "BURDETTE ST & HAMPSON ST",
    "address_councildis": "A",
    "status": "Pending",
    "rowid": "1117743",
    "final_x": "3661628.8",
    "final_y": "526334.38",
    "longitude": "-90.13098856409135",
    "latitude": "29.941825266738817",
    "geocoded_column": {
      "latitude": "29.941825266738817",
      "longitude": "-90.13098856409135"
    }
  },
  {
    "service_request": "2024-1117742",
    "request_type": "Trash/Recycling",
    "request_reason": "Illegal Dumping",
    "date_created": "2024-07-31T15:07:14.000",
    "date_modified": "2024-07-31T15:07:14.000",
    "request_status": "Pending",
    "responsible_agency": "Department of Sanitation",
    "final_address": "3001 Bienville Ave",
    "address_councildis": "B",
    "status": "Pending",
    "rowid": "1117742",
    "final_x": "3674822.66619",
    "final_y": "536566.609991",
    "longitude": "-90.08898191087472",
    "latitude": "29.969573213726136",
    "geocoded_column": {
      "latitude": "29.969573213726136",
      "longitude": "-90.08898191087472"
    }
  },
  {
    "service_request": "2024-1117741",
    "request_type": "Trash/Recycling",
    "request_reason": "Request a Large Item Pick Up",
    "date_created": "2024-07-31T15:00:42.000",
    "date_modified": "2024-07-31T15:25:25.000",
    "request_status": "Pending",
    "responsible_agency": "Department of Sanitation",
    "final_address": "4717 Mithra St",
    "address_councildis": "D",
    "contractor": "IV Waste",
    "rowid": "1117741",
    "final_x": "3691203.00361",
    "final_y": "553618.558167",
    "longitude": "-90.0366421882599",
    "latitude": "30.015960603555243",
    "geocoded_column": {
      "latitude": "30.015960603555243",
      "longitude": "-90.0366421882599"
    }
  },
  {
    "service_request": "2024-1117740",
    "request_type": "Property Maintenance",
    "request_reason": "Property Maintenance",
    "date_created": "2024-07-31T15:00:00.000",
    "date_modified": "2024-07-31T15:00:00.000",
    "request_status": "Pending",
    "responsible_agency": "Department of Code Enforcement",
    "final_address": "6220 Baccich St",
    "address_councildis": "D",
    "status": "Pending",
    "rowid": "1117740",
    "final_x": "3687377.45436",
    "final_y": "556252.351194",
    "longitude": "-90.04863588785103",
    "latitude": "30.023321040882408",
    "geocoded_column": {
      "latitude": "30.023321040882408",
      "longitude": "-90.04863588785103"
    }
  },
  {
    "service_request": "2024-1117739",
    "request_type": "Property Maintenance",
    "request_reason": "Property Maintenance",
    "date_created": "2024-07-31T14:59:29.000",
    "date_modified": "2024-07-31T14:59:30.000",
    "request_status": "Pending",
    "responsible_agency": "Department of Code Enforcement",
    "final_address": "4402 State Street Dr",
    "address_councildis": "B",
    "status": "Pending",
    "rowid": "1117739",
    "final_x": "3668714.2091",
    "final_y": "531957.833603",
    "longitude": "-90.10842859311148",
    "latitude": "29.957081595022803",
    "geocoded_column": {
      "latitude": "29.957081595022803",
      "longitude": "-90.10842859311148"
    }
  },
  {
    "service_request": "2024-1117738",
    "request_type": "Trash/Recycling",
    "request_reason": "Request a Large Item Pick Up",
    "date_created": "2024-07-31T14:54:56.000",
    "date_modified": "2024-07-31T14:54:57.000",
    "request_status": "Pending",
    "responsible_agency": "Department of Sanitation",
    "final_address": "6314 York St",
    "address_councildis": "A",
    "status": "Assigned to Contractor",
    "contractor": "IV Waste",
    "rowid": "1117738",
    "final_x": "3667423.3129",
    "final_y": "529127.68",
    "longitude": "-90.11260006629487",
    "latitude": "29.949337478475517",
    "geocoded_column": {
      "latitude": "29.949337478475517",
      "longitude": "-90.11260006629487"
    }
  },
  {
    "service_request": "2024-1117737",
    "request_type": "Trash/Recycling",
    "request_reason": "Request a Large Item Pick Up",
    "date_created": "2024-07-31T14:54:23.000",
    "date_modified": "2024-07-31T14:54:23.000",
    "request_status": "Pending",
    "responsible_agency": "Department of Sanitation",
    "final_address": "4936 Little John Dr",
    "address_councildis": "E",
    "status": "Assigned to Contractor",
    "contractor": "Waste Pro",
    "rowid": "1117737",
    "final_x": "3717064.06245",
    "final_y": "557883.540571",
    "longitude": "-89.95477162342615",
    "latitude": "30.0268575597567",
    "geocoded_column": {
      "latitude": "30.0268575597567",
      "longitude": "-89.95477162342615"
    }
  },
  {
    "service_request": "2024-1117736",
    "request_type": "Property Maintenance",
    "request_reason": "Property Maintenance",
    "date_created": "2024-07-31T14:54:05.000",
    "date_modified": "2024-07-31T14:54:06.000",
    "request_status": "Pending",
    "responsible_agency": "Department of Code Enforcement",
    "final_address": "422 Diana St",
    "address_councildis": "C",
    "status": "Pending",
    "rowid": "1117736",
    "final_x": "3686854.69295",
    "final_y": "527599.856895",
    "longitude": "-90.05130066524762",
    "latitude": "29.944552960346673",
    "geocoded_column": {
      "latitude": "29.944552960346673",
      "longitude": "-90.05130066524762"
    }
  },
  {
    "service_request": "2024-1117735",
    "request_type": "Trash/Recycling",
    "request_reason": "Request a Large Item Pick Up",
    "date_created": "2024-07-31T14:53:11.000",
    "date_modified": "2024-07-31T14:53:12.000",
    "request_status": "Pending",
    "responsible_agency": "Department of Sanitation",
    "final_address": "6314 York St",
    "address_councildis": "A",
    "status": "Assigned to Contractor",
    "contractor": "IV Waste",
    "rowid": "1117735",
    "final_x": "3667423.3129",
    "final_y": "529127.68",
    "longitude": "-90.11260006629487",
    "latitude": "29.949337478475517",
    "geocoded_column": {
      "latitude": "29.949337478475517",
      "longitude": "-90.11260006629487"
    }
  },
  {
    "service_request": "2024-1117734",
    "request_type": "Trash/Recycling",
    "request_reason": "Request a Large Item Pick Up",
    "date_created": "2024-07-31T14:52:48.000",
    "date_modified": "2024-07-31T14:52:57.000",
    "request_status": "Pending",
    "responsible_agency": "Department of Sanitation",
    "final_address": "6254 Kuebel Dr",
    "address_councildis": "E",
    "status": "Assigned to Contractor",
    "contractor": "Waste Pro",
    "rowid": "1117734",
    "final_x": "3695867.10435",
    "final_y": "559926.455645",
    "longitude": "-90.02167764310424",
    "latitude": "30.03315897192916",
    "geocoded_column": {
      "latitude": "30.03315897192916",
      "longitude": "-90.02167764310424"
    }
  },
  {
    "service_request": "2024-1117733",
    "request_type": "Property Maintenance",
    "request_reason": "Property Maintenance",
    "date_created": "2024-07-31T14:51:29.000",
    "date_modified": "2024-07-31T14:51:29.000",
    "request_status": "Pending",
    "responsible_agency": "Department of Code Enforcement",
    "final_address": "3222 Canal St",
    "address_councildis": "B",
    "status": "Pending",
    "rowid": "1117733",
    "final_x": "3673669.96251",
    "final_y": "536206.475207",
    "longitude": "-90.09263456850428",
    "latitude": "29.968617334764012",
    "geocoded_column": {
      "latitude": "29.968617334764012",
      "longitude": "-90.09263456850428"
    }
  },
  {
    "service_request": "2024-1117732",
    "request_type": "Trash/Recycling",
    "request_reason": "Order Trash Cart",
    "date_created": "2024-07-31T14:51:29.000",
    "date_modified": "2024-07-31T14:51:29.000",
    "request_status": "Pending",
    "responsible_agency": "Department of Sanitation",
    "final_address": "5318 N Rampart St",
    "address_councildis": "E",
    "status": "Assigned to Contractor",
    "contractor": "Waste Pro",
    "rowid": "1117732",
    "final_x": "3696835.62813",
    "final_y": "533554.158469",
    "longitude": "-90.0195725489365",
    "latitude": "29.960614364177168",
    "geocoded_column": {
      "latitude": "29.960614364177168",
      "longitude": "-90.0195725489365"
    }
  },
  {
    "service_request": "2024-1117731",
    "request_type": "Property Maintenance",
    "request_reason": "Property Maintenance",
    "date_created": "2024-07-31T14:51:03.000",
    "date_modified": "2024-07-31T14:51:50.000",
    "request_status": "Pending",
    "responsible_agency": "Department of Code Enforcement",
    "final_address": "3523 Republic St",
    "address_councildis": "D",
    "status": "Pending",
    "rowid": "1117731",
    "final_x": "3680516.05794",
    "final_y": "545411.520016",
    "longitude": "-90.07069389844756",
    "latitude": "29.99372239738798",
    "geocoded_column": {
      "latitude": "29.99372239738798",
      "longitude": "-90.07069389844756"
    }
  },
  {
    "service_request": "2024-1117730",
    "request_type": "Trash/Recycling",
    "request_reason": "Order Trash Cart",
    "date_created": "2024-07-31T14:50:55.000",
    "date_modified": "2024-07-31T14:50:56.000",
    "request_status": "Pending",
    "responsible_agency": "Department of Sanitation",
    "final_address": "2628 Clover St",
    "address_councildis": "D",
    "status": "Assigned to Contractor",
    "contractor": "IV Waste",
    "rowid": "1117730",
    "final_x": "3687388.54511",
    "final_y": "546625.796305",
    "longitude": "-90.04894180216657",
    "latitude": "29.9968511987509",
    "geocoded_column": {
      "latitude": "29.9968511987509",
      "longitude": "-90.04894180216657"
    }
  },
  {
    "service_request": "2024-1117729",
    "request_type": "Property Maintenance",
    "request_reason": "Property Maintenance",
    "date_created": "2024-07-31T14:49:33.000",
    "date_modified": "2024-07-31T15:07:41.000",
    "request_status": "Pending",
    "responsible_agency": "Department of Code Enforcement",
    "final_address": "9883 Chef Menteur Hwy",
    "address_councildis": "E",
    "rowid": "1117729",
    "final_x": "3712004.72792",
    "final_y": "554769.155416",
    "longitude": "-89.97087546228843",
    "latitude": "30.01846062152903",
    "geocoded_column": {
      "latitude": "30.01846062152903",
      "longitude": "-89.97087546228843"
    }
  },
  {
    "service_request": "2024-1117728",
    "request_type": "Trash/Recycling",
    "request_reason": "Request a Large Item Pick Up",
    "date_created": "2024-07-31T14:47:15.000",
    "date_modified": "2024-07-31T14:48:48.000",
    "request_status": "Pending",
    "responsible_agency": "Department of Sanitation",
    "final_address": "2624 Dante St",
    "address_councildis": "A",
    "status": "Assigned to Contractor",
    "contractor": "IV Waste",
    "rowid": "1117728",
    "final_x": "3664924.9074",
    "final_y": "532764.265028",
    "longitude": "-90.1203671278611",
    "latitude": "29.95940985662608",
    "geocoded_column": {
      "latitude": "29.95940985662608",
      "longitude": "-90.1203671278611"
    }
  },
  {
    "service_request": "2024-1117727",
    "request_type": "Property Maintenance",
    "request_reason": "Property Maintenance",
    "date_created": "2024-07-31T14:46:51.000",
    "date_modified": "2024-07-31T14:46:51.000",
    "request_status": "Pending",
    "responsible_agency": "Department of Code Enforcement",
    "final_address": "3500 BLK Republic St",
    "address_councildis": "D",
    "status": "Pending",
    "rowid": "1117727",
    "final_x": "3680472.21612",
    "final_y": "545389.606187",
    "longitude": "-90.0708331508246",
    "latitude": "29.99366347040658",
    "geocoded_column": {
      "latitude": "29.99366347040658",
      "longitude": "-90.0708331508246"
    }
  },
  {
    "service_request": "2024-1117726",
    "request_type": "Trash/Recycling",
    "request_reason": "Dead Animal Pick Up",
    "date_created": "2024-07-31T14:43:58.000",
    "date_modified": "2024-07-31T14:46:05.000",
    "request_status": "Pending",
    "responsible_agency": "Department of Sanitation",
    "final_address": "6549 Dwyer Rd",
    "address_councildis": "E",
    "status": "Assigned to Contractor",
    "contractor": "Waste Pro",
    "rowid": "1117726",
    "final_x": "3698823.38372",
    "final_y": "555547.403097",
    "longitude": "-90.0124950802913",
    "latitude": "30.021024875741997",
    "geocoded_column": {
      "latitude": "30.021024875741997",
      "longitude": "-90.0124950802913"
    }
  },
  {
    "service_request": "2024-1117725",
    "request_type": "Trash/Recycling",
    "request_reason": "Request a Large Item Pick Up",
    "date_created": "2024-07-31T14:40:26.000",
    "date_modified": "2024-07-31T14:40:27.000",
    "request_status": "Pending",
    "responsible_agency": "Department of Sanitation",
    "final_address": "2437 Delachaise St",
    "address_councildis": "B",
    "status": "Assigned to Contractor",
    "contractor": "IV Waste",
    "rowid": "1117725",
    "final_x": "3672619.58606",
    "final_y": "524296.359164",
    "longitude": "-90.09635776580899",
    "latitude": "29.93589968336655",
    "geocoded_column": {
      "latitude": "29.93589968336655",
      "longitude": "-90.09635776580899"
    }
  },
  {
    "service_request": "2024-1117724",
    "request_type": "Trash/Recycling",
    "request_reason": "Order Recycling Cart",
    "date_created": "2024-07-31T14:38:44.000",
    "date_modified": "2024-07-31T14:38:45.000",
    "request_status": "Pending",
    "responsible_agency": "Department of Sanitation",
    "final_address": "1418 Casa Calvo St",
    "address_councildis": "C",
    "status": "Pending",
    "rowid": "1117724",
    "final_x": "3692099.69853",
    "final_y": "526060.793406",
    "longitude": "-90.03479577591952",
    "latitude": "29.940158659885338",
    "geocoded_column": {
      "latitude": "29.940158659885338",
      "longitude": "-90.03479577591952"
    }
  },
  {
    "service_request": "2024-1117723",
    "request_type": "Trash/Recycling",
    "request_reason": "Request a Large Item Pick Up",
    "date_created": "2024-07-31T14:38:01.000",
    "date_modified": "2024-07-31T14:38:02.000",
    "request_status": "Pending",
    "responsible_agency": "Department of Sanitation",
    "final_address": "2614 Dreux Ave",
    "address_councildis": "D",
    "status": "Assigned to Contractor",
    "contractor": "IV Waste",
    "rowid": "1117723",
    "final_x": "3686847.49506",
    "final_y": "552202.266774",
    "longitude": "-90.05045372197611",
    "latitude": "30.012201130753013",
    "geocoded_column": {
      "latitude": "30.012201130753013",
      "longitude": "-90.05045372197611"
    }
  },
  {
    "service_request": "2024-1117722",
    "request_type": "Trash/Recycling",
    "request_reason": "Return Recycling Cart",
    "date_created": "2024-07-31T14:35:14.000",
    "date_modified": "2024-07-31T14:35:14.000",
    "request_status": "Pending",
    "responsible_agency": "Department of Sanitation",
    "final_address": "3640 Cleveland Ave",
    "address_councildis": "B",
    "status": "Pending",
    "rowid": "1117722",
    "final_x": "3672069.38132",
    "final_y": "536972.066248",
    "longitude": "-90.09766322971149",
    "latitude": "29.970770009130135",
    "geocoded_column": {
      "latitude": "29.970770009130135",
      "longitude": "-90.09766322971149"
    }
  },
  {
    "service_request": "2024-1117721",
    "request_type": "Property Maintenance",
    "request_reason": "Property Maintenance",
    "date_created": "2024-07-31T14:27:03.000",
    "date_modified": "2024-07-31T14:28:32.000",
    "request_status": "Pending",
    "responsible_agency": "Department of Code Enforcement",
    "final_address": "1300 Perdido St, New Orleans, Louisiana, 70112",
    "address_councildis": "B",
    "rowid": "1117721",
    "final_x": "3678683.48347",
    "final_y": "530227.987073",
    "longitude": "-90.07700859883013",
    "latitude": "29.952028297123956",
    "geocoded_column": {
      "latitude": "29.952028297123956",
      "longitude": "-90.07700859883013"
    }
  },
  {
    "service_request": "2024-1117720",
    "request_type": "Roads/Drainage",
    "request_reason": "Catch Basin - Broken/Damage",
    "date_created": "2024-07-31T14:24:31.000",
    "date_modified": "2024-07-31T14:24:31.000",
    "request_status": "Pending",
    "responsible_agency": "Department of Public Works",
    "final_address": "4701 Congress Dr",
    "address_councildis": "D",
    "status": "Pending",
    "rowid": "1117720",
    "final_x": "3692462.94454",
    "final_y": "551500.769173",
    "longitude": "-90.03273730249136",
    "latitude": "30.010098206442564",
    "geocoded_column": {
      "latitude": "30.010098206442564",
      "longitude": "-90.03273730249136"
    }
  },
  {
    "service_request": "2024-1117719",
    "request_type": "Parks & Parkways",
    "request_reason": "Request Tree Service (Right of Way/Public Property)",
    "date_created": "2024-07-31T14:23:00.000",
    "date_modified": "2024-07-31T14:35:03.000",
    "request_status": "Pending",
    "responsible_agency": "Department of Parks & Parkway",
    "final_address": "4424 Prentiss Ave",
    "address_councildis": "D",
    "status": "Pending",
    "rowid": "1117719",
    "final_x": "3690197.8207",
    "final_y": "554010.424984",
    "longitude": "-90.0398041304031",
    "latitude": "30.01706933099304",
    "geocoded_column": {
      "latitude": "30.01706933099304",
      "longitude": "-90.0398041304031"
    }
  },
  {
    "service_request": "2024-1117718",
    "request_type": "Trash/Recycling",
    "request_reason": "Request a Large Item Pick Up",
    "date_created": "2024-07-31T14:22:49.000",
    "date_modified": "2024-07-31T14:22:50.000",
    "request_status": "Pending",
    "responsible_agency": "Department of Sanitation",
    "final_address": "1724 Burdette St",
    "address_councildis": "A",
    "status": "Assigned to Contractor",
    "contractor": "IV Waste",
    "rowid": "1117718",
    "final_x": "3664092.32007",
    "final_y": "529100.901696",
    "longitude": "-90.12311843335763",
    "latitude": "29.949361004155026",
    "geocoded_column": {
      "latitude": "29.949361004155026",
      "longitude": "-90.12311843335763"
    }
  },
  {
    "service_request": "2024-1117717",
    "request_type": "Traffic Signals/Signs/Striping/Streetlights",
    "request_reason": "Street Light Outage/Malfunction",
    "date_created": "2024-07-31T14:20:45.000",
    "date_modified": "2024-07-31T14:20:46.000",
    "request_status": "Pending",
    "responsible_agency": "Department of Public Works",
    "final_address": "2257 Vienna St",
    "address_councildis": "D",
    "status": "Assigned to Contractor",
    "contractor": "Legacy Professional Services",
    "rowid": "1117717",
    "final_x": "3684119.88546",
    "final_y": "555058.172057",
    "longitude": "-90.05897106362164",
    "latitude": "30.020137511787784",
    "geocoded_column": {
      "latitude": "30.020137511787784",
      "longitude": "-90.05897106362164"
    }
  },
  {
    "service_request": "2024-1117716",
    "request_type": "Trash/Recycling",
    "request_reason": "Request a Large Item Pick Up",
    "date_created": "2024-07-31T14:16:18.000",
    "date_modified": "2024-07-31T14:16:19.000",
    "request_status": "Pending",
    "responsible_agency": "Department of Sanitation",
    "final_address": "7401 Benson St",
    "address_councildis": "E",
    "status": "Assigned to Contractor",
    "contractor": "Waste Pro",
    "rowid": "1117716",
    "final_x": "3704816.5018",
    "final_y": "561825.826143",
    "longitude": "-89.99332669328376",
    "latitude": "30.038096774023977",
    "geocoded_column": {
      "latitude": "30.038096774023977",
      "longitude": "-89.99332669328376"
    }
  },
  {
    "service_request": "2024-1117715",
    "request_type": "Parks & Parkways",
    "request_reason": "Request Tree Service (Right of Way/Public Property)",
    "date_created": "2024-07-31T14:14:40.000",
    "date_modified": "2024-07-31T14:14:41.000",
    "request_status": "Pending",
    "responsible_agency": "Department of Parks & Parkway",
    "final_address": "1627 Hollygrove St",
    "address_councildis": "A",
    "status": "Pending",
    "rowid": "1117715",
    "final_x": "3660736.9376",
    "final_y": "531687.051011",
    "longitude": "-90.13362743437528",
    "latitude": "29.956569102841407",
    "geocoded_column": {
      "latitude": "29.956569102841407",
      "longitude": "-90.13362743437528"
    }
  },
  {
    "service_request": "2024-1117714",
    "request_type": "Trash/Recycling",
    "request_reason": "Missed Trash Pick-Up",
    "date_created": "2024-07-31T14:12:14.000",
    "date_modified": "2024-07-31T16:17:31.000",
    "case_close_date": "2024-07-31T11:17:31.000",
    "request_status": "Closed",
    "responsible_agency": "Department of Sanitation",
    "final_address": "6972 General Haig St",
    "address_councildis": "A",
    "status": "Invalid Request",
    "contractor": "IV Waste",
    "contractor_action": "Invalid",
    "rowid": "1117714",
    "final_x": "3671025.61697",
    "final_y": "553659.846615",
    "longitude": "-90.10039249180439",
    "latitude": "30.01668654361625",
    "geocoded_column": {
      "latitude": "30.01668654361625",
      "longitude": "-90.10039249180439"
    }
  },
  {
    "service_request": "2024-1117713",
    "request_type": "Trash/Recycling",
    "request_reason": "Repair Trash Cart",
    "date_created": "2024-07-31T14:11:38.000",
    "date_modified": "2024-07-31T14:11:39.000",
    "request_status": "Pending",
    "responsible_agency": "Department of Sanitation",
    "final_address": "4761 Sherwood Dr",
    "address_councildis": "E",
    "status": "Assigned to Contractor",
    "contractor": "Waste Pro",
    "rowid": "1117713",
    "final_x": "3718066.68351",
    "final_y": "556995.856154",
    "longitude": "-89.95163730424949",
    "latitude": "30.024383577185148",
    "geocoded_column": {
      "latitude": "30.024383577185148",
      "longitude": "-89.95163730424949"
    }
  },
  {
    "service_request": "2024-1117712",
    "request_type": "Traffic Signals/Signs/Striping/Streetlights",
    "request_reason": "Street Light Outage/Malfunction",
    "date_created": "2024-07-31T14:10:50.000",
    "date_modified": "2024-07-31T14:10:51.000",
    "request_status": "Pending",
    "responsible_agency": "Department of Public Works",
    "final_address": "5010 Constance St",
    "address_councildis": "B",
    "status": "Assigned to Contractor",
    "contractor": "Legacy Professional Services",
    "rowid": "1117712",
    "final_x": "3668528.86842",
    "final_y": "518180.822262",
    "longitude": "-90.10947849856062",
    "latitude": "29.919204695724737",
    "geocoded_column": {
      "latitude": "29.919204695724737",
      "longitude": "-90.10947849856062"
    }
  },
  {
    "service_request": "2024-1117711",
    "request_type": "Parks & Parkways",
    "request_reason": "Request Tree Service (Right of Way/Public Property)",
    "date_created": "2024-07-31T14:09:10.000",
    "date_modified": "2024-07-31T14:09:11.000",
    "request_status": "Pending",
    "responsible_agency": "Department of Parks & Parkway",
    "final_address": "7000 BLK Jeannette St",
    "address_councildis": "A",
    "status": "Pending",
    "rowid": "1117711",
    "final_x": "3665101.32888",
    "final_y": "527144.664002",
    "longitude": "-90.11999793493631",
    "latitude": "29.94395263927784",
    "geocoded_column": {
      "latitude": "29.94395263927784",
      "longitude": "-90.11999793493631"
    }
  },