[
  {
    "service_request": "2023-988689",
    "request_type": "Traffic Signals/Signs/Striping/Streetlights",
    "request_reason": "Street Light Knocked Down/Leaning",
    "date_created": "2023-04-04T23:09:04.000",
    "date_modified": "2023-04-04T23:09:05.000",
    "request_status": "Pending",
    "responsible_agency": "Department of Public Works",
    "status": "Pending",
    "contractor": "Legacy Professional Services",
    "rowid": "988689",
    "longitude": "0.0",
    "latitude": "0.0",
    "geocoded_column": {
      "latitude": "0.0",
      "longitude": "0.0"
    }
  },
  {
    "service_request": "2023-988688",
    "request_type": "Traffic Signals/Signs/Striping/Streetlights",
    "request_reason": "Street Light Knocked Down/Leaning",
    "date_created": "2023-04-04T22:49:10.000",
    "date_modified": "2023-04-04T22:49:10.000",
    "request_status": "Pending",
    "responsible_agency": "Department of Public Works",
    "status": "Pending",
    "contractor": "Legacy Professional Services",
    "rowid": "988688",
    "longitude": "0.0",
    "latitude": "0.0",
    "geocoded_column": {
      "latitude": "0.0",
      "longitude": "0.0"
    }
  },
  {
    "service_request": "2023-988687",
    "request_type": "Property Maintenance",
    "request_reason": "Property Maintenance",
    "date_created": "2023-04-04T22:06:50.000",
    "date_modified": "2023-04-04T22:06:50.000",
    "request_status": "Pending",
    "responsible_agency": "Department of Code Enforcement",
    "final_address": "7915 Edward St",
    "address_councildis": "E",
    "status": "Pending",
    "rowid": "988687",
    "final_x": "3700723.71415",
    "final_y": "561790.108831",
    "longitude": "-90.00626216935078",
    "latitude": "30.038129535978392",
    "geocoded_column": {
      "latitude": "30.038129535978392",
      "longitude": "-90.00626216935078"
    }
  },
  {
    "service_request": "2023-988686",
    "request_type": "Property Maintenance",
    "request_reason": "Property Maintenance",
    "date_created": "2023-04-04T22:02:52.000",
    "date_modified": "2023-04-04T22:02:52.000",
    "request_status": "Pending",
    "responsible_agency": "Department of Code Enforcement",
    "final_address": "6900 Martin Dr",
    "address_councildis": "E",
    "status": "Pending",
    "rowid": "988686",
    "final_x": "3699050.20208",
    "final_y": "557776.318043",
    "longitude": "-90.01169717120273",
    "latitude": "30.027146348453442",
    "geocoded_column": {
      "latitude": "30.027146348453442",
      "longitude": "-90.01169717120273"
    }
  },
  {
    "service_request": "2023-988685",
    "request_type": "Traffic Signals/Signs/Striping/Streetlights",
    "request_reason": "Traffic Sign Missing/Damaged",
    "date_created": "2023-04-04T21:40:01.000",
    "date_modified": "2023-04-04T21:40:01.000",
    "request_status": "Pending",
    "responsible_agency": "Department of Public Works",
    "final_address": "3037 Esplanade Ave",
    "address_councildis": "A",
    "status": "Pending",
    "rowid": "988685",
    "final_x": "3676626.49288",
    "final_y": "540252.640011",
    "longitude": "-90.08315826023941",
    "latitude": "29.97965454728728",
    "geocoded_column": {
      "latitude": "29.97965454728728",
      "longitude": "-90.08315826023941"
    }
  },
  {
    "service_request": "2023-988684",
    "request_type": "Roads/Drainage",
    "request_reason": "Pothole",
    "date_created": "2023-04-04T21:17:20.000",
    "date_modified": "2023-04-04T21:17:20.000",
    "request_status": "Pending",
    "responsible_agency": "Department of Public Works",
    "final_address": "954 Felicity St",
    "address_councildis": "B",
    "status": "Pending",
    "rowid": "988684",
    "final_x": "3680186.53947",
    "final_y": "522794.030715",
    "longitude": "-90.07252093721202",
    "latitude": "29.931541991666755",
    "geocoded_column": {
      "latitude": "29.931541991666755",
      "longitude": "-90.07252093721202"
    }
  },
  {
    "service_request": "2023-988683",
    "request_type": "Traffic Signals/Signs/Striping/Streetlights",
    "request_reason": "Street Light Outage/Malfunction",
    "date_created": "2023-04-04T21:14:03.000",
    "date_modified": "2023-04-04T21:14:03.000",
    "request_status": "Pending",
    "responsible_agency": "Department of Public Works",
    "final_address": "1423 Henriette Delille St",
    "address_councildis": "C",
    "status": "Assigned to Contractor",
    "contractor": "Legacy Professional Services",
    "rowid": "988683",
    "final_x": "3682703.29007",
    "final_y": "535752.964743",
    "longitude": "-90.06412271609551",
    "latitude": "29.967098297172207",
    "geocoded_column": {
      "latitude": "29.967098297172207",
      "longitude": "-90.06412271609551"
    }
  },
  {
    "service_request": "2023-988682",
    "request_type": "Trash/Recycling",
    "request_reason": "MIssed Recycling Pick-Up",
    "date_created": "2023-04-04T20:57:15.000",
    "date_modified": "2023-04-04T20:57:15.000",
    "request_status": "Pending",
    "responsible_agency": "Department of Sanitation",
    "final_address": "625 S Rocheblave St",
    "address_councildis": "B",
    "status": "Assigned to Contractor",
    "contractor": "Richards Disposal",
    "rowid": "988682",
    "final_x": "3674667.03649",
    "final_y": "532757.690692",
    "longitude": "-90.08960396867559",
    "latitude": "29.959104614912476",
    "geocoded_column": {
      "latitude": "29.959104614912476",
      "longitude": "-90.08960396867559"
    }
  },
  {
    "service_request": "2023-988681",
    "request_type": "Trash/Recycling",
    "request_reason": "Missed Trash Pick-Up",
    "date_created": "2023-04-04T20:43:29.000",
    "date_modified": "2023-04-04T20:43:30.000",
    "request_status": "Pending",
    "responsible_agency": "Department of Sanitation",
    "final_address": "4312 Coliseum St, New Orleans, Louisiana, 70115",
    "address_councildis": "B",
    "status": "Assigned to Contractor",
    "contractor": "Richards Disposal",
    "rowid": "988681",
    "final_x": "3671244.94766",
    "final_y": "519766.51916",
    "longitude": "-90.10085135858562",
    "latitude": "29.92348481027771",
    "geocoded_column": {
      "latitude": "29.92348481027771",
      "longitude": "-90.10085135858562"
    }
  },
  {
    "service_request": "2023-988680",
    "request_type": "Property Maintenance",
    "request_reason": "Property Maintenance",
    "date_created": "2023-04-04T20:33:36.000",
    "date_modified": "2023-04-04T20:33:36.000",
    "request_status": "Pending",
    "responsible_agency": "Department of Code Enforcement",
    "final_address": "1831 Allen St",
    "address_councildis": "D",
    "status": "Pending",
    "rowid": "988680",
    "final_x": "3682584.16533",
    "final_y": "538925.434826",
    "longitude": "-90.06438796197783",
    "latitude": "29.975825119182264",
    "geocoded_column": {
      "latitude": "29.975825119182264",
      "longitude": "-90.06438796197783"
    }
  },
  {
    "service_request": "2023-988679",
    "request_type": "Trash/Recycling",
    "request_reason": "Order Recycling Cart",
    "date_created": "2023-04-04T20:29:38.000",
    "date_modified": "2023-04-04T20:29:38.000",
    "request_status": "Pending",
    "responsible_agency": "Department of Sanitation",
    "final_address": "3439 Republic St",
    "address_councildis": "D",
    "status": "Pending",
    "rowid": "988679",
    "final_x": "3680523.62792",
    "final_y": "545173.750543",
    "longitude": "-90.0706782625054",
    "latitude": "29.99306838599645",
    "geocoded_column": {
      "latitude": "29.99306838599645",
      "longitude": "-90.0706782625054"
    }
  },
  {
    "service_request": "2023-988678",
    "request_type": "Property Maintenance",
    "request_reason": "Property Maintenance",
    "date_created": "2023-04-04T20:27:45.000",
    "date_modified": "2023-04-04T20:27:45.000",
    "request_status": "Pending",
    "responsible_agency": "Department of Code Enforcement",
    "final_address": "1712 N Roman St",
    "address_councildis": "D",
    "status": "Pending",
    "rowid": "988678",
    "final_x": "3682318.10127",
    "final_y": "538644.414345",
    "longitude": "-90.0652380892336",
    "latitude": "29.97506050968245",
    "geocoded_column": {
      "latitude": "29.97506050968245",
      "longitude": "-90.0652380892336"
    }
  },
  {
    "service_request": "2023-988677",
    "request_type": "Trash/Recycling",
    "request_reason": "Missed Trash Pick-Up",
    "date_created": "2023-04-04T20:09:40.000",
    "date_modified": "2023-04-04T20:09:41.000",
    "request_status": "Pending",
    "responsible_agency": "Department of Sanitation",
    "final_address": "4920 Tynecastle Dr",
    "address_councildis": "E",
    "status": "Assigned to Contractor",
    "contractor": "Waste Pro",
    "rowid": "988677",
    "final_x": "3718349.73945",
    "final_y": "557963.992347",
    "longitude": "-89.95070599634936",
    "latitude": "30.02703617608389",
    "geocoded_column": {
      "latitude": "30.02703617608389",
      "longitude": "-89.95070599634936"
    }
  },
  {
    "service_request": "2023-988676",
    "request_type": "Trash/Recycling",
    "request_reason": "Replace Trash Cart",
    "date_created": "2023-04-04T19:52:57.000",
    "date_modified": "2023-04-04T19:52:58.000",
    "request_status": "Pending",
    "responsible_agency": "Department of Sanitation",
    "final_address": "3018 Chippewa St",
    "address_councildis": "B",
    "status": "Assigned to Contractor",
    "contractor": "Richards Disposal",
    "rowid": "988676",
    "final_x": "3677067.4036",
    "final_y": "519000.638519",
    "longitude": "-90.08249841410839",
    "latitude": "29.921205397627187",
    "geocoded_column": {
      "latitude": "29.921205397627187",
      "longitude": "-90.08249841410839"
    }
  },
  {
    "service_request": "2023-988675",
    "request_type": "Trash/Recycling",
    "request_reason": "Replace Recycling Cart",
    "date_created": "2023-04-04T19:50:26.000",
    "date_modified": "2023-04-04T19:50:26.000",
    "request_status": "Pending",
    "responsible_agency": "Department of Sanitation",
    "status": "Pending",
    "rowid": "988675",
    "longitude": "0.0",
    "latitude": "0.0",
    "geocoded_column": {
      "latitude": "0.0",
      "longitude": "0.0"
    }
  },
  {
    "service_request": "2023-988674",
    "request_type": "Trash/Recycling",
    "request_reason": "Request a Large Item Pick Up",
    "date_created": "2023-04-04T19:48:38.000",
    "date_modified": "2023-04-04T19:48:39.000",
    "request_status": "Pending",
    "responsible_agency": "Department of Sanitation",
    "final_address": "1928 Dublin St",
    "address_councildis": "A",
    "status": "Assigned to Contractor",
    "contractor": "Richards Disposal",
    "rowid": "988674",
    "final_x": "3663494.81843",
    "final_y": "530635.368386",
    "longitude": "-90.12495392679794",
    "latitude": "29.953597630995834",
    "geocoded_column": {
      "latitude": "29.953597630995834",
      "longitude": "-90.12495392679794"
    }
  },
  {
    "service_request": "2023-988673",
    "request_type": "Traffic Signals/Signs/Striping/Streetlights",
    "request_reason": "Street Light Outage/Malfunction",
    "date_created": "2023-04-04T19:46:06.000",
    "date_modified": "2023-04-04T19:46:06.000",
    "request_status": "Pending",
    "responsible_agency": "Department of Public Works",
    "final_address": "1830 St Bernard Ave",
    "address_councildis": "D",
    "status": "Assigned to Contractor",
    "contractor": "Legacy Professional Services",
    "rowid": "988673",
    "final_x": "3681655.77372",
    "final_y": "538691.348041",
    "longitude": "-90.06732825193806",
    "latitude": "29.975209699249124",
    "geocoded_column": {
      "latitude": "29.975209699249124",
      "longitude": "-90.06732825193806"
    }
  },
  {
    "service_request": "2023-988672",
    "request_type": "Traffic Signals/Signs/Striping/Streetlights",
    "request_reason": "Road Surface Marking Maintenance-Parking Lane",
    "date_created": "2023-04-04T19:44:58.000",
    "date_modified": "2023-04-04T19:44:58.000",
    "request_status": "Pending",
    "responsible_agency": "Department of Public Works",
    "final_address": "BASIN ST & ST PETER ST",
    "address_councildis": "C",
    "status": "Pending",
    "rowid": "988672",
    "final_x": "3680502.3",
    "final_y": "534069.48",
    "longitude": "-90.07113201905058",
    "latitude": "29.962536141819836",
    "geocoded_column": {
      "latitude": "29.962536141819836",
      "longitude": "-90.07113201905058"
    }
  },
  {
    "service_request": "2023-988671",
    "request_type": "Trash/Recycling",
    "request_reason": "Repair Trash Cart",
    "date_created": "2023-04-04T19:44:25.000",
    "date_modified": "2023-04-04T19:44:25.000",
    "request_status": "Pending",
    "responsible_agency": "Department of Sanitation",
    "final_address": "3932 Coliseum St",
    "address_councildis": "B",
    "status": "Assigned to Contractor",
    "contractor": "Richards Disposal",
    "rowid": "988671",
    "final_x": "3672572.35931",
    "final_y": "519940.177208",
    "longitude": "-90.09665528999804",
    "latitude": "29.923922988213867",
    "geocoded_column": {
      "latitude": "29.923922988213867",
      "longitude": "-90.09665528999804"
    }
  },
  {
    "service_request": "2023-988670",
    "request_type": "Traffic Signals/Signs/Striping/Streetlights",
    "request_reason": "Street Light Outage/Malfunction",
    "date_created": "2023-04-04T19:36:36.000",
    "date_modified": "2023-04-04T19:36:36.000",
    "request_status": "Pending",
    "responsible_agency": "Department of Public Works",
    "final_address": "3432 Nashville Ave",
    "address_councildis": "A",
    "status": "Assigned to Contractor",
    "contractor": "Legacy Professional Services",
    "rowid": "988670",
    "final_x": "3668056.04615",
    "final_y": "528406.144256",
    "longitude": "-90.1106265495814",
    "latitude": "29.947334939512125",
    "geocoded_column": {
      "latitude": "29.947334939512125",
      "longitude": "-90.1106265495814"
    }
  },
  {
    "service_request": "2023-988669",
    "request_type": "Traffic Signals/Signs/Striping/Streetlights",
    "request_reason": "Street Light Outage/Malfunction",
    "date_created": "2023-04-04T19:36:36.000",
    "date_modified": "2023-04-04T19:36:36.000",
    "request_status": "Pending",
    "responsible_agency": "Department of Public Works",
    "final_address": "3432 Nashville Ave",
    "address_councildis": "A",
    "status": "Assigned to Contractor",
    "contractor": "Legacy Professional Services",
    "rowid": "988669",
    "final_x": "3668056.04615",
    "final_y": "528406.144256",
    "longitude": "-90.1106265495814",
    "latitude": "29.947334939512125",
    "geocoded_column": {
      "latitude": "29.947334939512125",
      "longitude": "-90.1106265495814"
    }
  },
  {
    "service_request": "2023-988668",
    "request_type": "Traffic Signals/Signs/Striping/Streetlights",
    "request_reason": "Street Light Outage/Malfunction",
    "date_created": "2023-04-04T19:33:37.000",
    "date_modified": "2023-04-04T19:33:38.000",
    "request_status": "Pending",
    "responsible_agency": "Department of Public Works",
    "final_address": "2025 Lamarque St",
    "address_councildis": "C",
    "status": "Assigned to Contractor",
    "contractor": "Legacy Professional Services",
    "rowid": "988668",
    "final_x": "3691613.80457",
    "final_y": "526571.891838",
    "longitude": "-90.03631154732832",
    "latitude": "29.94157913766319",
    "geocoded_column": {
      "latitude": "29.94157913766319",
      "longitude": "-90.03631154732832"
    }
  },
  {
    "service_request": "2023-988667",
    "request_type": "Roads/Drainage",
    "request_reason": "Damaged Sidewalk",
    "date_created": "2023-04-04T18:56:17.000",
    "date_modified": "2023-04-04T18:56:17.000",
    "request_status": "Pending",
    "responsible_agency": "Department of Public Works",
    "final_address": "218 S Alexander St",
    "address_councildis": "A",
    "status": "Pending",
    "rowid": "988667",
    "final_x": "3669639.42638",
    "final_y": "538641.927561",
    "longitude": "-90.10528082880667",
    "latitude": "29.975433396165847",
    "geocoded_column": {
      "latitude": "29.975433396165847",
      "longitude": "-90.10528082880667"
    }
  },
  {
    "service_request": "2023-988666",
    "request_type": "Parks & Parkways",
    "request_reason": "Request Tree Service (Right of Way/Public Property)",
    "date_created": "2023-04-04T18:53:36.000",
    "date_modified": "2023-04-04T18:53:36.000",
    "request_status": "Pending",
    "responsible_agency": "Department of Parks & Parkway",
    "final_address": "218 S Alexander St",
    "address_councildis": "A",
    "status": "Pending",
    "rowid": "988666",
    "final_x": "3669639.42638",
    "final_y": "538641.927561",
    "longitude": "-90.10528082880667",
    "latitude": "29.975433396165847",
    "geocoded_column": {
      "latitude": "29.975433396165847",
      "longitude": "-90.10528082880667"
    }
  },
  {
    "service_request": "2023-988665",
    "request_type": "Trash/Recycling",
    "request_reason": "Replace Trash Cart",
    "date_created": "2023-04-04T18:49:46.000",
    "date_modified": "2023-04-04T18:49:47.000",
    "request_status": "Pending",
    "responsible_agency": "Department of Sanitation",
    "status": "Assigned to Contractor",
    "rowid": "988665",
    "longitude": "0.0",
    "latitude": "0.0",
    "geocoded_column": {
      "latitude": "0.0",
      "longitude": "0.0"
    }
  },
  {
    "service_request": "2023-988664",
    "request_type": "Roads/Drainage",
    "request_reason": "Pothole",
    "date_created": "2023-04-04T18:46:33.000",
    "date_modified": "2023-04-04T18:46:33.000",
    "request_status": "Pending",
    "responsible_agency": "Department of Public Works",
    "final_address": "231 36Th St",
    "address_councildis": "A",
    "status": "Pending",
    "rowid": "988664",
    "final_x": "3665850.517",
    "final_y": "552087.596246",
    "longitude": "-90.11679642657879",
    "latitude": "30.012515503958863",
    "geocoded_column": {
      "latitude": "30.012515503958863",
      "longitude": "-90.11679642657879"
    }
  },
  {
    "service_request": "2023-988663",
    "request_type": "Roads/Drainage",
    "request_reason": "Pothole",
    "date_created": "2023-04-04T18:45:16.000",
    "date_modified": "2023-04-04T18:45:16.000",
    "request_status": "Pending",
    "responsible_agency": "Department of Public Works",
    "final_address": "2600 Holiday Dr",
    "address_councildis": "C",
    "status": "Pending",
    "contractor": "Legacy Professional Services",
    "rowid": "988663",
    "final_x": "3698905.59364",
    "final_y": "521651.261113",
    "longitude": "-90.01346900168886",
    "latitude": "29.927820138764904",
    "geocoded_column": {
      "latitude": "29.927820138764904",
      "longitude": "-90.01346900168886"
    }
  },
  {
    "service_request": "2023-988662",
    "request_type": "Trash/Recycling",
    "request_reason": "Request a Large Item Pick Up",
    "date_created": "2023-04-04T18:44:24.000",
    "date_modified": "2023-04-04T18:45:26.000",
    "request_status": "Pending",
    "responsible_agency": "Department of Sanitation",
    "final_address": "24 Yosemite Dr",
    "address_councildis": "C",
    "status": "Assigned to Contractor",
    "contractor": "Richards Disposal",
    "rowid": "988662",
    "final_x": "3699911.74276",
    "final_y": "517583.98047",
    "longitude": "-90.01044107953516",
    "latitude": "29.916604604388432",
    "geocoded_column": {
      "latitude": "29.916604604388432",
      "longitude": "-90.01044107953516"
    }
  },
  {
    "service_request": "2023-988661",
    "request_type": "Abandoned Vehicles",
    "request_reason": "Abandoned/Junk Vehicles",
    "date_created": "2023-04-04T18:32:36.000",
    "date_modified": "2023-04-04T18:32:36.000",
    "request_status": "Pending",
    "responsible_agency": "Department of Public Works",
    "final_address": "3300 St Charles Ave",
    "address_councildis": "B",
    "status": "Pending",
    "rowid": "988661",
    "final_x": "3674536.35496",
    "final_y": "521606.228537",
    "longitude": "-90.09039860401785",
    "latitude": "29.92844566139807",
    "geocoded_column": {
      "latitude": "29.92844566139807",
      "longitude": "-90.09039860401785"
    }
  },
  {
    "service_request": "2023-988660",
    "request_type": "Abandoned Vehicles",
    "request_reason": "Abandoned/Junk Vehicles",
    "date_created": "2023-04-04T18:30:07.000",
    "date_modified": "2023-04-04T18:30:07.000",
    "request_status": "Pending",
    "responsible_agency": "Department of Public Works",
    "final_address": "3300 St Charles Ave",
    "address_councildis": "B",
    "status": "Pending",
    "rowid": "988660",
    "final_x": "3674536.35496",
    "final_y": "521606.228537",
    "longitude": "-90.09039860401785",
    "latitude": "29.92844566139807",
    "geocoded_column": {
      "latitude": "29.92844566139807",
      "longitude": "-90.09039860401785"
    }
  },
  {
    "service_request": "2023-988659",
    "request_type": "Trash/Recycling",
    "request_reason": "MIssed Recycling Pick-Up",
    "date_created": "2023-04-04T18:23:40.000",
    "date_modified": "2023-04-04T18:23:41.000",
    "request_status": "Pending",
    "responsible_agency": "Department of Sanitation",
    "final_address": "234 S Norman C Francis Pkwy, New Orleans, Louisiana, 70119",
    "status": "Assigned to Contractor",
    "rowid": "988659",
    "longitude": "0.0",
    "latitude": "0.0",
    "geocoded_column": {
      "latitude": "0.0",
      "longitude": "0.0"
    }
  },
  {
    "service_request": "2023-988658",
    "request_type": "Trash/Recycling",
    "request_reason": "MIssed Recycling Pick-Up",
    "date_created": "2023-04-04T18:21:44.000",
    "date_modified": "2023-04-04T18:21:44.000",
    "request_status": "Pending",
    "responsible_agency": "Department of Sanitation",
    "final_address": "224 S Norman C Francis Pkwy, New Orleans, Louisiana, 70119",
    "status": "Assigned to Contractor",
    "rowid": "988658",
    "longitude": "0.0",
    "latitude": "0.0",
    "geocoded_column": {
      "latitude": "0.0",
      "longitude": "0.0"
    }
  },
  {
    "service_request": "2023-988657",
    "request_type": "Roads/Drainage",
    "request_reason": "Street Subsidence (Sinking)",
    "date_created": "2023-04-04T18:18:59.000",
    "date_modified": "2023-04-04T18:19:00.000",
    "request_status": "Pending",
    "responsible_agency": "Department of Public Works",
    "final_address": "231 36Th St",
    "address_councildis": "A",
    "status": "Pending",
    "rowid": "988657",
    "final_x": "3665850.517",
    "final_y": "552087.596246",
    "longitude": "-90.11679642657879",
    "latitude": "30.012515503958863",
    "geocoded_column": {
      "latitude": "30.012515503958863",
      "longitude": "-90.11679642657879"
    }
  },
  {
    "service_request": "2023-988656",
    "request_type": "Roads/Drainage",
    "request_reason": "Street Subsidence (Sinking)",
    "date_created": "2023-04-04T18:15:00.000",
    "date_modified": "2023-04-04T18:15:00.000",
    "request_status": "Pending",
    "responsible_agency": "Department of Public Works",
    "status": "Pending",
    "rowid": "988656",
    "longitude": "0.0",
    "latitude": "0.0",
    "geocoded_column": {
      "latitude": "0.0",
      "longitude": "0.0"
    }
  },
  {
    "service_request": "2023-988655",
    "request_type": "Traffic Signals/Signs/Striping/Streetlights",
    "request_reason": "Traffic Signal Malfunctioning/Damaged",
    "date_created": "2023-04-04T18:14:27.000",
    "date_modified": "2023-04-04T18:14:28.000",
    "request_status": "Pending",
    "responsible_agency": "Department of Public Works",
    "final_address": "CANAL BLVD & I 610 E",
    "address_councildis": "A",
    "status": "Pending",
    "rowid": "988655",
    "final_x": "3668288.7",
    "final_y": "545789.58",
    "longitude": "-90.1093056562428",
    "latitude": "29.995126746059157",
    "geocoded_column": {
      "latitude": "29.995126746059157",
      "longitude": "-90.1093056562428"
    }
  },
  {
    "service_request": "2023-988654",
    "request_type": "Trash/Recycling",
    "request_reason": "Order Recycling Cart",
    "date_created": "2023-04-04T18:13:26.000",
    "date_modified": "2023-04-04T18:13:26.000",
    "request_status": "Pending",
    "responsible_agency": "Department of Sanitation",
    "final_address": "3904 General Meyer Ave",
    "address_councildis": "C",
    "status": "Pending",
    "rowid": "988654",
    "final_x": "3698599.4849",
    "final_y": "525052.321021",
    "longitude": "-90.01431171906243",
    "latitude": "29.937181571541625",
    "geocoded_column": {
      "latitude": "29.937181571541625",
      "longitude": "-90.01431171906243"
    }
  },
  {
    "service_request": "2023-988653",
    "request_type": "Roads/Drainage",
    "request_reason": "Street Subsidence (Sinking)",
    "date_created": "2023-04-04T18:12:46.000",
    "date_modified": "2023-04-04T18:12:46.000",
    "request_status": "Pending",
    "responsible_agency": "Department of Public Works",
    "final_address": "3400 Holiday Dr",
    "address_councildis": "C",
    "status": "Pending",
    "rowid": "988653",
    "final_x": "3698465.40708",
    "final_y": "518841.361463",
    "longitude": "-90.01496061649424",
    "latitude": "29.920107810019022",
    "geocoded_column": {
      "latitude": "29.920107810019022",
      "longitude": "-90.01496061649424"
    }
  },
  {
    "service_request": "2023-988652",
    "request_type": "Roads/Drainage",
    "request_reason": "Street Subsidence (Sinking)",
    "date_created": "2023-04-04T18:10:57.000",
    "date_modified": "2023-04-04T18:10:57.000",
    "request_status": "Pending",
    "responsible_agency": "Department of Public Works",
    "final_address": "3931 General Meyer Ave",
    "address_councildis": "C",
    "status": "Pending",
    "rowid": "988652",
    "final_x": "3698830.46666",
    "final_y": "524726.416572",
    "longitude": "-90.01359435058635",
    "latitude": "29.9362781341848",
    "geocoded_column": {
      "latitude": "29.9362781341848",
      "longitude": "-90.01359435058635"
    }
  },
  {
    "service_request": "2023-988651",
    "request_type": "Roads/Drainage",
    "request_reason": "Street Subsidence (Sinking)",
    "date_created": "2023-04-04T18:09:53.000",
    "date_modified": "2023-04-04T18:09:53.000",
    "request_status": "Pending",
    "responsible_agency": "Department of Public Works",
    "final_address": "1632 General Taylor St",
    "address_councildis": "B",
    "status": "Pending",
    "rowid": "988651",
    "final_x": "3672518.30868",
    "final_y": "521329.043577",
    "longitude": "-90.09677859636734",
    "latitude": "29.92774352930631",
    "geocoded_column": {
      "latitude": "29.92774352930631",
      "longitude": "-90.09677859636734"
    }
  },
  {
    "service_request": "2023-988650",
    "request_type": "Roads/Drainage",
    "request_reason": "Street Subsidence (Sinking)",
    "date_created": "2023-04-04T18:08:47.000",
    "date_modified": "2023-04-04T18:08:47.000",
    "request_status": "Pending",
    "responsible_agency": "Department of Public Works",
    "final_address": "3904 General Meyer Ave",
    "address_councildis": "C",
    "status": "Pending",
    "rowid": "988650",
    "final_x": "3698599.4849",
    "final_y": "525052.321021",
    "longitude": "-90.01431171906243",
    "latitude": "29.937181571541625",
    "geocoded_column": {
      "latitude": "29.937181571541625",
      "longitude": "-90.01431171906243"
    }
  },
  {
    "service_request": "2023-988649",
    "request_type": "Roads/Drainage",
    "request_reason": "Street Subsidence (Sinking)",
    "date_created": "2023-04-04T18:07:37.000",
    "date_modified": "2023-04-04T18:07:37.000",
    "request_status": "Pending",
    "responsible_agency": "Department of Public Works",
    "final_address": "3700 General Meyer Ave",
    "address_councildis": "C",
    "status": "Pending",
    "rowid": "988649",
    "final_x": "3697506.88496",
    "final_y": "525566.660541",
    "longitude": "-90.0177424601155",
    "latitude": "29.938630365444574",
    "geocoded_column": {
      "latitude": "29.938630365444574",
      "longitude": "-90.0177424601155"
    }
  },
  {
    "service_request": "2023-988648",
    "request_type": "Trash/Recycling",
    "request_reason": "Replace Trash Cart",
    "date_created": "2023-04-04T18:04:21.000",
    "date_modified": "2023-04-04T18:04:22.000",
    "request_status": "Pending",
    "responsible_agency": "Department of Sanitation",
    "final_address": "3965 Constance St",
    "address_councildis": "B",
    "status": "Assigned to Contractor",
    "contractor": "Richards Disposal",
    "rowid": "988648",
    "final_x": "3672630.12603",
    "final_y": "518611.610039",
    "longitude": "-90.09651820865471",
    "latitude": "29.920268138418123",
    "geocoded_column": {
      "latitude": "29.920268138418123",
      "longitude": "-90.09651820865471"
    }
  },
  {
    "service_request": "2023-988647",
    "request_type": "Abandoned Vehicles",
    "request_reason": "Abandoned/Junk Vehicles",
    "date_created": "2023-04-04T18:02:46.000",
    "date_modified": "2023-04-04T18:02:46.000",
    "request_status": "Pending",
    "responsible_agency": "Department of Public Works",
    "final_address": "1450 Josephine St",
    "address_councildis": "B",
    "status": "Pending",
    "rowid": "988647",
    "final_x": "3678247.27253",
    "final_y": "523444.999739",
    "longitude": "-90.07862047326248",
    "latitude": "29.933390474531205",
    "geocoded_column": {
      "latitude": "29.933390474531205",
      "longitude": "-90.07862047326248"
    }
  },
  {
    "service_request": "2023-988645",
    "request_type": "Trash/Recycling",
    "request_reason": "Request a Large Item Pick Up",
    "date_created": "2023-04-04T17:39:51.000",
    "date_modified": "2023-04-04T17:39:52.000",
    "request_status": "Pending",
    "responsible_agency": "Department of Sanitation",
    "final_address": "1938 Tennessee St",
    "address_councildis": "E",
    "status": "Assigned to Contractor",
    "contractor": "Waste Pro",
    "rowid": "988645",
    "final_x": "3696552.93271",
    "final_y": "537620.28276",
    "longitude": "-90.0203181071712",
    "latitude": "29.971803667385736",
    "geocoded_column": {
      "latitude": "29.971803667385736",
      "longitude": "-90.0203181071712"
    }
  },
  {
    "service_request": "2023-988644",
    "request_type": "Trash/Recycling",
    "request_reason": "Request a Large Item Pick Up",
    "date_created": "2023-04-04T17:39:13.000",
    "date_modified": "2023-04-04T17:39:13.000",
    "request_status": "Pending",
    "responsible_agency": "Department of Sanitation",
    "final_address": "7711 Oak St",
    "address_councildis": "A",
    "status": "Assigned to Contractor",
    "contractor": "Richards Disposal",
    "rowid": "988644",
    "final_x": "3662989.33056",
    "final_y": "527492.776639",
    "longitude": "-90.12665455140784",
    "latitude": "29.944971162491683",
    "geocoded_column": {
      "latitude": "29.944971162491683",
      "longitude": "-90.12665455140784"
    }
  },
  {
    "service_request": "2023-988643",
    "request_type": "Trash/Recycling",
    "request_reason": "Missed Trash Pick-Up",
    "date_created": "2023-04-04T17:38:54.000",
    "date_modified": "2023-04-04T17:38:54.000",
    "request_status": "Pending",
    "responsible_agency": "Department of Sanitation",
    "final_address": "2435 Milan St",
    "address_councildis": "B",
    "status": "Assigned to Contractor",
    "contractor": "Richards Disposal",
    "rowid": "988643",
    "final_x": "3671331.09044",
    "final_y": "524075.678844",
    "longitude": "-90.10043307809411",
    "latitude": "29.93533106823372",
    "geocoded_column": {
      "latitude": "29.93533106823372",
      "longitude": "-90.10043307809411"
    }
  },
  {
    "service_request": "2023-988641",
    "request_type": "Trash/Recycling",
    "request_reason": "Request a Large Item Pick Up",
    "date_created": "2023-04-04T17:27:24.000",
    "date_modified": "2023-04-04T17:27:24.000",
    "request_status": "Pending",
    "responsible_agency": "Department of Sanitation",
    "final_address": "11800 Morrison Rd",
    "address_councildis": "E",
    "status": "Assigned to Contractor",
    "contractor": "Waste Pro",
    "rowid": "988641",
    "final_x": "3713413.32319",
    "final_y": "566427.045923",
    "longitude": "-89.96598531409377",
    "latitude": "30.050469031178366",
    "geocoded_column": {
      "latitude": "30.050469031178366",
      "longitude": "-89.96598531409377"
    }
  },
  {
    "service_request": "2023-988640",
    "request_type": "Traffic Signals/Signs/Striping/Streetlights",
    "request_reason": "Traffic Signal Malfunctioning/Damaged",
    "date_created": "2023-04-04T17:25:50.000",
    "date_modified": "2023-04-04T17:25:51.000",
    "request_status": "Pending",
    "responsible_agency": "Department of Public Works",
    "final_address": "POYDRAS ST & ST CHARLES AVE",
    "address_councildis": "B",
    "status": "Pending",
    "rowid": "988640",
    "final_x": "3680720.1",
    "final_y": "529331.08",
    "longitude": "-90.07060913253059",
    "latitude": "29.949500547686682",
    "geocoded_column": {
      "latitude": "29.949500547686682",
      "longitude": "-90.07060913253059"
    }
  },
  {
    "service_request": "2023-988639",
    "request_type": "Trash/Recycling",
    "request_reason": "Missed Trash Pick-Up",
    "date_created": "2023-04-04T17:25:09.000",
    "date_modified": "2023-04-04T17:25:10.000",
    "request_status": "Pending",
    "responsible_agency": "Department of Sanitation",
    "final_address": "523 Walker St",
    "address_councildis": "A",
    "status": "Assigned to Contractor",
    "contractor": "IV Waste",
    "rowid": "988639",
    "final_x": "3668554.52858",
    "final_y": "554123.523544",
    "longitude": "-90.10818444704869",
    "latitude": "30.018034370584047",
    "geocoded_column": {
      "latitude": "30.018034370584047",
      "longitude": "-90.10818444704869"
    }
  },
  {
    "service_request": "2023-988638",
    "request_type": "Trash/Recycling",
    "request_reason": "Missed Trash Pick-Up",
    "date_created": "2023-04-04T17:24:16.000",
    "date_modified": "2023-04-04T17:24:17.000",
    "request_status": "Pending",
    "responsible_agency": "Department of Sanitation",
    "final_address": "4301 S Johnson St",
    "address_councildis": "B",
    "status": "Assigned to Contractor",
    "contractor": "Richards Disposal",
    "rowid": "988638",
    "final_x": "3670560.32103",
    "final_y": "527297.419007",
    "longitude": "-90.10275717288424",
    "latitude": "29.944212590789466",
    "geocoded_column": {
      "latitude": "29.944212590789466",
      "longitude": "-90.10275717288424"
    }
  },
  {
    "service_request": "2023-988637",
    "request_type": "Trash/Recycling",
    "request_reason": "Request a Large Item Pick Up",
    "date_created": "2023-04-04T17:22:43.000",
    "date_modified": "2023-04-04T17:22:44.000",
    "request_status": "Pending",
    "responsible_agency": "Department of Sanitation",
    "status": "Assigned to Contractor",
    "rowid": "988637",
    "longitude": "0.0",
    "latitude": "0.0",
    "geocoded_column": {
      "latitude": "0.0",
      "longitude": "0.0"
    }
  },
  {
    "service_request": "2023-988636",
    "request_type": "Trash/Recycling",
    "request_reason": "Request a Large Item Pick Up",
    "date_created": "2023-04-04T17:15:10.000",
    "date_modified": "2023-04-04T17:15:10.000",
    "request_status": "Pending",
    "responsible_agency": "Department of Sanitation",
    "final_address": "3324 Iberville St",
    "address_councildis": "B",
    "status": "Assigned to Contractor",
    "contractor": "Richards Disposal",
    "rowid": "988636",
    "final_x": "3673645.72699",
    "final_y": "536829.175304",
    "longitude": "-90.09268981348141",
    "latitude": "29.970330271090557",
    "geocoded_column": {
      "latitude": "29.970330271090557",
      "longitude": "-90.09268981348141"
    }
  },
  {
    "service_request": "2023-988635",
    "request_type": "Trash/Recycling",
    "request_reason": "Return Trash Cart",
    "date_created": "2023-04-04T17:07:03.000",
    "date_modified": "2023-04-04T17:07:04.000",
    "request_status": "Pending",
    "responsible_agency": "Department of Sanitation",
    "final_address": "755 Aurora Oaks Dr",
    "address_councildis": "C",
    "status": "Assigned to Contractor",
    "contractor": "Richards Disposal",
    "rowid": "988635",
    "final_x": "3701195.19249",
    "final_y": "519580.398712",
    "longitude": "-90.00631703521971",
    "latitude": "29.922053264472993",
    "geocoded_column": {
      "latitude": "29.922053264472993",
      "longitude": "-90.00631703521971"
    }
  },
  {
    "service_request": "2023-988634",
    "request_type": "Roads/Drainage",
    "request_reason": "Debris in Roadway",
    "date_created": "2023-04-04T16:50:01.000",
    "date_modified": "2023-04-04T16:50:01.000",
    "request_status": "Pending",
    "responsible_agency": "Department of Public Works",
    "final_address": "5331 Edenboro Rd",
    "address_councildis": "E",
    "status": "Pending",
    "rowid": "988634",
    "final_x": "3708428.40388",
    "final_y": "557702.064603",
    "longitude": "-89.98206594889406",
    "latitude": "30.02664141866644",
    "geocoded_column": {
      "latitude": "30.02664141866644",
      "longitude": "-89.98206594889406"
    }
  },
  {
    "service_request": "2023-988633",
    "request_type": "Trash/Recycling",
    "request_reason": "Request a Large Item Pick Up",
    "date_created": "2023-04-04T16:49:36.000",
    "date_modified": "2023-04-04T16:49:37.000",
    "request_status": "Pending",
    "responsible_agency": "Department of Sanitation",
    "final_address": "7591 Morel St",
    "address_councildis": "E",
    "status": "Assigned to Contractor",
    "contractor": "Waste Pro",
    "rowid": "988633",
    "final_x": "3718964.88914",
    "final_y": "571806.2026",
    "longitude": "-89.94823347557528",
    "latitude": "30.065076152791388",
    "geocoded_column": {
      "latitude": "30.065076152791388",
      "longitude": "-89.94823347557528"
    }
  },
  {
    "service_request": "2023-988632",
    "request_type": "Trash/Recycling",
    "request_reason": "Repair Trash Cart",
    "date_created": "2023-04-04T16:42:22.000",
    "date_modified": "2023-04-04T16:42:23.000",
    "request_status": "Pending",
    "responsible_agency": "Department of Sanitation",
    "final_address": "2438 Monticello St",
    "address_councildis": "E",
    "status": "Assigned to Contractor",
    "contractor": "Waste Pro",
    "rowid": "988632",
    "final_x": "3700953.7329",
    "final_y": "538451.748425",
    "longitude": "-90.0063893784631",
    "latitude": "29.97395050151364",
    "geocoded_column": {
      "latitude": "29.97395050151364",
      "longitude": "-90.0063893784631"
    }
  },
  {
    "service_request": "2023-988631",
    "request_type": "Trash/Recycling",
    "request_reason": "Request a Large Item Pick Up",
    "date_created": "2023-04-04T16:41:12.000",
    "date_modified": "2023-04-04T16:41:12.000",
    "request_status": "Pending",
    "responsible_agency": "Department of Sanitation",
    "final_address": "2115 Valence St",
    "address_councildis": "B",
    "status": "Assigned to Contractor",
    "contractor": "Richards Disposal",
    "rowid": "988631",
    "final_x": "3669645.5595",
    "final_y": "522676.366906",
    "longitude": "-90.10580164371216",
    "latitude": "29.93153317001814",
    "geocoded_column": {
      "latitude": "29.93153317001814",
      "longitude": "-90.10580164371216"
    }
  },
  {
    "service_request": "2023-988630",
    "request_type": "Trash/Recycling",
    "request_reason": "Request a Large Item Pick Up",
    "date_created": "2023-04-04T16:39:42.000",
    "date_modified": "2023-04-04T16:39:43.000",
    "request_status": "Pending",
    "responsible_agency": "Department of Sanitation",
    "final_address": "2438 Monticello St",
    "address_councildis": "E",
    "status": "Assigned to Contractor",
    "contractor": "Waste Pro",
    "rowid": "988630",
    "final_x": "3700953.7329",
    "final_y": "538451.748425",
    "longitude": "-90.0063893784631",
    "latitude": "29.97395050151364",
    "geocoded_column": {
      "latitude": "29.97395050151364",
      "longitude": "-90.0063893784631"
    }
  },
  {
    "service_request": "2023-988629",
    "request_type": "Trash/Recycling",
    "request_reason": "Request a Large Item Pick Up",
    "date_created": "2023-04-04T16:38:43.000",
    "date_modified": "2023-04-04T16:38:44.000",
    "request_status": "Pending",
    "responsible_agency": "Department of Sanitation",
    "final_address": "7710 Henley St",
    "address_councildis": "E",
    "status": "Assigned to Contractor",
    "contractor": "Waste Pro",
    "rowid": "988629",
    "final_x": "3696709.46455",
    "final_y": "559490.343901",
    "longitude": "-90.0190315234515",
    "latitude": "30.031933291731708",
    "geocoded_column": {
      "latitude": "30.031933291731708",
      "longitude": "-90.0190315234515"
    }
  },
  {
    "service_request": "2023-988627",
    "request_type": "Trash/Recycling",
    "request_reason": "Request a Large Item Pick Up",
    "date_created": "2023-04-04T16:36:40.000",
    "date_modified": "2023-04-04T16:36:41.000",
    "request_status": "Pending",
    "responsible_agency": "Department of Sanitation",
    "final_address": "1108 Crete St",
    "address_councildis": "A",
    "status": "Assigned to Contractor",
    "contractor": "Richards Disposal",
    "rowid": "988627",
    "final_x": "3677687.78427",
    "final_y": "538800.915017",
    "longitude": "-90.07985642966172",
    "latitude": "29.975630922129216",
    "geocoded_column": {
      "latitude": "29.975630922129216",
      "longitude": "-90.07985642966172"
    }
  },
  {
    "service_request": "2023-988626",
    "request_type": "Trash/Recycling",
    "request_reason": "Missed Trash Pick-Up",
    "date_created": "2023-04-04T16:36:22.000",
    "date_modified": "2023-04-04T16:36:22.000",
    "request_status": "Pending",
    "responsible_agency": "Department of Sanitation",
    "final_address": "2300 Monticello St",
    "address_councildis": "E",
    "status": "Assigned to Contractor",
    "contractor": "Waste Pro",
    "rowid": "988626",
    "final_x": "3700683.94884",
    "final_y": "537847.456137",
    "longitude": "-90.00726349797482",
    "latitude": "29.972297504538048",
    "geocoded_column": {
      "latitude": "29.972297504538048",
      "longitude": "-90.00726349797482"
    }
  },
  {
    "service_request": "2023-988625",
    "request_type": "Abandoned Vehicles",
    "request_reason": "Abandoned/Junk Vehicles",
    "date_created": "2023-04-04T16:35:48.000",
    "date_modified": "2023-04-04T16:39:20.000",
    "request_status": "Pending",
    "responsible_agency": "Department of Public Works",
    "final_address": "900 BLK Thalia St",
    "address_councildis": "B",
    "status": "Pending",
    "rowid": "988625",
    "final_x": "3681116.20072",
    "final_y": "525097.003071",
    "longitude": "-90.06950591968877",
    "latitude": "29.937846243157008",
    "geocoded_column": {
      "latitude": "29.937846243157008",
      "longitude": "-90.06950591968877"
    }
  },
  {
    "service_request": "2023-988624",
    "request_type": "Trash/Recycling",
    "request_reason": "MIssed Recycling Pick-Up",
    "date_created": "2023-04-04T16:29:45.000",
    "date_modified": "2023-04-04T16:29:45.000",
    "request_status": "Pending",
    "responsible_agency": "Department of Sanitation",
    "final_address": "807 Voisin St, New Orleans, Louisiana, 70124",
    "address_councildis": "A",
    "status": "Assigned to Contractor",
    "contractor": "IV Waste",
    "rowid": "988624",
    "final_x": "3668723.05095",
    "final_y": "543265.705486",
    "longitude": "-90.1080188395133",
    "latitude": "29.98817419149916",
    "geocoded_column": {
      "latitude": "29.98817419149916",
      "longitude": "-90.1080188395133"
    }
  },
  {
    "service_request": "2023-988623",
    "request_type": "Trash/Recycling",
    "request_reason": "Request a Large Item Pick Up",
    "date_created": "2023-04-04T16:29:18.000",
    "date_modified": "2023-04-04T16:29:18.000",
    "request_status": "Pending",
    "responsible_agency": "Department of Sanitation",
    "final_address": "735 Pontalba St",
    "address_councildis": "A",
    "status": "Assigned to Contractor",
    "contractor": "IV Waste",
    "rowid": "988623",
    "final_x": "3668640.50586",
    "final_y": "544461.425999",
    "longitude": "-90.1082391920842",
    "latitude": "29.991464440678413",
    "geocoded_column": {
      "latitude": "29.991464440678413",
      "longitude": "-90.1082391920842"
    }
  },
  {
    "service_request": "2023-988622",
    "request_type": "Trash/Recycling",
    "request_reason": "Return Trash Cart",
    "date_created": "2023-04-04T16:24:02.000",
    "date_modified": "2023-04-04T16:24:02.000",
    "request_status": "Pending",
    "responsible_agency": "Department of Sanitation",
    "final_address": "5353 Perrier St",
    "address_councildis": "B",
    "status": "Assigned to Contractor",
    "contractor": "Richards Disposal",
    "rowid": "988622",
    "final_x": "3667230.41421",
    "final_y": "520102.297272",
    "longitude": "-90.11351250634239",
    "latitude": "29.924526217147832",
    "geocoded_column": {
      "latitude": "29.924526217147832",
      "longitude": "-90.11351250634239"
    }
  },
  {
    "service_request": "2023-988620",
    "request_type": "Trash/Recycling",
    "request_reason": "MIssed Recycling Pick-Up",
    "date_created": "2023-04-04T16:22:30.000",
    "date_modified": "2023-04-04T16:22:31.000",
    "request_status": "Pending",
    "responsible_agency": "Department of Sanitation",
    "final_address": "2300 BLK Monticello St",
    "address_councildis": "E",
    "status": "Assigned to Contractor",
    "contractor": "Waste Pro",
    "rowid": "988620",
    "final_x": "3700791.36938",
    "final_y": "537972.597071",
    "longitude": "-90.00691967277308",
    "latitude": "29.972638178062724",
    "geocoded_column": {
      "latitude": "29.972638178062724",
      "longitude": "-90.00691967277308"
    }
  },
  {
    "service_request": "2023-988619",
    "request_type": "Trash/Recycling",
    "request_reason": "Order Trash Cart",
    "date_created": "2023-04-04T16:22:00.000",
    "date_modified": "2023-04-04T16:22:00.000",
    "request_status": "Pending",
    "responsible_agency": "Department of Sanitation",
    "final_address": "4722 Miles Dr",
    "address_councildis": "D",
    "status": "Assigned to Contractor",
    "contractor": "IV Waste",
    "rowid": "988619",
    "final_x": "3679612.39323",
    "final_y": "549069.147987",
    "longitude": "-90.07342139805507",
    "latitude": "30.003806925708204",
    "geocoded_column": {
      "latitude": "30.003806925708204",
      "longitude": "-90.07342139805507"
    }
  },
  {
    "service_request": "2023-988618",
    "request_type": "Trash/Recycling",
    "request_reason": "Missed Trash Pick-Up",
    "date_created": "2023-04-04T16:21:51.000",
    "date_modified": "2023-04-04T16:21:52.000",
    "request_status": "Pending",
    "responsible_agency": "Department of Sanitation",
    "final_address": "2300 BLK Monticello St",
    "address_councildis": "E",
    "status": "Assigned to Contractor",
    "contractor": "Waste Pro",
    "rowid": "988618",
    "final_x": "3700791.36938",
    "final_y": "537972.597071",
    "longitude": "-90.00691967277308",
    "latitude": "29.972638178062724",
    "geocoded_column": {
      "latitude": "29.972638178062724",
      "longitude": "-90.00691967277308"
    }
  },
  {
    "service_request": "2023-988617",
    "request_type": "Trash/Recycling",
    "request_reason": "Request a Large Item Pick Up",
    "date_created": "2023-04-04T16:17:23.000",
    "date_modified": "2023-04-04T16:17:24.000",
    "request_status": "Pending",
    "responsible_agency": "Department of Sanitation",
    "final_address": "2259 Mithra St",
    "address_councildis": "D",
    "status": "Assigned to Contractor",
    "contractor": "IV Waste",
    "rowid": "988617",
    "final_x": "3684251.48233",
    "final_y": "552761.75087",
    "longitude": "-90.05863597886017",
    "latitude": "30.013819170325803",
    "geocoded_column": {
      "latitude": "30.013819170325803",
      "longitude": "-90.05863597886017"
    }
  },
  {
    "service_request": "2023-988616",
    "request_type": "Trash/Recycling",
    "request_reason": "Missed Trash Pick-Up",
    "date_created": "2023-04-04T16:14:26.000",
    "date_modified": "2023-04-04T16:14:26.000",
    "request_status": "Pending",
    "responsible_agency": "Department of Sanitation",
    "final_address": "413 Pelican Ave",
    "address_councildis": "C",
    "status": "Assigned to Contractor",
    "contractor": "Richards Disposal",
    "rowid": "988616",
    "final_x": "3686631.75542",
    "final_y": "530526.838018",
    "longitude": "-90.0519011939635",
    "latitude": "29.95260801774559",
    "geocoded_column": {
      "latitude": "29.95260801774559",
      "longitude": "-90.0519011939635"
    }
  },
  {
    "service_request": "2023-988615",
    "request_type": "Trash/Recycling",
    "request_reason": "Missed Trash Pick-Up",
    "date_created": "2023-04-04T16:13:50.000",
    "date_modified": "2023-04-04T16:13:51.000",
    "request_status": "Pending",
    "responsible_agency": "Department of Sanitation",
    "final_address": "7607 Forum Blvd",
    "address_councildis": "E",
    "status": "Assigned to Contractor",
    "contractor": "Waste Pro",
    "rowid": "988615",
    "final_x": "3720323.94892",
    "final_y": "573136.266409",
    "longitude": "-89.94388640979861",
    "latitude": "30.068688026478643",
    "geocoded_column": {
      "latitude": "30.068688026478643",
      "longitude": "-89.94388640979861"
    }
  },
  {
    "service_request": "2023-988614",
    "request_type": "Trash/Recycling",
    "request_reason": "Illegal Dumping",
    "date_created": "2023-04-04T16:13:39.000",
    "date_modified": "2023-04-04T16:13:39.000",
    "request_status": "Pending",
    "responsible_agency": "Department of Sanitation",
    "final_address": "2342 Pauline St",
    "address_councildis": "D",
    "status": "Pending",
    "rowid": "988614",
    "final_x": "3692374.41648",
    "final_y": "540312.133579",
    "longitude": "-90.03341801573113",
    "latitude": "29.979336294152926",
    "geocoded_column": {
      "latitude": "29.979336294152926",
      "longitude": "-90.03341801573113"
    }
  },
  {
    "service_request": "2023-988613",
    "request_type": "Trash/Recycling",
    "request_reason": "MIssed Recycling Pick-Up",
    "date_created": "2023-04-04T16:12:35.000",
    "date_modified": "2023-04-04T16:12:36.000",
    "request_status": "Pending",
    "responsible_agency": "Department of Sanitation",
    "final_address": "5018 Revel St",
    "address_councildis": "E",
    "status": "Assigned to Contractor",
    "contractor": "Waste Pro",
    "rowid": "988613",
    "final_x": "3725087.93881",
    "final_y": "562062.662431",
    "longitude": "-89.92925553691377",
    "latitude": "30.038080556849305",
    "geocoded_column": {
      "latitude": "30.038080556849305",
      "longitude": "-89.92925553691377"
    }
  },
  {
    "service_request": "2023-988612",
    "request_type": "Trash/Recycling",
    "request_reason": "Request a Large Item Pick Up",
    "date_created": "2023-04-04T16:11:02.000",
    "date_modified": "2023-04-04T16:11:03.000",
    "request_status": "Pending",
    "responsible_agency": "Department of Sanitation",
    "final_address": "825 Wagner St",
    "address_councildis": "C",
    "status": "Assigned to Contractor",
    "contractor": "Richards Disposal",
    "rowid": "988612",
    "final_x": "3690474.1407",
    "final_y": "528353.39296",
    "longitude": "-90.03984618825072",
    "latitude": "29.94651307816082",
    "geocoded_column": {
      "latitude": "29.94651307816082",
      "longitude": "-90.03984618825072"
    }
  },
  {
    "service_request": "2023-988611",
    "request_type": "Traffic Signals/Signs/Striping/Streetlights",
    "request_reason": "Street Light Outage/Malfunction",
    "date_created": "2023-04-04T16:09:27.000",
    "date_modified": "2023-04-04T16:12:20.000",
    "request_status": "Pending",
    "responsible_agency": "Department of Public Works",
    "final_address": "1500 BLK Prytania St",
    "address_councildis": "B",
    "status": "Assigned to Contractor",
    "contractor": "Legacy Professional Services",
    "rowid": "988611",
    "final_x": "3679572.05781",
    "final_y": "525135.342562",
    "longitude": "-90.07437957434793",
    "latitude": "29.937998404546942",
    "geocoded_column": {
      "latitude": "29.937998404546942",
      "longitude": "-90.07437957434793"
    }
  },
  {
    "service_request": "2023-988610",
    "request_type": "Traffic Signals/Signs/Striping/Streetlights",
    "request_reason": "Street Light Outage/Malfunction",
    "date_created": "2023-04-04T16:08:02.000",
    "date_modified": "2023-04-04T16:08:03.000",
    "request_status": "Pending",
    "responsible_agency": "Department of Public Works",
    "final_address": "1500 BLK Prytania St",
    "address_councildis": "B",
    "status": "Assigned to Contractor",
    "contractor": "Legacy Professional Services",
    "rowid": "988610",
    "final_x": "3679572.05781",
    "final_y": "525135.342562",
    "longitude": "-90.07437957434793",
    "latitude": "29.937998404546942",
    "geocoded_column": {
      "latitude": "29.937998404546942",
      "longitude": "-90.07437957434793"
    }
  },
  {
    "service_request": "2023-988609",
    "request_type": "Trash/Recycling",
    "request_reason": "Request a Large Item Pick Up",
    "date_created": "2023-04-04T16:07:26.000",
    "date_modified": "2023-04-04T16:09:31.000",
    "request_status": "Pending",
    "responsible_agency": "Department of Sanitation",
    "final_address": "514 Vallette St",
    "address_councildis": "C",
    "status": "Assigned to Contractor",
    "contractor": "Richards Disposal",
    "rowid": "988609",
    "final_x": "3687566.61327",
    "final_y": "529782.729409",
    "longitude": "-90.04897567834557",
    "latitude": "29.950533193711152",
    "geocoded_column": {
      "latitude": "29.950533193711152",
      "longitude": "-90.04897567834557"
    }
  },
  {
    "service_request": "2023-988608",
    "request_type": "Traffic Signals/Signs/Striping/Streetlights",
    "request_reason": "Street Light Outage/Malfunction",
    "date_created": "2023-04-04T16:06:30.000",
    "date_modified": "2023-04-04T16:06:30.000",
    "request_status": "Pending",
    "responsible_agency": "Department of Public Works",
    "final_address": "1500 BLK Prytania St",
    "address_councildis": "B",
    "status": "Assigned to Contractor",
    "contractor": "Legacy Professional Services",
    "rowid": "988608",
    "final_x": "3679572.05781",
    "final_y": "525135.342562",
    "longitude": "-90.07437957434793",
    "latitude": "29.937998404546942",
    "geocoded_column": {
      "latitude": "29.937998404546942",
      "longitude": "-90.07437957434793"
    }
  },
  {
    "service_request": "2023-988607",
    "request_type": "Traffic Signals/Signs/Striping/Streetlights",
    "request_reason": "Street Light Outage/Malfunction",
    "date_created": "2023-04-04T16:04:10.000",
    "date_modified": "2023-04-04T16:04:11.000",
    "request_status": "Pending",
    "responsible_agency": "Department of Public Works",
    "final_address": "1409 Octavia St",
    "address_councildis": "A",
    "status": "Assigned to Contractor",
    "contractor": "Legacy Professional Services",
    "rowid": "988607",
    "final_x": "3666956.38663",
    "final_y": "520991.088313",
    "longitude": "-90.11434767435445",
    "latitude": "29.92697813006529",
    "geocoded_column": {
      "latitude": "29.92697813006529",
      "longitude": "-90.11434767435445"
    }
  },
  {
    "service_request": "2023-988606",
    "request_type": "Trash/Recycling",
    "request_reason": "Request a Large Item Pick Up",
    "date_created": "2023-04-04T16:03:29.000",
    "date_modified": "2023-04-04T16:03:30.000",
    "request_status": "Pending",
    "responsible_agency": "Department of Sanitation",
    "final_address": "20 Chatham Dr",
    "address_councildis": "D",
    "status": "Assigned to Contractor",
    "contractor": "IV Waste",
    "rowid": "988606",
    "final_x": "3679832.0733",
    "final_y": "551177.339669",
    "longitude": "-90.0726541153853",
    "latitude": "30.009597053639535",
    "geocoded_column": {
      "latitude": "30.009597053639535",
      "longitude": "-90.0726541153853"
    }
  },
  {
    "service_request": "2023-988605",
    "request_type": "Trash/Recycling",
    "request_reason": "Request a Large Item Pick Up",
    "date_created": "2023-04-04T16:00:26.000",
    "date_modified": "2023-04-04T16:01:18.000",
    "request_status": "Pending",
    "responsible_agency": "Department of Sanitation",
    "final_address": "1633 St Roch Ave",
    "address_councildis": "D",
    "status": "Assigned to Contractor",
    "contractor": "IV Waste",
    "rowid": "988605",
    "final_x": "3686397.91183",
    "final_y": "538562.336585",
    "longitude": "-90.05235591672172",
    "latitude": "29.97471004417599",
    "geocoded_column": {
      "latitude": "29.97471004417599",
      "longitude": "-90.05235591672172"
    }
  },
  {
    "service_request": "2023-988602",
    "request_type": "Trash/Recycling",
    "request_reason": "Missed Trash Pick-Up",
    "date_created": "2023-04-04T15:59:27.000",
    "date_modified": "2023-04-04T15:59:27.000",
    "request_status": "Pending",
    "responsible_agency": "Department of Sanitation",
    "final_address": "1633 St Roch Ave",
    "address_councildis": "D",
    "status": "Assigned to Contractor",
    "contractor": "IV Waste",
    "rowid": "988602",
    "final_x": "3686397.91183",
    "final_y": "538562.336585",
    "longitude": "-90.05235591672172",
    "latitude": "29.97471004417599",
    "geocoded_column": {
      "latitude": "29.97471004417599",
      "longitude": "-90.05235591672172"
    }
  },
  {
    "service_request": "2023-988600",
    "request_type": "Roads/Drainage",
    "request_reason": "Damaged Sidewalk",
    "date_created": "2023-04-04T15:56:49.000",
    "date_modified": "2023-04-04T15:56:49.000",
    "request_status": "Pending",
    "responsible_agency": "Department of Public Works",
    "final_address": "732 Pelican Ave",
    "address_councildis": "C",
    "status": "Pending",
    "rowid": "988600",
    "final_x": "3687852.37225",
    "final_y": "530818.444226",
    "longitude": "-90.0480367190527",
    "latitude": "29.95337224376127",
    "geocoded_column": {
      "latitude": "29.95337224376127",
      "longitude": "-90.0480367190527"
    }
  },
  {
    "service_request": "2023-988599",
    "request_type": "Trash/Recycling",
    "request_reason": "Order Recycling Cart",
    "date_created": "2023-04-04T15:56:45.000",
    "date_modified": "2023-04-04T15:56:46.000",
    "request_status": "Pending",
    "responsible_agency": "Department of Sanitation",
    "final_address": "2363 Dreux Ave",
    "address_councildis": "D",
    "status": "Pending",
    "rowid": "988599",
    "final_x": "3685100.59497",
    "final_y": "552174.849174",
    "longitude": "-90.05597389526852",
    "latitude": "30.012179404768386",
    "geocoded_column": {
      "latitude": "30.012179404768386",
      "longitude": "-90.05597389526852"
    }
  },
  {
    "service_request": "2023-988598",
    "request_type": "Trash/Recycling",
    "request_reason": "Start Trash Service",
    "date_created": "2023-04-04T15:55:42.000",
    "date_modified": "2023-04-04T15:55:42.000",
    "request_status": "Pending",
    "responsible_agency": "Department of Sanitation",
    "final_address": "2363 Dreux Ave",
    "address_councildis": "D",
    "status": "Assigned to Contractor",
    "contractor": "IV Waste",
    "rowid": "988598",
    "final_x": "3685100.59497",
    "final_y": "552174.849174",
    "longitude": "-90.05597389526852",
    "latitude": "30.012179404768386",
    "geocoded_column": {
      "latitude": "30.012179404768386",
      "longitude": "-90.05597389526852"
    }
  },
  {
    "service_request": "2023-988595",
    "request_type": "Parks & Parkways",
    "request_reason": "Request Tree Service (Right of Way/Public Property)",
    "date_created": "2023-04-04T15:55:29.000",
    "date_modified": "2023-04-04T15:59:45.000",
    "case_close_date": "2023-04-04T10:59:45.000",
    "request_status": "Closed",
    "responsible_agency": "Department of Parks & Parkway",
    "final_address": "732 Pelican Ave",
    "address_councildis": "C",
    "status": "Duplicate Request",
    "rowid": "988595",
    "final_x": "3687852.37225",
    "final_y": "530818.444226",
    "longitude": "-90.0480367190527",
    "latitude": "29.95337224376127",
    "geocoded_column": {
      "latitude": "29.95337224376127",
      "longitude": "-90.0480367190527"
    }
  },
  {
    "service_request": "2023-988594",
    "request_type": "Trash/Recycling",
    "request_reason": "Repair Trash Cart",
    "date_created": "2023-04-04T15:53:52.000",
    "date_modified": "2023-04-04T15:54:19.000",
    "request_status": "Pending",
    "responsible_agency": "Department of Sanitation",
    "final_address": "2729 Bristol Pl",
    "address_councildis": "C",
    "status": "Assigned to Contractor",
    "contractor": "Richards Disposal",
    "rowid": "988594",
    "final_x": "3702541.59933",
    "final_y": "520914.882169",
    "longitude": "-90.00201807989372",
    "latitude": "29.925679688890888",
    "geocoded_column": {
      "latitude": "29.925679688890888",
      "longitude": "-90.00201807989372"
    }
  },
  {
    "service_request": "2023-988593",
    "request_type": "Trash/Recycling",
    "request_reason": "Repair Trash Cart",
    "date_created": "2023-04-04T15:52:49.000",
    "date_modified": "2023-04-04T15:52:50.000",
    "request_status": "Pending",
    "responsible_agency": "Department of Sanitation",
    "final_address": "732 Pelican Ave",
    "address_councildis": "C",
    "status": "Assigned to Contractor",
    "contractor": "Richards Disposal",
    "rowid": "988593",
    "final_x": "3687852.37225",
    "final_y": "530818.444226",
    "longitude": "-90.0480367190527",
    "latitude": "29.95337224376127",
    "geocoded_column": {
      "latitude": "29.95337224376127",
      "longitude": "-90.0480367190527"
    }
  },
  {
    "service_request": "2023-988592",
    "request_type": "Trash/Recycling",
    "request_reason": "Repair Recycling Cart",
    "date_created": "2023-04-04T15:51:49.000",
    "date_modified": "2023-04-04T15:51:49.000",
    "request_status": "Pending",
    "responsible_agency": "Department of Sanitation",
    "final_address": "2729 Bristol Pl",
    "address_councildis": "C",
    "status": "Pending",
    "rowid": "988592",
    "final_x": "3702541.59933",
    "final_y": "520914.882169",
    "longitude": "-90.00201807989372",
    "latitude": "29.925679688890888",
    "geocoded_column": {
      "latitude": "29.925679688890888",
      "longitude": "-90.00201807989372"
    }
  },
  {
    "service_request": "2023-988591",
    "request_type": "Trash/Recycling",
    "request_reason": "Repair Recycling Cart",
    "date_created": "2023-04-04T15:51:04.000",
    "date_modified": "2023-04-04T15:51:04.000",
    "request_status": "Pending",
    "responsible_agency": "Department of Sanitation",
    "final_address": "3366 Esplanade Ave",
    "address_councildis": "A",
    "status": "Pending",
    "rowid": "988591",
    "final_x": "3675588.09761",
    "final_y": "540881.697931",
    "longitude": "-90.08641631529335",
    "latitude": "29.98141535139748",
    "geocoded_column": {
      "latitude": "29.98141535139748",
      "longitude": "-90.08641631529335"
    }
  },
  {
    "service_request": "2023-988590",
    "request_type": "Traffic Signals/Signs/Striping/Streetlights",
    "request_reason": "Road Surface Marking Maintenance-Parking Lane",
    "date_created": "2023-04-04T15:49:10.000",
    "date_modified": "2023-04-04T15:49:10.000",
    "request_status": "Pending",
    "responsible_agency": "Department of Public Works",
    "final_address": "127 S Solomon St",
    "address_councildis": "A",
    "status": "Pending",
    "rowid": "988590",
    "final_x": "3670324.77767",
    "final_y": "538502.464265",
    "longitude": "-90.10312102698994",
    "latitude": "29.97502970448666",
    "geocoded_column": {
      "latitude": "29.97502970448666",
      "longitude": "-90.10312102698994"
    }
  },
  {
    "service_request": "2023-988589",
    "request_type": "Property Maintenance",
    "request_reason": "Property Maintenance",
    "date_created": "2023-04-04T15:48:21.000",
    "date_modified": "2023-04-04T15:48:21.000",
    "request_status": "Pending",
    "responsible_agency": "Department of Code Enforcement",
    "final_address": "3210 Upperline St",
    "address_councildis": "B",
    "status": "Pending",
    "rowid": "988589",
    "final_x": "3669163.77319",
    "final_y": "526811.832318",
    "longitude": "-90.10718288868556",
    "latitude": "29.942918551233785",
    "geocoded_column": {
      "latitude": "29.942918551233785",
      "longitude": "-90.10718288868556"
    }
  },
  {
    "service_request": "2023-988588",
    "request_type": "Trash/Recycling",
    "request_reason": "Request a Large Item Pick Up",
    "date_created": "2023-04-04T15:40:00.000",
    "date_modified": "2023-04-04T15:40:00.000",
    "request_status": "Pending",
    "responsible_agency": "Department of Sanitation",
    "final_address": "1478 Wakefield Pl",
    "address_councildis": "D",
    "status": "Assigned to Contractor",
    "contractor": "IV Waste",
    "rowid": "988588",
    "final_x": "3678488.13813",
    "final_y": "549680.233108",
    "longitude": "-90.07695194336286",
    "latitude": "30.0055211345474",
    "geocoded_column": {
      "latitude": "30.0055211345474",
      "longitude": "-90.07695194336286"
    }
  },
  {
    "service_request": "2023-988587",
    "request_type": "Traffic Signals/Signs/Striping/Streetlights",
    "request_reason": "Request for Traffic Calming due to Speeding",
    "date_created": "2023-04-04T15:38:09.000",
    "date_modified": "2023-04-04T15:38:09.000",
    "request_status": "Pending",
    "responsible_agency": "Department of Public Works",
    "final_address": "9520 Palm St",
    "address_councildis": "A",
    "status": "Pending",
    "rowid": "988587",
    "final_x": "3663923.19763",
    "final_y": "538052.263433",
    "longitude": "-90.12335397528518",
    "latitude": "29.973979231434488",
    "geocoded_column": {
      "latitude": "29.973979231434488",
      "longitude": "-90.12335397528518"
    }
  },
  {
    "service_request": "2023-988586",
    "request_type": "Traffic Signals/Signs/Striping/Streetlights",
    "request_reason": "Traffic Sign Missing/Damaged",
    "date_created": "2023-04-04T15:37:47.000",
    "date_modified": "2023-04-04T15:37:47.000",
    "request_status": "Pending",
    "responsible_agency": "Department of Public Works",
    "final_address": "FRANCE RD & CHEF MENTEUR BRIDGE",
    "address_councildis": "D",
    "status": "Pending",
    "rowid": "988586",
    "final_x": "3693410.45",
    "final_y": "550659.53",
    "longitude": "-90.02977403275354",
    "latitude": "30.007755505048085",
    "geocoded_column": {
      "latitude": "30.007755505048085",
      "longitude": "-90.02977403275354"
    }
  },
  {
    "service_request": "2023-988585",
    "request_type": "Traffic Signals/Signs/Striping/Streetlights",
    "request_reason": "Street Light Outage/Malfunction",
    "date_created": "2023-04-04T15:36:24.000",
    "date_modified": "2023-04-04T15:36:25.000",
    "request_status": "Pending",
    "responsible_agency": "Department of Public Works",
    "final_address": "4824 Mendez St",
    "address_councildis": "D",
    "status": "Assigned to Contractor",
    "contractor": "Legacy Professional Services",
    "rowid": "988585",
    "final_x": "3691372.05923",
    "final_y": "554249.002648",
    "longitude": "-90.03608549859116",
    "latitude": "30.017688829550107",
    "geocoded_column": {
      "latitude": "30.017688829550107",
      "longitude": "-90.03608549859116"
    }
  },
  {
    "service_request": "2023-988584",
    "request_type": "Trash/Recycling",
    "request_reason": "Request a Large Item Pick Up",
    "date_created": "2023-04-04T15:36:16.000",
    "date_modified": "2023-04-04T15:36:17.000",
    "request_status": "Pending",
    "responsible_agency": "Department of Sanitation",
    "final_address": "1239 S Carrollton Ave",
    "address_councildis": "A",
    "status": "Assigned to Contractor",
    "contractor": "Richards Disposal",
    "rowid": "988584",
    "final_x": "3662288.7824",
    "final_y": "528483.84544",
    "longitude": "-90.12883351500743",
    "latitude": "29.947716551560887",
    "geocoded_column": {
      "latitude": "29.947716551560887",
      "longitude": "-90.12883351500743"
    }
  },
  {
    "service_request": "2023-988583",
    "request_type": "Trash/Recycling",
    "request_reason": "MIssed Recycling Pick-Up",
    "date_created": "2023-04-04T15:33:42.000",
    "date_modified": "2023-04-04T15:33:43.000",
    "request_status": "Pending",
    "responsible_agency": "Department of Sanitation",
    "final_address": "520 S Solomon St",
    "address_councildis": "A",
    "status": "Assigned to Contractor",
    "contractor": "Richards Disposal",
    "rowid": "988583",
    "final_x": "3669541.51092",
    "final_y": "537278.882184",
    "longitude": "-90.10563619727287",
    "latitude": "29.97168836489439",
    "geocoded_column": {
      "latitude": "29.97168836489439",
      "longitude": "-90.10563619727287"
    }
  },
  {
    "service_request": "2023-988582",
    "request_type": "Trash/Recycling",
    "request_reason": "Repair Recycling Cart",
    "date_created": "2023-04-04T15:31:21.000",
    "date_modified": "2023-04-04T15:31:22.000",
    "request_status": "Pending",
    "responsible_agency": "Department of Sanitation",
    "final_address": "1708 Oriole St",
    "address_councildis": "D",
    "status": "Pending",
    "rowid": "988582",
    "final_x": "3678444.29269",
    "final_y": "557784.669019",
    "longitude": "-90.07680969158211",
    "latitude": "30.02780672484352",
    "geocoded_column": {
      "latitude": "30.02780672484352",
      "longitude": "-90.07680969158211"
    }
  },
  {
    "service_request": "2023-988581",
    "request_type": "Trash/Recycling",
    "request_reason": "Missed Trash Pick-Up",
    "date_created": "2023-04-04T15:30:57.000",
    "date_modified": "2023-04-04T15:30:57.000",
    "request_status": "Pending",
    "responsible_agency": "Department of Sanitation",
    "final_address": "1622 St Roch Ave",
    "address_councildis": "D",
    "status": "Assigned to Contractor",
    "contractor": "IV Waste",
    "rowid": "988581",
    "final_x": "3686252.80892",
    "final_y": "538462.513289",
    "longitude": "-90.05281770991866",
    "latitude": "29.97444002468229",
    "geocoded_column": {
      "latitude": "29.97444002468229",
      "longitude": "-90.05281770991866"
    }
  },
  {
    "service_request": "2023-988580",
    "request_type": "Traffic Signals/Signs/Striping/Streetlights",
    "request_reason": "Traffic Signal Malfunctioning/Damaged",
    "date_created": "2023-04-04T15:30:24.000",
    "date_modified": "2023-04-04T15:30:24.000",
    "request_status": "Pending",
    "responsible_agency": "Department of Public Works",
    "final_address": "650 Poydras St",
    "address_councildis": "B",
    "status": "Pending",
    "rowid": "988580",
    "final_x": "3680812.92642",
    "final_y": "529260.434689",
    "longitude": "-90.07031849656484",
    "latitude": "29.949303483725547",
    "geocoded_column": {
      "latitude": "29.949303483725547",
      "longitude": "-90.07031849656484"
    }
  },
  {
    "service_request": "2023-988579",
    "request_type": "Trash/Recycling",
    "request_reason": "Order Trash Cart",
    "date_created": "2023-04-04T15:27:50.000",
    "date_modified": "2023-04-04T15:27:51.000",
    "request_status": "Pending",
    "responsible_agency": "Department of Sanitation",
    "final_address": "7736 Sycamore St",
    "address_councildis": "A",
    "status": "Assigned to Contractor",
    "contractor": "Richards Disposal",
    "rowid": "988579",
    "final_x": "3665142.11047",
    "final_y": "530110.484673",
    "longitude": "-90.11977000210122",
    "latitude": "29.952106501164785",
    "geocoded_column": {
      "latitude": "29.952106501164785",
      "longitude": "-90.11977000210122"
    }
  },
  {
    "service_request": "2023-988578",
    "request_type": "Trash/Recycling",
    "request_reason": "Order Recycling Cart",
    "date_created": "2023-04-04T15:27:03.000",
    "date_modified": "2023-04-04T15:27:04.000",
    "request_status": "Pending",
    "responsible_agency": "Department of Sanitation",
    "final_address": "9326 Grant Street New Orleans, LA 70127",
    "address_councildis": "E",
    "status": "Pending",
    "rowid": "988578",
    "final_x": "3709918.31928",
    "final_y": "554761.759576",
    "longitude": "-89.97746796162699",
    "latitude": "30.018508334623785",
    "geocoded_column": {
      "latitude": "30.018508334623785",
      "longitude": "-89.97746796162699"
    }
  },
  {
    "service_request": "2023-988577",
    "request_type": "Trash/Recycling",
    "request_reason": "Order Trash Cart",
    "date_created": "2023-04-04T15:25:37.000",
    "date_modified": "2023-04-04T15:25:38.000",
    "request_status": "Pending",
    "responsible_agency": "Department of Sanitation",
    "final_address": "7738 Sycamore St",
    "address_councildis": "A",
    "status": "Assigned to Contractor",
    "contractor": "Richards Disposal",
    "rowid": "988577",
    "final_x": "3665142.11047",
    "final_y": "530110.484673",
    "longitude": "-90.11977000210122",
    "latitude": "29.952106501164785",
    "geocoded_column": {
      "latitude": "29.952106501164785",
      "longitude": "-90.11977000210122"
    }
  },
  {
    "service_request": "2023-988576",
    "request_type": "Roads/Drainage",
    "request_reason": "Leaking Hydrant",
    "date_created": "2023-04-04T15:17:34.000",
    "date_modified": "2023-04-04T15:17:35.000",
    "request_status": "Pending",
    "responsible_agency": "Department of Public Works",
    "final_address": "MURL ST & WALL BLVD",
    "address_councildis": "C",
    "status": "Pending",
    "rowid": "988576",
    "final_x": "3695401.6",
    "final_y": "523857.28",
    "longitude": "-90.02445068130409",
    "latitude": "29.93399645274263",
    "geocoded_column": {
      "latitude": "29.93399645274263",
      "longitude": "-90.02445068130409"
    }
  },
  {
    "service_request": "2023-988575",
    "request_type": "Trash/Recycling",
    "request_reason": "Request a Large Item Pick Up",
    "date_created": "2023-04-04T15:14:52.000",
    "date_modified": "2023-04-04T15:14:52.000",
    "request_status": "Pending",
    "responsible_agency": "Department of Sanitation",
    "final_address": "3133 Dumaine St, New Orleans, Louisiana, 70119",
    "address_councildis": "A",
    "status": "Assigned to Contractor",
    "contractor": "Richards Disposal",
    "rowid": "988575",
    "final_x": "3675496.7259",
    "final_y": "538826.906505",
    "longitude": "-90.08677551390424",
    "latitude": "29.975768113833084",
    "geocoded_column": {
      "latitude": "29.975768113833084",
      "longitude": "-90.08677551390424"
    }
  },
  {
    "service_request": "2023-988574",
    "request_type": "Trash/Recycling",
    "request_reason": "Repair Trash Cart",
    "date_created": "2023-04-04T15:12:08.000",
    "date_modified": "2023-04-04T15:12:09.000",
    "request_status": "Pending",
    "responsible_agency": "Department of Sanitation",
    "final_address": "4620 Camp St",
    "address_councildis": "B",
    "status": "Assigned to Contractor",
    "contractor": "Richards Disposal",
    "rowid": "988574",
    "final_x": "3670086.49281",
    "final_y": "518992.584439",
    "longitude": "-90.10453437784703",
    "latitude": "29.921390947021386",
    "geocoded_column": {
      "latitude": "29.921390947021386",
      "longitude": "-90.10453437784703"
    }
  },
  {
    "service_request": "2023-988573",
    "request_type": "Trash/Recycling",
    "request_reason": "Replace Trash Cart",
    "date_created": "2023-04-04T15:05:13.000",
    "date_modified": "2023-04-04T15:05:14.000",
    "request_status": "Pending",
    "responsible_agency": "Department of Sanitation",
    "final_address": "2532 Prancer St",
    "address_councildis": "C",
    "status": "Assigned to Contractor",
    "contractor": "Richards Disposal",
    "rowid": "988573",
    "final_x": "3699669.25642",
    "final_y": "521691.524729",
    "longitude": "-90.01105684673041",
    "latitude": "29.92790664048201",
    "geocoded_column": {
      "latitude": "29.92790664048201",
      "longitude": "-90.01105684673041"
    }
  },
  {
    "service_request": "2023-988572",
    "request_type": "Traffic Signals/Signs/Striping/Streetlights",
    "request_reason": "Street Light Outage/Malfunction",
    "date_created": "2023-04-04T15:05:08.000",
    "date_modified": "2023-04-04T15:05:09.000",
    "request_status": "Pending",
    "responsible_agency": "Department of Public Works",
    "final_address": "650 Poydras St",
    "address_councildis": "B",
    "status": "Assigned to Contractor",
    "contractor": "Legacy Professional Services",
    "rowid": "988572",
    "final_x": "3680812.92642",
    "final_y": "529260.434689",
    "longitude": "-90.07031849656484",
    "latitude": "29.949303483725547",
    "geocoded_column": {
      "latitude": "29.949303483725547",
      "longitude": "-90.07031849656484"
    }
  },
  {
    "service_request": "2023-988571",
    "request_type": "Trash/Recycling",
    "request_reason": "Repair Recycling Cart",
    "date_created": "2023-04-04T15:01:51.000",
    "date_modified": "2023-04-04T15:01:52.000",
    "request_status": "Pending",
    "responsible_agency": "Department of Sanitation",
    "final_address": "7366 Trapier Ave",
    "address_councildis": "E",
    "status": "Pending",
    "rowid": "988571",
    "final_x": "3706784.71831",
    "final_y": "563042.739616",
    "longitude": "-89.98706149522862",
    "latitude": "30.041379368009434",
    "geocoded_column": {
      "latitude": "30.041379368009434",
      "longitude": "-89.98706149522862"
    }
  },
  {
    "service_request": "2023-988570",
    "request_type": "Trash/Recycling",
    "request_reason": "MIssed Recycling Pick-Up",
    "date_created": "2023-04-04T14:57:32.000",
    "date_modified": "2023-04-04T15:02:43.000",
    "request_status": "Pending",
    "responsible_agency": "Department of Sanitation",
    "final_address": "7366 Trapier Ave",
    "address_councildis": "E",
    "status": "Assigned to Contractor",
    "contractor": "Waste Pro",
    "rowid": "988570",
    "final_x": "3706784.71831",
    "final_y": "563042.739616",
    "longitude": "-89.98706149522862",
    "latitude": "30.041379368009434",
    "geocoded_column": {
      "latitude": "30.041379368009434",
      "longitude": "-89.98706149522862"
    }
  },
  {
    "service_request": "2023-988569",
    "request_type": "Trash/Recycling",
    "request_reason": "Replace Trash Cart",
    "date_created": "2023-04-04T14:50:42.000",
    "date_modified": "2023-04-04T14:50:43.000",
    "request_status": "Pending",
    "responsible_agency": "Department of Sanitation",
    "final_address": "6822 Catina St",
    "address_councildis": "A",
    "status": "Assigned to Contractor",
    "contractor": "IV Waste",
    "rowid": "988569",
    "final_x": "3666987.34836",
    "final_y": "553027.102231",
    "longitude": "-90.11317304873478",
    "latitude": "30.015065579322876",
    "geocoded_column": {
      "latitude": "30.015065579322876",
      "longitude": "-90.11317304873478"
    }
  },
  {
    "service_request": "2023-988568",
    "request_type": "Trash/Recycling",
    "request_reason": "Repair Trash Cart",
    "date_created": "2023-04-04T14:50:40.000",
    "date_modified": "2023-04-04T14:50:40.000",
    "request_status": "Pending",
    "responsible_agency": "Department of Sanitation",
    "final_address": "2727 Soniat St",
    "address_councildis": "B",
    "status": "Assigned to Contractor",
    "contractor": "Richards Disposal",
    "rowid": "988568",
    "final_x": "3668611.04046",
    "final_y": "525544.102781",
    "longitude": "-90.10897077338402",
    "latitude": "29.939448956560827",
    "geocoded_column": {
      "latitude": "29.939448956560827",
      "longitude": "-90.10897077338402"
    }
  },
  {
    "service_request": "2023-988567",
    "request_type": "Roads/Drainage",
    "request_reason": "Damaged Sidewalk",
    "date_created": "2023-04-04T14:48:18.000",
    "date_modified": "2023-04-04T14:49:48.000",
    "request_status": "Pending",
    "responsible_agency": "Department of Public Works",
    "final_address": "7813 Panola St",
    "address_councildis": "A",
    "status": "Pending",
    "rowid": "988567",
    "final_x": "3664861.52295",
    "final_y": "530064.082625",
    "longitude": "-90.12065752076032",
    "latitude": "29.95198707881037",
    "geocoded_column": {
      "latitude": "29.95198707881037",
      "longitude": "-90.12065752076032"
    }
  },
  {
    "service_request": "2023-988566",
    "request_type": "Trash/Recycling",
    "request_reason": "Repair Trash Cart",
    "date_created": "2023-04-04T14:48:14.000",
    "date_modified": "2023-04-04T14:48:15.000",
    "request_status": "Pending",
    "responsible_agency": "Department of Sanitation",
    "final_address": "2725 Soniat St",
    "address_councildis": "B",
    "status": "Assigned to Contractor",
    "contractor": "Richards Disposal",
    "rowid": "988566",
    "final_x": "3668612.70714",
    "final_y": "525529.519421",
    "longitude": "-90.10896600340796",
    "latitude": "29.939408808054033",
    "geocoded_column": {
      "latitude": "29.939408808054033",
      "longitude": "-90.10896600340796"
    }
  },
  {
    "service_request": "2023-988565",
    "request_type": "Trash/Recycling",
    "request_reason": "Replace Trash Cart",
    "date_created": "2023-04-04T14:45:37.000",
    "date_modified": "2023-04-04T14:45:38.000",
    "request_status": "Pending",
    "responsible_agency": "Department of Sanitation",
    "final_address": "2812 St Philip St",
    "address_councildis": "A",
    "status": "Assigned to Contractor",
    "contractor": "Richards Disposal",
    "rowid": "988565",
    "final_x": "3676856.36097",
    "final_y": "538232.030985",
    "longitude": "-90.08250190993549",
    "latitude": "29.97409166864909",
    "geocoded_column": {
      "latitude": "29.97409166864909",
      "longitude": "-90.08250190993549"
    }
  },
  {
    "service_request": "2023-988564",
    "request_type": "Trash/Recycling",
    "request_reason": "Order Recycling Cart",
    "date_created": "2023-04-04T14:44:53.000",
    "date_modified": "2023-04-04T14:44:54.000",
    "request_status": "Pending",
    "responsible_agency": "Department of Sanitation",
    "final_address": "984 Harding Dr",
    "address_councildis": "A",
    "status": "Pending",
    "rowid": "988564",
    "final_x": "3674548.98427",
    "final_y": "540286.715147",
    "longitude": "-90.08971871391604",
    "latitude": "29.97981040443285",
    "geocoded_column": {
      "latitude": "29.97981040443285",
      "longitude": "-90.08971871391604"
    }
  },
  {
    "service_request": "2023-988563",
    "request_type": "Trash/Recycling",
    "request_reason": "Repair Trash Cart",
    "date_created": "2023-04-04T14:44:06.000",
    "date_modified": "2023-04-04T14:44:07.000",
    "request_status": "Pending",
    "responsible_agency": "Department of Sanitation",
    "final_address": "984 Harding Dr",
    "address_councildis": "A",
    "status": "Assigned to Contractor",
    "contractor": "Richards Disposal",
    "rowid": "988563",
    "final_x": "3674548.98427",
    "final_y": "540286.715147",
    "longitude": "-90.08971871391604",
    "latitude": "29.97981040443285",
    "geocoded_column": {
      "latitude": "29.97981040443285",
      "longitude": "-90.08971871391604"
    }
  },
  {
    "service_request": "2023-988562",
    "request_type": "Abandoned Vehicles",
    "request_reason": "Abandoned/Junk Vehicles",
    "date_created": "2023-04-04T14:43:23.000",
    "date_modified": "2023-04-04T14:46:15.000",
    "request_status": "Pending",
    "responsible_agency": "Department of Public Works",
    "final_address": "300 BLK S Broad St",
    "address_councildis": "B",
    "status": "Pending",
    "rowid": "988562",
    "final_x": "3674684.51116",
    "final_y": "534275.609058",
    "longitude": "-90.08949675642111",
    "latitude": "29.963277859415964",
    "geocoded_column": {
      "latitude": "29.963277859415964",
      "longitude": "-90.08949675642111"
    }
  },
  {
    "service_request": "2023-988561",
    "request_type": "Trash/Recycling",
    "request_reason": "Repair Trash Cart",
    "date_created": "2023-04-04T14:42:42.000",
    "date_modified": "2023-04-04T14:42:43.000",
    "request_status": "Pending",
    "responsible_agency": "Department of Sanitation",
    "final_address": "611 S Solomon St",
    "address_councildis": "A",
    "status": "Assigned to Contractor",
    "contractor": "Richards Disposal",
    "rowid": "988561",
    "final_x": "3669274.63463",
    "final_y": "537054.847432",
    "longitude": "-90.10648661132026",
    "latitude": "29.97108020413907",
    "geocoded_column": {
      "latitude": "29.97108020413907",
      "longitude": "-90.10648661132026"
    }
  },
  {
    "service_request": "2023-988560",
    "request_type": "Roads/Drainage",
    "request_reason": "Road Shoulder Repair",
    "date_created": "2023-04-04T14:41:33.000",
    "date_modified": "2023-04-04T14:41:34.000",
    "request_status": "Pending",
    "responsible_agency": "Department of Public Works",
    "final_address": "611 S Solomon St",
    "address_councildis": "A",
    "status": "Pending",
    "rowid": "988560",
    "final_x": "3669274.63463",
    "final_y": "537054.847432",
    "longitude": "-90.10648661132026",
    "latitude": "29.97108020413907",
    "geocoded_column": {
      "latitude": "29.97108020413907",
      "longitude": "-90.10648661132026"
    }
  },
  {
    "service_request": "2023-988559",
    "request_type": "Trash/Recycling",
    "request_reason": "Missed Trash Pick-Up",
    "date_created": "2023-04-04T14:40:10.000",
    "date_modified": "2023-04-04T14:40:11.000",
    "request_status": "Pending",
    "responsible_agency": "Department of Sanitation",
    "final_address": "7570 Branch Dr",
    "address_councildis": "E",
    "status": "Assigned to Contractor",
    "contractor": "Waste Pro",
    "rowid": "988559",
    "final_x": "3714919.42629",
    "final_y": "568374.919077",
    "longitude": "-89.96115138010852",
    "latitude": "30.055775380776844",
    "geocoded_column": {
      "latitude": "30.055775380776844",
      "longitude": "-89.96115138010852"
    }
  },
  {
    "service_request": "2023-988558",
    "request_type": "Trash/Recycling",
    "request_reason": "Replace Trash Cart",
    "date_created": "2023-04-04T14:34:33.000",
    "date_modified": "2023-04-04T14:34:33.000",
    "request_status": "Pending",
    "responsible_agency": "Department of Sanitation",
    "final_address": "2420 Monticello St",
    "address_councildis": "E",
    "status": "Assigned to Contractor",
    "contractor": "Waste Pro",
    "rowid": "988558",
    "final_x": "3700885.58065",
    "final_y": "538349.488457",
    "longitude": "-90.00660835650075",
    "latitude": "29.973671493662906",
    "geocoded_column": {
      "latitude": "29.973671493662906",
      "longitude": "-90.00660835650075"
    }
  },
  {
    "service_request": "2023-988556",
    "request_type": "Trash/Recycling",
    "request_reason": "Request a Large Item Pick Up",
    "date_created": "2023-04-04T14:28:58.000",
    "date_modified": "2023-04-04T14:28:58.000",
    "request_status": "Pending",
    "responsible_agency": "Department of Sanitation",
    "status": "Assigned to Contractor",
    "rowid": "988556",
    "longitude": "0.0",
    "latitude": "0.0",
    "geocoded_column": {
      "latitude": "0.0",
      "longitude": "0.0"
    }
  },
  {
    "service_request": "2023-988555",
    "request_type": "Trash/Recycling",
    "request_reason": "Missed Trash Pick-Up",
    "date_created": "2023-04-04T14:24:00.000",
    "date_modified": "2023-04-04T14:24:01.000",
    "request_status": "Pending",
    "responsible_agency": "Department of Sanitation",
    "final_address": "7739 Haney Dr, New Orleans, Louisiana, 70128",
    "address_councildis": "E",
    "status": "Assigned to Contractor",
    "contractor": "Waste Pro",
    "rowid": "988555",
    "final_x": "3712340.96984",
    "final_y": "567740.998308",
    "longitude": "-89.96932517349543",
    "latitude": "30.05411700742906",
    "geocoded_column": {
      "latitude": "30.05411700742906",
      "longitude": "-89.96932517349543"
    }
  },
  {
    "service_request": "2023-988554",
    "request_type": "Trash/Recycling",
    "request_reason": "Repair Trash Cart",
    "date_created": "2023-04-04T14:21:04.000",
    "date_modified": "2023-04-04T14:21:05.000",
    "request_status": "Pending",
    "responsible_agency": "Department of Sanitation",
    "final_address": "3115 Jena St",
    "address_councildis": "B",
    "status": "Assigned to Contractor",
    "contractor": "Richards Disposal",
    "rowid": "988554",
    "final_x": "3669939.06599",
    "final_y": "526348.178366",
    "longitude": "-90.1047507906744",
    "latitude": "29.941620818438043",
    "geocoded_column": {
      "latitude": "29.941620818438043",
      "longitude": "-90.1047507906744"
    }
  },
  {
    "service_request": "2023-988553",
    "request_type": "Trash/Recycling",
    "request_reason": "Request a Large Item Pick Up",
    "date_created": "2023-04-04T14:14:59.000",
    "date_modified": "2023-04-04T14:14:59.000",
    "request_status": "Pending",
    "responsible_agency": "Department of Sanitation",
    "final_address": "4512 Croyden Ave",
    "address_councildis": "C",
    "status": "Assigned to Contractor",
    "contractor": "Richards Disposal",
    "rowid": "988553",
    "final_x": "3702233.88215",
    "final_y": "524254.307516",
    "longitude": "-90.00286704222775",
    "latitude": "29.934871775426643",
    "geocoded_column": {
      "latitude": "29.934871775426643",
      "longitude": "-90.00286704222775"
    }
  },
  {
    "service_request": "2023-988552",
    "request_type": "Parks & Parkways",
    "request_reason": "Request Tree Service (Right of Way/Public Property)",
    "date_created": "2023-04-04T14:14:05.000",
    "date_modified": "2023-04-04T14:28:51.000",
    "case_close_date": "2023-04-04T09:28:51.000",
    "request_status": "Closed",
    "responsible_agency": "Department of Parks & Parkway",
    "final_address": "1028 Bordeaux St",
    "address_councildis": "B",
    "status": "Duplicate Request",
    "rowid": "988552",
    "final_x": "3669491.06241",
    "final_y": "519239.078647",
    "longitude": "-90.10640556440809",
    "latitude": "29.922086272368226",
    "geocoded_column": {
      "latitude": "29.922086272368226",
      "longitude": "-90.10640556440809"
    }
  },
  {
    "service_request": "2023-988551",
    "request_type": "Roads/Drainage",
    "request_reason": "Pothole",
    "date_created": "2023-04-04T14:13:25.000",
    "date_modified": "2023-04-04T14:13:25.000",
    "request_status": "Pending",
    "responsible_agency": "Department of Public Works",
    "final_address": "6140 Marshal Foch",
    "address_councildis": "A",
    "status": "Pending",
    "rowid": "988551",
    "final_x": "3669854.29882",
    "final_y": "548240.131026",
    "longitude": "-90.10427704886993",
    "latitude": "30.0018188329213",
    "geocoded_column": {
      "latitude": "30.0018188329213",
      "longitude": "-90.10427704886993"
    }
  },
  {
    "service_request": "2023-988550",
    "request_type": "Traffic Signals/Signs/Striping/Streetlights",
    "request_reason": "Street Light Outage/Malfunction",
    "date_created": "2023-04-04T14:11:15.000",
    "date_modified": "2023-04-04T14:11:16.000",
    "request_status": "Pending",
    "responsible_agency": "Department of Public Works",
    "final_address": "6136 Marshal Foch ST New Orleans, LA 70124",
    "address_councildis": "A",
    "status": "Assigned to Contractor",
    "contractor": "Legacy Professional Services",
    "rowid": "988550",
    "final_x": "3669846.69178",
    "final_y": "548195.571538",
    "longitude": "-90.10430259026877",
    "latitude": "30.001696534195297",
    "geocoded_column": {
      "latitude": "30.001696534195297",
      "longitude": "-90.10430259026877"
    }
  },
  {
    "service_request": "2023-988549",
    "request_type": "Trash/Recycling",
    "request_reason": "Request a Large Item Pick Up",
    "date_created": "2023-04-04T14:06:19.000",
    "date_modified": "2023-04-04T16:39:58.000",
    "case_close_date": "2023-04-04T11:39:58.000",
    "request_status": "Closed",
    "responsible_agency": "Department of Sanitation",
    "final_address": "13171 Linden St",
    "address_councildis": "E",
    "status": "Duplicate Request",
    "contractor": "Waste Pro",
    "rowid": "988549",
    "final_x": "3716405.3573",
    "final_y": "570842.292583",
    "longitude": "-89.95636096070511",
    "latitude": "30.062510625062963",
    "geocoded_column": {
      "latitude": "30.062510625062963",
      "longitude": "-89.95636096070511"
    }
  },
  {
    "service_request": "2023-988548",
    "request_type": "Property Maintenance",
    "request_reason": "Property Maintenance",
    "date_created": "2023-04-04T14:05:33.000",
    "date_modified": "2023-04-04T14:05:33.000",
    "request_status": "Pending",
    "responsible_agency": "Department of Code Enforcement",
    "final_address": "5042 Westlake Dr",
    "address_councildis": "E",
    "status": "Pending",
    "rowid": "988548",
    "final_x": "3699512.94557",
    "final_y": "555924.949529",
    "longitude": "-90.0103025012366",
    "latitude": "30.022041110194206",
    "geocoded_column": {
      "latitude": "30.022041110194206",
      "longitude": "-90.0103025012366"
    }
  },
  {
    "service_request": "2023-988547",
    "request_type": "Trash/Recycling",
    "request_reason": "Request a Large Item Pick Up",
    "date_created": "2023-04-04T14:03:52.000",
    "date_modified": "2023-04-04T14:03:53.000",
    "request_status": "Pending",
    "responsible_agency": "Department of Sanitation",
    "final_address": "5627 Hempstead Rd",
    "address_councildis": "E",
    "status": "Assigned to Contractor",
    "contractor": "Waste Pro",
    "rowid": "988547",
    "final_x": "3707740.20561",
    "final_y": "557965.682395",
    "longitude": "-89.98423075438367",
    "latitude": "30.027388561846504",
    "geocoded_column": {
      "latitude": "30.027388561846504",
      "longitude": "-89.98423075438367"
    }
  },
  {
    "service_request": "2023-988546",
    "request_type": "Trash/Recycling",
    "request_reason": "Request a Large Item Pick Up",
    "date_created": "2023-04-04T14:01:35.000",
    "date_modified": "2023-04-04T14:01:36.000",
    "request_status": "Pending",
    "responsible_agency": "Department of Sanitation",
    "final_address": "4426 S Liberty St",
    "address_councildis": "B",
    "status": "Assigned to Contractor",
    "contractor": "Richards Disposal",
    "rowid": "988546",
    "final_x": "3670339.4747",
    "final_y": "523279.038459",
    "longitude": "-90.10359061081748",
    "latitude": "29.933169864233925",
    "geocoded_column": {
      "latitude": "29.933169864233925",
      "longitude": "-90.10359061081748"
    }
  },
  {
    "service_request": "2023-988545",
    "request_type": "Abandoned Vehicles",
    "request_reason": "Abandoned/Junk Vehicles",
    "date_created": "2023-04-04T13:54:42.000",
    "date_modified": "2023-04-04T13:54:42.000",
    "request_status": "Pending",
    "responsible_agency": "Department of Public Works",
    "final_address": "6600 Virgilian St",
    "address_councildis": "D",
    "status": "Pending",
    "rowid": "988545",
    "final_x": "3697161.38205",
    "final_y": "555569.462233",
    "longitude": "-90.01774570191093",
    "latitude": "30.021138103522663",
    "geocoded_column": {
      "latitude": "30.021138103522663",
      "longitude": "-90.01774570191093"
    }
  },
  {
    "service_request": "2023-988544",
    "request_type": "Abandoned Vehicles",
    "request_reason": "Abandoned/Junk Vehicles",
    "date_created": "2023-04-04T13:52:54.000",
    "date_modified": "2023-04-04T13:52:54.000",
    "request_status": "Pending",
    "responsible_agency": "Department of Public Works",
    "final_address": "PINES BLVD & VIRGILIAN ST",
    "address_councildis": "D",
    "status": "Pending",
    "rowid": "988544",
    "final_x": "3696981.7",
    "final_y": "556378.38",
    "longitude": "-90.01828410954033",
    "latitude": "30.023367991462095",
    "geocoded_column": {
      "latitude": "30.023367991462095",
      "longitude": "-90.01828410954033"
    }
  },
  {
    "service_request": "2023-988543",
    "request_type": "Abandoned Vehicles",
    "request_reason": "Abandoned/Junk Vehicles",
    "date_created": "2023-04-04T13:51:34.000",
    "date_modified": "2023-04-04T13:51:34.000",
    "request_status": "Pending",
    "responsible_agency": "Department of Public Works",
    "final_address": "E HERMES ST & PINES BLVD",
    "address_councildis": "D",
    "status": "Pending",
    "rowid": "988543",
    "final_x": "3697574.5",
    "final_y": "556572.98",
    "longitude": "-90.01640393027544",
    "latitude": "30.02388434718621",
    "geocoded_column": {
      "latitude": "30.02388434718621",
      "longitude": "-90.01640393027544"
    }
  },
  {
    "service_request": "2023-988542",
    "request_type": "Traffic Signals/Signs/Striping/Streetlights",
    "request_reason": "Street Light Outage/Malfunction",
    "date_created": "2023-04-04T13:51:21.000",
    "date_modified": "2023-04-04T13:51:21.000",
    "request_status": "Pending",
    "responsible_agency": "Department of Public Works",
    "final_address": "1305 Carondelet St",
    "address_councildis": "B",
    "status": "Assigned to Contractor",
    "contractor": "Legacy Professional Services",
    "rowid": "988542",
    "final_x": "3679061.46274",
    "final_y": "526275.353022",
    "longitude": "-90.07595207250893",
    "latitude": "29.941148471652486",
    "geocoded_column": {
      "latitude": "29.941148471652486",
      "longitude": "-90.07595207250893"
    }
  },
  {
    "service_request": "2023-988541",
    "request_type": "Trash/Recycling",
    "request_reason": "Missed Trash Pick-Up",
    "date_created": "2023-04-04T13:49:14.000",
    "date_modified": "2023-04-04T13:49:15.000",
    "request_status": "Pending",
    "responsible_agency": "Department of Sanitation",
    "final_address": "1315 Prentiss Ave",
    "address_councildis": "D",
    "status": "Assigned to Contractor",
    "contractor": "IV Waste",
    "rowid": "988541",
    "final_x": "3677047.76494",
    "final_y": "553402.995095",
    "longitude": "-90.08137390461586",
    "latitude": "30.015800745223768",
    "geocoded_column": {
      "latitude": "30.015800745223768",
      "longitude": "-90.08137390461586"
    }
  },