[
  {
    "service_request": "2023-986030",
    "request_type": "Trash/Recycling",
    "request_reason": "Order Recycling Cart",
    "date_created": "2023-03-27T02:06:37.000",
    "date_modified": "2023-03-27T02:06:37.000",
    "request_status": "Pending",
    "responsible_agency": "Department of Sanitation",
    "final_address": "1105 Terpsichore St",
    "address_councildis": "B",
    "status": "Pending",
    "rowid": "986030",
    "final_x": "3680311.20853",
    "final_y": "524573.90694",
    "longitude": "-90.07206552301552",
    "latitude": "29.93643229131705",
    "geocoded_column": {
      "latitude": "29.93643229131705",
      "longitude": "-90.07206552301552"
    }
  },
  {
    "service_request": "2023-986029",
    "request_type": "Trash/Recycling",
    "request_reason": "Repair Recycling Cart",
    "date_created": "2023-03-27T00:06:16.000",
    "date_modified": "2023-03-27T00:06:16.000",
    "request_status": "Pending",
    "responsible_agency": "Department of Sanitation",
    "final_address": "825 Belleville St",
    "address_councildis": "C",
    "status": "Pending",
    "rowid": "986029",
    "final_x": "3687759.37289",
    "final_y": "528522.85664",
    "longitude": "-90.0484116534583",
    "latitude": "29.94706303185815",
    "geocoded_column": {
      "latitude": "29.94706303185815",
      "longitude": "-90.0484116534583"
    }
  },
  {
    "service_request": "2023-986028",
    "request_type": "Health Related Request",
    "request_reason": "Noise Ordinance Complaint",
    "date_created": "2023-03-26T23:24:41.000",
    "date_modified": "2023-03-26T23:24:41.000",
    "request_status": "Pending",
    "responsible_agency": "Health Department",
    "final_address": "1775 Joseph Guillaume Pl",
    "address_councildis": "C",
    "status": "Pending",
    "rowid": "986028",
    "final_x": "3683462.43785",
    "final_y": "536121.270855",
    "longitude": "-90.06171241725919",
    "latitude": "29.96808786850646",
    "geocoded_column": {
      "latitude": "29.96808786850646",
      "longitude": "-90.06171241725919"
    }
  },
  {
    "service_request": "2023-986027",
    "request_type": "Safety & Permits",
    "request_reason": "Licenses & Permits",
    "date_created": "2023-03-26T23:22:43.000",
    "date_modified": "2023-03-26T23:22:43.000",
    "request_status": "Pending",
    "responsible_agency": "Safety and Permits",
    "final_address": "1775 Joseph Guillaume Pl",
    "address_councildis": "C",
    "status": "Pending",
    "rowid": "986027",
    "final_x": "3683462.43785",
    "final_y": "536121.270855",
    "longitude": "-90.06171241725919",
    "latitude": "29.96808786850646",
    "geocoded_column": {
      "latitude": "29.96808786850646",
      "longitude": "-90.06171241725919"
    }
  },
  {
    "service_request": "2023-986026",
    "request_type": "Health Related Request",
    "request_reason": "Noise Ordinance Complaint",
    "date_created": "2023-03-26T23:21:47.000",
    "date_modified": "2023-03-26T23:21:47.000",
    "request_status": "Pending",
    "responsible_agency": "Health Department",
    "final_address": "1775 Joseph Guillaume Pl",
    "address_councildis": "C",
    "status": "Pending",
    "rowid": "986026",
    "final_x": "3683462.43785",
    "final_y": "536121.270855",
    "longitude": "-90.06171241725919",
    "latitude": "29.96808786850646",
    "geocoded_column": {
      "latitude": "29.96808786850646",
      "longitude": "-90.06171241725919"
    }
  },
  {
    "service_request": "2023-986025",
    "request_type": "Health Related Request",
    "request_reason": "Noise Ordinance Complaint",
    "date_created": "2023-03-26T23:19:49.000",
    "date_modified": "2023-03-26T23:19:49.000",
    "request_status": "Pending",
    "responsible_agency": "Health Department",
    "final_address": "1775 Joseph Guillaume Pl",
    "address_councildis": "C",
    "status": "Pending",
    "rowid": "986025",
    "final_x": "3683462.43785",
    "final_y": "536121.270855",
    "longitude": "-90.06171241725919",
    "latitude": "29.96808786850646",
    "geocoded_column": {
      "latitude": "29.96808786850646",
      "longitude": "-90.06171241725919"
    }
  },
  {
    "service_request": "2023-986024",
    "request_type": "Health Related Request",
    "request_reason": "Noise Ordinance Complaint",
    "date_created": "2023-03-26T23:11:32.000",
    "date_modified": "2023-03-26T23:11:33.000",
    "request_status": "Pending",
    "responsible_agency": "Health Department",
    "final_address": "1775 Joseph Guillaume Pl",
    "address_councildis": "C",
    "status": "Pending",
    "rowid": "986024",
    "final_x": "3683462.43785",
    "final_y": "536121.270855",
    "longitude": "-90.06171241725919",
    "latitude": "29.96808786850646",
    "geocoded_column": {
      "latitude": "29.96808786850646",
      "longitude": "-90.06171241725919"
    }
  },
  {
    "service_request": "2023-986023",
    "request_type": "Safety & Permits",
    "request_reason": "Licenses & Permits",
    "date_created": "2023-03-26T23:08:11.000",
    "date_modified": "2023-03-26T23:08:11.000",
    "request_status": "Pending",
    "responsible_agency": "Safety and Permits",
    "final_address": "1775 Joseph Guillaume Pl",
    "address_councildis": "C",
    "status": "Pending",
    "rowid": "986023",
    "final_x": "3683462.43785",
    "final_y": "536121.270855",
    "longitude": "-90.06171241725919",
    "latitude": "29.96808786850646",
    "geocoded_column": {
      "latitude": "29.96808786850646",
      "longitude": "-90.06171241725919"
    }
  },
  {
    "service_request": "2023-986022",
    "request_type": "Health Related Request",
    "request_reason": "Noise Ordinance Complaint",
    "date_created": "2023-03-26T23:06:45.000",
    "date_modified": "2023-03-26T23:06:45.000",
    "request_status": "Pending",
    "responsible_agency": "Health Department",
    "final_address": "1775 Joseph Guillaume Pl",
    "address_councildis": "C",
    "status": "Pending",
    "rowid": "986022",
    "final_x": "3683462.43785",
    "final_y": "536121.270855",
    "longitude": "-90.06171241725919",
    "latitude": "29.96808786850646",
    "geocoded_column": {
      "latitude": "29.96808786850646",
      "longitude": "-90.06171241725919"
    }
  },
  {
    "service_request": "2023-986021",
    "request_type": "Traffic Signals/Signs/Striping/Streetlights",
    "request_reason": "Street Light Outage/Malfunction",
    "date_created": "2023-03-26T22:34:31.000",
    "date_modified": "2023-03-26T22:34:33.000",
    "request_status": "Pending",
    "responsible_agency": "Department of Public Works",
    "final_address": "526 S Cortez St",
    "address_councildis": "B",
    "status": "Assigned to Contractor",
    "contractor": "Legacy Professional Services",
    "rowid": "986021",
    "final_x": "3671010.66708",
    "final_y": "536091.075591",
    "longitude": "-90.1010367100934",
    "latitude": "29.968378931505082",
    "geocoded_column": {
      "latitude": "29.968378931505082",
      "longitude": "-90.1010367100934"
    }
  },
  {
    "service_request": "2023-986020",
    "request_type": "Roads/Drainage",
    "request_reason": "Street Flooding / Drainage",
    "date_created": "2023-03-26T22:22:28.000",
    "date_modified": "2023-03-26T22:22:28.000",
    "request_status": "Pending",
    "responsible_agency": "Department of Public Works",
    "final_address": "4520 S Robertson St",
    "address_councildis": "B",
    "status": "Pending",
    "rowid": "986020",
    "final_x": "3669918.97223",
    "final_y": "524297.936444",
    "longitude": "-90.10488362793032",
    "latitude": "29.93598390829717",
    "geocoded_column": {
      "latitude": "29.93598390829717",
      "longitude": "-90.10488362793032"
    }
  },
  {
    "service_request": "2023-986019",
    "request_type": "Trash/Recycling",
    "request_reason": "Replace Trash Cart",
    "date_created": "2023-03-26T22:13:42.000",
    "date_modified": "2023-03-26T22:13:43.000",
    "request_status": "Pending",
    "responsible_agency": "Department of Sanitation",
    "final_address": "2523 Nashville Ave",
    "address_councildis": "A",
    "status": "Assigned to Contractor",
    "contractor": "Richards Disposal",
    "rowid": "986019",
    "final_x": "3667271.78407",
    "final_y": "525372.646269",
    "longitude": "-90.11320476201956",
    "latitude": "29.93901678700318",
    "geocoded_column": {
      "latitude": "29.93901678700318",
      "longitude": "-90.11320476201956"
    }
  },
  {
    "service_request": "2023-986018",
    "request_type": "Trash/Recycling",
    "request_reason": "Request a Large Item Pick Up",
    "date_created": "2023-03-26T22:05:53.000",
    "date_modified": "2023-03-26T22:05:54.000",
    "request_status": "Pending",
    "responsible_agency": "Department of Sanitation",
    "final_address": "1560 Tropic Dr",
    "address_councildis": "C",
    "status": "Assigned to Contractor",
    "contractor": "Richards Disposal",
    "rowid": "986018",
    "final_x": "3699554.32061",
    "final_y": "525063.593085",
    "longitude": "-90.01129685337115",
    "latitude": "29.937182308370268",
    "geocoded_column": {
      "latitude": "29.937182308370268",
      "longitude": "-90.01129685337115"
    }
  },
  {
    "service_request": "2023-986017",
    "request_type": "Trash/Recycling",
    "request_reason": "Request a Large Item Pick Up",
    "date_created": "2023-03-26T21:40:43.000",
    "date_modified": "2023-03-26T21:40:43.000",
    "request_status": "Pending",
    "responsible_agency": "Department of Sanitation",
    "final_address": "5035 W St Andrews Cir",
    "address_councildis": "E",
    "status": "Assigned to Contractor",
    "contractor": "Waste Pro",
    "rowid": "986017",
    "final_x": "3719135.9637",
    "final_y": "559502.818845",
    "longitude": "-89.94816285232818",
    "latitude": "30.031241220408774",
    "geocoded_column": {
      "latitude": "30.031241220408774",
      "longitude": "-89.94816285232818"
    }
  },
  {
    "service_request": "2023-986016",
    "request_type": "Abandoned Vehicles",
    "request_reason": "Abandoned/Junk Vehicles",
    "date_created": "2023-03-26T21:38:21.000",
    "date_modified": "2023-03-26T21:38:21.000",
    "request_status": "Pending",
    "responsible_agency": "Department of Public Works",
    "final_address": "4330 Freret St",
    "address_councildis": "B",
    "status": "Pending",
    "rowid": "986016",
    "final_x": "3670681.85659",
    "final_y": "524025.800764",
    "longitude": "-90.10248440735963",
    "latitude": "29.935213111804117",
    "geocoded_column": {
      "latitude": "29.935213111804117",
      "longitude": "-90.10248440735963"
    }
  },
  {
    "service_request": "2023-986015",
    "request_type": "Trash/Recycling",
    "request_reason": "Order Recycling Cart",
    "date_created": "2023-03-26T21:25:39.000",
    "date_modified": "2023-03-26T21:25:39.000",
    "request_status": "Pending",
    "responsible_agency": "Department of Sanitation",
    "final_address": "1210 N Derbigny St",
    "address_councildis": "D",
    "status": "Pending",
    "rowid": "986015",
    "final_x": "3680668.61282",
    "final_y": "536354.278791",
    "longitude": "-90.07052731040385",
    "latitude": "29.9688135178575",
    "geocoded_column": {
      "latitude": "29.9688135178575",
      "longitude": "-90.07052731040385"
    }
  },
  {
    "service_request": "2023-986014",
    "request_type": "Trash/Recycling",
    "request_reason": "Replace Trash Cart",
    "date_created": "2023-03-26T21:04:54.000",
    "date_modified": "2023-03-26T21:04:55.000",
    "request_status": "Pending",
    "responsible_agency": "Department of Sanitation",
    "final_address": "2038 Third St",
    "address_councildis": "B",
    "status": "Assigned to Contractor",
    "contractor": "Richards Disposal",
    "rowid": "986014",
    "final_x": "3675447.05089",
    "final_y": "524320.466748",
    "longitude": "-90.0874305651831",
    "latitude": "29.935881738946353",
    "geocoded_column": {
      "latitude": "29.935881738946353",
      "longitude": "-90.0874305651831"
    }
  },
  {
    "service_request": "2023-986013",
    "request_type": "Roads/Drainage",
    "request_reason": "Street Flooding / Drainage",
    "date_created": "2023-03-26T21:03:45.000",
    "date_modified": "2023-03-26T21:03:45.000",
    "request_status": "Pending",
    "responsible_agency": "Department of Public Works",
    "final_address": "940 Ursulines Ave",
    "address_councildis": "C",
    "status": "Pending",
    "rowid": "986013",
    "final_x": "3682580.65704",
    "final_y": "534226.047749",
    "longitude": "-90.0645633850176",
    "latitude": "29.962903534665944",
    "geocoded_column": {
      "latitude": "29.962903534665944",
      "longitude": "-90.0645633850176"
    }
  },
  {
    "service_request": "2023-986012",
    "request_type": "Trash/Recycling",
    "request_reason": "MIssed Recycling Pick-Up",
    "date_created": "2023-03-26T20:47:12.000",
    "date_modified": "2023-03-26T20:47:13.000",
    "request_status": "Pending",
    "responsible_agency": "Department of Sanitation",
    "final_address": "920 Jena St",
    "address_councildis": "B",
    "status": "Assigned to Contractor",
    "contractor": "Richards Disposal",
    "rowid": "986012",
    "final_x": "3670575.67124",
    "final_y": "518927.914359",
    "longitude": "-90.10299244412109",
    "latitude": "29.92119869110157",
    "geocoded_column": {
      "latitude": "29.92119869110157",
      "longitude": "-90.10299244412109"
    }
  },
  {
    "service_request": "2023-986011",
    "request_type": "Trash/Recycling",
    "request_reason": "Request a Large Item Pick Up",
    "date_created": "2023-03-26T20:45:27.000",
    "date_modified": "2023-03-26T20:45:28.000",
    "request_status": "Pending",
    "responsible_agency": "Department of Sanitation",
    "final_address": "4343 Vixen St",
    "address_councildis": "C",
    "status": "Assigned to Contractor",
    "contractor": "Richards Disposal",
    "rowid": "986011",
    "final_x": "3699682.9354",
    "final_y": "520645.711545",
    "longitude": "-90.01105176306572",
    "latitude": "29.925030579793187",
    "geocoded_column": {
      "latitude": "29.925030579793187",
      "longitude": "-90.01105176306572"
    }
  },
  {
    "service_request": "2023-986010",
    "request_type": "Mosquito, Termite & Rodent Control",
    "request_reason": "Non-Rodent Complaint (Mice, Possums, Snakes)",
    "date_created": "2023-03-26T20:28:09.000",
    "date_modified": "2023-03-26T20:28:09.000",
    "request_status": "Pending",
    "responsible_agency": "Mosquito, Termite & Rodent Control Board",
    "final_address": "6701 Pauline Dr",
    "address_councildis": "D",
    "status": "Pending",
    "rowid": "986010",
    "final_x": "3690871.50454",
    "final_y": "558368.234908",
    "longitude": "-90.03751986367625",
    "latitude": "30.029030746209777",
    "geocoded_column": {
      "latitude": "30.029030746209777",
      "longitude": "-90.03751986367625"
    }
  },
  {
    "service_request": "2023-986009",
    "request_type": "Trash/Recycling",
    "request_reason": "Return Trash Cart",
    "date_created": "2023-03-26T20:14:36.000",
    "date_modified": "2023-03-26T20:14:37.000",
    "request_status": "Pending",
    "responsible_agency": "Department of Sanitation",
    "final_address": "2512 St Ann St",
    "address_councildis": "D",
    "status": "Assigned to Contractor",
    "contractor": "Richards Disposal",
    "rowid": "986009",
    "final_x": "3677608.88014",
    "final_y": "536652.223559",
    "longitude": "-90.0801798480784",
    "latitude": "29.96972512981594",
    "geocoded_column": {
      "latitude": "29.96972512981594",
      "longitude": "-90.0801798480784"
    }
  },
  {
    "service_request": "2023-986008",
    "request_type": "Traffic Signals/Signs/Striping/Streetlights",
    "request_reason": "Street Light Outage/Malfunction",
    "date_created": "2023-03-26T20:13:06.000",
    "date_modified": "2023-03-26T20:13:06.000",
    "request_status": "Pending",
    "responsible_agency": "Department of Public Works",
    "final_address": "1544 Camp St Apt 7",
    "address_councildis": "B",
    "status": "Assigned to Contractor",
    "contractor": "Legacy Professional Services",
    "rowid": "986008",
    "final_x": "3679758.98741",
    "final_y": "523497.693755",
    "longitude": "-90.07384625143573",
    "latitude": "29.93348976244954",
    "geocoded_column": {
      "latitude": "29.93348976244954",
      "longitude": "-90.07384625143573"
    }
  },
  {
    "service_request": "2023-986006",
    "request_type": "Traffic Signals/Signs/Striping/Streetlights",
    "request_reason": "Traffic Sign Missing/Damaged",
    "date_created": "2023-03-26T19:57:05.000",
    "date_modified": "2023-03-26T19:57:05.000",
    "request_status": "Pending",
    "responsible_agency": "Department of Public Works",
    "final_address": "834 Audubon St",
    "address_councildis": "A",
    "status": "Pending",
    "rowid": "986006",
    "final_x": "3663745.7833",
    "final_y": "525401.800637",
    "longitude": "-90.12433584444115",
    "latitude": "29.939199720522865",
    "geocoded_column": {
      "latitude": "29.939199720522865",
      "longitude": "-90.12433584444115"
    }
  },
  {
    "service_request": "2023-986005",
    "request_type": "Trash/Recycling",
    "request_reason": "Return Recycling Cart",
    "date_created": "2023-03-26T19:36:09.000",
    "date_modified": "2023-03-26T19:36:09.000",
    "request_status": "Pending",
    "responsible_agency": "Department of Sanitation",
    "final_address": "916 N Dorgenois St",
    "address_councildis": "D",
    "status": "Pending",
    "rowid": "986005",
    "final_x": "3677730.46363",
    "final_y": "537284.018504",
    "longitude": "-90.07977404790164",
    "latitude": "29.9714586931646",
    "geocoded_column": {
      "latitude": "29.9714586931646",
      "longitude": "-90.07977404790164"
    }
  },
  {
    "service_request": "2023-986004",
    "request_type": "Trash/Recycling",
    "request_reason": "Request a Large Item Pick Up",
    "date_created": "2023-03-26T19:35:43.000",
    "date_modified": "2023-03-26T19:35:43.000",
    "request_status": "Pending",
    "responsible_agency": "Department of Sanitation",
    "final_address": "3025 Bienville Ave",
    "address_councildis": "B",
    "status": "Assigned to Contractor",
    "contractor": "Richards Disposal",
    "rowid": "986004",
    "final_x": "3674674.54068",
    "final_y": "536679.064967",
    "longitude": "-90.08944584920847",
    "latitude": "29.96988684906901",
    "geocoded_column": {
      "latitude": "29.96988684906901",
      "longitude": "-90.08944584920847"
    }
  },
  {
    "service_request": "2023-986003",
    "request_type": "Trash/Recycling",
    "request_reason": "Missed Trash Pick-Up",
    "date_created": "2023-03-26T19:33:21.000",
    "date_modified": "2023-03-26T19:33:22.000",
    "request_status": "Pending",
    "responsible_agency": "Department of Sanitation",
    "final_address": "2509 St Ann St",
    "address_councildis": "D",
    "status": "Assigned to Contractor",
    "contractor": "Richards Disposal",
    "rowid": "986003",
    "final_x": "3677677.8996",
    "final_y": "536706.380295",
    "longitude": "-90.07996000747163",
    "latitude": "29.969871966630635",
    "geocoded_column": {
      "latitude": "29.969871966630635",
      "longitude": "-90.07996000747163"
    }
  },
  {
    "service_request": "2023-986002",
    "request_type": "Trash/Recycling",
    "request_reason": "Request a Large Item Pick Up",
    "date_created": "2023-03-26T19:20:31.000",
    "date_modified": "2023-03-26T19:20:31.000",
    "request_status": "Pending",
    "responsible_agency": "Department of Sanitation",
    "final_address": "3912 Pauger St",
    "address_councildis": "D",
    "status": "Assigned to Contractor",
    "contractor": "IV Waste",
    "rowid": "986002",
    "final_x": "3683103.48693",
    "final_y": "545168.384783",
    "longitude": "-90.06252912618582",
    "latitude": "29.992975210994704",
    "geocoded_column": {
      "latitude": "29.992975210994704",
      "longitude": "-90.06252912618582"
    }
  },
  {
    "service_request": "2023-986001",
    "request_type": "Property Maintenance",
    "request_reason": "Property Maintenance",
    "date_created": "2023-03-26T19:08:04.000",
    "date_modified": "2023-03-26T19:08:04.000",
    "request_status": "Pending",
    "responsible_agency": "Department of Code Enforcement",
    "final_address": "816 N Rocheblave St",
    "address_councildis": "D",
    "status": "Pending",
    "rowid": "986001",
    "final_x": "3677853.54344",
    "final_y": "536708.240839",
    "longitude": "-90.07940524303834",
    "latitude": "29.969871798477342",
    "geocoded_column": {
      "latitude": "29.969871798477342",
      "longitude": "-90.07940524303834"
    }
  },
  {
    "service_request": "2023-986000",
    "request_type": "Trash/Recycling",
    "request_reason": "Illegal Dumping",
    "date_created": "2023-03-26T19:02:31.000",
    "date_modified": "2023-03-26T19:02:31.000",
    "request_status": "Pending",
    "responsible_agency": "Department of Sanitation",
    "final_address": "1022 N Dorgenois St",
    "address_councildis": "D",
    "status": "Pending",
    "rowid": "986000",
    "final_x": "3678002.25326",
    "final_y": "537651.719496",
    "longitude": "-90.07890298347294",
    "latitude": "29.972461566288096",
    "geocoded_column": {
      "latitude": "29.972461566288096",
      "longitude": "-90.07890298347294"
    }
  },
  {
    "service_request": "2023-985999",
    "request_type": "Trash/Recycling",
    "request_reason": "Illegal Dumping",
    "date_created": "2023-03-26T19:00:32.000",
    "date_modified": "2023-03-26T19:00:32.000",
    "request_status": "Pending",
    "responsible_agency": "Department of Sanitation",
    "final_address": "1024 N Dorgenois St",
    "address_councildis": "D",
    "status": "Pending",
    "rowid": "985999",
    "final_x": "3678002.25326",
    "final_y": "537651.719496",
    "longitude": "-90.07890298347294",
    "latitude": "29.972461566288096",
    "geocoded_column": {
      "latitude": "29.972461566288096",
      "longitude": "-90.07890298347294"
    }
  },
  {
    "service_request": "2023-985998",
    "request_type": "Property Maintenance",
    "request_reason": "Property Maintenance",
    "date_created": "2023-03-26T18:58:02.000",
    "date_modified": "2023-03-26T18:58:02.000",
    "request_status": "Pending",
    "responsible_agency": "Department of Code Enforcement",
    "final_address": "1024 N Dorgenois St",
    "address_councildis": "D",
    "status": "Pending",
    "rowid": "985998",
    "final_x": "3678002.25326",
    "final_y": "537651.719496",
    "longitude": "-90.07890298347294",
    "latitude": "29.972461566288096",
    "geocoded_column": {
      "latitude": "29.972461566288096",
      "longitude": "-90.07890298347294"
    }
  },
  {
    "service_request": "2023-985997",
    "request_type": "Abandoned Vehicles",
    "request_reason": "Abandoned/Junk Vehicles",
    "date_created": "2023-03-26T18:56:51.000",
    "date_modified": "2023-03-26T18:56:51.000",
    "request_status": "Pending",
    "responsible_agency": "Department of Public Works",
    "final_address": "1616 S Gayoso St",
    "address_councildis": "B",
    "status": "Pending",
    "rowid": "985997",
    "final_x": "3670622.59943",
    "final_y": "530437.881922",
    "longitude": "-90.10245402977579",
    "latitude": "29.952845996205077",
    "geocoded_column": {
      "latitude": "29.952845996205077",
      "longitude": "-90.10245402977579"
    }
  },
  {
    "service_request": "2023-985996",
    "request_type": "Traffic Signals/Signs/Striping/Streetlights",
    "request_reason": "Traffic Sign Missing/Damaged",
    "date_created": "2023-03-26T18:56:28.000",
    "date_modified": "2023-03-26T18:56:29.000",
    "request_status": "Pending",
    "responsible_agency": "Department of Public Works",
    "final_address": "ELYSIAN FIELDS AVE & N MIRO ST & ELYSIAN FIELDS EXIT",
    "address_councildis": "D",
    "status": "Pending",
    "rowid": "985996",
    "final_x": "3684601.2",
    "final_y": "540350.58",
    "longitude": "-90.05796750758705",
    "latitude": "29.979682194803676",
    "geocoded_column": {
      "latitude": "29.979682194803676",
      "longitude": "-90.05796750758705"
    }
  },
  {
    "service_request": "2023-985995",
    "request_type": "Roads/Drainage",
    "request_reason": "Debris in Roadway",
    "date_created": "2023-03-26T18:55:33.000",
    "date_modified": "2023-03-26T18:55:33.000",
    "request_status": "Pending",
    "responsible_agency": "Department of Public Works",
    "final_address": "2601 St Ann St",
    "address_councildis": "D",
    "status": "Pending",
    "rowid": "985995",
    "final_x": "3677358.74242",
    "final_y": "536937.055176",
    "longitude": "-90.08095997443978",
    "latitude": "29.9705158392504",
    "geocoded_column": {
      "latitude": "29.9705158392504",
      "longitude": "-90.08095997443978"
    }
  },
  {
    "service_request": "2023-985994",
    "request_type": "Trash/Recycling",
    "request_reason": "Request a Large Item Pick Up",
    "date_created": "2023-03-26T18:44:25.000",
    "date_modified": "2023-03-26T18:44:26.000",
    "request_status": "Pending",
    "responsible_agency": "Department of Sanitation",
    "final_address": "916 N Dorgenois St",
    "address_councildis": "D",
    "status": "Assigned to Contractor",
    "contractor": "Richards Disposal",
    "rowid": "985994",
    "final_x": "3677730.46363",
    "final_y": "537284.018504",
    "longitude": "-90.07977404790164",
    "latitude": "29.9714586931646",
    "geocoded_column": {
      "latitude": "29.9714586931646",
      "longitude": "-90.07977404790164"
    }
  },
  {
    "service_request": "2023-985993",
    "request_type": "Traffic Signals/Signs/Striping/Streetlights",
    "request_reason": "Traffic Signal Malfunctioning/Damaged",
    "date_created": "2023-03-26T18:43:09.000",
    "date_modified": "2023-03-26T18:43:10.000",
    "request_status": "Pending",
    "responsible_agency": "Department of Public Works",
    "final_address": "12000 BLK Chef Menteur Hwy",
    "address_councildis": "E",
    "status": "Pending",
    "rowid": "985993",
    "final_x": "3721115.59152",
    "final_y": "557679.701029",
    "longitude": "-89.94197719105577",
    "latitude": "30.02616243335147",
    "geocoded_column": {
      "latitude": "30.02616243335147",
      "longitude": "-89.94197719105577"
    }
  },
  {
    "service_request": "2023-985992",
    "request_type": "Abandoned Vehicles",
    "request_reason": "Abandoned/Junk Vehicles",
    "date_created": "2023-03-26T18:41:29.000",
    "date_modified": "2023-03-26T18:41:29.000",
    "request_status": "Pending",
    "responsible_agency": "Department of Public Works",
    "final_address": "2645 N Miro St",
    "address_councildis": "D",
    "status": "Pending",
    "rowid": "985992",
    "final_x": "3688379.03983",
    "final_y": "540592.692811",
    "longitude": "-90.04602700047624",
    "latitude": "29.980231758668918",
    "geocoded_column": {
      "latitude": "29.980231758668918",
      "longitude": "-90.04602700047624"
    }
  },
  {
    "service_request": "2023-985991",
    "request_type": "Trash/Recycling",
    "request_reason": "Return Trash Cart",
    "date_created": "2023-03-26T18:41:16.000",
    "date_modified": "2023-03-26T18:41:16.000",
    "request_status": "Pending",
    "responsible_agency": "Department of Sanitation",
    "final_address": "916 N Dorgenois St",
    "address_councildis": "D",
    "status": "Assigned to Contractor",
    "contractor": "Richards Disposal",
    "rowid": "985991",
    "final_x": "3677730.46363",
    "final_y": "537284.018504",
    "longitude": "-90.07977404790164",
    "latitude": "29.9714586931646",
    "geocoded_column": {
      "latitude": "29.9714586931646",
      "longitude": "-90.07977404790164"
    }
  },
  {
    "service_request": "2023-985989",
    "request_type": "Trash/Recycling",
    "request_reason": "Return Trash Cart",
    "date_created": "2023-03-26T18:36:55.000",
    "date_modified": "2023-03-26T18:36:56.000",
    "request_status": "Pending",
    "responsible_agency": "Department of Sanitation",
    "final_address": "2440 Dumaine St",
    "address_councildis": "D",
    "status": "Assigned to Contractor",
    "contractor": "Richards Disposal",
    "rowid": "985989",
    "final_x": "3677966.25589",
    "final_y": "536855.579656",
    "longitude": "-90.07904419280277",
    "latitude": "29.9702735378246",
    "geocoded_column": {
      "latitude": "29.9702735378246",
      "longitude": "-90.07904419280277"
    }
  },
  {
    "service_request": "2023-985988",
    "request_type": "Trash/Recycling",
    "request_reason": "Return Trash Cart",
    "date_created": "2023-03-26T18:34:18.000",
    "date_modified": "2023-03-26T18:34:19.000",
    "request_status": "Pending",
    "responsible_agency": "Department of Sanitation",
    "final_address": "2440 Dumaine St",
    "address_councildis": "D",
    "status": "Assigned to Contractor",
    "contractor": "Richards Disposal",
    "rowid": "985988",
    "final_x": "3677966.25589",
    "final_y": "536855.579656",
    "longitude": "-90.07904419280277",
    "latitude": "29.9702735378246",
    "geocoded_column": {
      "latitude": "29.9702735378246",
      "longitude": "-90.07904419280277"
    }
  },
  {
    "service_request": "2023-985987",
    "request_type": "Abandoned Vehicles",
    "request_reason": "Abandoned/Junk Vehicles",
    "date_created": "2023-03-26T18:28:56.000",
    "date_modified": "2023-03-26T18:28:56.000",
    "request_status": "Pending",
    "responsible_agency": "Department of Public Works",
    "final_address": "2500 Dumaine St",
    "address_councildis": "D",
    "status": "Pending",
    "rowid": "985987",
    "final_x": "3677912.21173",
    "final_y": "536903.357896",
    "longitude": "-90.07921321866425",
    "latitude": "29.9704065382151",
    "geocoded_column": {
      "latitude": "29.9704065382151",
      "longitude": "-90.07921321866425"
    }
  },
  {
    "service_request": "2023-985986",
    "request_type": "Abandoned Vehicles",
    "request_reason": "Abandoned/Junk Vehicles",
    "date_created": "2023-03-26T18:28:03.000",
    "date_modified": "2023-03-26T18:28:03.000",
    "request_status": "Pending",
    "responsible_agency": "Department of Public Works",
    "final_address": "2500 Dumaine St",
    "address_councildis": "D",
    "status": "Pending",
    "rowid": "985986",
    "final_x": "3677912.21173",
    "final_y": "536903.357896",
    "longitude": "-90.07921321866425",
    "latitude": "29.9704065382151",
    "geocoded_column": {
      "latitude": "29.9704065382151",
      "longitude": "-90.07921321866425"
    }
  },
  {
    "service_request": "2023-985985",
    "request_type": "Abandoned Vehicles",
    "request_reason": "Vehicle Blocking Your Driveway",
    "date_created": "2023-03-26T18:25:04.000",
    "date_modified": "2023-03-26T18:25:04.000",
    "request_status": "Pending",
    "responsible_agency": "Department of Public Works",
    "final_address": "New Orleans, Louisiana",
    "status": "Pending",
    "rowid": "985985",
    "longitude": "0.0",
    "latitude": "0.0",
    "geocoded_column": {
      "latitude": "0.0",
      "longitude": "0.0"
    }
  },
  {
    "service_request": "2023-985984",
    "request_type": "Roads/Drainage",
    "request_reason": "Pothole",
    "date_created": "2023-03-26T18:05:22.000",
    "date_modified": "2023-03-26T18:05:22.000",
    "request_status": "Pending",
    "responsible_agency": "Department of Public Works",
    "final_address": "346 West Robert E Lee Blvd",
    "address_councildis": "A",
    "status": "Pending",
    "rowid": "985984",
    "final_x": "3665113.75175",
    "final_y": "554881.68188",
    "longitude": "-90.1190306534984",
    "latitude": "30.020219747796055",
    "geocoded_column": {
      "latitude": "30.020219747796055",
      "longitude": "-90.1190306534984"
    }
  },
  {
    "service_request": "2023-985982",
    "request_type": "Trash/Recycling",
    "request_reason": "Repair Trash Cart",
    "date_created": "2023-03-26T17:39:54.000",
    "date_modified": "2023-03-26T17:39:55.000",
    "request_status": "Pending",
    "responsible_agency": "Department of Sanitation",
    "final_address": "228 14Th St",
    "address_councildis": "A",
    "status": "Assigned to Contractor",
    "contractor": "IV Waste",
    "rowid": "985982",
    "final_x": "3665421.95629",
    "final_y": "548069.323154",
    "longitude": "-90.11828506949715",
    "latitude": "30.001479150246336",
    "geocoded_column": {
      "latitude": "30.001479150246336",
      "longitude": "-90.11828506949715"
    }
  },
  {
    "service_request": "2023-985981",
    "request_type": "Trash/Recycling",
    "request_reason": "Missed Trash Pick-Up",
    "date_created": "2023-03-26T17:22:41.000",
    "date_modified": "2023-03-26T17:22:41.000",
    "request_status": "Pending",
    "responsible_agency": "Department of Sanitation",
    "final_address": "8500 BLK Palmetto St",
    "address_councildis": "A",
    "status": "Assigned to Contractor",
    "contractor": "Richards Disposal",
    "rowid": "985981",
    "final_x": "3666931.08572",
    "final_y": "536210.428023",
    "longitude": "-90.11391625809827",
    "latitude": "29.968827118871587",
    "geocoded_column": {
      "latitude": "29.968827118871587",
      "longitude": "-90.11391625809827"
    }
  },
  {
    "service_request": "2023-985980",
    "request_type": "Trash/Recycling",
    "request_reason": "Request a Large Item Pick Up",
    "date_created": "2023-03-26T17:08:26.000",
    "date_modified": "2023-03-26T17:08:27.000",
    "request_status": "Pending",
    "responsible_agency": "Department of Sanitation",
    "final_address": "44 Gull St",
    "address_councildis": "D",
    "status": "Assigned to Contractor",
    "contractor": "IV Waste",
    "rowid": "985980",
    "final_x": "3675039.84411",
    "final_y": "555755.597017",
    "longitude": "-90.08763722778147",
    "latitude": "30.02232972498351",
    "geocoded_column": {
      "latitude": "30.02232972498351",
      "longitude": "-90.08763722778147"
    }
  },
  {
    "service_request": "2023-985979",
    "request_type": "Property Maintenance",
    "request_reason": "Property Maintenance",
    "date_created": "2023-03-26T16:44:00.000",
    "date_modified": "2023-03-26T16:44:00.000",
    "request_status": "Pending",
    "responsible_agency": "Department of Code Enforcement",
    "final_address": "3002 Spain St",
    "address_councildis": "D",
    "status": "Pending",
    "rowid": "985979",
    "final_x": "3685501.31887",
    "final_y": "543810.150542",
    "longitude": "-90.05500267136281",
    "latitude": "29.98916721092185",
    "geocoded_column": {
      "latitude": "29.98916721092185",
      "longitude": "-90.05500267136281"
    }
  },
  {
    "service_request": "2023-985978",
    "request_type": "Property Maintenance",
    "request_reason": "Property Maintenance",
    "date_created": "2023-03-26T16:42:58.000",
    "date_modified": "2023-03-26T16:42:58.000",
    "request_status": "Pending",
    "responsible_agency": "Department of Code Enforcement",
    "final_address": "2325 Abundance St",
    "address_councildis": "D",
    "status": "Pending",
    "rowid": "985978",
    "final_x": "3685405.53084",
    "final_y": "543794.770766",
    "longitude": "-90.05530577882857",
    "latitude": "29.989127860037254",
    "geocoded_column": {
      "latitude": "29.989127860037254",
      "longitude": "-90.05530577882857"
    }
  },
  {
    "service_request": "2023-985977",
    "request_type": "Property Maintenance",
    "request_reason": "Property Maintenance",
    "date_created": "2023-03-26T16:41:28.000",
    "date_modified": "2023-03-26T16:41:28.000",
    "request_status": "Pending",
    "responsible_agency": "Department of Code Enforcement",
    "final_address": "2318 Abundance St",
    "address_councildis": "D",
    "status": "Pending",
    "rowid": "985977",
    "final_x": "3685347.77941",
    "final_y": "543690.005774",
    "longitude": "-90.05549188862047",
    "latitude": "29.988841564592107",
    "geocoded_column": {
      "latitude": "29.988841564592107",
      "longitude": "-90.05549188862047"
    }
  },
  {
    "service_request": "2023-985976",
    "request_type": "Property Maintenance",
    "request_reason": "Property Maintenance",
    "date_created": "2023-03-26T16:40:14.000",
    "date_modified": "2023-03-26T16:40:14.000",
    "request_status": "Pending",
    "responsible_agency": "Department of Code Enforcement",
    "final_address": "2319 Abundance St",
    "address_councildis": "D",
    "status": "Pending",
    "rowid": "985976",
    "final_x": "3685339.12796",
    "final_y": "543786.52571",
    "longitude": "-90.05551581594042",
    "latitude": "29.9891072253782",
    "geocoded_column": {
      "latitude": "29.9891072253782",
      "longitude": "-90.05551581594042"
    }
  },
  {
    "service_request": "2023-985975",
    "request_type": "Property Maintenance",
    "request_reason": "Property Maintenance",
    "date_created": "2023-03-26T16:38:19.000",
    "date_modified": "2023-03-26T16:38:19.000",
    "request_status": "Pending",
    "responsible_agency": "Department of Code Enforcement",
    "final_address": "2255 Abundance St",
    "address_councildis": "D",
    "status": "Pending",
    "rowid": "985975",
    "final_x": "3684983.28028",
    "final_y": "543756.87611",
    "longitude": "-90.056640874861",
    "latitude": "29.989036606251542",
    "geocoded_column": {
      "latitude": "29.989036606251542",
      "longitude": "-90.056640874861"
    }
  },
  {
    "service_request": "2023-985974",
    "request_type": "Trash/Recycling",
    "request_reason": "MIssed Recycling Pick-Up",
    "date_created": "2023-03-26T16:31:39.000",
    "date_modified": "2023-03-26T16:31:40.000",
    "request_status": "Pending",
    "responsible_agency": "Department of Sanitation",
    "final_address": "2831 Audubon St",
    "address_councildis": "B",
    "status": "Assigned to Contractor",
    "contractor": "Richards Disposal",
    "rowid": "985974",
    "final_x": "3667694.17434",
    "final_y": "531295.870018",
    "longitude": "-90.11167184375363",
    "latitude": "29.955291355719048",
    "geocoded_column": {
      "latitude": "29.955291355719048",
      "longitude": "-90.11167184375363"
    }
  },
  {
    "service_request": "2023-985973",
    "request_type": "Property Maintenance",
    "request_reason": "Property Maintenance",
    "date_created": "2023-03-26T16:29:48.000",
    "date_modified": "2023-03-26T16:29:48.000",
    "request_status": "Pending",
    "responsible_agency": "Department of Code Enforcement",
    "final_address": "2802 St Roch Ave",
    "address_councildis": "D",
    "status": "Pending",
    "rowid": "985973",
    "final_x": "3685874.14946",
    "final_y": "543086.938061",
    "longitude": "-90.05385052016966",
    "latitude": "29.987167191718694",
    "geocoded_column": {
      "latitude": "29.987167191718694",
      "longitude": "-90.05385052016966"
    }
  },
  {
    "service_request": "2023-985972",
    "request_type": "Property Maintenance",
    "request_reason": "Property Maintenance",
    "date_created": "2023-03-26T16:28:31.000",
    "date_modified": "2023-03-26T16:28:31.000",
    "request_status": "Pending",
    "responsible_agency": "Department of Code Enforcement",
    "final_address": "2359 Industry St",
    "address_councildis": "D",
    "status": "Pending",
    "rowid": "985972",
    "final_x": "3685735.75407",
    "final_y": "543077.923405",
    "longitude": "-90.05428797867914",
    "latitude": "29.987146653109722",
    "geocoded_column": {
      "latitude": "29.987146653109722",
      "longitude": "-90.05428797867914"
    }
  },
  {
    "service_request": "2023-985971",
    "request_type": "Property Maintenance",
    "request_reason": "Property Maintenance",
    "date_created": "2023-03-26T16:26:43.000",
    "date_modified": "2023-03-26T16:26:43.000",
    "request_status": "Pending",
    "responsible_agency": "Department of Code Enforcement",
    "final_address": "2321 Industry St",
    "address_councildis": "D",
    "status": "Pending",
    "rowid": "985971",
    "final_x": "3685447.45154",
    "final_y": "543062.115149",
    "longitude": "-90.055199178312",
    "latitude": "29.987112031728955",
    "geocoded_column": {
      "latitude": "29.987112031728955",
      "longitude": "-90.055199178312"
    }
  },
  {
    "service_request": "2023-985970",
    "request_type": "Property Maintenance",
    "request_reason": "Property Maintenance",
    "date_created": "2023-03-26T16:25:37.000",
    "date_modified": "2023-03-26T16:25:37.000",
    "request_status": "Pending",
    "responsible_agency": "Department of Code Enforcement",
    "final_address": "2309 Industry St",
    "address_councildis": "D",
    "status": "Pending",
    "rowid": "985970",
    "final_x": "3685345.46236",
    "final_y": "543053.768653",
    "longitude": "-90.05552161887258",
    "latitude": "29.987092209553804",
    "geocoded_column": {
      "latitude": "29.987092209553804",
      "longitude": "-90.05552161887258"
    }
  },
  {
    "service_request": "2023-985969",
    "request_type": "Property Maintenance",
    "request_reason": "Property Maintenance",
    "date_created": "2023-03-26T16:23:50.000",
    "date_modified": "2023-03-26T16:23:50.000",
    "request_status": "Pending",
    "responsible_agency": "Department of Code Enforcement",
    "final_address": "2804 Mandeville St",
    "address_councildis": "D",
    "status": "Pending",
    "rowid": "985969",
    "final_x": "3685197.05525",
    "final_y": "543063.141773",
    "longitude": "-90.05599005260446",
    "latitude": "29.98712253213664",
    "geocoded_column": {
      "latitude": "29.98712253213664",
      "longitude": "-90.05599005260446"
    }
  },
  {
    "service_request": "2023-985967",
    "request_type": "Property Maintenance",
    "request_reason": "Property Maintenance",
    "date_created": "2023-03-26T16:17:17.000",
    "date_modified": "2023-03-26T16:17:17.000",
    "request_status": "Pending",
    "responsible_agency": "Department of Code Enforcement",
    "final_address": "2729 Marigny St",
    "address_councildis": "D",
    "status": "Pending",
    "rowid": "985967",
    "final_x": "3684927.60661",
    "final_y": "542870.706509",
    "longitude": "-90.05684791398998",
    "latitude": "29.98660165978345",
    "geocoded_column": {
      "latitude": "29.98660165978345",
      "longitude": "-90.05684791398998"
    }
  },
  {
    "service_request": "2023-985966",
    "request_type": "Property Maintenance",
    "request_reason": "Property Maintenance",
    "date_created": "2023-03-26T16:16:09.000",
    "date_modified": "2023-03-26T16:16:09.000",
    "request_status": "Pending",
    "responsible_agency": "Department of Code Enforcement",
    "final_address": "2703 Marigny St",
    "address_councildis": "D",
    "status": "Pending",
    "rowid": "985966",
    "final_x": "3684945.17602",
    "final_y": "542656.574605",
    "longitude": "-90.05679995398675",
    "latitude": "29.98601233470001",
    "geocoded_column": {
      "latitude": "29.98601233470001",
      "longitude": "-90.05679995398675"
    }
  },
  {
    "service_request": "2023-985965",
    "request_type": "Property Maintenance",
    "request_reason": "Property Maintenance",
    "date_created": "2023-03-26T16:14:44.000",
    "date_modified": "2023-03-26T16:14:44.000",
    "request_status": "Pending",
    "responsible_agency": "Department of Code Enforcement",
    "final_address": "2717 Marigny St",
    "address_councildis": "D",
    "status": "Pending",
    "rowid": "985965",
    "final_x": "3684937.67605",
    "final_y": "542779.907917",
    "longitude": "-90.05681930352101",
    "latitude": "29.98635168737437",
    "geocoded_column": {
      "latitude": "29.98635168737437",
      "longitude": "-90.05681930352101"
    }
  },
  {
    "service_request": "2023-985964",
    "request_type": "Property Maintenance",
    "request_reason": "Property Maintenance",
    "date_created": "2023-03-26T16:13:22.000",
    "date_modified": "2023-03-26T16:13:22.000",
    "request_status": "Pending",
    "responsible_agency": "Department of Code Enforcement",
    "final_address": "2735 Marigny St",
    "address_councildis": "D",
    "status": "Pending",
    "rowid": "985964",
    "final_x": "3684920.31497",
    "final_y": "542933.206541",
    "longitude": "-90.0568687463129",
    "latitude": "29.986773736078586",
    "geocoded_column": {
      "latitude": "29.986773736078586",
      "longitude": "-90.0568687463129"
    }
  },
  {
    "service_request": "2023-985963",
    "request_type": "Property Maintenance",
    "request_reason": "Property Maintenance",
    "date_created": "2023-03-26T16:12:14.000",
    "date_modified": "2023-03-26T16:12:14.000",
    "request_status": "Pending",
    "responsible_agency": "Department of Code Enforcement",
    "final_address": "2813 Marigny St",
    "address_councildis": "D",
    "status": "Pending",
    "rowid": "985963",
    "final_x": "3684913.88853",
    "final_y": "543105.405325",
    "longitude": "-90.05688298591981",
    "latitude": "29.987247418546158",
    "geocoded_column": {
      "latitude": "29.987247418546158",
      "longitude": "-90.05688298591981"
    }
  },
  {
    "service_request": "2023-985962",
    "request_type": "Property Maintenance",
    "request_reason": "Property Maintenance",
    "date_created": "2023-03-26T16:08:50.000",
    "date_modified": "2023-03-26T16:08:50.000",
    "request_status": "Pending",
    "responsible_agency": "Department of Code Enforcement",
    "final_address": "2911 Marigny St",
    "address_councildis": "D",
    "status": "Pending",
    "rowid": "985962",
    "final_x": "3684890.8061",
    "final_y": "543447.727502",
    "longitude": "-90.05694385032963",
    "latitude": "29.988189390115725",
    "geocoded_column": {
      "latitude": "29.988189390115725",
      "longitude": "-90.05694385032963"
    }
  },
  {
    "service_request": "2023-985961",
    "request_type": "Property Maintenance",
    "request_reason": "Property Maintenance",
    "date_created": "2023-03-26T16:06:51.000",
    "date_modified": "2023-03-26T16:06:51.000",
    "request_status": "Pending",
    "responsible_agency": "Department of Code Enforcement",
    "final_address": "3041 Marigny St",
    "address_councildis": "D",
    "status": "Pending",
    "rowid": "985961",
    "final_x": "3684836.64745",
    "final_y": "544038.097486",
    "longitude": "-90.05709414957656",
    "latitude": "29.98981435659905",
    "geocoded_column": {
      "latitude": "29.98981435659905",
      "longitude": "-90.05709414957656"
    }
  },
  {
    "service_request": "2023-985960",
    "request_type": "Property Maintenance",
    "request_reason": "Property Maintenance",
    "date_created": "2023-03-26T16:02:33.000",
    "date_modified": "2023-03-26T16:02:33.000",
    "request_status": "Pending",
    "responsible_agency": "Department of Code Enforcement",
    "final_address": "3015 Mandeville St",
    "address_councildis": "D",
    "status": "Pending",
    "rowid": "985960",
    "final_x": "3685250.27401",
    "final_y": "543931.881358",
    "longitude": "-90.05579135965345",
    "latitude": "29.98950962598472",
    "geocoded_column": {
      "latitude": "29.98950962598472",
      "longitude": "-90.05579135965345"
    }
  },
  {
    "service_request": "2023-985959",
    "request_type": "Property Maintenance",
    "request_reason": "Property Maintenance",
    "date_created": "2023-03-26T16:01:37.000",
    "date_modified": "2023-03-26T16:01:37.000",
    "request_status": "Pending",
    "responsible_agency": "Department of Code Enforcement",
    "final_address": "2305 Abundance St",
    "address_councildis": "D",
    "status": "Pending",
    "rowid": "985959",
    "final_x": "3685228.58069",
    "final_y": "543785.489678",
    "longitude": "-90.05586503786161",
    "latitude": "29.989107765961915",
    "geocoded_column": {
      "latitude": "29.989107765961915",
      "longitude": "-90.05586503786161"
    }
  },
  {
    "service_request": "2023-985958",
    "request_type": "Property Maintenance",
    "request_reason": "Property Maintenance",
    "date_created": "2023-03-26T15:59:13.000",
    "date_modified": "2023-03-26T15:59:13.000",
    "request_status": "Pending",
    "responsible_agency": "Department of Code Enforcement",
    "final_address": "2305 Marigny St",
    "address_councildis": "D",
    "status": "Pending",
    "rowid": "985958",
    "final_x": "3685096.07177",
    "final_y": "540827.370763",
    "longitude": "-90.05638772273936",
    "latitude": "29.980978046939676",
    "geocoded_column": {
      "latitude": "29.980978046939676",
      "longitude": "-90.05638772273936"
    }
  },
  {
    "service_request": "2023-985957",
    "request_type": "Property Maintenance",
    "request_reason": "Property Maintenance",
    "date_created": "2023-03-26T15:56:50.000",
    "date_modified": "2023-03-26T15:56:50.000",
    "request_status": "Pending",
    "responsible_agency": "Department of Code Enforcement",
    "final_address": "2268 Abundance St",
    "address_councildis": "D",
    "status": "Pending",
    "rowid": "985957",
    "final_x": "3685093.71196",
    "final_y": "543662.51483",
    "longitude": "-90.05629537663425",
    "latitude": "29.988773762562374",
    "geocoded_column": {
      "latitude": "29.988773762562374",
      "longitude": "-90.05629537663425"
    }
  },
  {
    "service_request": "2023-985956",
    "request_type": "Property Maintenance",
    "request_reason": "Property Maintenance",
    "date_created": "2023-03-26T15:54:49.000",
    "date_modified": "2023-03-26T15:54:49.000",
    "request_status": "Pending",
    "responsible_agency": "Department of Code Enforcement",
    "final_address": "2732 Mandeville St",
    "address_councildis": "D",
    "status": "Pending",
    "rowid": "985956",
    "final_x": "3685214.31042",
    "final_y": "542879.988429",
    "longitude": "-90.0559419991491",
    "latitude": "29.986618396475865",
    "geocoded_column": {
      "latitude": "29.986618396475865",
      "longitude": "-90.0559419991491"
    }
  },
  {
    "service_request": "2023-985955",
    "request_type": "Property Maintenance",
    "request_reason": "Property Maintenance",
    "date_created": "2023-03-26T15:53:42.000",
    "date_modified": "2023-03-26T15:53:42.000",
    "request_status": "Pending",
    "responsible_agency": "Department of Code Enforcement",
    "final_address": "2704 Mandeville St",
    "address_councildis": "D",
    "status": "Pending",
    "rowid": "985955",
    "final_x": "3685228.5885",
    "final_y": "542708.750989",
    "longitude": "-90.05590293002524",
    "latitude": "29.98614711653425",
    "geocoded_column": {
      "latitude": "29.98614711653425",
      "longitude": "-90.05590293002524"
    }
  },
  {
    "service_request": "2023-985954",
    "request_type": "Property Maintenance",
    "request_reason": "Property Maintenance",
    "date_created": "2023-03-26T15:50:57.000",
    "date_modified": "2023-03-26T15:50:57.000",
    "request_status": "Pending",
    "responsible_agency": "Department of Code Enforcement",
    "final_address": "2739 Mandeville St",
    "address_councildis": "D",
    "status": "Pending",
    "rowid": "985954",
    "final_x": "3685275.63925",
    "final_y": "542959.814989",
    "longitude": "-90.0557454734041",
    "latitude": "29.986836011133672",
    "geocoded_column": {
      "latitude": "29.986836011133672",
      "longitude": "-90.0557454734041"
    }
  },
  {
    "service_request": "2023-985953",
    "request_type": "Property Maintenance",
    "request_reason": "Property Maintenance",
    "date_created": "2023-03-26T15:48:55.000",
    "date_modified": "2023-03-26T15:48:55.000",
    "request_status": "Pending",
    "responsible_agency": "Department of Code Enforcement",
    "final_address": "2803 Spain St",
    "address_councildis": "D",
    "status": "Pending",
    "rowid": "985953",
    "final_x": "3685627.27407",
    "final_y": "543077.417805",
    "longitude": "-90.05463064528026",
    "latitude": "29.987148592017125",
    "geocoded_column": {
      "latitude": "29.987148592017125",
      "longitude": "-90.05463064528026"
    }
  },
  {
    "service_request": "2023-985952",
    "request_type": "Property Maintenance",
    "request_reason": "Property Maintenance",
    "date_created": "2023-03-26T15:47:26.000",
    "date_modified": "2023-03-26T15:47:26.000",
    "request_status": "Pending",
    "responsible_agency": "Department of Code Enforcement",
    "final_address": "2706 Spain St",
    "address_councildis": "D",
    "status": "Pending",
    "rowid": "985952",
    "final_x": "3685578.62012",
    "final_y": "542800.513229",
    "longitude": "-90.05479408471258",
    "latitude": "29.986388695554165",
    "geocoded_column": {
      "latitude": "29.986388695554165",
      "longitude": "-90.05479408471258"
    }
  },
  {
    "service_request": "2023-985951",
    "request_type": "Property Maintenance",
    "request_reason": "Property Maintenance",
    "date_created": "2023-03-26T15:44:52.000",
    "date_modified": "2023-03-26T15:44:52.000",
    "request_status": "Pending",
    "responsible_agency": "Department of Code Enforcement",
    "final_address": "2802 Spain St",
    "address_councildis": "D",
    "status": "Pending",
    "rowid": "985951",
    "final_x": "3685558.56726",
    "final_y": "543062.446989",
    "longitude": "-90.05484819267333",
    "latitude": "29.98710953566085",
    "geocoded_column": {
      "latitude": "29.98710953566085",
      "longitude": "-90.05484819267333"
    }
  },
  {
    "service_request": "2023-985950",
    "request_type": "Property Maintenance",
    "request_reason": "Property Maintenance",
    "date_created": "2023-03-26T15:43:29.000",
    "date_modified": "2023-03-26T15:43:29.000",
    "request_status": "Pending",
    "responsible_agency": "Department of Code Enforcement",
    "final_address": "2816 Spain St",
    "address_councildis": "D",
    "status": "Pending",
    "rowid": "985950",
    "final_x": "3685538.47887",
    "final_y": "543171.287885",
    "longitude": "-90.05490780886488",
    "latitude": "29.98740942576499",
    "geocoded_column": {
      "latitude": "29.98740942576499",
      "longitude": "-90.05490780886488"
    }
  },
  {
    "service_request": "2023-985949",
    "request_type": "Property Maintenance",
    "request_reason": "Property Maintenance",
    "date_created": "2023-03-26T15:42:09.000",
    "date_modified": "2023-03-26T15:42:09.000",
    "request_status": "Pending",
    "responsible_agency": "Department of Code Enforcement",
    "final_address": "2825 Spain St",
    "address_councildis": "D",
    "status": "Pending",
    "rowid": "985949",
    "final_x": "3685655.31913",
    "final_y": "543241.909774",
    "longitude": "-90.0545362625689",
    "latitude": "29.987600025914986",
    "geocoded_column": {
      "latitude": "29.987600025914986",
      "longitude": "-90.0545362625689"
    }
  },
  {
    "service_request": "2023-985948",
    "request_type": "Property Maintenance",
    "request_reason": "Property Maintenance",
    "date_created": "2023-03-26T15:39:48.000",
    "date_modified": "2023-03-26T15:39:48.000",
    "request_status": "Pending",
    "responsible_agency": "Department of Code Enforcement",
    "final_address": "2940 Spain St",
    "address_councildis": "D",
    "status": "Pending",
    "rowid": "985948",
    "final_x": "3685468.1414",
    "final_y": "543705.14171",
    "longitude": "-90.05511116915447",
    "latitude": "29.988879491694224",
    "geocoded_column": {
      "latitude": "29.988879491694224",
      "longitude": "-90.05511116915447"
    }
  },
  {
    "service_request": "2023-985947",
    "request_type": "Property Maintenance",
    "request_reason": "Property Maintenance",
    "date_created": "2023-03-26T15:38:13.000",
    "date_modified": "2023-03-26T15:38:13.000",
    "request_status": "Pending",
    "responsible_agency": "Department of Code Enforcement",
    "final_address": "3116 Spain St",
    "address_councildis": "D",
    "status": "Pending",
    "rowid": "985947",
    "final_x": "3685449.18153",
    "final_y": "544279.961295",
    "longitude": "-90.05515080365096",
    "latitude": "29.99046062246766",
    "geocoded_column": {
      "latitude": "29.99046062246766",
      "longitude": "-90.05515080365096"
    }
  },
  {
    "service_request": "2023-985946",
    "request_type": "Property Maintenance",
    "request_reason": "Property Maintenance",
    "date_created": "2023-03-26T15:37:04.000",
    "date_modified": "2023-03-26T15:37:04.000",
    "request_status": "Pending",
    "responsible_agency": "Department of Code Enforcement",
    "final_address": "6030 Hayne Blvd",
    "address_councildis": "E",
    "status": "Pending",
    "rowid": "985946",
    "final_x": "3694994.7793",
    "final_y": "560001.076445",
    "longitude": "-90.02443156966852",
    "latitude": "30.033391578359915",
    "geocoded_column": {
      "latitude": "30.033391578359915",
      "longitude": "-90.02443156966852"
    }
  },
  {
    "service_request": "2023-985945",
    "request_type": "Property Maintenance",
    "request_reason": "Property Maintenance",
    "date_created": "2023-03-26T15:35:00.000",
    "date_modified": "2023-03-26T15:35:00.000",
    "request_status": "Pending",
    "responsible_agency": "Department of Code Enforcement",
    "final_address": "6026 Hayne Blvd",
    "address_councildis": "E",
    "status": "Pending",
    "rowid": "985945",
    "final_x": "3694961.2495",
    "final_y": "559984.465501",
    "longitude": "-90.02453812646748",
    "latitude": "30.03334695772583",
    "geocoded_column": {
      "latitude": "30.03334695772583",
      "longitude": "-90.02453812646748"
    }
  },
  {
    "service_request": "2023-985944",
    "request_type": "Property Maintenance",
    "request_reason": "Property Maintenance",
    "date_created": "2023-03-26T15:31:17.000",
    "date_modified": "2023-03-26T15:31:17.000",
    "request_status": "Pending",
    "responsible_agency": "Department of Code Enforcement",
    "final_address": "3112 St Roch Ave",
    "address_councildis": "D",
    "status": "Pending",
    "rowid": "985944",
    "final_x": "3685777.46543",
    "final_y": "544266.411791",
    "longitude": "-90.05411431788522",
    "latitude": "29.990413292871477",
    "geocoded_column": {
      "latitude": "29.990413292871477",
      "longitude": "-90.05411431788522"
    }
  },
  {
    "service_request": "2023-985943",
    "request_type": "Property Maintenance",
    "request_reason": "Property Maintenance",
    "date_created": "2023-03-26T15:29:49.000",
    "date_modified": "2023-03-26T15:29:49.000",
    "request_status": "Pending",
    "responsible_agency": "Department of Code Enforcement",
    "final_address": "3101 St Roch Ave",
    "address_councildis": "D",
    "status": "Pending",
    "rowid": "985943",
    "final_x": "3685943.83849",
    "final_y": "544221.823758",
    "longitude": "-90.05359036188364",
    "latitude": "29.990285583461027",
    "geocoded_column": {
      "latitude": "29.990285583461027",
      "longitude": "-90.05359036188364"
    }
  },
  {
    "service_request": "2023-985942",
    "request_type": "Property Maintenance",
    "request_reason": "Property Maintenance",
    "date_created": "2023-03-26T15:27:07.000",
    "date_modified": "2023-03-26T15:27:07.000",
    "request_status": "Pending",
    "responsible_agency": "Department of Code Enforcement",
    "final_address": "2903 St Roch Ave",
    "address_councildis": "D",
    "status": "Pending",
    "rowid": "985942",
    "final_x": "3686034.74953",
    "final_y": "543476.948686",
    "longitude": "-90.05332948161188",
    "latitude": "29.988234650262314",
    "geocoded_column": {
      "latitude": "29.988234650262314",
      "longitude": "-90.05332948161188"
    }
  },
  {
    "service_request": "2023-985941",
    "request_type": "Trash/Recycling",
    "request_reason": "Request a Large Item Pick Up",
    "date_created": "2023-03-26T15:26:28.000",
    "date_modified": "2023-03-26T15:26:29.000",
    "request_status": "Pending",
    "responsible_agency": "Department of Sanitation",
    "final_address": "6942 Louisville St",
    "address_councildis": "A",
    "status": "Assigned to Contractor",
    "contractor": "IV Waste",
    "rowid": "985941",
    "final_x": "3668235.53031",
    "final_y": "553765.304471",
    "longitude": "-90.10920445534047",
    "latitude": "30.0170587693295",
    "geocoded_column": {
      "latitude": "30.0170587693295",
      "longitude": "-90.10920445534047"
    }
  },
  {
    "service_request": "2023-985940",
    "request_type": "Property Maintenance",
    "request_reason": "Property Maintenance",
    "date_created": "2023-03-26T15:25:48.000",
    "date_modified": "2023-03-26T15:25:48.000",
    "request_status": "Pending",
    "responsible_agency": "Department of Code Enforcement",
    "final_address": "2418 Agriculture St",
    "address_councildis": "D",
    "status": "Pending",
    "rowid": "985940",
    "final_x": "3686123.41775",
    "final_y": "543395.980174",
    "longitude": "-90.05305226561713",
    "latitude": "29.988009291844893",
    "geocoded_column": {
      "latitude": "29.988009291844893",
      "longitude": "-90.05305226561713"
    }
  },
  {
    "service_request": "2023-985939",
    "request_type": "Property Maintenance",
    "request_reason": "Property Maintenance",
    "date_created": "2023-03-26T15:24:13.000",
    "date_modified": "2023-03-26T15:24:13.000",
    "request_status": "Pending",
    "responsible_agency": "Department of Code Enforcement",
    "final_address": "2426 Agriculture St",
    "address_councildis": "D",
    "status": "Pending",
    "rowid": "985939",
    "final_x": "3686183.53698",
    "final_y": "543405.696334",
    "longitude": "-90.05286202631287",
    "latitude": "29.988034160669223",
    "geocoded_column": {
      "latitude": "29.988034160669223",
      "longitude": "-90.05286202631287"
    }
  },
  {
    "service_request": "2023-985938",
    "request_type": "Trash/Recycling",
    "request_reason": "Illegal Dumping",
    "date_created": "2023-03-26T15:22:30.000",
    "date_modified": "2023-03-26T15:22:30.000",
    "request_status": "Pending",
    "responsible_agency": "Department of Sanitation",
    "final_address": "1241 N Claiborne Ave",
    "address_councildis": "D",
    "status": "Pending",
    "rowid": "985938",
    "final_x": "3681019.84283",
    "final_y": "536437.953543",
    "longitude": "-90.06941519028909",
    "latitude": "29.969032946519558",
    "geocoded_column": {
      "latitude": "29.969032946519558",
      "longitude": "-90.06941519028909"
    }
  },
  {
    "service_request": "2023-985937",
    "request_type": "Trash/Recycling",
    "request_reason": "Order Recycling Cart",
    "date_created": "2023-03-26T15:20:56.000",
    "date_modified": "2023-03-26T15:20:56.000",
    "request_status": "Pending",
    "responsible_agency": "Department of Sanitation",
    "final_address": "6731 General Haig St",
    "address_councildis": "A",
    "status": "Pending",
    "rowid": "985937",
    "final_x": "3671086.33454",
    "final_y": "552105.041686",
    "longitude": "-90.10025351497762",
    "latitude": "30.012409584786504",
    "geocoded_column": {
      "latitude": "30.012409584786504",
      "longitude": "-90.10025351497762"
    }
  },
  {
    "service_request": "2023-985936",
    "request_type": "Trash/Recycling",
    "request_reason": "Request a Large Item Pick Up",
    "date_created": "2023-03-26T15:10:02.000",
    "date_modified": "2023-03-26T15:10:03.000",
    "request_status": "Pending",
    "responsible_agency": "Department of Sanitation",
    "final_address": "231 N St Patrick St",
    "address_councildis": "A",
    "status": "Assigned to Contractor",
    "contractor": "Richards Disposal",
    "rowid": "985936",
    "final_x": "3669515.22042",
    "final_y": "540438.289355",
    "longitude": "-90.10561231782718",
    "latitude": "29.980376443621708",
    "geocoded_column": {
      "latitude": "29.980376443621708",
      "longitude": "-90.10561231782718"
    }
  },
  {
    "service_request": "2023-985935",
    "request_type": "Abandoned Vehicles",
    "request_reason": "Abandoned/Junk Vehicles",
    "date_created": "2023-03-26T14:59:25.000",
    "date_modified": "2023-03-26T14:59:25.000",
    "request_status": "Pending",
    "responsible_agency": "Department of Public Works",
    "final_address": "4824 Banks St",
    "address_councildis": "A",
    "status": "Pending",
    "rowid": "985935",
    "final_x": "3667891.54189",
    "final_y": "539181.623434",
    "longitude": "-90.11078295393767",
    "latitude": "29.976968771827917",
    "geocoded_column": {
      "latitude": "29.976968771827917",
      "longitude": "-90.11078295393767"
    }
  },
  {
    "service_request": "2023-985934",
    "request_type": "Trash/Recycling",
    "request_reason": "Request a Large Item Pick Up",
    "date_created": "2023-03-26T14:55:52.000",
    "date_modified": "2023-03-26T14:55:53.000",
    "request_status": "Pending",
    "responsible_agency": "Department of Sanitation",
    "final_address": "4824 Banks St",
    "address_councildis": "A",
    "status": "Assigned to Contractor",
    "contractor": "Richards Disposal",
    "rowid": "985934",
    "final_x": "3667891.54189",
    "final_y": "539181.623434",
    "longitude": "-90.11078295393767",
    "latitude": "29.976968771827917",
    "geocoded_column": {
      "latitude": "29.976968771827917",
      "longitude": "-90.11078295393767"
    }
  },
  {
    "service_request": "2023-985933",
    "request_type": "Trash/Recycling",
    "request_reason": "Request a Large Item Pick Up",
    "date_created": "2023-03-26T14:40:18.000",
    "date_modified": "2023-03-26T14:40:19.000",
    "request_status": "Pending",
    "responsible_agency": "Department of Sanitation",
    "final_address": "5100 Press Dr",
    "address_councildis": "D",
    "status": "Assigned to Contractor",
    "contractor": "IV Waste",
    "rowid": "985933",
    "final_x": "3689306.71804",
    "final_y": "552122.931606",
    "longitude": "-90.04268681381917",
    "latitude": "30.0119070521994",
    "geocoded_column": {
      "latitude": "30.0119070521994",
      "longitude": "-90.04268681381917"
    }
  },
  {
    "service_request": "2023-985932",
    "request_type": "Traffic Signals/Signs/Striping/Streetlights",
    "request_reason": "Request for Traffic Calming due to Speeding",
    "date_created": "2023-03-26T14:23:22.000",
    "date_modified": "2023-03-26T14:23:22.000",
    "request_status": "Pending",
    "responsible_agency": "Department of Public Works",
    "final_address": "1700 Holiday Dr",
    "address_councildis": "C",
    "status": "Pending",
    "rowid": "985932",
    "final_x": "3699114.13732",
    "final_y": "524535.2231",
    "longitude": "-90.01270575554017",
    "latitude": "29.93574343164321",
    "geocoded_column": {
      "latitude": "29.93574343164321",
      "longitude": "-90.01270575554017"
    }
  },
  {
    "service_request": "2023-985931",
    "request_type": "Trash/Recycling",
    "request_reason": "Request a Large Item Pick Up",
    "date_created": "2023-03-26T14:22:24.000",
    "date_modified": "2023-03-26T14:22:25.000",
    "request_status": "Pending",
    "responsible_agency": "Department of Sanitation",
    "final_address": "7301 Wayside Dr",
    "address_councildis": "E",
    "status": "Assigned to Contractor",
    "contractor": "Waste Pro",
    "rowid": "985931",
    "final_x": "3717127.64383",
    "final_y": "568646.471845",
    "longitude": "-89.9541613635904",
    "latitude": "30.056449142733285",
    "geocoded_column": {
      "latitude": "30.056449142733285",
      "longitude": "-89.9541613635904"
    }
  },
  {
    "service_request": "2023-985930",
    "request_type": "Traffic Signals/Signs/Striping/Streetlights",
    "request_reason": "Traffic Sign Missing/Damaged",
    "date_created": "2023-03-26T14:20:51.000",
    "date_modified": "2023-03-26T14:20:51.000",
    "request_status": "Pending",
    "responsible_agency": "Department of Public Works",
    "final_address": "1700 Holiday Dr",
    "address_councildis": "C",
    "status": "Pending",
    "rowid": "985930",
    "final_x": "3699114.13732",
    "final_y": "524535.2231",
    "longitude": "-90.01270575554017",
    "latitude": "29.93574343164321",
    "geocoded_column": {
      "latitude": "29.93574343164321",
      "longitude": "-90.01270575554017"
    }
  },
  {
    "service_request": "2023-985929",
    "request_type": "Trash/Recycling",
    "request_reason": "Request a Large Item Pick Up",
    "date_created": "2023-03-26T14:15:10.000",
    "date_modified": "2023-03-26T14:15:11.000",
    "request_status": "Pending",
    "responsible_agency": "Department of Sanitation",
    "final_address": "New Orleans, Louisiana",
    "status": "Assigned to Contractor",
    "rowid": "985929",
    "longitude": "0.0",
    "latitude": "0.0",
    "geocoded_column": {
      "latitude": "0.0",
      "longitude": "0.0"
    }
  },
  {
    "service_request": "2023-985928",
    "request_type": "Trash/Recycling",
    "request_reason": "Illegal Dumping",
    "date_created": "2023-03-26T14:11:16.000",
    "date_modified": "2023-03-26T14:11:16.000",
    "request_status": "Pending",
    "responsible_agency": "Department of Sanitation",
    "final_address": "BEHRMAN HWY & TULLIS DR",
    "address_councildis": "C",
    "status": "Pending",
    "rowid": "985928",
    "final_x": "3697481.2",
    "final_y": "514235.98",
    "longitude": "-90.01823411181259",
    "latitude": "29.90747566580172",
    "geocoded_column": {
      "latitude": "29.90747566580172",
      "longitude": "-90.01823411181259"
    }
  },
  {
    "service_request": "2023-985927",
    "request_type": "Trash/Recycling",
    "request_reason": "Repair Trash Cart",
    "date_created": "2023-03-26T13:55:36.000",
    "date_modified": "2023-03-26T13:55:37.000",
    "request_status": "Pending",
    "responsible_agency": "Department of Sanitation",
    "final_address": "2084 N Rocheblave St",
    "address_councildis": "D",
    "status": "Assigned to Contractor",
    "contractor": "IV Waste",
    "rowid": "985927",
    "final_x": "3683321.14684",
    "final_y": "540951.307083",
    "longitude": "-90.06198937776132",
    "latitude": "29.98137309731253",
    "geocoded_column": {
      "latitude": "29.98137309731253",
      "longitude": "-90.06198937776132"
    }
  },
  {
    "service_request": "2023-985925",
    "request_type": "Traffic Signals/Signs/Striping/Streetlights",
    "request_reason": "Request for Stop Sign",
    "date_created": "2023-03-26T13:51:37.000",
    "date_modified": "2023-03-26T13:51:37.000",
    "request_status": "Pending",
    "responsible_agency": "Department of Public Works",
    "final_address": "2736 Octavia St",
    "address_councildis": "A",
    "status": "Pending",
    "rowid": "985925",
    "final_x": "3667901.85767",
    "final_y": "525666.879741",
    "longitude": "-90.11120563047973",
    "latitude": "29.939807371131554",
    "geocoded_column": {
      "latitude": "29.939807371131554",
      "longitude": "-90.11120563047973"
    }
  },
  {
    "service_request": "2023-985924",
    "request_type": "Traffic Signals/Signs/Striping/Streetlights",
    "request_reason": "Traffic Sign Missing/Damaged",
    "date_created": "2023-03-26T13:47:54.000",
    "date_modified": "2023-03-26T13:47:54.000",
    "request_status": "Pending",
    "responsible_agency": "Department of Public Works",
    "final_address": "2700 Jefferson Ave",
    "address_councildis": "A",
    "status": "Pending",
    "rowid": "985924",
    "final_x": "3668118.67604",
    "final_y": "525364.217917",
    "longitude": "-90.11053129877212",
    "latitude": "29.93896878807976",
    "geocoded_column": {
      "latitude": "29.93896878807976",
      "longitude": "-90.11053129877212"
    }
  },
  {
    "service_request": "2023-985923",
    "request_type": "Traffic Signals/Signs/Striping/Streetlights",
    "request_reason": "Street Light Knocked Down/Leaning",
    "date_created": "2023-03-26T13:45:51.000",
    "date_modified": "2023-03-26T13:45:52.000",
    "request_status": "Pending",
    "responsible_agency": "Department of Public Works",
    "final_address": "2736 Octavia St",
    "address_councildis": "A",
    "status": "Pending",
    "contractor": "Legacy Professional Services",
    "rowid": "985923",
    "final_x": "3667901.85767",
    "final_y": "525666.879741",
    "longitude": "-90.11120563047973",
    "latitude": "29.939807371131554",
    "geocoded_column": {
      "latitude": "29.939807371131554",
      "longitude": "-90.11120563047973"
    }
  },
  {
    "service_request": "2023-985922",
    "request_type": "Roads/Drainage",
    "request_reason": "Catch Basin - Clogged",
    "date_created": "2023-03-26T13:34:49.000",
    "date_modified": "2023-03-26T13:34:49.000",
    "request_status": "Pending",
    "responsible_agency": "Department of Public Works",
    "final_address": "4804 Cleveland Ave",
    "address_councildis": "A",
    "status": "Pending",
    "rowid": "985922",
    "final_x": "3668474.60423",
    "final_y": "539725.749258",
    "longitude": "-90.108923087257",
    "latitude": "29.97844781603513",
    "geocoded_column": {
      "latitude": "29.97844781603513",
      "longitude": "-90.108923087257"
    }
  },
  {
    "service_request": "2023-985921",
    "request_type": "Trash/Recycling",
    "request_reason": "Request a Large Item Pick Up",
    "date_created": "2023-03-26T13:28:56.000",
    "date_modified": "2023-03-26T13:28:57.000",
    "request_status": "Pending",
    "responsible_agency": "Department of Sanitation",
    "final_address": "1560 Tropic Dr",
    "address_councildis": "C",
    "status": "Assigned to Contractor",
    "contractor": "Richards Disposal",
    "rowid": "985921",
    "final_x": "3699554.32061",
    "final_y": "525063.593085",
    "longitude": "-90.01129685337115",
    "latitude": "29.937182308370268",
    "geocoded_column": {
      "latitude": "29.937182308370268",
      "longitude": "-90.01129685337115"
    }
  },
  {
    "service_request": "2023-985920",
    "request_type": "Traffic Signals/Signs/Striping/Streetlights",
    "request_reason": "Street Light Outage/Malfunction",
    "date_created": "2023-03-26T13:07:55.000",
    "date_modified": "2023-03-26T13:07:56.000",
    "request_status": "Pending",
    "responsible_agency": "Department of Public Works",
    "final_address": "3800 Constance St, New Orleans, Louisiana, 70115",
    "address_councildis": "B",
    "status": "Assigned to Contractor",
    "contractor": "Legacy Professional Services",
    "rowid": "985920",
    "final_x": "3673454.06836",
    "final_y": "518649.879927",
    "longitude": "-90.09391610240654",
    "latitude": "29.920348888150073",
    "geocoded_column": {
      "latitude": "29.920348888150073",
      "longitude": "-90.09391610240654"
    }
  },
  {
    "service_request": "2023-985918",
    "request_type": "Traffic Signals/Signs/Striping/Streetlights",
    "request_reason": "Street Light Outage/Malfunction",
    "date_created": "2023-03-26T13:07:00.000",
    "date_modified": "2023-03-26T13:07:00.000",
    "request_status": "Pending",
    "responsible_agency": "Department of Public Works",
    "final_address": "4228 S Galvez St",
    "address_councildis": "B",
    "status": "Assigned to Contractor",
    "contractor": "Legacy Professional Services",
    "rowid": "985918",
    "final_x": "3670668.30388",
    "final_y": "527542.717887",
    "longitude": "-90.10240791972511",
    "latitude": "29.944883893557503",
    "geocoded_column": {
      "latitude": "29.944883893557503",
      "longitude": "-90.10240791972511"
    }
  },
  {
    "service_request": "2023-985917",
    "request_type": "Trash/Recycling",
    "request_reason": "Request a Large Item Pick Up",
    "date_created": "2023-03-26T12:57:11.000",
    "date_modified": "2023-03-26T12:57:12.000",
    "request_status": "Pending",
    "responsible_agency": "Department of Sanitation",
    "final_address": "3225 Gibson St",
    "address_councildis": "D",
    "status": "Assigned to Contractor",
    "contractor": "IV Waste",
    "rowid": "985917",
    "final_x": "3679080.13544",
    "final_y": "544289.255503",
    "longitude": "-90.07526868499589",
    "latitude": "29.99067999394342",
    "geocoded_column": {
      "latitude": "29.99067999394342",
      "longitude": "-90.07526868499589"
    }
  },
  {
    "service_request": "2023-985916",
    "request_type": "Trash/Recycling",
    "request_reason": "Request a Large Item Pick Up",
    "date_created": "2023-03-26T12:43:53.000",
    "date_modified": "2023-03-26T12:43:54.000",
    "request_status": "Pending",
    "responsible_agency": "Department of Sanitation",
    "final_address": "1768 N Broad St",
    "address_councildis": "D",
    "status": "Assigned to Contractor",
    "contractor": "IV Waste",
    "rowid": "985916",
    "final_x": "3679961.58427",
    "final_y": "541156.590796",
    "longitude": "-90.07259328168652",
    "latitude": "29.982039622548225",
    "geocoded_column": {
      "latitude": "29.982039622548225",
      "longitude": "-90.07259328168652"
    }
  },
  {
    "service_request": "2023-985915",
    "request_type": "Traffic Signals/Signs/Striping/Streetlights",
    "request_reason": "Request for Stop Sign",
    "date_created": "2023-03-26T12:42:00.000",
    "date_modified": "2023-03-26T12:42:01.000",
    "request_status": "Pending",
    "responsible_agency": "Department of Public Works",
    "final_address": "Cambronne Street & Edinburgh Street",
    "address_councildis": "A",
    "status": "Pending",
    "rowid": "985915",
    "final_x": "3666685.72781",
    "final_y": "535157.996742",
    "longitude": "-90.11472646357666",
    "latitude": "29.965940459196027",
    "geocoded_column": {
      "latitude": "29.965940459196027",
      "longitude": "-90.11472646357666"
    }
  },
  {
    "service_request": "2023-985914",
    "request_type": "Trash/Recycling",
    "request_reason": "Order Recycling Cart",
    "date_created": "2023-03-26T12:40:57.000",
    "date_modified": "2023-03-26T12:40:57.000",
    "request_status": "Pending",
    "responsible_agency": "Department of Sanitation",
    "final_address": "3216 St Ann St",
    "address_councildis": "A",
    "status": "Pending",
    "rowid": "985914",
    "final_x": "3675061.70952",
    "final_y": "538595.284681",
    "longitude": "-90.08815736924353",
    "latitude": "29.97514423860225",
    "geocoded_column": {
      "latitude": "29.97514423860225",
      "longitude": "-90.08815736924353"
    }
  },
  {
    "service_request": "2023-985913",
    "request_type": "Abandoned Vehicles",
    "request_reason": "Abandoned/Junk Vehicles",
    "date_created": "2023-03-26T12:37:13.000",
    "date_modified": "2023-03-26T12:37:13.000",
    "request_status": "Pending",
    "responsible_agency": "Department of Public Works",
    "final_address": "2301 Holiday Dr",
    "address_councildis": "C",
    "status": "Pending",
    "rowid": "985913",
    "final_x": "3698796.48458",
    "final_y": "522931.851963",
    "longitude": "-90.01376687700736",
    "latitude": "29.931344778137085",
    "geocoded_column": {
      "latitude": "29.931344778137085",
      "longitude": "-90.01376687700736"
    }
  },
  {
    "service_request": "2023-985912",
    "request_type": "Trash/Recycling",
    "request_reason": "MIssed Recycling Pick-Up",
    "date_created": "2023-03-26T12:37:05.000",
    "date_modified": "2023-03-26T12:37:06.000",
    "request_status": "Pending",
    "responsible_agency": "Department of Sanitation",
    "final_address": "2423 Burgundy St",
    "address_councildis": "C",
    "status": "Assigned to Contractor",
    "contractor": "IV Waste",
    "rowid": "985912",
    "final_x": "3686029.5821",
    "final_y": "535695.648135",
    "longitude": "-90.05362030576845",
    "latitude": "29.96683896808017",
    "geocoded_column": {
      "latitude": "29.96683896808017",
      "longitude": "-90.05362030576845"
    }
  },
  {
    "service_request": "2023-985910",
    "request_type": "Trash/Recycling",
    "request_reason": "Start Trash Service",
    "date_created": "2023-03-26T12:15:33.000",
    "date_modified": "2023-03-26T12:15:33.000",
    "request_status": "Pending",
    "responsible_agency": "Department of Sanitation",
    "final_address": "3701 Indiana St",
    "address_councildis": "C",
    "status": "Assigned to Contractor",
    "contractor": "Richards Disposal",
    "rowid": "985910",
    "final_x": "3693172.59139",
    "final_y": "519854.273016",
    "longitude": "-90.0316311046249",
    "latitude": "29.923059363581107",
    "geocoded_column": {
      "latitude": "29.923059363581107",
      "longitude": "-90.0316311046249"
    }
  },
  {
    "service_request": "2023-985909",
    "request_type": "Roads/Drainage",
    "request_reason": "Pothole",
    "date_created": "2023-03-26T12:13:17.000",
    "date_modified": "2023-03-26T12:13:18.000",
    "request_status": "Pending",
    "responsible_agency": "Department of Public Works",
    "final_address": "1720 Broadway St",
    "address_councildis": "A",
    "status": "Pending",
    "rowid": "985909",
    "final_x": "3665209.59687",
    "final_y": "528147.244671",
    "longitude": "-90.11962257251744",
    "latitude": "29.946706260593693",
    "geocoded_column": {
      "latitude": "29.946706260593693",
      "longitude": "-90.11962257251744"
    }
  },
  {
    "service_request": "2023-985908",
    "request_type": "Trash/Recycling",
    "request_reason": "Request a Large Item Pick Up",
    "date_created": "2023-03-26T11:44:05.000",
    "date_modified": "2023-03-26T11:44:06.000",
    "request_status": "Pending",
    "responsible_agency": "Department of Sanitation",
    "final_address": "4729 Bancroft Dr",
    "address_councildis": "D",
    "status": "Assigned to Contractor",
    "contractor": "IV Waste",
    "rowid": "985908",
    "final_x": "3676377.03259",
    "final_y": "549645.888084",
    "longitude": "-90.0836225868182",
    "latitude": "30.005490176822843",
    "geocoded_column": {
      "latitude": "30.005490176822843",
      "longitude": "-90.0836225868182"
    }
  },
  {
    "service_request": "2023-985907",
    "request_type": "Trash/Recycling",
    "request_reason": "Request a Large Item Pick Up",
    "date_created": "2023-03-26T11:34:35.000",
    "date_modified": "2023-03-26T11:34:35.000",
    "request_status": "Pending",
    "responsible_agency": "Department of Sanitation",
    "final_address": "123 S Clark St",
    "address_councildis": "B",
    "status": "Assigned to Contractor",
    "contractor": "Richards Disposal",
    "rowid": "985907",
    "final_x": "3672684.9666",
    "final_y": "536819.681928",
    "longitude": "-90.0957243296185",
    "latitude": "29.97033273587376",
    "geocoded_column": {
      "latitude": "29.97033273587376",
      "longitude": "-90.0957243296185"
    }
  },
  {
    "service_request": "2023-985906",
    "request_type": "Trash/Recycling",
    "request_reason": "Missed Trash Pick-Up",
    "date_created": "2023-03-26T11:28:39.000",
    "date_modified": "2023-03-26T11:28:39.000",
    "request_status": "Pending",
    "responsible_agency": "Department of Sanitation",
    "final_address": "300 Leslie Ln, New Orleans, Louisiana, 70124",
    "address_councildis": "A",
    "status": "Assigned to Contractor",
    "contractor": "IV Waste",
    "rowid": "985906",
    "final_x": "3665045.83239",
    "final_y": "547316.106001",
    "longitude": "-90.11949849271788",
    "latitude": "29.99941902330447",
    "geocoded_column": {
      "latitude": "29.99941902330447",
      "longitude": "-90.11949849271788"
    }
  },
  {
    "service_request": "2023-985905",
    "request_type": "Trash/Recycling",
    "request_reason": "Request a Large Item Pick Up",
    "date_created": "2023-03-26T11:19:25.000",
    "date_modified": "2023-03-26T11:19:25.000",
    "request_status": "Pending",
    "responsible_agency": "Department of Sanitation",
    "final_address": "44 Vivian Ct",
    "address_councildis": "C",
    "status": "Assigned to Contractor",
    "contractor": "Richards Disposal",
    "rowid": "985905",
    "final_x": "3702013.69809",
    "final_y": "521036.514553",
    "longitude": "-90.0036800367231",
    "latitude": "29.926030990470117",
    "geocoded_column": {
      "latitude": "29.926030990470117",
      "longitude": "-90.0036800367231"
    }
  },
  {
    "service_request": "2023-985904",
    "request_type": "Trash/Recycling",
    "request_reason": "Replace Trash Cart",
    "date_created": "2023-03-26T11:16:37.000",
    "date_modified": "2023-03-26T11:16:38.000",
    "request_status": "Pending",
    "responsible_agency": "Department of Sanitation",
    "final_address": "6909 West End Blvd",
    "address_councildis": "A",
    "status": "Assigned to Contractor",
    "contractor": "IV Waste",
    "rowid": "985904",
    "final_x": "3666896.1465",
    "final_y": "553760.081815",
    "longitude": "-90.11343654896062",
    "latitude": "30.017083685355676",
    "geocoded_column": {
      "latitude": "30.017083685355676",
      "longitude": "-90.11343654896062"
    }
  },
  {
    "service_request": "2023-985903",
    "request_type": "Abandoned Vehicles",
    "request_reason": "Abandoned/Junk Vehicles",
    "date_created": "2023-03-26T11:16:21.000",
    "date_modified": "2023-03-26T11:16:22.000",
    "request_status": "Pending",
    "responsible_agency": "Department of Public Works",
    "final_address": "AUSTERLITZ ST & TCHOUPITOULAS ST",
    "address_councildis": "B",
    "status": "Pending",
    "rowid": "985903",
    "final_x": "3673000.7",
    "final_y": "517650.48",
    "longitude": "-90.09538125739562",
    "latitude": "29.917614333229782",
    "geocoded_column": {
      "latitude": "29.917614333229782",
      "longitude": "-90.09538125739562"
    }
  },
  {
    "service_request": "2023-985902",
    "request_type": "Trash/Recycling",
    "request_reason": "Replace Recycling Cart",
    "date_created": "2023-03-26T10:47:16.000",
    "date_modified": "2023-03-26T10:47:16.000",
    "request_status": "Pending",
    "responsible_agency": "Department of Sanitation",
    "final_address": "1909 N Lopez St",
    "address_councildis": "A",
    "status": "Pending",
    "rowid": "985902",
    "final_x": "3676981.16411",
    "final_y": "543033.311053",
    "longitude": "-90.08194214931677",
    "latitude": "29.987289784521888",
    "geocoded_column": {
      "latitude": "29.987289784521888",
      "longitude": "-90.08194214931677"
    }
  },
  {
    "service_request": "2023-985901",
    "request_type": "Trash/Recycling",
    "request_reason": "Missed Trash Pick-Up",
    "date_created": "2023-03-26T10:45:07.000",
    "date_modified": "2023-03-26T10:45:08.000",
    "request_status": "Pending",
    "responsible_agency": "Department of Sanitation",
    "final_address": "1909 N Lopez St",
    "address_councildis": "A",
    "status": "Assigned to Contractor",
    "contractor": "IV Waste",
    "rowid": "985901",
    "final_x": "3676981.16411",
    "final_y": "543033.311053",
    "longitude": "-90.08194214931677",
    "latitude": "29.987289784521888",
    "geocoded_column": {
      "latitude": "29.987289784521888",
      "longitude": "-90.08194214931677"
    }
  },
  {
    "service_request": "2023-985900",
    "request_type": "Trash/Recycling",
    "request_reason": "Request a Large Item Pick Up",
    "date_created": "2023-03-26T10:40:14.000",
    "date_modified": "2023-03-26T10:40:15.000",
    "request_status": "Pending",
    "responsible_agency": "Department of Sanitation",
    "final_address": "1327 St Roch Ave",
    "address_councildis": "C",
    "status": "Assigned to Contractor",
    "contractor": "IV Waste",
    "rowid": "985900",
    "final_x": "3686493.45878",
    "final_y": "537377.515784",
    "longitude": "-90.05209599761855",
    "latitude": "29.971449264444406",
    "geocoded_column": {
      "latitude": "29.971449264444406",
      "longitude": "-90.05209599761855"
    }
  },
  {
    "service_request": "2023-985898",
    "request_type": "Roads/Drainage",
    "request_reason": "Man hole cover issue",
    "date_created": "2023-03-26T09:52:27.000",
    "date_modified": "2023-03-26T09:52:27.000",
    "request_status": "Pending",
    "responsible_agency": "Department of Public Works",
    "final_address": "9135 Edinburgh St",
    "address_councildis": "A",
    "status": "Pending",
    "rowid": "985898",
    "final_x": "3664688.4754",
    "final_y": "537023.624136",
    "longitude": "-90.12097141838045",
    "latitude": "29.971128572243327",
    "geocoded_column": {
      "latitude": "29.971128572243327",
      "longitude": "-90.12097141838045"
    }
  },
  {
    "service_request": "2023-985897",
    "request_type": "Trash/Recycling",
    "request_reason": "Request a Large Item Pick Up",
    "date_created": "2023-03-26T09:35:48.000",
    "date_modified": "2023-03-26T09:35:49.000",
    "request_status": "Pending",
    "responsible_agency": "Department of Sanitation",
    "final_address": "1408 Tennessee St",
    "address_councildis": "E",
    "status": "Assigned to Contractor",
    "contractor": "Waste Pro",
    "rowid": "985897",
    "final_x": "3695927.76656",
    "final_y": "535543.357702",
    "longitude": "-90.02236751405016",
    "latitude": "29.96611254717628",
    "geocoded_column": {
      "latitude": "29.96611254717628",
      "longitude": "-90.02236751405016"
    }
  },
  {
    "service_request": "2023-985896",
    "request_type": "Trash/Recycling",
    "request_reason": "Request a Large Item Pick Up",
    "date_created": "2023-03-26T09:32:51.000",
    "date_modified": "2023-03-26T09:32:52.000",
    "request_status": "Pending",
    "responsible_agency": "Department of Sanitation",
    "final_address": "4929 Papania Dr",
    "address_councildis": "E",
    "status": "Assigned to Contractor",
    "contractor": "Waste Pro",
    "rowid": "985896",
    "final_x": "3715585.55122",
    "final_y": "557672.046619",
    "longitude": "-89.95945152946472",
    "latitude": "30.02632486297655",
    "geocoded_column": {
      "latitude": "30.02632486297655",
      "longitude": "-89.95945152946472"
    }
  },
  {
    "service_request": "2023-985895",
    "request_type": "Abandoned Vehicles",
    "request_reason": "Vehicle Blocking Your Driveway",
    "date_created": "2023-03-26T09:25:57.000",
    "date_modified": "2023-03-26T09:25:57.000",
    "request_status": "Pending",
    "responsible_agency": "Department of Public Works",
    "final_address": "4518-4522 Palmyra St NOLA 70119",
    "status": "Pending",
    "rowid": "985895",
    "longitude": "0.0",
    "latitude": "0.0",
    "geocoded_column": {
      "latitude": "0.0",
      "longitude": "0.0"
    }
  },
  {
    "service_request": "2023-985894",
    "request_type": "Trash/Recycling",
    "request_reason": "Request a Large Item Pick Up",
    "date_created": "2023-03-26T09:24:10.000",
    "date_modified": "2023-03-26T09:24:10.000",
    "request_status": "Pending",
    "responsible_agency": "Department of Sanitation",
    "final_address": "1927 Delachaise St",
    "address_councildis": "B",
    "status": "Assigned to Contractor",
    "contractor": "Richards Disposal",
    "rowid": "985894",
    "final_x": "3673333.65902",
    "final_y": "522632.897082",
    "longitude": "-90.09416021267566",
    "latitude": "29.931304486184064",
    "geocoded_column": {
      "latitude": "29.931304486184064",
      "longitude": "-90.09416021267566"
    }
  },
  {
    "service_request": "2023-985893",
    "request_type": "Trash/Recycling",
    "request_reason": "Replace Trash Cart",
    "date_created": "2023-03-26T09:20:49.000",
    "date_modified": "2023-03-26T09:20:50.000",
    "request_status": "Pending",
    "responsible_agency": "Department of Sanitation",
    "final_address": "1706 S Rampart St",
    "address_councildis": "B",
    "status": "Assigned to Contractor",
    "contractor": "Richards Disposal",
    "rowid": "985893",
    "final_x": "3677420.85685",
    "final_y": "525843.496829",
    "longitude": "-90.08114667319602",
    "latitude": "29.940010410237925",
    "geocoded_column": {
      "latitude": "29.940010410237925",
      "longitude": "-90.08114667319602"
    }
  },
  {
    "service_request": "2023-985892",
    "request_type": "Abandoned Vehicles",
    "request_reason": "Abandoned/Junk Vehicles",
    "date_created": "2023-03-26T09:10:31.000",
    "date_modified": "2023-03-26T09:10:31.000",
    "request_status": "Pending",
    "responsible_agency": "Department of Public Works",
    "final_address": "2001 Josephine St",
    "address_councildis": "B",
    "status": "Pending",
    "rowid": "985892",
    "final_x": "3676951.02389",
    "final_y": "525250.177789",
    "longitude": "-90.08265045325956",
    "latitude": "29.938393087676445",
    "geocoded_column": {
      "latitude": "29.938393087676445",
      "longitude": "-90.08265045325956"
    }
  },
  {
    "service_request": "2023-985891",
    "request_type": "Health Related Request",
    "request_reason": "Noise Ordinance Complaint",
    "date_created": "2023-03-26T09:04:09.000",
    "date_modified": "2023-03-26T09:04:09.000",
    "request_status": "Pending",
    "responsible_agency": "Health Department",
    "final_address": "218 S Robertson St",
    "address_councildis": "B",
    "status": "Pending",
    "rowid": "985891",
    "final_x": "3678366.0452",
    "final_y": "532056.137795",
    "longitude": "-90.07794767698763",
    "latitude": "29.957064663440146",
    "geocoded_column": {
      "latitude": "29.957064663440146",
      "longitude": "-90.07794767698763"
    }
  },
  {
    "service_request": "2023-985890",
    "request_type": "Property Maintenance",
    "request_reason": "Property Maintenance",
    "date_created": "2023-03-26T09:04:08.000",
    "date_modified": "2023-03-26T09:04:08.000",
    "request_status": "Pending",
    "responsible_agency": "Department of Code Enforcement",
    "final_address": "5431 Camp St",
    "address_councildis": "A",
    "status": "Pending",
    "rowid": "985890",
    "final_x": "3666573.57703",
    "final_y": "519264.090999",
    "longitude": "-90.11561404514923",
    "latitude": "29.922240624553666",
    "geocoded_column": {
      "latitude": "29.922240624553666",
      "longitude": "-90.11561404514923"
    }
  },
  {
    "service_request": "2023-985889",
    "request_type": "Roads/Drainage",
    "request_reason": "Man hole cover issue",
    "date_created": "2023-03-26T08:50:56.000",
    "date_modified": "2023-03-26T08:50:56.000",
    "request_status": "Pending",
    "responsible_agency": "Department of Public Works",
    "final_address": "1134 Webster St",
    "address_councildis": "A",
    "status": "Pending",
    "rowid": "985889",
    "final_x": "3664512.91776",
    "final_y": "520628.181049",
    "longitude": "-90.12207320874327",
    "latitude": "29.92605149950131",
    "geocoded_column": {
      "latitude": "29.92605149950131",
      "longitude": "-90.12207320874327"
    }
  },
  {
    "service_request": "2023-985888",
    "request_type": "Trash/Recycling",
    "request_reason": "Request a Large Item Pick Up",
    "date_created": "2023-03-26T08:35:20.000",
    "date_modified": "2023-03-26T08:35:21.000",
    "request_status": "Pending",
    "responsible_agency": "Department of Sanitation",
    "final_address": "2003 Mazant St, New Orleans, Louisiana, 70117",
    "address_councildis": "D",
    "status": "Assigned to Contractor",
    "contractor": "IV Waste",
    "rowid": "985888",
    "final_x": "3693014.16105",
    "final_y": "538652.183049",
    "longitude": "-90.03145702572947",
    "latitude": "29.974752051737514",
    "geocoded_column": {
      "latitude": "29.974752051737514",
      "longitude": "-90.03145702572947"
    }
  },
  {
    "service_request": "2023-985887",
    "request_type": "Roads/Drainage",
    "request_reason": "Street Flooding / Drainage",
    "date_created": "2023-03-26T08:33:26.000",
    "date_modified": "2023-03-26T08:33:26.000",
    "request_status": "Pending",
    "responsible_agency": "Department of Public Works",
    "final_address": "8610 Palm St",
    "address_councildis": "A",
    "status": "Pending",
    "rowid": "985887",
    "final_x": "3666302.57485",
    "final_y": "535930.795783",
    "longitude": "-90.1159105245362",
    "latitude": "29.968076599605094",
    "geocoded_column": {
      "latitude": "29.968076599605094",
      "longitude": "-90.1159105245362"
    }
  },
  {
    "service_request": "2023-985886",
    "request_type": "Trash/Recycling",
    "request_reason": "MIssed Recycling Pick-Up",
    "date_created": "2023-03-26T08:09:37.000",
    "date_modified": "2023-03-26T08:09:37.000",
    "request_status": "Pending",
    "responsible_agency": "Department of Sanitation",
    "final_address": "7937 Olive St",
    "address_councildis": "B",
    "status": "Assigned to Contractor",
    "contractor": "Richards Disposal",
    "rowid": "985886",
    "final_x": "3667652.89652",
    "final_y": "533851.895365",
    "longitude": "-90.11171613690854",
    "latitude": "29.96232079461137",
    "geocoded_column": {
      "latitude": "29.96232079461137",
      "longitude": "-90.11171613690854"
    }
  },
  {
    "service_request": "2023-985885",
    "request_type": "Traffic Signals/Signs/Striping/Streetlights",
    "request_reason": "Street Light Knocked Down/Leaning",
    "date_created": "2023-03-26T08:07:26.000",
    "date_modified": "2023-03-26T08:07:27.000",
    "request_status": "Pending",
    "responsible_agency": "Department of Public Works",
    "final_address": "1033 Dauphine St",
    "address_councildis": "C",
    "status": "Pending",
    "contractor": "Legacy Professional Services",
    "rowid": "985885",
    "final_x": "3682789.1357",
    "final_y": "534010.210373",
    "longitude": "-90.06391258729992",
    "latitude": "29.96230370679873",
    "geocoded_column": {
      "latitude": "29.96230370679873",
      "longitude": "-90.06391258729992"
    }
  },
  {
    "service_request": "2023-985884",
    "request_type": "Roads/Drainage",
    "request_reason": "Street Flooding / Drainage",
    "date_created": "2023-03-26T07:44:46.000",
    "date_modified": "2023-03-26T07:44:46.000",
    "request_status": "Pending",
    "responsible_agency": "Department of Public Works",
    "final_address": "1414 Eagle St",
    "address_councildis": "A",
    "status": "Pending",
    "rowid": "985884",
    "final_x": "3660673.52851",
    "final_y": "530703.930434",
    "longitude": "-90.13386015754656",
    "latitude": "29.953867663170822",
    "geocoded_column": {
      "latitude": "29.953867663170822",
      "longitude": "-90.13386015754656"
    }
  },
  {
    "service_request": "2023-985883",
    "request_type": "Trash/Recycling",
    "request_reason": "Dead Animal Pick Up",
    "date_created": "2023-03-26T07:25:26.000",
    "date_modified": "2023-03-26T07:25:26.000",
    "request_status": "Pending",
    "responsible_agency": "Department of Sanitation",
    "final_address": "1333 Elysian Fields Ave",
    "address_councildis": "C",
    "status": "Assigned to Contractor",
    "contractor": "IV Waste",
    "rowid": "985883",
    "final_x": "3685058.5645",
    "final_y": "537309.30676",
    "longitude": "-90.05662999355737",
    "latitude": "29.97130575211545",
    "geocoded_column": {
      "latitude": "29.97130575211545",
      "longitude": "-90.05662999355737"
    }
  },