[
  {
    "service_request": "2023-1002708",
    "request_type": "Mosquito, Termite & Rodent Control",
    "request_reason": "Non-Rodent Complaint (Mice, Possums, Snakes)",
    "date_created": "2023-05-25T02:05:33.000",
    "date_modified": "2023-05-25T02:05:33.000",
    "request_status": "Pending",
    "responsible_agency": "Mosquito, Termite & Rodent Control Board",
    "final_address": "2830 Magazine St",
    "address_councildis": "B",
    "status": "Pending",
    "rowid": "1002708",
    "final_x": "3676927.87227",
    "final_y": "520662.437625",
    "longitude": "-90.08288160813291",
    "latitude": "29.92577899514352",
    "geocoded_column": {
      "latitude": "29.92577899514352",
      "longitude": "-90.08288160813291"
    }
  },
  {
    "service_request": "2023-1002707",
    "request_type": "Trash/Recycling",
    "request_reason": "Replace Trash Cart",
    "date_created": "2023-05-25T01:44:02.000",
    "date_modified": "2023-05-25T01:44:02.000",
    "request_status": "Pending",
    "responsible_agency": "Department of Sanitation",
    "final_address": "2110 Duels St",
    "address_councildis": "D",
    "status": "Assigned to Contractor",
    "contractor": "IV Waste",
    "rowid": "1002707",
    "final_x": "3683859.21788",
    "final_y": "542470.412813",
    "longitude": "-90.06023659594136",
    "latitude": "29.985533676638685",
    "geocoded_column": {
      "latitude": "29.985533676638685",
      "longitude": "-90.06023659594136"
    }
  },
  {
    "service_request": "2023-1002706",
    "request_type": "Trash/Recycling",
    "request_reason": "Repair Recycling Cart",
    "date_created": "2023-05-25T01:42:48.000",
    "date_modified": "2023-05-25T01:42:48.000",
    "request_status": "Pending",
    "responsible_agency": "Department of Sanitation",
    "final_address": "2110 Duels St",
    "address_councildis": "D",
    "status": "Pending",
    "rowid": "1002706",
    "final_x": "3683859.21788",
    "final_y": "542470.412813",
    "longitude": "-90.06023659594136",
    "latitude": "29.985533676638685",
    "geocoded_column": {
      "latitude": "29.985533676638685",
      "longitude": "-90.06023659594136"
    }
  },
  {
    "service_request": "2023-1002705",
    "request_type": "Abandoned Vehicles",
    "request_reason": "Abandoned/Junk Vehicles",
    "date_created": "2023-05-25T01:16:31.000",
    "date_modified": "2023-05-25T01:16:32.000",
    "request_status": "Pending",
    "responsible_agency": "Department of Public Works",
    "final_address": "2238 Esplanade Ave",
    "address_councildis": "D",
    "status": "Pending",
    "rowid": "1002705",
    "final_x": "3679297.44437",
    "final_y": "537994.189321",
    "longitude": "-90.07480066153367",
    "latitude": "29.973364188583712",
    "geocoded_column": {
      "latitude": "29.973364188583712",
      "longitude": "-90.07480066153367"
    }
  },
  {
    "service_request": "2023-1002704",
    "request_type": "Property Maintenance",
    "request_reason": "Property Maintenance",
    "date_created": "2023-05-25T00:32:09.000",
    "date_modified": "2023-05-25T00:32:09.000",
    "request_status": "Pending",
    "responsible_agency": "Department of Code Enforcement",
    "final_address": "1511 St Ann St, New Orleans, LA 70116",
    "address_councildis": "C",
    "status": "Pending",
    "rowid": "1002704",
    "final_x": "3680461.75637",
    "final_y": "534562.861637",
    "longitude": "-90.07124288922185",
    "latitude": "29.963894000940588",
    "geocoded_column": {
      "latitude": "29.963894000940588",
      "longitude": "-90.07124288922185"
    }
  },
  {
    "service_request": "2023-1002703",
    "request_type": "Trash/Recycling",
    "request_reason": "Request a Large Item Pick Up",
    "date_created": "2023-05-25T00:18:44.000",
    "date_modified": "2023-05-25T00:18:44.000",
    "request_status": "Pending",
    "responsible_agency": "Department of Sanitation",
    "final_address": "2015 Chartres St",
    "address_councildis": "C",
    "status": "Assigned to Contractor",
    "contractor": "IV Waste",
    "rowid": "1002703",
    "final_x": "3684650.51797",
    "final_y": "534499.563013",
    "longitude": "-90.05801742196488",
    "latitude": "29.963592424983997",
    "geocoded_column": {
      "latitude": "29.963592424983997",
      "longitude": "-90.05801742196488"
    }
  },
  {
    "service_request": "2023-1002702",
    "request_type": "Trash/Recycling",
    "request_reason": "Request a Large Item Pick Up",
    "date_created": "2023-05-24T23:51:34.000",
    "date_modified": "2023-05-24T23:51:35.000",
    "request_status": "Pending",
    "responsible_agency": "Department of Sanitation",
    "final_address": "2037 Second St",
    "address_councildis": "B",
    "status": "Assigned to Contractor",
    "contractor": "Richards Disposal",
    "rowid": "1002702",
    "final_x": "3675767.90203",
    "final_y": "524506.863996",
    "longitude": "-90.08641122714027",
    "latitude": "29.936384673739695",
    "geocoded_column": {
      "latitude": "29.936384673739695",
      "longitude": "-90.08641122714027"
    }
  },
  {
    "service_request": "2023-1002701",
    "request_type": "Health Related Request",
    "request_reason": "Noise Ordinance Complaint",
    "date_created": "2023-05-24T23:01:28.000",
    "date_modified": "2023-05-24T23:01:28.000",
    "request_status": "Pending",
    "responsible_agency": "Health Department",
    "final_address": "7626 Berg Rd",
    "address_councildis": "E",
    "status": "Pending",
    "rowid": "1002701",
    "final_x": "3711988.01899",
    "final_y": "566616.077475",
    "longitude": "-89.97048304600379",
    "latitude": "30.051035480585004",
    "geocoded_column": {
      "latitude": "30.051035480585004",
      "longitude": "-89.97048304600379"
    }
  },
  {
    "service_request": "2023-1002700",
    "request_type": "Property Maintenance",
    "request_reason": "Property Maintenance",
    "date_created": "2023-05-24T22:51:11.000",
    "date_modified": "2023-05-24T22:51:11.000",
    "request_status": "Pending",
    "responsible_agency": "Department of Code Enforcement",
    "final_address": "4421 America St",
    "address_councildis": "E",
    "status": "Pending",
    "rowid": "1002700",
    "final_x": "3699930.04573",
    "final_y": "553297.220887",
    "longitude": "-90.00908053621995",
    "latitude": "30.014802607894083",
    "geocoded_column": {
      "latitude": "30.014802607894083",
      "longitude": "-90.00908053621995"
    }
  },
  {
    "service_request": "2023-1002698",
    "request_type": "Traffic Signals/Signs/Striping/Streetlights",
    "request_reason": "Request for Stop Sign",
    "date_created": "2023-05-24T21:50:53.000",
    "date_modified": "2023-05-24T21:50:53.000",
    "request_status": "Pending",
    "responsible_agency": "Department of Public Works",
    "final_address": "BURDETTE ST & OAK ST",
    "address_councildis": "A",
    "status": "Pending",
    "rowid": "1002698",
    "final_x": "3662801.1",
    "final_y": "527619.48",
    "longitude": "-90.12724464518514",
    "latitude": "29.945325005387996",
    "geocoded_column": {
      "latitude": "29.945325005387996",
      "longitude": "-90.12724464518514"
    }
  },
  {
    "service_request": "2023-1002697",
    "request_type": "Traffic Signals/Signs/Striping/Streetlights",
    "request_reason": "Traffic Sign Missing/Damaged",
    "date_created": "2023-05-24T21:30:09.000",
    "date_modified": "2023-05-24T21:30:09.000",
    "request_status": "Pending",
    "responsible_agency": "Department of Public Works",
    "final_address": "JUMONVILLE ST & SERE ST",
    "address_councildis": "D",
    "status": "Pending",
    "rowid": "1002697",
    "final_x": "3678169.0",
    "final_y": "545393.48",
    "longitude": "-90.07810852878113",
    "latitude": "29.993743699054274",
    "geocoded_column": {
      "latitude": "29.993743699054274",
      "longitude": "-90.07810852878113"
    }
  },
  {
    "service_request": "2023-1002696",
    "request_type": "Trash/Recycling",
    "request_reason": "Replace Trash Cart",
    "date_created": "2023-05-24T21:22:28.000",
    "date_modified": "2023-05-24T21:22:28.000",
    "request_status": "Pending",
    "responsible_agency": "Department of Sanitation",
    "final_address": "133 N Rendon St",
    "address_councildis": "B",
    "status": "Assigned to Contractor",
    "contractor": "Richards Disposal",
    "rowid": "1002696",
    "final_x": "3673721.94772",
    "final_y": "536777.355784",
    "longitude": "-90.0924508719436",
    "latitude": "29.970185515515027",
    "geocoded_column": {
      "latitude": "29.970185515515027",
      "longitude": "-90.0924508719436"
    }
  },
  {
    "service_request": "2023-1002695",
    "request_type": "Abandoned Vehicles",
    "request_reason": "Abandoned/Junk Vehicles",
    "date_created": "2023-05-24T21:13:05.000",
    "date_modified": "2023-05-24T21:13:05.000",
    "request_status": "Pending",
    "responsible_agency": "Department of Public Works",
    "final_address": "4121 Palmyra St",
    "address_councildis": "A",
    "status": "Pending",
    "rowid": "1002695",
    "final_x": "3670435.63745",
    "final_y": "537930.239817",
    "longitude": "-90.1027903105523",
    "latitude": "29.973453007070383",
    "geocoded_column": {
      "latitude": "29.973453007070383",
      "longitude": "-90.1027903105523"
    }
  },
  {
    "service_request": "2023-1002694",
    "request_type": "Trash/Recycling",
    "request_reason": "Request a Large Item Pick Up",
    "date_created": "2023-05-24T21:07:03.000",
    "date_modified": "2023-05-24T21:07:03.000",
    "request_status": "Pending",
    "responsible_agency": "Department of Sanitation",
    "final_address": "5460 Canal Blvd",
    "address_councildis": "A",
    "status": "Assigned to Contractor",
    "contractor": "IV Waste",
    "rowid": "1002694",
    "final_x": "3668019.65908",
    "final_y": "543597.389582",
    "longitude": "-90.11022944942192",
    "latitude": "29.989106873147595",
    "geocoded_column": {
      "latitude": "29.989106873147595",
      "longitude": "-90.11022944942192"
    }
  },
  {
    "service_request": "2023-1002693",
    "request_type": "Traffic Signals/Signs/Striping/Streetlights",
    "request_reason": "Street Light Outage/Malfunction",
    "date_created": "2023-05-24T21:03:33.000",
    "date_modified": "2023-05-24T21:03:34.000",
    "request_status": "Pending",
    "responsible_agency": "Department of Public Works",
    "final_address": "TANNER S DAVIS DR & BULLARD AVE",
    "address_councildis": "E",
    "status": "Assigned to Contractor",
    "contractor": "Legacy Professional Services",
    "rowid": "1002693",
    "final_x": "3717933.11",
    "final_y": "560942.48",
    "longitude": "-89.95190902230028",
    "latitude": "30.035239635043638",
    "geocoded_column": {
      "latitude": "30.035239635043638",
      "longitude": "-89.95190902230028"
    }
  },
  {
    "service_request": "2023-1002692",
    "request_type": "Abandoned Vehicles",
    "request_reason": "Abandoned/Junk Vehicles",
    "date_created": "2023-05-24T20:53:56.000",
    "date_modified": "2023-05-24T20:53:56.000",
    "request_status": "Pending",
    "responsible_agency": "Department of Public Works",
    "final_address": "6400 BLK N Robertson St",
    "address_councildis": "E",
    "status": "Pending",
    "rowid": "1002692",
    "final_x": "3701141.48285",
    "final_y": "534273.631044",
    "longitude": "-90.00594928652094",
    "latitude": "29.962456206710225",
    "geocoded_column": {
      "latitude": "29.962456206710225",
      "longitude": "-90.00594928652094"
    }
  },
  {
    "service_request": "2023-1002691",
    "request_type": "Mosquito, Termite & Rodent Control",
    "request_reason": "Rodent Complaint (Rats)",
    "date_created": "2023-05-24T20:38:32.000",
    "date_modified": "2023-05-24T20:38:32.000",
    "request_status": "Pending",
    "responsible_agency": "Mosquito, Termite & Rodent Control Board",
    "final_address": "1814 Washington Ave",
    "address_councildis": "B",
    "status": "Pending",
    "rowid": "1002691",
    "final_x": "3675404.3931",
    "final_y": "523235.465211",
    "longitude": "-90.08760247665103",
    "latitude": "29.932899613871246",
    "geocoded_column": {
      "latitude": "29.932899613871246",
      "longitude": "-90.08760247665103"
    }
  },
  {
    "service_request": "2023-1002690",
    "request_type": "Trash/Recycling",
    "request_reason": "MIssed Recycling Pick-Up",
    "date_created": "2023-05-24T20:32:22.000",
    "date_modified": "2023-05-24T20:32:23.000",
    "request_status": "Pending",
    "responsible_agency": "Department of Sanitation",
    "final_address": "1112 Ninth St Apt B",
    "address_councildis": "B",
    "status": "Assigned to Contractor",
    "contractor": "Richards Disposal",
    "rowid": "1002690",
    "final_x": "3675763.01877",
    "final_y": "520133.399928",
    "longitude": "-90.0865768758394",
    "latitude": "29.9243592148701",
    "geocoded_column": {
      "latitude": "29.9243592148701",
      "longitude": "-90.0865768758394"
    }
  },
  {
    "service_request": "2023-1002689",
    "request_type": "Trash/Recycling",
    "request_reason": "Illegal Dumping",
    "date_created": "2023-05-24T20:16:35.000",
    "date_modified": "2023-05-24T20:16:35.000",
    "request_status": "Pending",
    "responsible_agency": "Department of Sanitation",
    "final_address": "8500 BLK Pear St",
    "address_councildis": "A",
    "status": "Pending",
    "rowid": "1002689",
    "final_x": "3667869.11567",
    "final_y": "537392.702561",
    "longitude": "-90.11091405924745",
    "latitude": "29.972050497168844",
    "geocoded_column": {
      "latitude": "29.972050497168844",
      "longitude": "-90.11091405924745"
    }
  },
  {
    "service_request": "2023-1002688",
    "request_type": "Mosquito, Termite & Rodent Control",
    "request_reason": "Rodent Complaint (Rats)",
    "date_created": "2023-05-24T20:02:02.000",
    "date_modified": "2023-05-24T20:02:41.000",
    "request_status": "Pending",
    "responsible_agency": "Mosquito, Termite & Rodent Control Board",
    "final_address": "1815 Washington Ave",
    "address_councildis": "B",
    "status": "Pending",
    "rowid": "1002688",
    "final_x": "3675470.21646",
    "final_y": "523284.656379",
    "longitude": "-90.08739298840838",
    "latitude": "29.93303290569002",
    "geocoded_column": {
      "latitude": "29.93303290569002",
      "longitude": "-90.08739298840838"
    }
  },
  {
    "service_request": "2023-1002687",
    "request_type": "Trash/Recycling",
    "request_reason": "Request a Large Item Pick Up",
    "date_created": "2023-05-24T19:59:41.000",
    "date_modified": "2023-05-24T19:59:42.000",
    "request_status": "Pending",
    "responsible_agency": "Department of Sanitation",
    "final_address": "5460 Canal Blvd",
    "address_councildis": "A",
    "status": "Assigned to Contractor",
    "contractor": "IV Waste",
    "rowid": "1002687",
    "final_x": "3668019.65908",
    "final_y": "543597.389582",
    "longitude": "-90.11022944942192",
    "latitude": "29.989106873147595",
    "geocoded_column": {
      "latitude": "29.989106873147595",
      "longitude": "-90.11022944942192"
    }
  },
  {
    "service_request": "2023-1002686",
    "request_type": "Trash/Recycling",
    "request_reason": "Request a Large Item Pick Up",
    "date_created": "2023-05-24T19:52:42.000",
    "date_modified": "2023-05-24T19:52:44.000",
    "request_status": "Pending",
    "responsible_agency": "Department of Sanitation",
    "final_address": "80 Oriole St",
    "address_councildis": "D",
    "status": "Assigned to Contractor",
    "contractor": "IV Waste",
    "rowid": "1002686",
    "final_x": "3675159.42843",
    "final_y": "556967.23913",
    "longitude": "-90.08721773468932",
    "latitude": "30.025657726911426",
    "geocoded_column": {
      "latitude": "30.025657726911426",
      "longitude": "-90.08721773468932"
    }
  },
  {
    "service_request": "2023-1002685",
    "request_type": "Abandoned Vehicles",
    "request_reason": "Abandoned/Junk Vehicles",
    "date_created": "2023-05-24T19:49:54.000",
    "date_modified": "2023-05-24T19:50:41.000",
    "request_status": "Pending",
    "responsible_agency": "Department of Public Works",
    "final_address": "QUINCE ST & HOLLYGROVE ST",
    "address_councildis": "A",
    "status": "Pending",
    "rowid": "1002685",
    "final_x": "3667256.4",
    "final_y": "538902.88",
    "longitude": "-90.1127983195959",
    "latitude": "29.976220939051526",
    "geocoded_column": {
      "latitude": "29.976220939051526",
      "longitude": "-90.1127983195959"
    }
  },
  {
    "service_request": "2023-1002684",
    "request_type": "Abandoned Vehicles",
    "request_reason": "Abandoned/Junk Vehicles",
    "date_created": "2023-05-24T19:45:41.000",
    "date_modified": "2023-05-24T19:45:42.000",
    "request_status": "Pending",
    "responsible_agency": "Department of Public Works",
    "final_address": "5327 St Anthony Ave",
    "address_councildis": "D",
    "status": "Pending",
    "rowid": "1002684",
    "final_x": "3682324.5958",
    "final_y": "552558.046806",
    "longitude": "-90.0647310704271",
    "latitude": "30.01331785804339",
    "geocoded_column": {
      "latitude": "30.01331785804339",
      "longitude": "-90.0647310704271"
    }
  },
  {
    "service_request": "2023-1002683",
    "request_type": "Trash/Recycling",
    "request_reason": "Replace Trash Cart",
    "date_created": "2023-05-24T19:45:06.000",
    "date_modified": "2023-05-24T19:45:07.000",
    "request_status": "Pending",
    "responsible_agency": "Department of Sanitation",
    "final_address": "5750 Brunswick Ct",
    "address_councildis": "C",
    "status": "Assigned to Contractor",
    "contractor": "Richards Disposal",
    "rowid": "1002683",
    "final_x": "3704885.78769",
    "final_y": "517222.641205",
    "longitude": "-89.99475440476787",
    "latitude": "29.915452205871404",
    "geocoded_column": {
      "latitude": "29.915452205871404",
      "longitude": "-89.99475440476787"
    }
  },
  {
    "service_request": "2023-1002682",
    "request_type": "Property Maintenance",
    "request_reason": "Property Maintenance",
    "date_created": "2023-05-24T19:42:57.000",
    "date_modified": "2023-05-24T19:42:57.000",
    "request_status": "Pending",
    "responsible_agency": "Department of Code Enforcement",
    "final_address": "3618 Cadillac St",
    "address_councildis": "D",
    "status": "Pending",
    "rowid": "1002682",
    "final_x": "3677006.48776",
    "final_y": "545457.042704",
    "longitude": "-90.08177854058677",
    "latitude": "29.993953439421247",
    "geocoded_column": {
      "latitude": "29.993953439421247",
      "longitude": "-90.08177854058677"
    }
  },
  {
    "service_request": "2023-1002681",
    "request_type": "Abandoned Vehicles",
    "request_reason": "Abandoned/Junk Vehicles",
    "date_created": "2023-05-24T19:39:56.000",
    "date_modified": "2023-05-24T19:39:56.000",
    "request_status": "Pending",
    "responsible_agency": "Department of Public Works",
    "final_address": "3610 Cadillac St",
    "address_councildis": "D",
    "status": "Pending",
    "rowid": "1002681",
    "final_x": "3677014.52117",
    "final_y": "545386.59752",
    "longitude": "-90.0817555947837",
    "latitude": "29.993759498595885",
    "geocoded_column": {
      "latitude": "29.993759498595885",
      "longitude": "-90.0817555947837"
    }
  },
  {
    "service_request": "2023-1002680",
    "request_type": "Trash/Recycling",
    "request_reason": "Request a Large Item Pick Up",
    "date_created": "2023-05-24T19:39:11.000",
    "date_modified": "2023-05-24T19:39:11.000",
    "request_status": "Pending",
    "responsible_agency": "Department of Sanitation",
    "final_address": "2354 Somerset Dr",
    "address_councildis": "C",
    "status": "Assigned to Contractor",
    "contractor": "Richards Disposal",
    "rowid": "1002680",
    "final_x": "3702960.37188",
    "final_y": "522305.859514",
    "longitude": "-90.00064508285183",
    "latitude": "29.929491008349153",
    "geocoded_column": {
      "latitude": "29.929491008349153",
      "longitude": "-90.00064508285183"
    }
  },
  {
    "service_request": "2023-1002679",
    "request_type": "Trash/Recycling",
    "request_reason": "Request a Large Item Pick Up",
    "date_created": "2023-05-24T19:36:52.000",
    "date_modified": "2023-05-24T19:36:52.000",
    "request_status": "Closed",
    "responsible_agency": "Department of Sanitation",
    "final_address": "2354 Somerset Dr",
    "address_councildis": "C",
    "status": "Resolved",
    "rowid": "1002679",
    "final_x": "3702960.37188",
    "final_y": "522305.859514",
    "longitude": "-90.00064508285183",
    "latitude": "29.929491008349153",
    "geocoded_column": {
      "latitude": "29.929491008349153",
      "longitude": "-90.00064508285183"
    }
  },
  {
    "service_request": "2023-1002678",
    "request_type": "Trash/Recycling",
    "request_reason": "Request a Large Item Pick Up",
    "date_created": "2023-05-24T19:35:21.000",
    "date_modified": "2023-05-24T19:35:21.000",
    "request_status": "Closed",
    "responsible_agency": "Department of Sanitation",
    "final_address": "2354 Somerset Dr",
    "address_councildis": "C",
    "status": "Resolved",
    "rowid": "1002678",
    "final_x": "3702960.37188",
    "final_y": "522305.859514",
    "longitude": "-90.00064508285183",
    "latitude": "29.929491008349153",
    "geocoded_column": {
      "latitude": "29.929491008349153",
      "longitude": "-90.00064508285183"
    }
  },
  {
    "service_request": "2023-1002677",
    "request_type": "Trash/Recycling",
    "request_reason": "Request a Large Item Pick Up",
    "date_created": "2023-05-24T19:34:27.000",
    "date_modified": "2023-05-24T19:34:27.000",
    "request_status": "Closed",
    "responsible_agency": "Department of Sanitation",
    "final_address": "2354 Somerset Dr",
    "address_councildis": "C",
    "status": "Resolved",
    "rowid": "1002677",
    "final_x": "3702960.37188",
    "final_y": "522305.859514",
    "longitude": "-90.00064508285183",
    "latitude": "29.929491008349153",
    "geocoded_column": {
      "latitude": "29.929491008349153",
      "longitude": "-90.00064508285183"
    }
  },
  {
    "service_request": "2023-1002676",
    "request_type": "Trash/Recycling",
    "request_reason": "Request a Large Item Pick Up",
    "date_created": "2023-05-24T19:29:43.000",
    "date_modified": "2023-05-24T19:29:43.000",
    "request_status": "Pending",
    "responsible_agency": "Department of Sanitation",
    "final_address": "3708 Silver Maple Ct",
    "address_councildis": "C",
    "status": "Assigned to Contractor",
    "contractor": "Richards Disposal",
    "rowid": "1002676",
    "final_x": "3703186.15716",
    "final_y": "512716.321649",
    "longitude": "-90.0002845079094",
    "latitude": "29.903115849182093",
    "geocoded_column": {
      "latitude": "29.903115849182093",
      "longitude": "-90.0002845079094"
    }
  },
  {
    "service_request": "2023-1002675",
    "request_type": "Trash/Recycling",
    "request_reason": "Replace Recycling Cart",
    "date_created": "2023-05-24T19:15:21.000",
    "date_modified": "2023-05-24T19:15:21.000",
    "request_status": "Pending",
    "responsible_agency": "Department of Sanitation",
    "final_address": "3640 Marigny St",
    "address_councildis": "D",
    "status": "Pending",
    "rowid": "1002675",
    "final_x": "3684581.64885",
    "final_y": "546235.948432",
    "longitude": "-90.05782233847862",
    "latitude": "29.99586547003265",
    "geocoded_column": {
      "latitude": "29.99586547003265",
      "longitude": "-90.05782233847862"
    }
  },
  {
    "service_request": "2023-1002674",
    "request_type": "Trash/Recycling",
    "request_reason": "Replace Trash Cart",
    "date_created": "2023-05-24T19:05:50.000",
    "date_modified": "2023-05-24T19:05:50.000",
    "request_status": "Pending",
    "responsible_agency": "Department of Sanitation",
    "final_address": "3031 Chippewa St",
    "address_councildis": "B",
    "status": "Assigned to Contractor",
    "contractor": "Richards Disposal",
    "rowid": "1002674",
    "final_x": "3676963.07765",
    "final_y": "519014.525047",
    "longitude": "-90.08282724658535",
    "latitude": "29.9212467121667",
    "geocoded_column": {
      "latitude": "29.9212467121667",
      "longitude": "-90.08282724658535"
    }
  },
  {
    "service_request": "2023-1002673",
    "request_type": "Trash/Recycling",
    "request_reason": "Damaged Caused By Contractor",
    "date_created": "2023-05-24T18:57:44.000",
    "date_modified": "2023-05-24T18:57:45.000",
    "request_status": "Pending",
    "responsible_agency": "Department of Sanitation",
    "final_address": "5978 General Diaz St",
    "address_councildis": "A",
    "status": "Assigned to Contractor",
    "contractor": "IV Waste",
    "rowid": "1002673",
    "final_x": "3669423.63694",
    "final_y": "547133.175761",
    "longitude": "-90.10567502644442",
    "latitude": "29.998787784854745",
    "geocoded_column": {
      "latitude": "29.998787784854745",
      "longitude": "-90.10567502644442"
    }
  },
  {
    "service_request": "2023-1002672",
    "request_type": "Trash/Recycling",
    "request_reason": "MIssed Recycling Pick-Up",
    "date_created": "2023-05-24T18:55:08.000",
    "date_modified": "2023-05-24T18:55:09.000",
    "request_status": "Pending",
    "responsible_agency": "Department of Sanitation",
    "final_address": "1123 Louisiana Ave",
    "address_councildis": "B",
    "status": "Assigned to Contractor",
    "contractor": "Richards Disposal",
    "rowid": "1002672",
    "final_x": "3675017.26952",
    "final_y": "519856.663736",
    "longitude": "-90.08894043886947",
    "latitude": "29.92362057005257",
    "geocoded_column": {
      "latitude": "29.92362057005257",
      "longitude": "-90.08894043886947"
    }
  },
  {
    "service_request": "2023-1002671",
    "request_type": "Mosquito, Termite & Rodent Control",
    "request_reason": "Rodent Complaint (Rats)",
    "date_created": "2023-05-24T18:50:20.000",
    "date_modified": "2023-05-24T18:50:21.000",
    "request_status": "Pending",
    "responsible_agency": "Mosquito, Termite & Rodent Control Board",
    "final_address": "1804 Washington Ave",
    "address_councildis": "B",
    "status": "Pending",
    "rowid": "1002671",
    "final_x": "3675442.28917",
    "final_y": "523177.165627",
    "longitude": "-90.08748484257094",
    "latitude": "29.93273817608474",
    "geocoded_column": {
      "latitude": "29.93273817608474",
      "longitude": "-90.08748484257094"
    }
  },
  {
    "service_request": "2023-1002670",
    "request_type": "Trash/Recycling",
    "request_reason": "MIssed Recycling Pick-Up",
    "date_created": "2023-05-24T18:46:57.000",
    "date_modified": "2023-05-24T18:46:58.000",
    "request_status": "Pending",
    "responsible_agency": "Department of Sanitation",
    "final_address": "1123 Louisiana Ave",
    "address_councildis": "B",
    "status": "Assigned to Contractor",
    "contractor": "Richards Disposal",
    "rowid": "1002670",
    "final_x": "3675017.26952",
    "final_y": "519856.663736",
    "longitude": "-90.08894043886947",
    "latitude": "29.92362057005257",
    "geocoded_column": {
      "latitude": "29.92362057005257",
      "longitude": "-90.08894043886947"
    }
  },
  {
    "service_request": "2023-1002669",
    "request_type": "Abandoned Vehicles",
    "request_reason": "Abandoned/Junk Vehicles",
    "date_created": "2023-05-24T18:36:56.000",
    "date_modified": "2023-05-24T18:38:59.000",
    "request_status": "Pending",
    "responsible_agency": "Department of Public Works",
    "final_address": "7800 W Laverne St",
    "address_councildis": "D",
    "status": "Pending",
    "rowid": "1002669",
    "final_x": "3694957.27389",
    "final_y": "559084.903516",
    "longitude": "-90.02458315842534",
    "latitude": "30.030873631102498",
    "geocoded_column": {
      "latitude": "30.030873631102498",
      "longitude": "-90.02458315842534"
    }
  },
  {
    "service_request": "2023-1002668",
    "request_type": "Roads/Drainage",
    "request_reason": "Accessibility Ramps, Curbs and Sidewalk Repair",
    "date_created": "2023-05-24T18:31:04.000",
    "date_modified": "2023-05-24T18:31:04.000",
    "request_status": "Pending",
    "responsible_agency": "Department of Public Works",
    "final_address": "1310 Esplanade Ave Apt A",
    "address_councildis": "C",
    "status": "Pending",
    "rowid": "1002668",
    "final_x": "3681991.24482",
    "final_y": "535912.617927",
    "longitude": "-90.06636578328764",
    "latitude": "29.967558956094706",
    "geocoded_column": {
      "latitude": "29.967558956094706",
      "longitude": "-90.06636578328764"
    }
  },
  {
    "service_request": "2023-1002667",
    "request_type": "Trash/Recycling",
    "request_reason": "MIssed Recycling Pick-Up",
    "date_created": "2023-05-24T18:13:20.000",
    "date_modified": "2023-05-24T18:13:20.000",
    "request_status": "Pending",
    "responsible_agency": "Department of Sanitation",
    "final_address": "8610 Hayne Blvd",
    "address_councildis": "E",
    "status": "Assigned to Contractor",
    "contractor": "Waste Pro",
    "rowid": "1002667",
    "final_x": "3703559.38282",
    "final_y": "563615.226977",
    "longitude": "-89.99723354124816",
    "latitude": "30.04305728515729",
    "geocoded_column": {
      "latitude": "30.04305728515729",
      "longitude": "-89.99723354124816"
    }
  },
  {
    "service_request": "2023-1002666",
    "request_type": "Trash/Recycling",
    "request_reason": "Request a Large Item Pick Up",
    "date_created": "2023-05-24T18:12:43.000",
    "date_modified": "2023-05-24T18:12:43.000",
    "request_status": "Pending",
    "responsible_agency": "Department of Sanitation",
    "final_address": "2308 Forstall St",
    "address_councildis": "E",
    "status": "Assigned to Contractor",
    "contractor": "Waste Pro",
    "rowid": "1002666",
    "final_x": "3697508.04151",
    "final_y": "538798.974921",
    "longitude": "-90.01725898645348",
    "latitude": "29.97501451849929",
    "geocoded_column": {
      "latitude": "29.97501451849929",
      "longitude": "-90.01725898645348"
    }
  },
  {
    "service_request": "2023-1002665",
    "request_type": "Roads/Drainage",
    "request_reason": "Catch Basin - Broken/Damage",
    "date_created": "2023-05-24T18:08:58.000",
    "date_modified": "2023-05-24T18:08:58.000",
    "request_status": "Pending",
    "responsible_agency": "Department of Public Works",
    "final_address": "8737 Willow St",
    "address_councildis": "A",
    "status": "Pending",
    "rowid": "1002665",
    "final_x": "3660664.09939",
    "final_y": "530559.222722",
    "longitude": "-90.1338947140058",
    "latitude": "29.953470034873778",
    "geocoded_column": {
      "latitude": "29.953470034873778",
      "longitude": "-90.1338947140058"
    }
  },
  {
    "service_request": "2023-1002664",
    "request_type": "Trash/Recycling",
    "request_reason": "Request a Large Item Pick Up",
    "date_created": "2023-05-24T18:07:18.000",
    "date_modified": "2023-05-24T18:07:19.000",
    "request_status": "Pending",
    "responsible_agency": "Department of Sanitation",
    "final_address": "5020 Schindler Dr",
    "address_councildis": "E",
    "status": "Assigned to Contractor",
    "contractor": "Waste Pro",
    "rowid": "1002664",
    "final_x": "3714143.85343",
    "final_y": "557909.150811",
    "longitude": "-89.96399812137736",
    "latitude": "30.027024257109797",
    "geocoded_column": {
      "latitude": "30.027024257109797",
      "longitude": "-89.96399812137736"
    }
  },
  {
    "service_request": "2023-1002663",
    "request_type": "Traffic Signals/Signs/Striping/Streetlights",
    "request_reason": "Request for Stop Sign",
    "date_created": "2023-05-24T17:57:44.000",
    "date_modified": "2023-05-24T17:57:44.000",
    "request_status": "Pending",
    "responsible_agency": "Department of Public Works",
    "final_address": "GRAVIER ST & TCHOUPITOULAS ST",
    "address_councildis": "B",
    "status": "Pending",
    "rowid": "1002663",
    "final_x": "3682002.2",
    "final_y": "529537.28",
    "longitude": "-90.06655377120704",
    "latitude": "29.950028616312522",
    "geocoded_column": {
      "latitude": "29.950028616312522",
      "longitude": "-90.06655377120704"
    }
  },
  {
    "service_request": "2023-1002662",
    "request_type": "Trash/Recycling",
    "request_reason": "Order Trash Cart",
    "date_created": "2023-05-24T17:57:06.000",
    "date_modified": "2023-05-24T17:57:07.000",
    "request_status": "Pending",
    "responsible_agency": "Department of Sanitation",
    "final_address": "2930 Pine St",
    "address_councildis": "B",
    "status": "Assigned to Contractor",
    "contractor": "Richards Disposal",
    "rowid": "1002662",
    "final_x": "3667321.92833",
    "final_y": "531941.329283",
    "longitude": "-90.11282555498033",
    "latitude": "29.957077064748752",
    "geocoded_column": {
      "latitude": "29.957077064748752",
      "longitude": "-90.11282555498033"
    }
  },
  {
    "service_request": "2023-1002661",
    "request_type": "Trash/Recycling",
    "request_reason": "Order Recycling Cart",
    "date_created": "2023-05-24T17:56:47.000",
    "date_modified": "2023-05-24T17:56:48.000",
    "request_status": "Pending",
    "responsible_agency": "Department of Sanitation",
    "final_address": "2930 Pine St",
    "address_councildis": "B",
    "status": "Pending",
    "rowid": "1002661",
    "final_x": "3667321.92833",
    "final_y": "531941.329283",
    "longitude": "-90.11282555498033",
    "latitude": "29.957077064748752",
    "geocoded_column": {
      "latitude": "29.957077064748752",
      "longitude": "-90.11282555498033"
    }
  },
  {
    "service_request": "2023-1002660",
    "request_type": "Trash/Recycling",
    "request_reason": "MIssed Recycling Pick-Up",
    "date_created": "2023-05-24T17:55:03.000",
    "date_modified": "2023-05-24T17:55:03.000",
    "request_status": "Pending",
    "responsible_agency": "Department of Sanitation",
    "final_address": "5027 W St Andrews Cir",
    "address_councildis": "E",
    "status": "Assigned to Contractor",
    "contractor": "Waste Pro",
    "rowid": "1002660",
    "final_x": "3719160.7237",
    "final_y": "559419.869149",
    "longitude": "-89.9480877796678",
    "latitude": "30.031012319188402",
    "geocoded_column": {
      "latitude": "30.031012319188402",
      "longitude": "-89.9480877796678"
    }
  },
  {
    "service_request": "2023-1002659",
    "request_type": "Mayor's Request",
    "request_reason": "Requests to the Mayor",
    "date_created": "2023-05-24T17:53:08.000",
    "date_modified": "2023-05-24T17:53:08.000",
    "request_status": "Pending",
    "responsible_agency": "Executive Office of the Mayor",
    "final_address": "6800 Morrison Rd Apt E104",
    "address_councildis": "E",
    "status": "Pending",
    "rowid": "1002659",
    "final_x": "3699002.4058",
    "final_y": "558627.326876",
    "longitude": "-90.0118171882763",
    "latitude": "30.029487811540633",
    "geocoded_column": {
      "latitude": "30.029487811540633",
      "longitude": "-90.0118171882763"
    }
  },
  {
    "service_request": "2023-1002658",
    "request_type": "Roads/Drainage",
    "request_reason": "Catch Basin - Clogged",
    "date_created": "2023-05-24T17:51:19.000",
    "date_modified": "2023-05-24T17:51:19.000",
    "request_status": "Pending",
    "responsible_agency": "Department of Public Works",
    "final_address": "936 Mazant St",
    "address_councildis": "C",
    "status": "Pending",
    "rowid": "1002658",
    "final_x": "3691957.16502",
    "final_y": "534737.252934",
    "longitude": "-90.03493537463662",
    "latitude": "29.964020356462267",
    "geocoded_column": {
      "latitude": "29.964020356462267",
      "longitude": "-90.03493537463662"
    }
  },
  {
    "service_request": "2023-1002657",
    "request_type": "Trash/Recycling",
    "request_reason": "Missed Trash Pick-Up",
    "date_created": "2023-05-24T17:45:35.000",
    "date_modified": "2023-05-24T17:45:36.000",
    "request_status": "Pending",
    "responsible_agency": "Department of Sanitation",
    "final_address": "7126 Chef Menteur Hwy",
    "address_councildis": "E",
    "status": "Assigned to Contractor",
    "contractor": "Waste Pro",
    "rowid": "1002657",
    "final_x": "3701262.59754",
    "final_y": "552063.26735",
    "longitude": "-90.00491554329656",
    "latitude": "30.01136729131207",
    "geocoded_column": {
      "latitude": "30.01136729131207",
      "longitude": "-90.00491554329656"
    }
  },
  {
    "service_request": "2023-1002656",
    "request_type": "Property Maintenance",
    "request_reason": "Property Maintenance",
    "date_created": "2023-05-24T17:35:56.000",
    "date_modified": "2023-05-24T17:35:56.000",
    "request_status": "Pending",
    "responsible_agency": "Department of Code Enforcement",
    "final_address": "4567 Mark Twain Dr",
    "address_councildis": "D",
    "status": "Pending",
    "rowid": "1002656",
    "final_x": "3691503.7519",
    "final_y": "551156.173781",
    "longitude": "-90.0357800625817",
    "latitude": "30.009180597980034",
    "geocoded_column": {
      "latitude": "30.009180597980034",
      "longitude": "-90.0357800625817"
    }
  },
  {
    "service_request": "2023-1002655",
    "request_type": "Trash/Recycling",
    "request_reason": "Order Recycling Cart",
    "date_created": "2023-05-24T17:34:35.000",
    "date_modified": "2023-05-24T17:34:35.000",
    "request_status": "Pending",
    "responsible_agency": "Department of Sanitation",
    "final_address": "4614 Annette St",
    "address_councildis": "D",
    "status": "Pending",
    "rowid": "1002655",
    "final_x": "3682029.17327",
    "final_y": "549558.670419",
    "longitude": "-90.06576927970234",
    "latitude": "30.005079646748108",
    "geocoded_column": {
      "latitude": "30.005079646748108",
      "longitude": "-90.06576927970234"
    }
  },
  {
    "service_request": "2023-1002654",
    "request_type": "Trash/Recycling",
    "request_reason": "Order Recycling Cart",
    "date_created": "2023-05-24T17:33:13.000",
    "date_modified": "2023-05-24T17:33:13.000",
    "request_status": "Pending",
    "responsible_agency": "Department of Sanitation",
    "final_address": "4614 Annette St",
    "address_councildis": "D",
    "status": "Pending",
    "rowid": "1002654",
    "final_x": "3682029.17327",
    "final_y": "549558.670419",
    "longitude": "-90.06576927970234",
    "latitude": "30.005079646748108",
    "geocoded_column": {
      "latitude": "30.005079646748108",
      "longitude": "-90.06576927970234"
    }
  },
  {
    "service_request": "2023-1002653",
    "request_type": "Trash/Recycling",
    "request_reason": "Order Recycling Cart",
    "date_created": "2023-05-24T17:29:10.000",
    "date_modified": "2023-05-24T17:29:10.000",
    "request_status": "Pending",
    "responsible_agency": "Department of Sanitation",
    "final_address": "6958 Marshal Foch St",
    "address_councildis": "A",
    "status": "Pending",
    "rowid": "1002653",
    "final_x": "3670325.44449",
    "final_y": "553673.967319",
    "longitude": "-90.10260426751653",
    "latitude": "30.016746067626684",
    "geocoded_column": {
      "latitude": "30.016746067626684",
      "longitude": "-90.10260426751653"
    }
  },
  {
    "service_request": "2023-1002652",
    "request_type": "Roads/Drainage",
    "request_reason": "Man hole cover issue",
    "date_created": "2023-05-24T17:23:44.000",
    "date_modified": "2023-05-24T17:23:44.000",
    "request_status": "Pending",
    "responsible_agency": "Department of Public Works",
    "final_address": "1641 N Galvez St",
    "address_councildis": "D",
    "status": "Pending",
    "rowid": "1002652",
    "final_x": "3680943.52885",
    "final_y": "539152.846026",
    "longitude": "-90.0695616325069",
    "latitude": "29.97650027761246",
    "geocoded_column": {
      "latitude": "29.97650027761246",
      "longitude": "-90.0695616325069"
    }
  },
  {
    "service_request": "2023-1002651",
    "request_type": "Property Maintenance",
    "request_reason": "Property Maintenance",
    "date_created": "2023-05-24T17:19:40.000",
    "date_modified": "2023-05-24T17:19:40.000",
    "request_status": "Pending",
    "responsible_agency": "Department of Code Enforcement",
    "final_address": "3113 N Prieur St",
    "address_councildis": "D",
    "status": "Pending",
    "rowid": "1002651",
    "final_x": "3689912.38377",
    "final_y": "539006.64737",
    "longitude": "-90.0412405557756",
    "latitude": "29.975823240830458",
    "geocoded_column": {
      "latitude": "29.975823240830458",
      "longitude": "-90.0412405557756"
    }
  },
  {
    "service_request": "2023-1002649",
    "request_type": "Abandoned Vehicles",
    "request_reason": "Abandoned/Junk Vehicles",
    "date_created": "2023-05-24T17:09:31.000",
    "date_modified": "2023-05-24T17:10:52.000",
    "request_status": "Pending",
    "responsible_agency": "Department of Public Works",
    "final_address": "1601 King Dr",
    "address_councildis": "D",
    "status": "Pending",
    "rowid": "1002649",
    "final_x": "3679407.72661",
    "final_y": "550079.384596",
    "longitude": "-90.07403289922499",
    "latitude": "30.006590901558344",
    "geocoded_column": {
      "latitude": "30.006590901558344",
      "longitude": "-90.07403289922499"
    }
  },
  {
    "service_request": "2023-1002648",
    "request_type": "Trash/Recycling",
    "request_reason": "Missed Trash Pick-Up",
    "date_created": "2023-05-24T16:55:27.000",
    "date_modified": "2023-05-24T17:24:15.000",
    "case_close_date": "2023-05-24T12:24:15.000",
    "request_status": "Closed",
    "responsible_agency": "Department of Sanitation",
    "final_address": "4842 Chrysler St",
    "address_councildis": "E",
    "status": "Assigned to Contractor",
    "contractor": "Waste Pro",
    "contractor_action": "Completed",
    "rowid": "1002648",
    "final_x": "3715175.87275",
    "final_y": "557313.897307",
    "longitude": "-89.96075960701515",
    "latitude": "30.02535359484076",
    "geocoded_column": {
      "latitude": "30.02535359484076",
      "longitude": "-89.96075960701515"
    }
  },
  {
    "service_request": "2023-1002647",
    "request_type": "Trash/Recycling",
    "request_reason": "Replace Trash Cart",
    "date_created": "2023-05-24T16:52:56.000",
    "date_modified": "2023-05-24T16:52:56.000",
    "request_status": "Pending",
    "responsible_agency": "Department of Sanitation",
    "final_address": "2622 Constance St",
    "address_councildis": "B",
    "status": "Assigned to Contractor",
    "contractor": "Richards Disposal",
    "rowid": "1002647",
    "final_x": "3677628.65538",
    "final_y": "520713.924153",
    "longitude": "-90.08066766829985",
    "latitude": "29.925899519299865",
    "geocoded_column": {
      "latitude": "29.925899519299865",
      "longitude": "-90.08066766829985"
    }
  },
  {
    "service_request": "2023-1002646",
    "request_type": "Trash/Recycling",
    "request_reason": "Request a Large Item Pick Up",
    "date_created": "2023-05-24T16:52:55.000",
    "date_modified": "2023-05-24T16:52:56.000",
    "request_status": "Pending",
    "responsible_agency": "Department of Sanitation",
    "final_address": "942 Ursulines Ave",
    "address_councildis": "C",
    "status": "Assigned to Contractor",
    "contractor": "Empire Services",
    "rowid": "1002646",
    "final_x": "3682591.77397",
    "final_y": "534251.524037",
    "longitude": "-90.0645273883416",
    "latitude": "29.962973247246367",
    "geocoded_column": {
      "latitude": "29.962973247246367",
      "longitude": "-90.0645273883416"
    }
  },
  {
    "service_request": "2023-1002645",
    "request_type": "Traffic Signals/Signs/Striping/Streetlights",
    "request_reason": "Street Light Outage/Malfunction",
    "date_created": "2023-05-24T16:52:51.000",
    "date_modified": "2023-05-24T16:52:51.000",
    "request_status": "Pending",
    "responsible_agency": "Department of Public Works",
    "final_address": "4600 Eastview Dr",
    "address_councildis": "E",
    "status": "Assigned to Contractor",
    "contractor": "Legacy Professional Services",
    "rowid": "1002645",
    "final_x": "3705113.65822",
    "final_y": "554413.861656",
    "longitude": "-89.99266167504331",
    "latitude": "30.017707199484384",
    "geocoded_column": {
      "latitude": "30.017707199484384",
      "longitude": "-89.99266167504331"
    }
  },
  {
    "service_request": "2023-1002644",
    "request_type": "Trash/Recycling",
    "request_reason": "Order Recycling Cart",
    "date_created": "2023-05-24T16:52:47.000",
    "date_modified": "2023-05-24T16:52:48.000",
    "request_status": "Pending",
    "responsible_agency": "Department of Sanitation",
    "final_address": "4664 Lafon Dr",
    "address_councildis": "E",
    "status": "Pending",
    "rowid": "1002644",
    "final_x": "3701109.18052",
    "final_y": "553848.234519",
    "longitude": "-90.00533488759751",
    "latitude": "30.016280162949652",
    "geocoded_column": {
      "latitude": "30.016280162949652",
      "longitude": "-90.00533488759751"
    }
  },
  {
    "service_request": "2023-1002643",
    "request_type": "Property Maintenance",
    "request_reason": "Property Maintenance",
    "date_created": "2023-05-24T16:51:49.000",
    "date_modified": "2023-05-24T16:51:50.000",
    "request_status": "Pending",
    "responsible_agency": "Department of Code Enforcement",
    "final_address": "9020 Edinburgh St A",
    "address_councildis": "A",
    "status": "Pending",
    "rowid": "1002643",
    "final_x": "3664973.62381",
    "final_y": "536669.244167",
    "longitude": "-90.12008272773389",
    "latitude": "29.970145845901804",
    "geocoded_column": {
      "latitude": "29.970145845901804",
      "longitude": "-90.12008272773389"
    }
  },
  {
    "service_request": "2023-1002642",
    "request_type": "Trash/Recycling",
    "request_reason": "Request a Large Item Pick Up",
    "date_created": "2023-05-24T16:50:32.000",
    "date_modified": "2023-05-24T16:50:32.000",
    "request_status": "Pending",
    "responsible_agency": "Department of Sanitation",
    "final_address": "1435 Egania St",
    "address_councildis": "E",
    "status": "Assigned to Contractor",
    "contractor": "Waste Pro",
    "rowid": "1002642",
    "final_x": "3697229.85373",
    "final_y": "535432.089542",
    "longitude": "-90.01825960990936",
    "latitude": "29.965765572777382",
    "geocoded_column": {
      "latitude": "29.965765572777382",
      "longitude": "-90.01825960990936"
    }
  },
  {
    "service_request": "2023-1002641",
    "request_type": "Trash/Recycling",
    "request_reason": "Illegal Dumping",
    "date_created": "2023-05-24T16:49:25.000",
    "date_modified": "2023-05-24T16:49:25.000",
    "request_status": "Pending",
    "responsible_agency": "Department of Sanitation",
    "final_address": "1720 Josephine St",
    "address_councildis": "B",
    "status": "Pending",
    "rowid": "1002641",
    "final_x": "3677547.68936",
    "final_y": "524362.986364",
    "longitude": "-90.08079733807757",
    "latitude": "29.935935682092538",
    "geocoded_column": {
      "latitude": "29.935935682092538",
      "longitude": "-90.08079733807757"
    }
  },
  {
    "service_request": "2023-1002640",
    "request_type": "Trash/Recycling",
    "request_reason": "Missed Trash Pick-Up",
    "date_created": "2023-05-24T16:49:07.000",
    "date_modified": "2023-05-24T16:49:07.000",
    "request_status": "Pending",
    "responsible_agency": "Department of Sanitation",
    "final_address": "931 Hillary St",
    "address_councildis": "A",
    "status": "Assigned to Contractor",
    "contractor": "Richards Disposal",
    "rowid": "1002640",
    "final_x": "3662788.84538",
    "final_y": "526557.524286",
    "longitude": "-90.12731862728907",
    "latitude": "29.942405321029632",
    "geocoded_column": {
      "latitude": "29.942405321029632",
      "longitude": "-90.12731862728907"
    }
  },
  {
    "service_request": "2023-1002639",
    "request_type": "Trash/Recycling",
    "request_reason": "Illegal Dumping",
    "date_created": "2023-05-24T16:48:29.000",
    "date_modified": "2023-05-24T16:48:30.000",
    "request_status": "Pending",
    "responsible_agency": "Department of Sanitation",
    "final_address": "9032 Edinburgh St",
    "address_councildis": "A",
    "status": "Pending",
    "rowid": "1002639",
    "final_x": "3664901.05408",
    "final_y": "536735.124039",
    "longitude": "-90.1203097088826",
    "latitude": "29.970329106342543",
    "geocoded_column": {
      "latitude": "29.970329106342543",
      "longitude": "-90.1203097088826"
    }
  },
  {
    "service_request": "2023-1002638",
    "request_type": "Trash/Recycling",
    "request_reason": "Missed Trash Pick-Up",
    "date_created": "2023-05-24T16:46:34.000",
    "date_modified": "2023-05-24T16:46:34.000",
    "request_status": "Pending",
    "responsible_agency": "Department of Sanitation",
    "final_address": "7310 Maple St",
    "address_councildis": "A",
    "status": "Assigned to Contractor",
    "contractor": "Richards Disposal",
    "rowid": "1002638",
    "final_x": "3663017.00237",
    "final_y": "525525.364285",
    "longitude": "-90.12663259924192",
    "latitude": "29.939560604771977",
    "geocoded_column": {
      "latitude": "29.939560604771977",
      "longitude": "-90.12663259924192"
    }
  },
  {
    "service_request": "2023-1002637",
    "request_type": "Parks & Parkways",
    "request_reason": "Request Tree Service (Right of Way/Public Property)",
    "date_created": "2023-05-24T16:40:49.000",
    "date_modified": "2023-05-24T16:40:50.000",
    "request_status": "Pending",
    "responsible_agency": "Department of Parks & Parkway",
    "final_address": "3132 Louisiana Avenue Prkwy",
    "address_councildis": "B",
    "status": "Pending",
    "rowid": "1002637",
    "final_x": "3671925.35316",
    "final_y": "526770.951102",
    "longitude": "-90.09846528439388",
    "latitude": "29.942724595889338",
    "geocoded_column": {
      "latitude": "29.942724595889338",
      "longitude": "-90.09846528439388"
    }
  },
  {
    "service_request": "2023-1002636",
    "request_type": "Trash/Recycling",
    "request_reason": "Missed Trash Pick-Up",
    "date_created": "2023-05-24T16:39:42.000",
    "date_modified": "2023-05-24T17:21:34.000",
    "case_close_date": "2023-05-24T12:21:34.000",
    "request_status": "Closed",
    "responsible_agency": "Department of Sanitation",
    "final_address": "4351 Trieste St",
    "address_councildis": "E",
    "status": "Invalid Request",
    "contractor": "Waste Pro",
    "contractor_action": "Invalid Pick-Up",
    "rowid": "1002636",
    "final_x": "3760255.71196",
    "final_y": "573696.853034",
    "longitude": "-89.81763305255097",
    "latitude": "30.068837513990214",
    "geocoded_column": {
      "latitude": "30.068837513990214",
      "longitude": "-89.81763305255097"
    }
  },
  {
    "service_request": "2023-1002635",
    "request_type": "Trash/Recycling",
    "request_reason": "Missed Trash Pick-Up",
    "date_created": "2023-05-24T16:34:11.000",
    "date_modified": "2023-05-24T16:34:12.000",
    "request_status": "Pending",
    "responsible_agency": "Department of Sanitation",
    "final_address": "1904 Napoleon Ave",
    "address_councildis": "B",
    "status": "Assigned to Contractor",
    "contractor": "Richards Disposal",
    "rowid": "1002635",
    "final_x": "3670597.63636",
    "final_y": "522003.563962",
    "longitude": "-90.10281885092698",
    "latitude": "29.92965509801179",
    "geocoded_column": {
      "latitude": "29.92965509801179",
      "longitude": "-90.10281885092698"
    }
  },
  {
    "service_request": "2023-1002634",
    "request_type": "Roads/Drainage",
    "request_reason": "Man hole cover issue",
    "date_created": "2023-05-24T16:31:22.000",
    "date_modified": "2023-05-24T16:31:54.000",
    "request_status": "Pending",
    "responsible_agency": "Department of Public Works",
    "final_address": "4349 General Meyer Ave",
    "address_councildis": "C",
    "status": "Pending",
    "rowid": "1002634",
    "final_x": "3699785.79242",
    "final_y": "524270.92038",
    "longitude": "-90.01059497606055",
    "latitude": "29.934995388415686",
    "geocoded_column": {
      "latitude": "29.934995388415686",
      "longitude": "-90.01059497606055"
    }
  },
  {
    "service_request": "2023-1002633",
    "request_type": "Trash/Recycling",
    "request_reason": "Request a Large Item Pick Up",
    "date_created": "2023-05-24T16:20:54.000",
    "date_modified": "2023-05-24T16:20:55.000",
    "request_status": "Pending",
    "responsible_agency": "Department of Sanitation",
    "final_address": "1200 BLK Saint Andrew St",
    "address_councildis": "B",
    "status": "Assigned to Contractor",
    "contractor": "Richards Disposal",
    "rowid": "1002633",
    "final_x": "3679153.74205",
    "final_y": "523012.049892",
    "longitude": "-90.07577380335337",
    "latitude": "29.93217268042737",
    "geocoded_column": {
      "latitude": "29.93217268042737",
      "longitude": "-90.07577380335337"
    }
  },
  {
    "service_request": "2023-1002632",
    "request_type": "Trash/Recycling",
    "request_reason": "Request a Large Item Pick Up",
    "date_created": "2023-05-24T16:13:55.000",
    "date_modified": "2023-05-24T16:13:56.000",
    "request_status": "Pending",
    "responsible_agency": "Department of Sanitation",
    "final_address": "2336 St Maurice Ave",
    "address_councildis": "E",
    "status": "Assigned to Contractor",
    "contractor": "Waste Pro",
    "rowid": "1002632",
    "final_x": "3701643.00439",
    "final_y": "537758.27092",
    "longitude": "-90.00423792418187",
    "latitude": "29.972021724182945",
    "geocoded_column": {
      "latitude": "29.972021724182945",
      "longitude": "-90.00423792418187"
    }
  },
  {
    "service_request": "2023-1002631",
    "request_type": "Trash/Recycling",
    "request_reason": "Replace Recycling Cart",
    "date_created": "2023-05-24T16:07:04.000",
    "date_modified": "2023-05-24T16:07:04.000",
    "request_status": "Pending",
    "responsible_agency": "Department of Sanitation",
    "final_address": "2134 Pine St",
    "address_councildis": "A",
    "status": "Pending",
    "rowid": "1002631",
    "final_x": "3665803.49408",
    "final_y": "529613.675905",
    "longitude": "-90.11769829584797",
    "latitude": "29.95072116107159",
    "geocoded_column": {
      "latitude": "29.95072116107159",
      "longitude": "-90.11769829584797"
    }
  },
  {
    "service_request": "2023-1002630",
    "request_type": "Roads/Drainage",
    "request_reason": "Service Cut",
    "date_created": "2023-05-24T16:02:23.000",
    "date_modified": "2023-05-24T16:02:23.000",
    "request_status": "Pending",
    "responsible_agency": "Department of Public Works",
    "final_address": "8224 Maple St",
    "address_councildis": "A",
    "status": "Pending",
    "rowid": "1002630",
    "final_x": "3660567.56826",
    "final_y": "527695.003135",
    "longitude": "-90.13429415904064",
    "latitude": "29.945597124957125",
    "geocoded_column": {
      "latitude": "29.945597124957125",
      "longitude": "-90.13429415904064"
    }
  },
  {
    "service_request": "2023-1002629",
    "request_type": "Trash/Recycling",
    "request_reason": "Replace Recycling Cart",
    "date_created": "2023-05-24T16:00:45.000",
    "date_modified": "2023-05-24T16:00:46.000",
    "request_status": "Pending",
    "responsible_agency": "Department of Sanitation",
    "final_address": "723 Alvar St",
    "address_councildis": "C",
    "status": "Pending",
    "rowid": "1002629",
    "final_x": "3691208.61046",
    "final_y": "534067.711877",
    "longitude": "-90.03732314806155",
    "latitude": "29.962202654891627",
    "geocoded_column": {
      "latitude": "29.962202654891627",
      "longitude": "-90.03732314806155"
    }
  },
  {
    "service_request": "2023-1002628",
    "request_type": "Roads/Drainage",
    "request_reason": "Pothole",
    "date_created": "2023-05-24T15:58:50.000",
    "date_modified": "2023-05-24T15:58:50.000",
    "request_status": "Pending",
    "responsible_agency": "Department of Public Works",
    "final_address": "DIXON ST & S CARROLLTON AVE",
    "address_councildis": "A",
    "status": "Pending",
    "rowid": "1002628",
    "final_x": "3668460.8",
    "final_y": "535443.28",
    "longitude": "-90.10911119468042",
    "latitude": "29.966672865841474",
    "geocoded_column": {
      "latitude": "29.966672865841474",
      "longitude": "-90.10911119468042"
    }
  },
  {
    "service_request": "2023-1002627",
    "request_type": "Traffic Signals/Signs/Striping/Streetlights",
    "request_reason": "Disabled Parking Sign ",
    "date_created": "2023-05-24T15:56:20.000",
    "date_modified": "2023-05-24T15:56:21.000",
    "request_status": "Pending",
    "responsible_agency": "Department of Public Works",
    "final_address": "4512 Francisco Verrett Dr",
    "address_councildis": "E",
    "status": "Pending",
    "rowid": "1002627",
    "final_x": "3704323.81873",
    "final_y": "553661.579863",
    "longitude": "-89.99518499818598",
    "latitude": "30.01566410000843",
    "geocoded_column": {
      "latitude": "30.01566410000843",
      "longitude": "-89.99518499818598"
    }
  },
  {
    "service_request": "2023-1002626",
    "request_type": "Trash/Recycling",
    "request_reason": "Illegal Dumping",
    "date_created": "2023-05-24T15:55:51.000",
    "date_modified": "2023-05-24T15:55:51.000",
    "request_status": "Pending",
    "responsible_agency": "Department of Sanitation",
    "final_address": "810 Austerlitz St",
    "address_councildis": "B",
    "status": "Pending",
    "rowid": "1002626",
    "final_x": "3672855.95425",
    "final_y": "518690.617783",
    "longitude": "-90.09580268126325",
    "latitude": "29.920478680021702",
    "geocoded_column": {
      "latitude": "29.920478680021702",
      "longitude": "-90.09580268126325"
    }
  },
  {
    "service_request": "2023-1002625",
    "request_type": "Abandoned Vehicles",
    "request_reason": "Abandoned/Junk Vehicles",
    "date_created": "2023-05-24T15:55:44.000",
    "date_modified": "2023-05-24T15:55:44.000",
    "request_status": "Pending",
    "responsible_agency": "Department of Public Works",
    "final_address": "5531 Clements Dr",
    "address_councildis": "E",
    "status": "Pending",
    "rowid": "1002625",
    "final_x": "3702487.21674",
    "final_y": "556117.463514",
    "longitude": "-90.00089755186711",
    "latitude": "30.022475686299167",
    "geocoded_column": {
      "latitude": "30.022475686299167",
      "longitude": "-90.00089755186711"
    }
  },
  {
    "service_request": "2023-1002624",
    "request_type": "Trash/Recycling",
    "request_reason": "Illegal Dumping",
    "date_created": "2023-05-24T15:53:56.000",
    "date_modified": "2023-05-24T15:53:57.000",
    "request_status": "Pending",
    "responsible_agency": "Department of Sanitation",
    "final_address": "7736 Mackenzie St",
    "address_councildis": "E",
    "status": "Pending",
    "rowid": "1002624",
    "final_x": "3710625.5539",
    "final_y": "566611.191971",
    "longitude": "-89.97478948326682",
    "latitude": "30.051066534550348",
    "geocoded_column": {
      "latitude": "30.051066534550348",
      "longitude": "-89.97478948326682"
    }
  },
  {
    "service_request": "2023-1002623",
    "request_type": "Trash/Recycling",
    "request_reason": "Request a Large Item Pick Up",
    "date_created": "2023-05-24T15:52:38.000",
    "date_modified": "2023-05-24T15:52:39.000",
    "request_status": "Pending",
    "responsible_agency": "Department of Sanitation",
    "final_address": "1208 Sumner St",
    "address_councildis": "C",
    "status": "Assigned to Contractor",
    "contractor": "Richards Disposal",
    "rowid": "1002623",
    "final_x": "3691124.45065",
    "final_y": "526945.524222",
    "longitude": "-90.03784319275364",
    "latitude": "29.942621720712612",
    "geocoded_column": {
      "latitude": "29.942621720712612",
      "longitude": "-90.03784319275364"
    }
  },
  {
    "service_request": "2023-1002622",
    "request_type": "Trash/Recycling",
    "request_reason": "Missed Trash Pick-Up",
    "date_created": "2023-05-24T15:51:52.000",
    "date_modified": "2023-05-24T17:31:26.000",
    "case_close_date": "2023-05-24T12:31:26.000",
    "request_status": "Closed",
    "responsible_agency": "Department of Sanitation",
    "final_address": "4310 Fort Macomb Rd",
    "address_councildis": "E",
    "status": "Assigned to Contractor",
    "contractor": "Waste Pro",
    "contractor_action": "Completed",
    "rowid": "1002622",
    "final_x": "3763751.9745",
    "final_y": "572949.337065",
    "longitude": "-89.80661236029201",
    "latitude": "30.06665456481649",
    "geocoded_column": {
      "latitude": "30.06665456481649",
      "longitude": "-89.80661236029201"
    }
  },
  {
    "service_request": "2023-1002621",
    "request_type": "Trash/Recycling",
    "request_reason": "Repair Trash Cart",
    "date_created": "2023-05-24T15:50:01.000",
    "date_modified": "2023-05-24T15:50:02.000",
    "request_status": "Pending",
    "responsible_agency": "Department of Sanitation",
    "final_address": "2040 Mediamolle Dr",
    "address_councildis": "C",
    "status": "Assigned to Contractor",
    "contractor": "Richards Disposal",
    "rowid": "1002621",
    "final_x": "3699295.12413",
    "final_y": "523720.722171",
    "longitude": "-90.01216402944239",
    "latitude": "29.933498099402218",
    "geocoded_column": {
      "latitude": "29.933498099402218",
      "longitude": "-90.01216402944239"
    }
  },
  {
    "service_request": "2023-1002620",
    "request_type": "Trash/Recycling",
    "request_reason": "Illegal Dumping",
    "date_created": "2023-05-24T15:47:19.000",
    "date_modified": "2023-05-24T15:47:20.000",
    "request_status": "Pending",
    "responsible_agency": "Department of Sanitation",
    "final_address": "2300 BLK Forstall St",
    "address_councildis": "E",
    "status": "Pending",
    "rowid": "1002620",
    "final_x": "3697565.16389",
    "final_y": "538871.871847",
    "longitude": "-90.0170759356104",
    "latitude": "29.97521315462999",
    "geocoded_column": {
      "latitude": "29.97521315462999",
      "longitude": "-90.0170759356104"
    }
  },
  {
    "service_request": "2023-1002619",
    "request_type": "Trash/Recycling",
    "request_reason": "Order Recycling Cart",
    "date_created": "2023-05-24T15:47:04.000",
    "date_modified": "2023-05-24T15:47:04.000",
    "request_status": "Pending",
    "responsible_agency": "Department of Sanitation",
    "final_address": "2401 nashville avenue",
    "address_councildis": "A",
    "status": "Pending",
    "rowid": "1002619",
    "final_x": "3667135.09684",
    "final_y": "524889.891708",
    "longitude": "-90.11365252468843",
    "latitude": "29.93769336825969",
    "geocoded_column": {
      "latitude": "29.93769336825969",
      "longitude": "-90.11365252468843"
    }
  },
  {
    "service_request": "2023-1002618",
    "request_type": "Trash/Recycling",
    "request_reason": "Replace Trash Cart",
    "date_created": "2023-05-24T15:46:16.000",
    "date_modified": "2023-05-24T15:46:16.000",
    "request_status": "Pending",
    "responsible_agency": "Department of Sanitation",
    "final_address": "2401 Nashville Avenue",
    "address_councildis": "A",
    "status": "Assigned to Contractor",
    "contractor": "Richards Disposal",
    "rowid": "1002618",
    "final_x": "3667135.09684",
    "final_y": "524889.891708",
    "longitude": "-90.11365252468843",
    "latitude": "29.93769336825969",
    "geocoded_column": {
      "latitude": "29.93769336825969",
      "longitude": "-90.11365252468843"
    }
  },
  {
    "service_request": "2023-1002617",
    "request_type": "Trash/Recycling",
    "request_reason": "Repair Trash Cart",
    "date_created": "2023-05-24T15:45:39.000",
    "date_modified": "2023-05-24T15:45:40.000",
    "request_status": "Pending",
    "responsible_agency": "Department of Sanitation",
    "final_address": "4621 Crowder Blvd",
    "address_councildis": "E",
    "status": "Assigned to Contractor",
    "contractor": "Waste Pro",
    "rowid": "1002617",
    "final_x": "3706638.66628",
    "final_y": "554829.614616",
    "longitude": "-89.98782786126796",
    "latitude": "30.018801209338367",
    "geocoded_column": {
      "latitude": "30.018801209338367",
      "longitude": "-89.98782786126796"
    }
  },
  {
    "service_request": "2023-1002616",
    "request_type": "Trash/Recycling",
    "request_reason": "Order Trash Cart",
    "date_created": "2023-05-24T15:45:34.000",
    "date_modified": "2023-05-24T15:45:35.000",
    "request_status": "Pending",
    "responsible_agency": "Department of Sanitation",
    "final_address": "8642 Hickory St",
    "address_councildis": "A",
    "status": "Assigned to Contractor",
    "contractor": "Richards Disposal",
    "rowid": "1002616",
    "final_x": "3661826.17344",
    "final_y": "531315.327234",
    "longitude": "-90.13020028987543",
    "latitude": "29.955515579340435",
    "geocoded_column": {
      "latitude": "29.955515579340435",
      "longitude": "-90.13020028987543"
    }
  },
  {
    "service_request": "2023-1002615",
    "request_type": "Trash/Recycling",
    "request_reason": "Missed Trash Pick-Up",
    "date_created": "2023-05-24T15:43:08.000",
    "date_modified": "2023-05-24T15:43:09.000",
    "request_status": "Pending",
    "responsible_agency": "Department of Sanitation",
    "final_address": "7201 General Haig St",
    "address_councildis": "D",
    "status": "Assigned to Contractor",
    "contractor": "IV Waste",
    "rowid": "1002615",
    "final_x": "3671311.55681",
    "final_y": "554609.405528",
    "longitude": "-90.0994567334929",
    "latitude": "30.019289029285687",
    "geocoded_column": {
      "latitude": "30.019289029285687",
      "longitude": "-90.0994567334929"
    }
  },
  {
    "service_request": "2023-1002614",
    "request_type": "Trash/Recycling",
    "request_reason": "Request a Large Item Pick Up",
    "date_created": "2023-05-24T15:42:39.000",
    "date_modified": "2023-05-24T15:42:40.000",
    "request_status": "Pending",
    "responsible_agency": "Department of Sanitation",
    "final_address": "3017 Annunciation St",
    "address_councildis": "B",
    "status": "Assigned to Contractor",
    "contractor": "Richards Disposal",
    "rowid": "1002614",
    "final_x": "3676832.45985",
    "final_y": "519411.209015",
    "longitude": "-90.0832258883894",
    "latitude": "29.922341384031586",
    "geocoded_column": {
      "latitude": "29.922341384031586",
      "longitude": "-90.0832258883894"
    }
  },
  {
    "service_request": "2023-1002613",
    "request_type": "Traffic Signals/Signs/Striping/Streetlights",
    "request_reason": "Street Light Outage/Malfunction",
    "date_created": "2023-05-24T15:41:22.000",
    "date_modified": "2023-05-24T15:41:23.000",
    "request_status": "Pending",
    "responsible_agency": "Department of Public Works",
    "final_address": "4937 Stephen Girard Ave",
    "address_councildis": "D",
    "status": "Assigned to Contractor",
    "contractor": "Legacy Professional Services",
    "rowid": "1002613",
    "final_x": "3692314.17021",
    "final_y": "551053.423445",
    "longitude": "-90.03322336963963",
    "latitude": "30.00887281369597",
    "geocoded_column": {
      "latitude": "30.00887281369597",
      "longitude": "-90.03322336963963"
    }
  },
  {
    "service_request": "2023-1002612",
    "request_type": "Trash/Recycling",
    "request_reason": "Missed Trash Pick-Up",
    "date_created": "2023-05-24T15:40:46.000",
    "date_modified": "2023-05-24T15:40:47.000",
    "request_status": "Pending",
    "responsible_agency": "Department of Sanitation",
    "final_address": "1034 S Genois St",
    "address_councildis": "B",
    "status": "Assigned to Contractor",
    "contractor": "Richards Disposal",
    "rowid": "1002612",
    "final_x": "3669927.65415",
    "final_y": "533464.171396",
    "longitude": "-90.10454589032412",
    "latitude": "29.961187801730617",
    "geocoded_column": {
      "latitude": "29.961187801730617",
      "longitude": "-90.10454589032412"
    }
  },
  {
    "service_request": "2023-1002611",
    "request_type": "Abandoned Vehicles",
    "request_reason": "Abandoned/Junk Vehicles",
    "date_created": "2023-05-24T15:40:43.000",
    "date_modified": "2023-05-24T15:40:44.000",
    "request_status": "Pending",
    "responsible_agency": "Department of Public Works",
    "final_address": "N ROMAN ST & PIETY ST",
    "address_councildis": "D",
    "status": "Pending",
    "rowid": "1002611",
    "final_x": "3690489.4",
    "final_y": "538419.68",
    "longitude": "-90.03943911477798",
    "latitude": "29.9741913848963",
    "geocoded_column": {
      "latitude": "29.9741913848963",
      "longitude": "-90.03943911477798"
    }
  },
  {
    "service_request": "2023-1002610",
    "request_type": "Trash/Recycling",
    "request_reason": "Replace Trash Cart",
    "date_created": "2023-05-24T15:33:14.000",
    "date_modified": "2023-05-24T15:33:15.000",
    "request_status": "Pending",
    "responsible_agency": "Department of Sanitation",
    "final_address": "7170 Pinebrook Dr",
    "address_councildis": "E",
    "status": "Assigned to Contractor",
    "contractor": "Waste Pro",
    "rowid": "1002610",
    "final_x": "3719091.95461",
    "final_y": "570285.305063",
    "longitude": "-89.94788994291613",
    "latitude": "30.060890096573456",
    "geocoded_column": {
      "latitude": "30.060890096573456",
      "longitude": "-89.94788994291613"
    }
  },
  {
    "service_request": "2023-1002609",
    "request_type": "Trash/Recycling",
    "request_reason": "Replace Trash Cart",
    "date_created": "2023-05-24T15:31:05.000",
    "date_modified": "2023-05-24T15:31:05.000",
    "request_status": "Pending",
    "responsible_agency": "Department of Sanitation",
    "final_address": "9013 Olive St",
    "address_councildis": "A",
    "status": "Assigned to Contractor",
    "contractor": "Richards Disposal",
    "rowid": "1002609",
    "final_x": "3664829.40192",
    "final_y": "536426.704007",
    "longitude": "-90.120546304541",
    "latitude": "29.96948313886403",
    "geocoded_column": {
      "latitude": "29.96948313886403",
      "longitude": "-90.120546304541"
    }
  },
  {
    "service_request": "2023-1002608",
    "request_type": "Trash/Recycling",
    "request_reason": "Order Recycling Cart",
    "date_created": "2023-05-24T15:26:28.000",
    "date_modified": "2023-05-24T15:26:29.000",
    "request_status": "Pending",
    "responsible_agency": "Department of Sanitation",
    "final_address": "2431 Gallier St",
    "address_councildis": "D",
    "status": "Pending",
    "rowid": "1002608",
    "final_x": "3691781.7974",
    "final_y": "540772.996171",
    "longitude": "-90.03527324377274",
    "latitude": "29.98062197428384",
    "geocoded_column": {
      "latitude": "29.98062197428384",
      "longitude": "-90.03527324377274"
    }
  },
  {
    "service_request": "2023-1002607",
    "request_type": "Trash/Recycling",
    "request_reason": "Order Trash Cart",
    "date_created": "2023-05-24T15:26:16.000",
    "date_modified": "2023-05-24T15:26:17.000",
    "request_status": "Pending",
    "responsible_agency": "Department of Sanitation",
    "final_address": "2431 Gallier St",
    "address_councildis": "D",
    "status": "Assigned to Contractor",
    "contractor": "IV Waste",
    "rowid": "1002607",
    "final_x": "3691781.7974",
    "final_y": "540772.996171",
    "longitude": "-90.03527324377274",
    "latitude": "29.98062197428384",
    "geocoded_column": {
      "latitude": "29.98062197428384",
      "longitude": "-90.03527324377274"
    }
  },
  {
    "service_request": "2023-1002606",
    "request_type": "Trash/Recycling",
    "request_reason": "Request a Large Item Pick Up",
    "date_created": "2023-05-24T15:24:43.000",
    "date_modified": "2023-05-24T15:24:44.000",
    "request_status": "Pending",
    "responsible_agency": "Department of Sanitation",
    "final_address": "5705 Willow St",
    "address_councildis": "A",
    "status": "Assigned to Contractor",
    "contractor": "Richards Disposal",
    "rowid": "1002606",
    "final_x": "3667520.01556",
    "final_y": "525484.605565",
    "longitude": "-90.11241729675683",
    "latitude": "29.93931736867204",
    "geocoded_column": {
      "latitude": "29.93931736867204",
      "longitude": "-90.11241729675683"
    }
  },
  {
    "service_request": "2023-1002605",
    "request_type": "Trash/Recycling",
    "request_reason": "MIssed Recycling Pick-Up",
    "date_created": "2023-05-24T15:24:39.000",
    "date_modified": "2023-05-24T15:24:40.000",
    "request_status": "Pending",
    "responsible_agency": "Department of Sanitation",
    "final_address": "1414 Thalia St",
    "address_councildis": "B",
    "status": "Assigned to Contractor",
    "contractor": "Richards Disposal",
    "rowid": "1002605",
    "final_x": "3679948.76213",
    "final_y": "525393.123261",
    "longitude": "-90.07318133628526",
    "latitude": "29.93869583004208",
    "geocoded_column": {
      "latitude": "29.93869583004208",
      "longitude": "-90.07318133628526"
    }
  },
  {
    "service_request": "2023-1002604",
    "request_type": "Traffic Signals/Signs/Striping/Streetlights",
    "request_reason": "Street Light Knocked Down/Leaning",
    "date_created": "2023-05-24T15:23:44.000",
    "date_modified": "2023-05-24T15:23:44.000",
    "request_status": "Pending",
    "responsible_agency": "Department of Public Works",
    "final_address": "200 Westchester St",
    "address_councildis": "C",
    "status": "Pending",
    "contractor": "Legacy Professional Services",
    "rowid": "1002604",
    "final_x": "3706151.93822",
    "final_y": "521092.157881",
    "longitude": "-89.99061487321251",
    "latitude": "29.926051300205717",
    "geocoded_column": {
      "latitude": "29.926051300205717",
      "longitude": "-89.99061487321251"
    }
  },
  {
    "service_request": "2023-1002603",
    "request_type": "Trash/Recycling",
    "request_reason": "Request a Large Item Pick Up",
    "date_created": "2023-05-24T15:22:45.000",
    "date_modified": "2023-05-24T15:22:46.000",
    "request_status": "Pending",
    "responsible_agency": "Department of Sanitation",
    "final_address": "2620 Jena St",
    "address_councildis": "B",
    "status": "Assigned to Contractor",
    "contractor": "Richards Disposal",
    "rowid": "1002603",
    "final_x": "3670046.62778",
    "final_y": "524474.924668",
    "longitude": "-90.10447462297192",
    "latitude": "29.936466805062743",
    "geocoded_column": {
      "latitude": "29.936466805062743",
      "longitude": "-90.10447462297192"
    }
  },
  {
    "service_request": "2023-1002601",
    "request_type": "Roads/Drainage",
    "request_reason": "Damaged Sidewalk",
    "date_created": "2023-05-24T15:21:06.000",
    "date_modified": "2023-05-24T15:21:07.000",
    "request_status": "Pending",
    "responsible_agency": "Department of Public Works",
    "final_address": "1833 Kabel Dr",
    "address_councildis": "C",
    "status": "Pending",
    "rowid": "1002601",
    "final_x": "3700617.63825",
    "final_y": "521011.515001",
    "longitude": "-90.00808787324397",
    "latitude": "29.92600672144436",
    "geocoded_column": {
      "latitude": "29.92600672144436",
      "longitude": "-90.00808787324397"
    }
  },
  {
    "service_request": "2023-1002600",
    "request_type": "Roads/Drainage",
    "request_reason": "Catch Basin - Clogged",
    "date_created": "2023-05-24T15:19:28.000",
    "date_modified": "2023-05-24T15:19:28.000",
    "request_status": "Pending",
    "responsible_agency": "Department of Public Works",
    "final_address": "1833 Kabel Dr",
    "address_councildis": "C",
    "status": "Pending",
    "rowid": "1002600",
    "final_x": "3700617.63825",
    "final_y": "521011.515001",
    "longitude": "-90.00808787324397",
    "latitude": "29.92600672144436",
    "geocoded_column": {
      "latitude": "29.92600672144436",
      "longitude": "-90.00808787324397"
    }
  },
  {
    "service_request": "2023-1002599",
    "request_type": "Trash/Recycling",
    "request_reason": "Repair Trash Cart",
    "date_created": "2023-05-24T15:13:10.000",
    "date_modified": "2023-05-24T15:13:11.000",
    "request_status": "Pending",
    "responsible_agency": "Department of Sanitation",
    "final_address": "531 Dufossat St",
    "address_councildis": "B",
    "status": "Assigned to Contractor",
    "contractor": "Richards Disposal",
    "rowid": "1002599",
    "final_x": "3668042.61319",
    "final_y": "517463.503734",
    "longitude": "-90.11103751733742",
    "latitude": "29.91724656707029",
    "geocoded_column": {
      "latitude": "29.91724656707029",
      "longitude": "-90.11103751733742"
    }
  },
  {
    "service_request": "2023-1002598",
    "request_type": "Trash/Recycling",
    "request_reason": "Order Trash Cart",
    "date_created": "2023-05-24T15:12:56.000",
    "date_modified": "2023-05-24T15:12:57.000",
    "request_status": "Pending",
    "responsible_agency": "Department of Sanitation",
    "final_address": "1985 Jo Ann Pl",
    "address_councildis": "C",
    "status": "Assigned to Contractor",
    "contractor": "Richards Disposal",
    "rowid": "1002598",
    "final_x": "3695039.50269",
    "final_y": "523171.584507",
    "longitude": "-90.02561850757942",
    "latitude": "29.932122393002317",
    "geocoded_column": {
      "latitude": "29.932122393002317",
      "longitude": "-90.02561850757942"
    }
  },
  {
    "service_request": "2023-1002597",
    "request_type": "Trash/Recycling",
    "request_reason": "Order Recycling Cart",
    "date_created": "2023-05-24T15:10:20.000",
    "date_modified": "2023-05-24T15:10:20.000",
    "request_status": "Pending",
    "responsible_agency": "Department of Sanitation",
    "final_address": "1519 S Norman C Francis Prkwy",
    "address_councildis": "B",
    "status": "Pending",
    "rowid": "1002597",
    "final_x": "3669418.77594",
    "final_y": "531310.76237",
    "longitude": "-90.10622566455008",
    "latitude": "29.955281633456583",
    "geocoded_column": {
      "latitude": "29.955281633456583",
      "longitude": "-90.10622566455008"
    }
  },
  {
    "service_request": "2023-1002596",
    "request_type": "Trash/Recycling",
    "request_reason": "Request a Large Item Pick Up",
    "date_created": "2023-05-24T15:08:51.000",
    "date_modified": "2023-05-24T15:08:52.000",
    "request_status": "Pending",
    "responsible_agency": "Department of Sanitation",
    "final_address": "5545 Marcia Ave",
    "address_councildis": "A",
    "status": "Assigned to Contractor",
    "contractor": "IV Waste",
    "rowid": "1002596",
    "final_x": "3664936.84186",
    "final_y": "544660.436303",
    "longitude": "-90.11993163864445",
    "latitude": "29.992120013097693",
    "geocoded_column": {
      "latitude": "29.992120013097693",
      "longitude": "-90.11993163864445"
    }
  },
  {
    "service_request": "2023-1002595",
    "request_type": "Trash/Recycling",
    "request_reason": "Missed Trash Pick-Up",
    "date_created": "2023-05-24T15:03:15.000",
    "date_modified": "2023-05-24T15:03:17.000",
    "request_status": "Pending",
    "responsible_agency": "Department of Sanitation",
    "final_address": "10740 Dwyer Rd",
    "address_councildis": "E",
    "status": "Assigned to Contractor",
    "contractor": "Waste Pro",
    "rowid": "1002595",
    "final_x": "3715190.35275",
    "final_y": "558247.877532",
    "longitude": "-89.96067849876772",
    "latitude": "30.027921191897622",
    "geocoded_column": {
      "latitude": "30.027921191897622",
      "longitude": "-89.96067849876772"
    }
  },
  {
    "service_request": "2023-1002594",
    "request_type": "Trash/Recycling",
    "request_reason": "Repair Trash Cart",
    "date_created": "2023-05-24T15:02:33.000",
    "date_modified": "2023-05-24T15:02:33.000",
    "request_status": "Pending",
    "responsible_agency": "Department of Sanitation",
    "final_address": "5914 Garfield St",
    "address_councildis": "A",
    "status": "Assigned to Contractor",
    "contractor": "Richards Disposal",
    "rowid": "1002594",
    "final_x": "3665575.6976",
    "final_y": "521339.565561",
    "longitude": "-90.11869450428509",
    "latitude": "29.927976648269695",
    "geocoded_column": {
      "latitude": "29.927976648269695",
      "longitude": "-90.11869450428509"
    }
  },
  {
    "service_request": "2023-1002593",
    "request_type": "Trash/Recycling",
    "request_reason": "Request a Large Item Pick Up",
    "date_created": "2023-05-24T15:01:03.000",
    "date_modified": "2023-05-24T15:01:04.000",
    "request_status": "Pending",
    "responsible_agency": "Department of Sanitation",
    "final_address": "7312 Maple St",
    "address_councildis": "A",
    "status": "Assigned to Contractor",
    "contractor": "Richards Disposal",
    "rowid": "1002593",
    "final_x": "3663002.68723",
    "final_y": "525535.458173",
    "longitude": "-90.12667745870749",
    "latitude": "29.939588774272956",
    "geocoded_column": {
      "latitude": "29.939588774272956",
      "longitude": "-90.12667745870749"
    }
  },
  {
    "service_request": "2023-1002592",
    "request_type": "Trash/Recycling",
    "request_reason": "Request a Large Item Pick Up",
    "date_created": "2023-05-24T15:00:36.000",
    "date_modified": "2023-05-24T15:00:37.000",
    "request_status": "Pending",
    "responsible_agency": "Department of Sanitation",
    "final_address": "7310 Maple St",
    "address_councildis": "A",
    "status": "Assigned to Contractor",
    "contractor": "Richards Disposal",
    "rowid": "1002592",
    "final_x": "3663017.00237",
    "final_y": "525525.364285",
    "longitude": "-90.12663259924192",
    "latitude": "29.939560604771977",
    "geocoded_column": {
      "latitude": "29.939560604771977",
      "longitude": "-90.12663259924192"
    }
  },
  {
    "service_request": "2023-1002591",
    "request_type": "Trash/Recycling",
    "request_reason": "Missed Trash Pick-Up",
    "date_created": "2023-05-24T14:59:58.000",
    "date_modified": "2023-05-24T14:59:59.000",
    "request_status": "Pending",
    "responsible_agency": "Department of Sanitation",
    "final_address": "7312 Maple St",
    "address_councildis": "A",
    "status": "Assigned to Contractor",
    "contractor": "Richards Disposal",
    "rowid": "1002591",
    "final_x": "3663002.68723",
    "final_y": "525535.458173",
    "longitude": "-90.12667745870749",
    "latitude": "29.939588774272956",
    "geocoded_column": {
      "latitude": "29.939588774272956",
      "longitude": "-90.12667745870749"
    }
  },
  {
    "service_request": "2023-1002590",
    "request_type": "Trash/Recycling",
    "request_reason": "Missed Trash Pick-Up",
    "date_created": "2023-05-24T14:59:32.000",
    "date_modified": "2023-05-24T14:59:33.000",
    "request_status": "Pending",
    "responsible_agency": "Department of Sanitation",
    "final_address": "7310 Maple St",
    "address_councildis": "A",
    "status": "Assigned to Contractor",
    "contractor": "Richards Disposal",
    "rowid": "1002590",
    "final_x": "3663017.00237",
    "final_y": "525525.364285",
    "longitude": "-90.12663259924192",
    "latitude": "29.939560604771977",
    "geocoded_column": {
      "latitude": "29.939560604771977",
      "longitude": "-90.12663259924192"
    }
  },
  {
    "service_request": "2023-1002589",
    "request_type": "Trash/Recycling",
    "request_reason": "Repair Recycling Cart",
    "date_created": "2023-05-24T14:59:31.000",
    "date_modified": "2023-05-24T15:31:45.000",
    "request_status": "Pending",
    "responsible_agency": "Department of Sanitation",
    "final_address": "1448 Verna Court 70119",
    "address_councildis": "A",
    "rowid": "1002589",
    "final_x": "3675859.82229",
    "final_y": "541255.74382",
    "longitude": "-90.0855452176122",
    "latitude": "29.982435715257733",
    "geocoded_column": {
      "latitude": "29.982435715257733",
      "longitude": "-90.0855452176122"
    }
  },
  {
    "service_request": "2023-1002588",
    "request_type": "Property Maintenance",
    "request_reason": "Property Maintenance",
    "date_created": "2023-05-24T14:58:17.000",
    "date_modified": "2023-05-24T14:58:18.000",
    "request_status": "Pending",
    "responsible_agency": "Department of Code Enforcement",
    "final_address": "505 Pelican Ave",
    "address_councildis": "C",
    "status": "Pending",
    "rowid": "1002588",
    "final_x": "3686932.6927",
    "final_y": "530717.257154",
    "longitude": "-90.05094424305585",
    "latitude": "29.95312234775022",
    "geocoded_column": {
      "latitude": "29.95312234775022",
      "longitude": "-90.05094424305585"
    }
  },
  {
    "service_request": "2023-1002587",
    "request_type": "Abandoned Vehicles",
    "request_reason": "Abandoned/Junk Vehicles",
    "date_created": "2023-05-24T14:53:34.000",
    "date_modified": "2023-05-24T15:00:54.000",
    "request_status": "Pending",
    "responsible_agency": "Department of Public Works",
    "final_address": "2200 BLK Frenchmen St",
    "address_councildis": "D",
    "status": "Pending",
    "rowid": "1002587",
    "final_x": "3684249.05404",
    "final_y": "540506.549352",
    "longitude": "-90.05907424733773",
    "latitude": "29.980121828404233",
    "geocoded_column": {
      "latitude": "29.980121828404233",
      "longitude": "-90.05907424733773"
    }
  },
  {
    "service_request": "2023-1002586",
    "request_type": "Trash/Recycling",
    "request_reason": "Request a Large Item Pick Up",
    "date_created": "2023-05-24T14:45:21.000",
    "date_modified": "2023-05-24T14:45:22.000",
    "request_status": "Pending",
    "responsible_agency": "Department of Sanitation",
    "final_address": "7142 Parkside Ct",
    "address_councildis": "E",
    "status": "Assigned to Contractor",
    "contractor": "Waste Pro",
    "rowid": "1002586",
    "final_x": "3704393.81591",
    "final_y": "560181.923037",
    "longitude": "-89.9947231696719",
    "latitude": "30.03359027035011",
    "geocoded_column": {
      "latitude": "30.03359027035011",
      "longitude": "-89.9947231696719"
    }
  },
  {
    "service_request": "2023-1002585",
    "request_type": "Roads/Drainage",
    "request_reason": "Drainage Issue (Catch Basins, Culverts, Ditches, and Manhole Covers)",
    "date_created": "2023-05-24T14:44:08.000",
    "date_modified": "2023-05-24T14:44:08.000",
    "request_status": "Pending",
    "responsible_agency": "Department of Public Works",
    "final_address": "3001 Baudin St",
    "address_councildis": "B",
    "status": "Pending",
    "rowid": "1002585",
    "final_x": "3673368.1138",
    "final_y": "534636.603654",
    "longitude": "-90.09364146318771",
    "latitude": "29.964309699870952",
    "geocoded_column": {
      "latitude": "29.964309699870952",
      "longitude": "-90.09364146318771"
    }
  },
  {
    "service_request": "2023-1002584",
    "request_type": "Trash/Recycling",
    "request_reason": "MIssed Recycling Pick-Up",
    "date_created": "2023-05-24T14:41:36.000",
    "date_modified": "2023-05-24T14:41:36.000",
    "request_status": "Pending",
    "responsible_agency": "Department of Sanitation",
    "final_address": "708 Thayer St",
    "address_councildis": "C",
    "status": "Assigned to Contractor",
    "contractor": "Richards Disposal",
    "rowid": "1002584",
    "final_x": "3689534.17615",
    "final_y": "528912.367808",
    "longitude": "-90.04279410376016",
    "latitude": "29.94807921014022",
    "geocoded_column": {
      "latitude": "29.94807921014022",
      "longitude": "-90.04279410376016"
    }
  },
  {
    "service_request": "2023-1002583",
    "request_type": "Trash/Recycling",
    "request_reason": "Request a Large Item Pick Up",
    "date_created": "2023-05-24T14:39:56.000",
    "date_modified": "2023-05-24T14:56:51.000",
    "request_status": "Pending",
    "responsible_agency": "Department of Sanitation",
    "final_address": "2658 Touro St",
    "address_councildis": "D",
    "contractor": "IV Waste",
    "rowid": "1002583",
    "final_x": "3683713.15727",
    "final_y": "542334.425485",
    "longitude": "-90.06070271154667",
    "latitude": "29.98516422083523",
    "geocoded_column": {
      "latitude": "29.98516422083523",
      "longitude": "-90.06070271154667"
    }
  },
  {
    "service_request": "2023-1002582",
    "request_type": "Trash/Recycling",
    "request_reason": "Missed Trash Pick-Up",
    "date_created": "2023-05-24T14:37:35.000",
    "date_modified": "2023-05-24T14:56:17.000",
    "case_close_date": "2023-05-24T09:56:17.000",
    "request_status": "Closed",
    "responsible_agency": "Department of Sanitation",
    "final_address": "2658 Touro St",
    "address_councildis": "D",
    "status": "Duplicate Request",
    "contractor": "IV Waste",
    "contractor_action": "duplicate",
    "rowid": "1002582",
    "final_x": "3683713.15727",
    "final_y": "542334.425485",
    "longitude": "-90.06070271154667",
    "latitude": "29.98516422083523",
    "geocoded_column": {
      "latitude": "29.98516422083523",
      "longitude": "-90.06070271154667"
    }
  },
  {
    "service_request": "2023-1002581",
    "request_type": "Trash/Recycling",
    "request_reason": "Illegal Dumping",
    "date_created": "2023-05-24T14:35:43.000",
    "date_modified": "2023-05-24T14:38:39.000",
    "request_status": "Pending",
    "responsible_agency": "Department of Sanitation",
    "final_address": "2300 BLK Frenchmen St",
    "address_councildis": "D",
    "status": "Pending",
    "rowid": "1002581",
    "final_x": "3684220.51013",
    "final_y": "540876.332405",
    "longitude": "-90.05915141338691",
    "latitude": "29.98113947469722",
    "geocoded_column": {
      "latitude": "29.98113947469722",
      "longitude": "-90.05915141338691"
    }
  },
  {
    "service_request": "2023-1002580",
    "request_type": "Trash/Recycling",
    "request_reason": "Request a Large Item Pick Up",
    "date_created": "2023-05-24T14:34:46.000",
    "date_modified": "2023-05-24T14:34:46.000",
    "request_status": "Pending",
    "responsible_agency": "Department of Sanitation",
    "final_address": "11260 Fernley Dr",
    "address_councildis": "E",
    "status": "Assigned to Contractor",
    "contractor": "Waste Pro",
    "rowid": "1002580",
    "final_x": "3717616.01676",
    "final_y": "559921.507293",
    "longitude": "-89.95294994557042",
    "latitude": "30.03244287951459",
    "geocoded_column": {
      "latitude": "30.03244287951459",
      "longitude": "-89.95294994557042"
    }
  },
  {
    "service_request": "2023-1002579",
    "request_type": "Trash/Recycling",
    "request_reason": "Request a Large Item Pick Up",
    "date_created": "2023-05-24T14:33:47.000",
    "date_modified": "2023-05-24T14:33:48.000",
    "request_status": "Pending",
    "responsible_agency": "Department of Sanitation",
    "final_address": "1943 Mazant St",
    "address_councildis": "D",
    "status": "Assigned to Contractor",
    "contractor": "IV Waste",
    "rowid": "1002579",
    "final_x": "3692984.46966",
    "final_y": "538555.552265",
    "longitude": "-90.03155426530806",
    "latitude": "29.97448727906426",
    "geocoded_column": {
      "latitude": "29.97448727906426",
      "longitude": "-90.03155426530806"
    }
  },
  {
    "service_request": "2023-1002578",
    "request_type": "Trash/Recycling",
    "request_reason": "Missed Trash Pick-Up",
    "date_created": "2023-05-24T14:33:31.000",
    "date_modified": "2023-05-24T15:12:22.000",
    "case_close_date": "2023-05-24T10:12:22.000",
    "request_status": "Closed",
    "responsible_agency": "Department of Sanitation",
    "final_address": "4845 Charlene Dr",
    "address_councildis": "E",
    "status": "Invalid Request",
    "contractor": "Waste Pro",
    "contractor_action": "Invalid Pick-Up",
    "rowid": "1002578",
    "final_x": "3707889.69022",
    "final_y": "556354.937178",
    "longitude": "-89.98381834501588",
    "latitude": "30.022954801527543",
    "geocoded_column": {
      "latitude": "30.022954801527543",
      "longitude": "-89.98381834501588"
    }
  },
  {
    "service_request": "2023-1002577",
    "request_type": "Trash/Recycling",
    "request_reason": "Request a Large Item Pick Up",
    "date_created": "2023-05-24T14:32:44.000",
    "date_modified": "2023-05-24T14:32:45.000",
    "request_status": "Pending",
    "responsible_agency": "Department of Sanitation",
    "final_address": "2556 N Tonti St",
    "address_councildis": "D",
    "status": "Assigned to Contractor",
    "contractor": "IV Waste",
    "rowid": "1002577",
    "final_x": "3687002.92303",
    "final_y": "540872.466123",
    "longitude": "-90.05036345483028",
    "latitude": "29.981043474526093",
    "geocoded_column": {
      "latitude": "29.981043474526093",
      "longitude": "-90.05036345483028"
    }
  },
  {
    "service_request": "2023-1002576",
    "request_type": "Roads/Drainage",
    "request_reason": "Pothole",
    "date_created": "2023-05-24T14:30:18.000",
    "date_modified": "2023-05-24T14:30:18.000",
    "request_status": "Pending",
    "responsible_agency": "Department of Public Works",
    "final_address": "2234 General Collins Ave",
    "address_councildis": "C",
    "status": "Pending",
    "rowid": "1002576",
    "final_x": "3698495.50954",
    "final_y": "522722.602042",
    "longitude": "-90.01472461394138",
    "latitude": "29.930778940048388",
    "geocoded_column": {
      "latitude": "29.930778940048388",
      "longitude": "-90.01472461394138"
    }
  },
  {
    "service_request": "2023-1002575",
    "request_type": "Traffic Signals/Signs/Striping/Streetlights",
    "request_reason": "Street Light Outage/Malfunction",
    "date_created": "2023-05-24T14:25:00.000",
    "date_modified": "2023-05-24T14:25:01.000",
    "request_status": "Pending",
    "responsible_agency": "Department of Public Works",
    "final_address": "3569 Roger Williams St",
    "address_councildis": "D",
    "status": "Assigned to Contractor",
    "contractor": "Legacy Professional Services",
    "rowid": "1002575",
    "final_x": "3675776.00245",
    "final_y": "544071.524238",
    "longitude": "-90.08571312617877",
    "latitude": "29.990180645191703",
    "geocoded_column": {
      "latitude": "29.990180645191703",
      "longitude": "-90.08571312617877"
    }
  },
  {
    "service_request": "2023-1002574",
    "request_type": "Trash/Recycling",
    "request_reason": "Replace Trash Cart",
    "date_created": "2023-05-24T14:24:15.000",
    "date_modified": "2023-05-24T14:24:15.000",
    "request_status": "Pending",
    "responsible_agency": "Department of Sanitation",
    "final_address": "1642 N Broad St",
    "address_councildis": "D",
    "status": "Assigned to Contractor",
    "contractor": "IV Waste",
    "rowid": "1002574",
    "final_x": "3679414.11419",
    "final_y": "540432.913867",
    "longitude": "-90.07434756909305",
    "latitude": "29.980066314070616",
    "geocoded_column": {
      "latitude": "29.980066314070616",
      "longitude": "-90.07434756909305"
    }
  },
  {
    "service_request": "2023-1002573",
    "request_type": "Trash/Recycling",
    "request_reason": "Dead Animal Pick Up",
    "date_created": "2023-05-24T14:23:15.000",
    "date_modified": "2023-05-24T14:23:15.000",
    "request_status": "Pending",
    "responsible_agency": "Department of Sanitation",
    "final_address": "1210 Mazant St",
    "address_councildis": "D",
    "status": "Assigned to Contractor",
    "contractor": "IV Waste",
    "rowid": "1002573",
    "final_x": "3692181.13513",
    "final_y": "535688.037127",
    "longitude": "-90.03419405827967",
    "latitude": "29.966627698128256",
    "geocoded_column": {
      "latitude": "29.966627698128256",
      "longitude": "-90.03419405827967"
    }
  },
  {
    "service_request": "2023-1002572",
    "request_type": "Trash/Recycling",
    "request_reason": "MIssed Recycling Pick-Up",
    "date_created": "2023-05-24T14:21:57.000",
    "date_modified": "2023-05-24T14:21:58.000",
    "request_status": "Pending",
    "responsible_agency": "Department of Sanitation",
    "final_address": "708 Thayer St",
    "address_councildis": "C",
    "status": "Assigned to Contractor",
    "contractor": "Richards Disposal",
    "rowid": "1002572",
    "final_x": "3689534.17615",
    "final_y": "528912.367808",
    "longitude": "-90.04279410376016",
    "latitude": "29.94807921014022",
    "geocoded_column": {
      "latitude": "29.94807921014022",
      "longitude": "-90.04279410376016"
    }
  },
  {
    "service_request": "2023-1002571",
    "request_type": "Trash/Recycling",
    "request_reason": "Illegal Dumping",
    "date_created": "2023-05-24T14:19:45.000",
    "date_modified": "2023-05-24T14:19:46.000",
    "request_status": "Pending",
    "responsible_agency": "Department of Sanitation",
    "final_address": "6600 Plaza Dr",
    "address_councildis": "E",
    "status": "Pending",
    "rowid": "1002571",
    "final_x": "3708850.27352",
    "final_y": "559325.824029",
    "longitude": "-89.98067232855801",
    "latitude": "30.03109243247626",
    "geocoded_column": {
      "latitude": "30.03109243247626",
      "longitude": "-89.98067232855801"
    }
  },
  {
    "service_request": "2023-1002569",
    "request_type": "Trash/Recycling",
    "request_reason": "Missed Trash Pick-Up",
    "date_created": "2023-05-24T14:14:18.000",
    "date_modified": "2023-05-24T14:14:18.000",
    "request_status": "Pending",
    "responsible_agency": "Department of Sanitation",
    "final_address": "4759 Arthur Dr",
    "address_councildis": "E",
    "status": "Assigned to Contractor",
    "contractor": "Waste Pro",
    "rowid": "1002569",
    "final_x": "3707746.48555",
    "final_y": "555643.184985",
    "longitude": "-89.9842973134996",
    "latitude": "30.02100239669231",
    "geocoded_column": {
      "latitude": "30.02100239669231",
      "longitude": "-89.9842973134996"
    }
  },
  {
    "service_request": "2023-1002568",
    "request_type": "Trash/Recycling",
    "request_reason": "Order Trash Cart",
    "date_created": "2023-05-24T14:11:26.000",
    "date_modified": "2023-05-24T14:11:27.000",
    "request_status": "Pending",
    "responsible_agency": "Department of Sanitation",
    "final_address": "9 Warbler St",
    "address_councildis": "D",
    "status": "Assigned to Contractor",
    "contractor": "IV Waste",
    "rowid": "1002568",
    "final_x": "3672557.68046",
    "final_y": "557000.500634",
    "longitude": "-90.09543777885105",
    "latitude": "30.025826726504068",
    "geocoded_column": {
      "latitude": "30.025826726504068",
      "longitude": "-90.09543777885105"
    }
  },
  {
    "service_request": "2023-1002567",
    "request_type": "Trash/Recycling",
    "request_reason": "Replace Trash Cart",
    "date_created": "2023-05-24T14:10:49.000",
    "date_modified": "2023-05-24T14:10:49.000",
    "request_status": "Pending",
    "responsible_agency": "Department of Sanitation",
    "final_address": "4219 Vincennes Pl",
    "address_councildis": "B",
    "status": "Assigned to Contractor",
    "contractor": "Richards Disposal",
    "rowid": "1002567",
    "final_x": "3668814.08634",
    "final_y": "531366.68269",
    "longitude": "-90.10813317033319",
    "latitude": "29.955453188294452",
    "geocoded_column": {
      "latitude": "29.955453188294452",
      "longitude": "-90.10813317033319"
    }
  },