[
  {
    "service_request": "2024-1152477",
    "request_type": "Trash/Recycling",
    "request_reason": "Order Second Trash Cart",
    "date_created": "2024-12-02T22:51:34.000",
    "date_modified": "2024-12-02T22:51:35.000",
    "request_status": "Pending",
    "responsible_agency": "Department of Sanitation",
    "final_address": "841 Emerald St",
    "address_councildis": "D",
    "status": "Assigned to Contractor",
    "contractor": "IV Waste",
    "rowid": "1152477",
    "final_x": "3670555.59252",
    "final_y": "554955.284056",
    "longitude": "-90.10183358399894",
    "latitude": "30.020262433617994",
    "geocoded_column": {
      "latitude": "30.020262433617994",
      "longitude": "-90.10183358399894"
    }
  },
  {
    "service_request": "2024-1152476",
    "request_type": "Abandoned Vehicles",
    "request_reason": "Abandoned/Junk Vehicles",
    "date_created": "2024-12-02T22:25:06.000",
    "date_modified": "2024-12-02T22:25:06.000",
    "request_status": "Pending",
    "responsible_agency": "Department of Public Works",
    "final_address": "2819 Baronne St",
    "address_councildis": "B",
    "status": "Pending",
    "rowid": "1152476",
    "final_x": "3675345.34177",
    "final_y": "523074.058491",
    "longitude": "-90.08779443633823",
    "latitude": "29.93245756305682",
    "geocoded_column": {
      "latitude": "29.93245756305682",
      "longitude": "-90.08779443633823"
    }
  },
  {
    "service_request": "2024-1152475",
    "request_type": "Property Maintenance",
    "request_reason": "Property Maintenance",
    "date_created": "2024-12-02T21:33:57.000",
    "date_modified": "2024-12-02T21:33:57.000",
    "request_status": "Pending",
    "responsible_agency": "Department of Code Enforcement",
    "final_address": "2127 Congress St",
    "address_councildis": "D",
    "status": "Pending",
    "rowid": "1152475",
    "final_x": "3691745.53801",
    "final_y": "539568.979786",
    "longitude": "-90.0354308409088",
    "latitude": "29.977312488457997",
    "geocoded_column": {
      "latitude": "29.977312488457997",
      "longitude": "-90.0354308409088"
    }
  },
  {
    "service_request": "2024-1152474",
    "request_type": "Trash/Recycling",
    "request_reason": "MIssed Recycling Pick-Up",
    "date_created": "2024-12-02T21:25:34.000",
    "date_modified": "2024-12-02T21:25:35.000",
    "request_status": "Pending",
    "responsible_agency": "Department of Sanitation",
    "final_address": "2018 Shalett St",
    "address_councildis": "C",
    "status": "Assigned to Contractor",
    "contractor": "Richards Disposal",
    "rowid": "1152474",
    "final_x": "3694255.69603",
    "final_y": "523034.714683",
    "longitude": "-90.02809781765497",
    "latitude": "29.931770621170113",
    "geocoded_column": {
      "latitude": "29.931770621170113",
      "longitude": "-90.02809781765497"
    }
  },
  {
    "service_request": "2024-1152473",
    "request_type": "Property Maintenance",
    "request_reason": "Property Maintenance",
    "date_created": "2024-12-02T21:16:52.000",
    "date_modified": "2024-12-02T21:16:52.000",
    "request_status": "Pending",
    "responsible_agency": "Department of Code Enforcement",
    "final_address": "2129 Congress St",
    "address_councildis": "D",
    "status": "Pending",
    "rowid": "1152473",
    "final_x": "3691748.3158",
    "final_y": "539586.340938",
    "longitude": "-90.0354214466712",
    "latitude": "29.977360138923498",
    "geocoded_column": {
      "latitude": "29.977360138923498",
      "longitude": "-90.0354214466712"
    }
  },
  {
    "service_request": "2024-1152472",
    "request_type": "Property Maintenance",
    "request_reason": "Property Maintenance",
    "date_created": "2024-12-02T21:12:12.000",
    "date_modified": "2024-12-02T21:12:12.000",
    "request_status": "Pending",
    "responsible_agency": "Department of Code Enforcement",
    "final_address": "2127 Congress St",
    "address_councildis": "D",
    "status": "Pending",
    "rowid": "1152472",
    "final_x": "3691745.53801",
    "final_y": "539568.979786",
    "longitude": "-90.0354308409088",
    "latitude": "29.977312488457997",
    "geocoded_column": {
      "latitude": "29.977312488457997",
      "longitude": "-90.0354308409088"
    }
  },
  {
    "service_request": "2024-1152471",
    "request_type": "Abandoned Vehicles",
    "request_reason": "Abandoned/Junk Vehicles",
    "date_created": "2024-12-02T21:09:16.000",
    "date_modified": "2024-12-02T21:09:16.000",
    "request_status": "Pending",
    "responsible_agency": "Department of Public Works",
    "final_address": "900 BLK Foucher St",
    "address_councildis": "B",
    "status": "Pending",
    "rowid": "1152471",
    "final_x": "3674346.72115",
    "final_y": "518772.250629",
    "longitude": "-90.09109422694785",
    "latitude": "29.920658788632593",
    "geocoded_column": {
      "latitude": "29.920658788632593",
      "longitude": "-90.09109422694785"
    }
  },
  {
    "service_request": "2024-1152470",
    "request_type": "Trash/Recycling",
    "request_reason": "Order Recycling Cart",
    "date_created": "2024-12-02T20:12:45.000",
    "date_modified": "2024-12-02T20:12:45.000",
    "request_status": "Pending",
    "responsible_agency": "Department of Sanitation",
    "final_address": "2719 N Roman St",
    "address_councildis": "D",
    "status": "Pending",
    "rowid": "1152470",
    "final_x": "3688243.91055",
    "final_y": "539009.498186",
    "longitude": "-90.04650995105479",
    "latitude": "29.975882706944173",
    "geocoded_column": {
      "latitude": "29.975882706944173",
      "longitude": "-90.04650995105479"
    }
  },
  {
    "service_request": "2024-1152469",
    "request_type": "Trash/Recycling",
    "request_reason": "Replace Trash Cart",
    "date_created": "2024-12-02T20:09:59.000",
    "date_modified": "2024-12-02T20:10:00.000",
    "request_status": "Pending",
    "responsible_agency": "Department of Sanitation",
    "final_address": "4623 Palmyra St",
    "address_councildis": "A",
    "status": "Assigned to Contractor",
    "contractor": "IV Waste",
    "rowid": "1152469",
    "final_x": "3668795.0553",
    "final_y": "539146.861258",
    "longitude": "-90.1079305351934",
    "latitude": "29.976846649915526",
    "geocoded_column": {
      "latitude": "29.976846649915526",
      "longitude": "-90.1079305351934"
    }
  },
  {
    "service_request": "2024-1152468",
    "request_type": "Trash/Recycling",
    "request_reason": "Missed Trash Pick-Up",
    "date_created": "2024-12-02T19:35:33.000",
    "date_modified": "2024-12-02T19:35:34.000",
    "request_status": "Pending",
    "responsible_agency": "Department of Sanitation",
    "final_address": "3112 Esplanade Ave",
    "address_councildis": "A",
    "status": "Assigned to Contractor",
    "contractor": "IV Waste",
    "rowid": "1152468",
    "final_x": "3676427.73217",
    "final_y": "540230.439819",
    "longitude": "-90.0837867921193",
    "latitude": "29.97959946577619",
    "geocoded_column": {
      "latitude": "29.97959946577619",
      "longitude": "-90.0837867921193"
    }
  },
  {
    "service_request": "2024-1152467",
    "request_type": "Streetlights",
    "request_reason": "Streetlight Outage/Malfunction",
    "date_created": "2024-12-02T19:33:39.000",
    "date_modified": "2024-12-02T19:33:40.000",
    "request_status": "Pending",
    "responsible_agency": "Department of Public Works",
    "final_address": "100 BLK Carondelet St",
    "address_councildis": "B",
    "status": "Pending",
    "contractor": "Legacy Professional Services",
    "rowid": "1152467",
    "final_x": "3680742.99215",
    "final_y": "530680.892822",
    "longitude": "-90.07048988014087",
    "latitude": "29.95321138455006",
    "geocoded_column": {
      "latitude": "29.95321138455006",
      "longitude": "-90.07048988014087"
    }
  },
  {
    "service_request": "2024-1152466",
    "request_type": "Streetlights",
    "request_reason": "Streetlight Outage/Malfunction",
    "date_created": "2024-12-02T19:19:14.000",
    "date_modified": "2024-12-02T19:19:15.000",
    "request_status": "Pending",
    "responsible_agency": "Department of Public Works",
    "final_address": "628 St Charles Ave",
    "address_councildis": "B",
    "status": "Pending",
    "contractor": "Legacy Professional Services",
    "rowid": "1152466",
    "final_x": "3680579.83138",
    "final_y": "528636.391488",
    "longitude": "-90.07107618649849",
    "latitude": "29.94759463706911",
    "geocoded_column": {
      "latitude": "29.94759463706911",
      "longitude": "-90.07107618649849"
    }
  },
  {
    "service_request": "2024-1152465",
    "request_type": "Streetlights",
    "request_reason": "Streetlight Outage/Malfunction",
    "date_created": "2024-12-02T19:11:37.000",
    "date_modified": "2024-12-02T19:11:38.000",
    "request_status": "Pending",
    "responsible_agency": "Department of Public Works",
    "final_address": "100 BLK Carondelet St",
    "address_councildis": "B",
    "status": "Pending",
    "contractor": "Legacy Professional Services",
    "rowid": "1152465",
    "final_x": "3680742.99215",
    "final_y": "530680.892822",
    "longitude": "-90.07048988014087",
    "latitude": "29.95321138455006",
    "geocoded_column": {
      "latitude": "29.95321138455006",
      "longitude": "-90.07048988014087"
    }
  },
  {
    "service_request": "2024-1152464",
    "request_type": "Streetlights",
    "request_reason": "Streetlight Outage/Malfunction",
    "date_created": "2024-12-02T19:07:23.000",
    "date_modified": "2024-12-02T19:07:23.000",
    "request_status": "Pending",
    "responsible_agency": "Department of Public Works",
    "final_address": "6448 Vicksburg St",
    "address_councildis": "A",
    "status": "Pending",
    "contractor": "Legacy Professional Services",
    "rowid": "1152464",
    "final_x": "3669066.0601",
    "final_y": "550426.42626",
    "longitude": "-90.10669324851517",
    "latitude": "30.00785360657787",
    "geocoded_column": {
      "latitude": "30.00785360657787",
      "longitude": "-90.10669324851517"
    }
  },
  {
    "service_request": "2024-1152463",
    "request_type": "Streetlights",
    "request_reason": "Streetlight Outage/Malfunction",
    "date_created": "2024-12-02T18:57:56.000",
    "date_modified": "2024-12-02T18:57:57.000",
    "request_status": "Pending",
    "responsible_agency": "Department of Public Works",
    "final_address": "700 BLK Union St",
    "address_councildis": "B",
    "status": "Pending",
    "contractor": "Legacy Professional Services",
    "rowid": "1152463",
    "final_x": "3680661.29612",
    "final_y": "529957.168876",
    "longitude": "-90.0707730206389",
    "latitude": "29.951223863178644",
    "geocoded_column": {
      "latitude": "29.951223863178644",
      "longitude": "-90.0707730206389"
    }
  },
  {
    "service_request": "2024-1152462",
    "request_type": "Streetlights",
    "request_reason": "Streetlight Outage/Malfunction",
    "date_created": "2024-12-02T18:55:27.000",
    "date_modified": "2024-12-02T18:55:28.000",
    "request_status": "Pending",
    "responsible_agency": "Department of Public Works",
    "final_address": "700 BLK Union St",
    "address_councildis": "B",
    "status": "Pending",
    "contractor": "Legacy Professional Services",
    "rowid": "1152462",
    "final_x": "3680661.29612",
    "final_y": "529957.168876",
    "longitude": "-90.0707730206389",
    "latitude": "29.951223863178644",
    "geocoded_column": {
      "latitude": "29.951223863178644",
      "longitude": "-90.0707730206389"
    }
  },
  {
    "service_request": "2024-1152461",
    "request_type": "Streetlights",
    "request_reason": "Streetlight Outage/Malfunction",
    "date_created": "2024-12-02T18:51:34.000",
    "date_modified": "2024-12-02T18:51:35.000",
    "request_status": "Pending",
    "responsible_agency": "Department of Public Works",
    "final_address": "700 BLK Union St",
    "address_councildis": "B",
    "status": "Pending",
    "contractor": "Legacy Professional Services",
    "rowid": "1152461",
    "final_x": "3680661.29612",
    "final_y": "529957.168876",
    "longitude": "-90.0707730206389",
    "latitude": "29.951223863178644",
    "geocoded_column": {
      "latitude": "29.951223863178644",
      "longitude": "-90.0707730206389"
    }
  },
  {
    "service_request": "2024-1152460",
    "request_type": "Trash/Recycling",
    "request_reason": "Order Recycling Cart",
    "date_created": "2024-12-02T18:27:24.000",
    "date_modified": "2024-12-02T18:27:24.000",
    "request_status": "Pending",
    "responsible_agency": "Department of Sanitation",
    "final_address": "5319 Painters St",
    "address_councildis": "D",
    "status": "Pending",
    "rowid": "1152460",
    "final_x": "3686125.88937",
    "final_y": "552414.22063",
    "longitude": "-90.05272609939018",
    "latitude": "30.01280612103353",
    "geocoded_column": {
      "latitude": "30.01280612103353",
      "longitude": "-90.05272609939018"
    }
  },
  {
    "service_request": "2024-1152459",
    "request_type": "Trash/Recycling",
    "request_reason": "Order Trash Cart",
    "date_created": "2024-12-02T18:26:09.000",
    "date_modified": "2024-12-02T18:26:11.000",
    "request_status": "Pending",
    "responsible_agency": "Department of Sanitation",
    "final_address": "5319 Painters St",
    "address_councildis": "D",
    "status": "Assigned to Contractor",
    "contractor": "IV Waste",
    "rowid": "1152459",
    "final_x": "3686125.88937",
    "final_y": "552414.22063",
    "longitude": "-90.05272609939018",
    "latitude": "30.01280612103353",
    "geocoded_column": {
      "latitude": "30.01280612103353",
      "longitude": "-90.05272609939018"
    }
  },
  {
    "service_request": "2024-1152458",
    "request_type": "Trash/Recycling",
    "request_reason": "Request a Large Item Pick Up",
    "date_created": "2024-12-02T18:17:39.000",
    "date_modified": "2024-12-02T18:17:40.000",
    "request_status": "Pending",
    "responsible_agency": "Department of Sanitation",
    "final_address": "237 Delaronde St",
    "address_councildis": "C",
    "status": "Assigned to Contractor",
    "contractor": "Richards Disposal",
    "rowid": "1152458",
    "final_x": "3686239.55433",
    "final_y": "530712.643074",
    "longitude": "-90.05313303045718",
    "latitude": "29.953130972603677",
    "geocoded_column": {
      "latitude": "29.953130972603677",
      "longitude": "-90.05313303045718"
    }
  },
  {
    "service_request": "2024-1152457",
    "request_type": "Trash/Recycling",
    "request_reason": "Replace Trash Cart",
    "date_created": "2024-12-02T18:15:17.000",
    "date_modified": "2024-12-02T18:15:18.000",
    "request_status": "Pending",
    "responsible_agency": "Department of Sanitation",
    "final_address": "4617 S Saratoga St",
    "address_councildis": "B",
    "status": "Assigned to Contractor",
    "contractor": "IV Waste",
    "rowid": "1152457",
    "final_x": "3669735.50196",
    "final_y": "522603.037562",
    "longitude": "-90.105520185717",
    "latitude": "29.93132888806797",
    "geocoded_column": {
      "latitude": "29.93132888806797",
      "longitude": "-90.105520185717"
    }
  },
  {
    "service_request": "2024-1152456",
    "request_type": "Streetlights",
    "request_reason": "Streetlight Outage/Malfunction",
    "date_created": "2024-12-02T18:11:18.000",
    "date_modified": "2024-12-02T18:11:19.000",
    "request_status": "Pending",
    "responsible_agency": "Department of Public Works",
    "final_address": "ARGONNE BLVD & BRAGG ST",
    "address_councildis": "A",
    "status": "Pending",
    "contractor": "Legacy Professional Services",
    "rowid": "1152456",
    "final_x": "3670431.1",
    "final_y": "549881.38",
    "longitude": "-90.10239916854282",
    "latitude": "30.006314669487303",
    "geocoded_column": {
      "latitude": "30.006314669487303",
      "longitude": "-90.10239916854282"
    }
  },
  {
    "service_request": "2024-1152455",
    "request_type": "Trash/Recycling",
    "request_reason": "Missed Trash Pick-Up",
    "date_created": "2024-12-02T17:48:32.000",
    "date_modified": "2024-12-02T17:48:33.000",
    "request_status": "Pending",
    "responsible_agency": "Department of Sanitation",
    "final_address": "4360 Alba Rd, New Orleans, Louisiana, 70129",
    "address_councildis": "E",
    "status": "Assigned to Contractor",
    "contractor": "Waste Pro",
    "rowid": "1152455",
    "final_x": "3761485.69142",
    "final_y": "573037.900137",
    "longitude": "-89.81377253616445",
    "latitude": "30.066980904321774",
    "geocoded_column": {
      "latitude": "30.066980904321774",
      "longitude": "-89.81377253616445"
    }
  },
  {
    "service_request": "2024-1152454",
    "request_type": "Streetlights",
    "request_reason": "Streetlight Outage/Malfunction",
    "date_created": "2024-12-02T17:41:38.000",
    "date_modified": "2024-12-02T17:41:39.000",
    "request_status": "Pending",
    "responsible_agency": "Department of Public Works",
    "final_address": "5591 Bellaire Dr",
    "address_councildis": "A",
    "status": "Pending",
    "contractor": "Legacy Professional Services",
    "rowid": "1152454",
    "final_x": "3664166.66221",
    "final_y": "545028.459087",
    "longitude": "-90.12235220634345",
    "latitude": "29.993154354174123",
    "geocoded_column": {
      "latitude": "29.993154354174123",
      "longitude": "-90.12235220634345"
    }
  },
  {
    "service_request": "2024-1152452",
    "request_type": "Roads and Streets",
    "request_reason": "Street Subsidence (Sinking)",
    "date_created": "2024-12-02T17:18:36.000",
    "date_modified": "2024-12-02T17:18:36.000",
    "request_status": "Pending",
    "responsible_agency": "Department of Public Works",
    "final_address": "1 English Turn Prkwy",
    "address_councildis": "C",
    "status": "Pending",
    "rowid": "1152452",
    "final_x": "3713690.71429",
    "final_y": "516301.512564",
    "longitude": "-89.96699773956271",
    "latitude": "29.912633659868995",
    "geocoded_column": {
      "latitude": "29.912633659868995",
      "longitude": "-89.96699773956271"
    }
  },
  {
    "service_request": "2024-1152451",
    "request_type": "Trash/Recycling",
    "request_reason": "Missed Trash Pick-Up",
    "date_created": "2024-12-02T16:57:59.000",
    "date_modified": "2024-12-02T16:58:00.000",
    "request_status": "Pending",
    "responsible_agency": "Department of Sanitation",
    "final_address": "1305 St Andrew St",
    "address_councildis": "B",
    "status": "Assigned to Contractor",
    "contractor": "IV Waste",
    "rowid": "1152451",
    "final_x": "3679039.33743",
    "final_y": "523231.214459",
    "longitude": "-90.0761273762998",
    "latitude": "29.932778762971367",
    "geocoded_column": {
      "latitude": "29.932778762971367",
      "longitude": "-90.0761273762998"
    }
  },
  {
    "service_request": "2024-1152450",
    "request_type": "Trash/Recycling",
    "request_reason": "Request a Large Item Pick Up",
    "date_created": "2024-12-02T16:47:25.000",
    "date_modified": "2024-12-02T16:47:25.000",
    "request_status": "Pending",
    "responsible_agency": "Department of Sanitation",
    "final_address": "3221 Delachaise St",
    "address_councildis": "B",
    "status": "Assigned to Contractor",
    "contractor": "IV Waste",
    "rowid": "1152450",
    "final_x": "3671663.1627",
    "final_y": "526953.794558",
    "longitude": "-90.09928686619726",
    "latitude": "29.943235122654364",
    "geocoded_column": {
      "latitude": "29.943235122654364",
      "longitude": "-90.09928686619726"
    }
  },
  {
    "service_request": "2024-1152449",
    "request_type": "Trash/Recycling",
    "request_reason": "Illegal Dumping",
    "date_created": "2024-12-02T16:47:09.000",
    "date_modified": "2024-12-02T16:47:09.000",
    "request_status": "Pending",
    "responsible_agency": "Department of Sanitation",
    "final_address": "1405 Arts St",
    "address_councildis": "C",
    "status": "Pending",
    "rowid": "1152449",
    "final_x": "3687146.95196",
    "final_y": "537643.741064",
    "longitude": "-90.05002276008075",
    "latitude": "29.97216118248314",
    "geocoded_column": {
      "latitude": "29.97216118248314",
      "longitude": "-90.05002276008075"
    }
  },
  {
    "service_request": "2024-1152448",
    "request_type": "Trash/Recycling",
    "request_reason": "Missed Trash Pick-Up",
    "date_created": "2024-12-02T16:46:20.000",
    "date_modified": "2024-12-02T16:46:22.000",
    "request_status": "Pending",
    "responsible_agency": "Department of Sanitation",
    "final_address": "2801 St Bernard Ave",
    "address_councildis": "D",
    "status": "Assigned to Contractor",
    "contractor": "IV Waste",
    "rowid": "1152448",
    "final_x": "3679817.21685",
    "final_y": "542687.738445",
    "longitude": "-90.07299606980254",
    "latitude": "29.98625411107394",
    "geocoded_column": {
      "latitude": "29.98625411107394",
      "longitude": "-90.07299606980254"
    }
  },
  {
    "service_request": "2024-1152447",
    "request_type": "Trash/Recycling",
    "request_reason": "Missed Trash Pick-Up",
    "date_created": "2024-12-02T16:45:43.000",
    "date_modified": "2024-12-02T16:45:44.000",
    "request_status": "Pending",
    "responsible_agency": "Department of Sanitation",
    "final_address": "4930 Marseille St",
    "address_councildis": "E",
    "status": "Assigned to Contractor",
    "contractor": "Waste Pro",
    "rowid": "1152447",
    "final_x": "3729582.6137",
    "final_y": "562767.115808",
    "longitude": "-89.91502389182392",
    "latitude": "30.039865305321253",
    "geocoded_column": {
      "latitude": "30.039865305321253",
      "longitude": "-89.91502389182392"
    }
  },
  {
    "service_request": "2024-1152446",
    "request_type": "Trash/Recycling",
    "request_reason": "Request a Large Item Pick Up",
    "date_created": "2024-12-02T16:45:31.000",
    "date_modified": "2024-12-02T16:45:32.000",
    "request_status": "Pending",
    "responsible_agency": "Department of Sanitation",
    "final_address": "3931 Piedmont Dr",
    "address_councildis": "D",
    "status": "Assigned to Contractor",
    "contractor": "IV Waste",
    "rowid": "1152446",
    "final_x": "3685440.27733",
    "final_y": "547166.214609",
    "longitude": "-90.0550772246185",
    "latitude": "29.99839705903214",
    "geocoded_column": {
      "latitude": "29.99839705903214",
      "longitude": "-90.0550772246185"
    }
  },
  {
    "service_request": "2024-1152445",
    "request_type": "Trash/Recycling",
    "request_reason": "Request a Large Item Pick Up",
    "date_created": "2024-12-02T16:41:57.000",
    "date_modified": "2024-12-02T16:41:58.000",
    "request_status": "Pending",
    "responsible_agency": "Department of Sanitation",
    "final_address": "930 Lamanche St",
    "address_councildis": "E",
    "status": "Assigned to Contractor",
    "contractor": "Waste Pro",
    "rowid": "1152445",
    "final_x": "3698171.06263",
    "final_y": "533156.733508",
    "longitude": "-90.01536997119779",
    "latitude": "29.959479418016237",
    "geocoded_column": {
      "latitude": "29.959479418016237",
      "longitude": "-90.01536997119779"
    }
  },
  {
    "service_request": "2024-1152444",
    "request_type": "Trash/Recycling",
    "request_reason": "Request a Large Item Pick Up",
    "date_created": "2024-12-02T16:35:32.000",
    "date_modified": "2024-12-02T16:35:33.000",
    "request_status": "Pending",
    "responsible_agency": "Department of Sanitation",
    "final_address": "925 N Carrollton Ave",
    "address_councildis": "A",
    "status": "Assigned to Contractor",
    "contractor": "IV Waste",
    "rowid": "1152444",
    "final_x": "3673172.70056",
    "final_y": "540789.621771",
    "longitude": "-90.0940484100378",
    "latitude": "29.981234226035635",
    "geocoded_column": {
      "latitude": "29.981234226035635",
      "longitude": "-90.0940484100378"
    }
  },
  {
    "service_request": "2024-1152443",
    "request_type": "Trash/Recycling",
    "request_reason": "Request a Large Item Pick Up",
    "date_created": "2024-12-02T16:28:48.000",
    "date_modified": "2024-12-02T16:28:50.000",
    "request_status": "Pending",
    "responsible_agency": "Department of Sanitation",
    "final_address": "3554 Inwood Ave",
    "address_councildis": "C",
    "status": "Assigned to Contractor",
    "contractor": "Richards Disposal",
    "rowid": "1152443",
    "final_x": "3703620.47966",
    "final_y": "515297.016116",
    "longitude": "-89.9988189467609",
    "latitude": "29.910197979809116",
    "geocoded_column": {
      "latitude": "29.910197979809116",
      "longitude": "-89.9988189467609"
    }
  },
  {
    "service_request": "2024-1152442",
    "request_type": "Abandoned Vehicles",
    "request_reason": "Abandoned/Junk Vehicles",
    "date_created": "2024-12-02T16:27:55.000",
    "date_modified": "2024-12-02T16:27:57.000",
    "request_status": "Pending",
    "responsible_agency": "Department of Public Works",
    "final_address": "4401 Knight Dr",
    "address_councildis": "E",
    "status": "Pending",
    "rowid": "1152442",
    "final_x": "3708389.25656",
    "final_y": "553724.823511",
    "longitude": "-89.98233782673758",
    "latitude": "30.0157068235578",
    "geocoded_column": {
      "latitude": "30.0157068235578",
      "longitude": "-89.98233782673758"
    }
  },
  {
    "service_request": "2024-1152441",
    "request_type": "Trash/Recycling",
    "request_reason": "Repair Trash Cart",
    "date_created": "2024-12-02T16:27:02.000",
    "date_modified": "2024-12-02T16:27:03.000",
    "request_status": "Pending",
    "responsible_agency": "Department of Sanitation",
    "final_address": "3 Glen Abbey Way",
    "address_councildis": "C",
    "status": "Assigned to Contractor",
    "contractor": "Richards Disposal",
    "rowid": "1152441",
    "final_x": "3716612.97535",
    "final_y": "515348.200628",
    "longitude": "-89.9578104825053",
    "latitude": "29.909916250945862",
    "geocoded_column": {
      "latitude": "29.909916250945862",
      "longitude": "-89.9578104825053"
    }
  },
  {
    "service_request": "2024-1152440",
    "request_type": "Trash/Recycling",
    "request_reason": "Request a Large Item Pick Up",
    "date_created": "2024-12-02T16:25:30.000",
    "date_modified": "2024-12-02T16:25:31.000",
    "request_status": "Pending",
    "responsible_agency": "Department of Sanitation",
    "final_address": "13000 N Lake Carmel Dr",
    "address_councildis": "E",
    "status": "Assigned to Contractor",
    "contractor": "Waste Pro",
    "rowid": "1152440",
    "final_x": "3716608.4597",
    "final_y": "568675.093413",
    "longitude": "-89.9558013131371",
    "latitude": "30.0565450125185",
    "geocoded_column": {
      "latitude": "30.0565450125185",
      "longitude": "-89.9558013131371"
    }
  },
  {
    "service_request": "2024-1152439",
    "request_type": "Drainage",
    "request_reason": "Catch Basin Clogged",
    "date_created": "2024-12-02T16:24:53.000",
    "date_modified": "2024-12-02T16:24:53.000",
    "request_status": "Pending",
    "responsible_agency": "Department of Public Works",
    "final_address": "4617 Chestnut St",
    "address_councildis": "B",
    "status": "Pending",
    "rowid": "1152439",
    "final_x": "3670079.27028",
    "final_y": "519463.042423",
    "longitude": "-90.10454125089134",
    "latitude": "29.92268477016624",
    "geocoded_column": {
      "latitude": "29.92268477016624",
      "longitude": "-90.10454125089134"
    }
  },
  {
    "service_request": "2024-1152438",
    "request_type": "Trash/Recycling",
    "request_reason": "Order Second Trash Cart",
    "date_created": "2024-12-02T16:24:32.000",
    "date_modified": "2024-12-02T16:24:33.000",
    "request_status": "Pending",
    "responsible_agency": "Department of Sanitation",
    "final_address": "13139 Cherbourg St",
    "address_councildis": "E",
    "status": "Assigned to Contractor",
    "contractor": "Waste Pro",
    "rowid": "1152438",
    "final_x": "3724605.3072",
    "final_y": "560987.414942",
    "longitude": "-89.9308223458515",
    "latitude": "30.035140320640682",
    "geocoded_column": {
      "latitude": "30.035140320640682",
      "longitude": "-89.9308223458515"
    }
  },
  {
    "service_request": "2024-1152437",
    "request_type": "Trash/Recycling",
    "request_reason": "Request a Large Item Pick Up",
    "date_created": "2024-12-02T16:23:41.000",
    "date_modified": "2024-12-02T16:23:42.000",
    "request_status": "Pending",
    "responsible_agency": "Department of Sanitation",
    "final_address": "13139 Cherbourg St",
    "address_councildis": "E",
    "status": "Assigned to Contractor",
    "contractor": "Waste Pro",
    "rowid": "1152437",
    "final_x": "3724605.3072",
    "final_y": "560987.414942",
    "longitude": "-89.9308223458515",
    "latitude": "30.035140320640682",
    "geocoded_column": {
      "latitude": "30.035140320640682",
      "longitude": "-89.9308223458515"
    }
  },
  {
    "service_request": "2024-1152436",
    "request_type": "Trash/Recycling",
    "request_reason": "Request a Large Item Pick Up",
    "date_created": "2024-12-02T16:21:37.000",
    "date_modified": "2024-12-02T16:21:38.000",
    "request_status": "Pending",
    "responsible_agency": "Department of Sanitation",
    "final_address": "4834 Nighthart St",
    "address_councildis": "E",
    "status": "Assigned to Contractor",
    "contractor": "Waste Pro",
    "rowid": "1152436",
    "final_x": "3716037.33285",
    "final_y": "557329.129179",
    "longitude": "-89.95803697482945",
    "latitude": "30.025367074330724",
    "geocoded_column": {
      "latitude": "30.025367074330724",
      "longitude": "-89.95803697482945"
    }
  },
  {
    "service_request": "2024-1152435",
    "request_type": "Trash/Recycling",
    "request_reason": "Order Trash Cart",
    "date_created": "2024-12-02T16:19:48.000",
    "date_modified": "2024-12-02T16:19:49.000",
    "request_status": "Pending",
    "responsible_agency": "Department of Sanitation",
    "final_address": "29 Tennyson Pl",
    "address_councildis": "C",
    "status": "Assigned to Contractor",
    "contractor": "Richards Disposal",
    "rowid": "1152435",
    "final_x": "3705117.45745",
    "final_y": "517720.915062",
    "longitude": "-89.99400479133874",
    "latitude": "29.91681484339427",
    "geocoded_column": {
      "latitude": "29.91681484339427",
      "longitude": "-89.99400479133874"
    }
  },
  {
    "service_request": "2024-1152434",
    "request_type": "Trash/Recycling",
    "request_reason": "Request a Large Item Pick Up",
    "date_created": "2024-12-02T16:16:08.000",
    "date_modified": "2024-12-02T16:16:09.000",
    "request_status": "Pending",
    "responsible_agency": "Department of Sanitation",
    "final_address": "4800 Charlene Dr",
    "address_councildis": "E",
    "status": "Assigned to Contractor",
    "contractor": "Waste Pro",
    "rowid": "1152434",
    "final_x": "3707797.7043",
    "final_y": "556025.716633",
    "longitude": "-89.98412124622081",
    "latitude": "30.02205255176008",
    "geocoded_column": {
      "latitude": "30.02205255176008",
      "longitude": "-89.98412124622081"
    }
  },
  {
    "service_request": "2024-1152433",
    "request_type": "Trash/Recycling",
    "request_reason": "Request a Large Item Pick Up",
    "date_created": "2024-12-02T16:11:48.000",
    "date_modified": "2024-12-02T16:11:49.000",
    "request_status": "Pending",
    "responsible_agency": "Department of Sanitation",
    "final_address": "11278 Midpoint Dr",
    "address_councildis": "E",
    "status": "Assigned to Contractor",
    "contractor": "Waste Pro",
    "rowid": "1152433",
    "final_x": "3718319.411",
    "final_y": "559334.264413",
    "longitude": "-89.95074958498633",
    "latitude": "30.03080487995199",
    "geocoded_column": {
      "latitude": "30.03080487995199",
      "longitude": "-89.95074958498633"
    }
  },
  {
    "service_request": "2024-1152432",
    "request_type": "Streetlights",
    "request_reason": "Streetlight Outage/Malfunction",
    "date_created": "2024-12-02T16:11:41.000",
    "date_modified": "2024-12-02T16:11:42.000",
    "request_status": "Pending",
    "responsible_agency": "Department of Public Works",
    "final_address": "1201 Napoleon Ave",
    "address_councildis": "B",
    "status": "Pending",
    "contractor": "Legacy Professional Services",
    "rowid": "1152432",
    "final_x": "3671051.19521",
    "final_y": "519878.151544",
    "longitude": "-90.10145917596243",
    "latitude": "29.923797492741553",
    "geocoded_column": {
      "latitude": "29.923797492741553",
      "longitude": "-90.10145917596243"
    }
  },
  {
    "service_request": "2024-1152431",
    "request_type": "Roads and Streets",
    "request_reason": "Debris in Driving Lanes",
    "date_created": "2024-12-02T16:07:14.000",
    "date_modified": "2024-12-02T16:08:35.000",
    "request_status": "Pending",
    "responsible_agency": "Department of Public Works",
    "final_address": "13220 St Helena Pl",
    "address_councildis": "E",
    "status": "Pending",
    "rowid": "1152431",
    "final_x": "3726755.30784",
    "final_y": "564399.097185",
    "longitude": "-89.92389548294817",
    "latitude": "30.044448498567743",
    "geocoded_column": {
      "latitude": "30.044448498567743",
      "longitude": "-89.92389548294817"
    }
  },
  {
    "service_request": "2024-1152430",
    "request_type": "Abandoned Vehicles",
    "request_reason": "Abandoned/Junk Vehicles",
    "date_created": "2024-12-02T16:07:06.000",
    "date_modified": "2024-12-02T16:07:06.000",
    "request_status": "Pending",
    "responsible_agency": "Department of Public Works",
    "final_address": "4022 Prentiss Ave",
    "address_councildis": "D",
    "status": "Pending",
    "rowid": "1152430",
    "final_x": "3688822.52246",
    "final_y": "554220.228952",
    "longitude": "-90.0441420370358",
    "latitude": "30.017688832233258",
    "geocoded_column": {
      "latitude": "30.017688832233258",
      "longitude": "-90.0441420370358"
    }
  },
  {
    "service_request": "2024-1152429",
    "request_type": "Trash/Recycling",
    "request_reason": "Replace Trash Cart",
    "date_created": "2024-12-02T16:04:58.000",
    "date_modified": "2024-12-02T16:05:00.000",
    "request_status": "Pending",
    "responsible_agency": "Department of Sanitation",
    "final_address": "2231 Constance St",
    "address_councildis": "B",
    "status": "Assigned to Contractor",
    "contractor": "IV Waste",
    "rowid": "1152429",
    "final_x": "3678842.43906",
    "final_y": "521638.939961",
    "longitude": "-90.07680409168192",
    "latitude": "29.92840646849455",
    "geocoded_column": {
      "latitude": "29.92840646849455",
      "longitude": "-90.07680409168192"
    }
  },
  {
    "service_request": "2024-1152428",
    "request_type": "Trash/Recycling",
    "request_reason": "Start Trash Service",
    "date_created": "2024-12-02T16:02:11.000",
    "date_modified": "2024-12-02T16:02:13.000",
    "request_status": "Pending",
    "responsible_agency": "Department of Sanitation",
    "final_address": "6847 Mayo Rd Apt C",
    "address_councildis": "E",
    "status": "Assigned to Contractor",
    "contractor": "Waste Pro",
    "rowid": "1152428",
    "final_x": "3702086.92913",
    "final_y": "557551.093979",
    "longitude": "-90.00210972783469",
    "latitude": "30.02643041053261",
    "geocoded_column": {
      "latitude": "30.02643041053261",
      "longitude": "-90.00210972783469"
    }
  },
  {
    "service_request": "2024-1152427",
    "request_type": "Property Maintenance",
    "request_reason": "Property Maintenance",
    "date_created": "2024-12-02T16:01:41.000",
    "date_modified": "2024-12-02T16:01:41.000",
    "request_status": "Pending",
    "responsible_agency": "Department of Code Enforcement",
    "final_address": "2227 Foucher St",
    "address_councildis": "B",
    "status": "Pending",
    "rowid": "1152427",
    "final_x": "3672793.30504",
    "final_y": "523530.531451",
    "longitude": "-90.09583544179091",
    "latitude": "29.933788747629784",
    "geocoded_column": {
      "latitude": "29.933788747629784",
      "longitude": "-90.09583544179091"
    }
  },
  {
    "service_request": "2024-1152426",
    "request_type": "Abandoned Vehicles",
    "request_reason": "Abandoned/Junk Vehicles",
    "date_created": "2024-12-02T16:00:05.000",
    "date_modified": "2024-12-02T16:00:05.000",
    "request_status": "Pending",
    "responsible_agency": "Department of Public Works",
    "final_address": "4611 Wilson Ave",
    "address_councildis": "E",
    "status": "Pending",
    "rowid": "1152426",
    "final_x": "3703124.37713",
    "final_y": "554209.515672",
    "longitude": "-89.99895449861111",
    "latitude": "30.01720917463255",
    "geocoded_column": {
      "latitude": "30.01720917463255",
      "longitude": "-89.99895449861111"
    }
  },
  {
    "service_request": "2024-1152425",
    "request_type": "Trash/Recycling",
    "request_reason": "Request a Large Item Pick Up",
    "date_created": "2024-12-02T15:58:31.000",
    "date_modified": "2024-12-02T15:58:32.000",
    "request_status": "Pending",
    "responsible_agency": "Department of Sanitation",
    "final_address": "9 Marywood Ct",
    "address_councildis": "E",
    "status": "Assigned to Contractor",
    "contractor": "Waste Pro",
    "rowid": "1152425",
    "final_x": "3712768.65726",
    "final_y": "566478.124195",
    "longitude": "-89.96802093085478",
    "latitude": "30.05063061237584",
    "geocoded_column": {
      "latitude": "30.05063061237584",
      "longitude": "-89.96802093085478"
    }
  },
  {
    "service_request": "2024-1152424",
    "request_type": "Trash/Recycling",
    "request_reason": "Request a Large Item Pick Up",
    "date_created": "2024-12-02T15:53:27.000",
    "date_modified": "2024-12-02T15:53:28.000",
    "request_status": "Pending",
    "responsible_agency": "Department of Sanitation",
    "final_address": "624 Franklin Ave",
    "address_councildis": "C",
    "status": "Assigned to Contractor",
    "contractor": "IV Waste",
    "rowid": "1152424",
    "final_x": "3686680.10422",
    "final_y": "534858.925382",
    "longitude": "-90.05159551988054",
    "latitude": "29.964518278202746",
    "geocoded_column": {
      "latitude": "29.964518278202746",
      "longitude": "-90.05159551988054"
    }
  },
  {
    "service_request": "2024-1152423",
    "request_type": "Streetlights",
    "request_reason": "Streetlight Outage/Malfunction",
    "date_created": "2024-12-02T15:49:23.000",
    "date_modified": "2024-12-02T15:49:24.000",
    "request_status": "Pending",
    "responsible_agency": "Department of Public Works",
    "final_address": "MARIE ST & LEDA CT",
    "address_councildis": "A",
    "status": "Pending",
    "contractor": "Legacy Professional Services",
    "rowid": "1152423",
    "final_x": "3675630.7",
    "final_y": "541485.98",
    "longitude": "-90.08626098498002",
    "latitude": "29.98307564393761",
    "geocoded_column": {
      "latitude": "29.98307564393761",
      "longitude": "-90.08626098498002"
    }
  },
  {
    "service_request": "2024-1152422",
    "request_type": "Trash/Recycling",
    "request_reason": "Request a Large Item Pick Up",
    "date_created": "2024-12-02T15:46:02.000",
    "date_modified": "2024-12-02T15:46:03.000",
    "request_status": "Pending",
    "responsible_agency": "Department of Sanitation",
    "final_address": "6021 Vicksburg St",
    "address_councildis": "A",
    "status": "Assigned to Contractor",
    "contractor": "IV Waste",
    "rowid": "1152422",
    "final_x": "3668976.17306",
    "final_y": "547413.756753",
    "longitude": "-90.1070790881477",
    "latitude": "29.999572460045",
    "geocoded_column": {
      "latitude": "29.999572460045",
      "longitude": "-90.1070790881477"
    }
  },
  {
    "service_request": "2024-1152421",
    "request_type": "Trash/Recycling",
    "request_reason": "Request a Large Item Pick Up",
    "date_created": "2024-12-02T15:45:02.000",
    "date_modified": "2024-12-02T15:45:04.000",
    "request_status": "Pending",
    "responsible_agency": "Department of Sanitation",
    "final_address": "5130 Baccich St",
    "address_councildis": "D",
    "status": "Assigned to Contractor",
    "contractor": "IV Waste",
    "rowid": "1152421",
    "final_x": "3687577.99868",
    "final_y": "551909.94095",
    "longitude": "-90.04815610800861",
    "latitude": "30.011374833371818",
    "geocoded_column": {
      "latitude": "30.011374833371818",
      "longitude": "-90.04815610800861"
    }
  },
  {
    "service_request": "2024-1152420",
    "request_type": "Trash/Recycling",
    "request_reason": "Repair Trash Cart",
    "date_created": "2024-12-02T15:43:07.000",
    "date_modified": "2024-12-02T15:43:08.000",
    "request_status": "Pending",
    "responsible_agency": "Department of Sanitation",
    "final_address": "3930 Thalia St",
    "address_councildis": "B",
    "status": "Assigned to Contractor",
    "contractor": "IV Waste",
    "rowid": "1152420",
    "final_x": "3672287.18727",
    "final_y": "530220.508673",
    "longitude": "-90.09720539395188",
    "latitude": "29.95219901911367",
    "geocoded_column": {
      "latitude": "29.95219901911367",
      "longitude": "-90.09720539395188"
    }
  },
  {
    "service_request": "2024-1152419",
    "request_type": "Trash/Recycling",
    "request_reason": "Replace Trash Cart",
    "date_created": "2024-12-02T15:38:20.000",
    "date_modified": "2024-12-02T15:38:21.000",
    "request_status": "Pending",
    "responsible_agency": "Department of Sanitation",
    "final_address": "6550 General Diaz St",
    "address_councildis": "A",
    "status": "Assigned to Contractor",
    "contractor": "IV Waste",
    "rowid": "1152419",
    "final_x": "3669761.60705",
    "final_y": "551022.828437",
    "longitude": "-90.10447559534073",
    "latitude": "30.009473011233027",
    "geocoded_column": {
      "latitude": "30.009473011233027",
      "longitude": "-90.10447559534073"
    }
  },
  {
    "service_request": "2024-1152418",
    "request_type": "Trash/Recycling",
    "request_reason": "Request a Large Item Pick Up",
    "date_created": "2024-12-02T15:33:33.000",
    "date_modified": "2024-12-02T15:33:34.000",
    "request_status": "Pending",
    "responsible_agency": "Department of Sanitation",
    "final_address": "3232 Jackson Ave",
    "address_councildis": "B",
    "status": "Assigned to Contractor",
    "contractor": "IV Waste",
    "rowid": "1152418",
    "final_x": "3673740.06632",
    "final_y": "528688.644672",
    "longitude": "-90.0926702409886",
    "latitude": "29.947943722380966",
    "geocoded_column": {
      "latitude": "29.947943722380966",
      "longitude": "-90.0926702409886"
    }
  },
  {
    "service_request": "2024-1152417",
    "request_type": "Trash/Recycling",
    "request_reason": "Request a Large Item Pick Up",
    "date_created": "2024-12-02T15:33:20.000",
    "date_modified": "2024-12-02T15:33:21.000",
    "request_status": "Pending",
    "responsible_agency": "Department of Sanitation",
    "final_address": "619 Soraparu St",
    "address_councildis": "B",
    "status": "Assigned to Contractor",
    "contractor": "IV Waste",
    "rowid": "1152417",
    "final_x": "3679286.69256",
    "final_y": "520319.700472",
    "longitude": "-90.07544739762746",
    "latitude": "29.92476558762044",
    "geocoded_column": {
      "latitude": "29.92476558762044",
      "longitude": "-90.07544739762746"
    }
  },
  {
    "service_request": "2024-1152416",
    "request_type": "Safety & Permits",
    "request_reason": "Construction permit",
    "date_created": "2024-12-02T15:29:23.000",
    "date_modified": "2024-12-02T15:29:24.000",
    "request_status": "Pending",
    "responsible_agency": "Safety and Permits",
    "final_address": "4951 Wright Rd",
    "address_councildis": "E",
    "status": "Pending",
    "rowid": "1152416",
    "final_x": "3716648.67052",
    "final_y": "557951.206363",
    "longitude": "-89.95608163460366",
    "latitude": "30.027057348589246",
    "geocoded_column": {
      "latitude": "30.027057348589246",
      "longitude": "-89.95608163460366"
    }
  },
  {
    "service_request": "2024-1152415",
    "request_type": "Safety & Permits",
    "request_reason": "Zoning Enforcement",
    "date_created": "2024-12-02T15:29:15.000",
    "date_modified": "2024-12-02T15:29:16.000",
    "request_status": "Pending",
    "responsible_agency": "Safety and Permits",
    "final_address": "1329 St Andrew St",
    "address_councildis": "B",
    "status": "Pending",
    "rowid": "1152415",
    "final_x": "3678908.68725",
    "final_y": "523347.896891",
    "longitude": "-90.07653578839965",
    "latitude": "29.9331035422883",
    "geocoded_column": {
      "latitude": "29.9331035422883",
      "longitude": "-90.07653578839965"
    }
  },
  {
    "service_request": "2024-1152414",
    "request_type": "Trash/Recycling",
    "request_reason": "Request a Large Item Pick Up",
    "date_created": "2024-12-02T15:28:24.000",
    "date_modified": "2024-12-02T15:28:25.000",
    "request_status": "Pending",
    "responsible_agency": "Department of Sanitation",
    "final_address": "2950 Kent Dr",
    "address_councildis": "C",
    "status": "Assigned to Contractor",
    "contractor": "Richards Disposal",
    "rowid": "1152414",
    "final_x": "3708944.23089",
    "final_y": "518834.445047",
    "longitude": "-89.98188455893171",
    "latitude": "29.919753115707103",
    "geocoded_column": {
      "latitude": "29.919753115707103",
      "longitude": "-89.98188455893171"
    }
  },
  {
    "service_request": "2024-1152413",
    "request_type": "Street and Traffic Signs",
    "request_reason": "Disabled Parking Sign Missing or Damaged",
    "date_created": "2024-12-02T15:28:16.000",
    "date_modified": "2024-12-02T15:28:17.000",
    "request_status": "Pending",
    "responsible_agency": "Department of Public Works",
    "final_address": "1667 Treasure St",
    "address_councildis": "D",
    "status": "Pending",
    "rowid": "1152413",
    "final_x": "3680452.56706",
    "final_y": "543758.056398",
    "longitude": "-90.07095199920178",
    "latitude": "29.98917787890815",
    "geocoded_column": {
      "latitude": "29.98917787890815",
      "longitude": "-90.07095199920178"
    }
  },
  {
    "service_request": "2024-1152412",
    "request_type": "Trash/Recycling",
    "request_reason": "Request a Large Item Pick Up",
    "date_created": "2024-12-02T15:27:56.000",
    "date_modified": "2024-12-02T15:27:57.000",
    "request_status": "Pending",
    "responsible_agency": "Department of Sanitation",
    "final_address": "533 Henry Clay Ave",
    "address_councildis": "A",
    "status": "Assigned to Contractor",
    "contractor": "IV Waste",
    "rowid": "1152412",
    "final_x": "3663551.8832",
    "final_y": "518831.688567",
    "longitude": "-90.12516672360553",
    "latitude": "29.9211396058691",
    "geocoded_column": {
      "latitude": "29.9211396058691",
      "longitude": "-90.12516672360553"
    }
  },
  {
    "service_request": "2024-1152411",
    "request_type": "Health Related Request",
    "request_reason": "Noise Ordinance Complaint",
    "date_created": "2024-12-02T15:25:34.000",
    "date_modified": "2024-12-02T15:25:35.000",
    "request_status": "Pending",
    "responsible_agency": "Health Department",
    "final_address": "2305 Gentilly Blvd",
    "address_councildis": "D",
    "status": "Pending",
    "rowid": "1152411",
    "final_x": "3680983.50511",
    "final_y": "544741.182927",
    "longitude": "-90.06924066401311",
    "latitude": "29.991865035784866",
    "geocoded_column": {
      "latitude": "29.991865035784866",
      "longitude": "-90.06924066401311"
    }
  },
  {
    "service_request": "2024-1152410",
    "request_type": "Trash/Recycling",
    "request_reason": "Replace Trash Cart",
    "date_created": "2024-12-02T15:25:34.000",
    "date_modified": "2024-12-02T15:25:35.000",
    "request_status": "Pending",
    "responsible_agency": "Department of Sanitation",
    "final_address": "133 S Gayoso St",
    "address_councildis": "B",
    "status": "Assigned to Contractor",
    "contractor": "IV Waste",
    "rowid": "1152410",
    "final_x": "3674106.7435",
    "final_y": "535629.351878",
    "longitude": "-90.09127494427301",
    "latitude": "29.967017429059922",
    "geocoded_column": {
      "latitude": "29.967017429059922",
      "longitude": "-90.09127494427301"
    }
  },
  {
    "service_request": "2024-1152409",
    "request_type": "Trash/Recycling",
    "request_reason": "Request a Large Item Pick Up",
    "date_created": "2024-12-02T15:25:24.000",
    "date_modified": "2024-12-02T15:25:25.000",
    "request_status": "Pending",
    "responsible_agency": "Department of Sanitation",
    "final_address": "4732 Viola St",
    "address_councildis": "E",
    "status": "Assigned to Contractor",
    "contractor": "Waste Pro",
    "rowid": "1152409",
    "final_x": "3703932.25854",
    "final_y": "555132.646553",
    "longitude": "-89.99636790908366",
    "latitude": "30.019721536306513",
    "geocoded_column": {
      "latitude": "30.019721536306513",
      "longitude": "-89.99636790908366"
    }
  },
  {
    "service_request": "2024-1152408",
    "request_type": "Trash/Recycling",
    "request_reason": "Dead Animal Pick Up",
    "date_created": "2024-12-02T15:25:19.000",
    "date_modified": "2024-12-02T15:25:21.000",
    "request_status": "Pending",
    "responsible_agency": "Department of Sanitation",
    "final_address": "843 Camp St",
    "address_councildis": "B",
    "status": "Assigned to Contractor",
    "contractor": "Empire Services",
    "rowid": "1152408",
    "final_x": "3680659.65365",
    "final_y": "527583.163199",
    "longitude": "-90.07086079598595",
    "latitude": "29.94469619384747",
    "geocoded_column": {
      "latitude": "29.94469619384747",
      "longitude": "-90.07086079598595"
    }
  },
  {
    "service_request": "2024-1152407",
    "request_type": "Trash/Recycling",
    "request_reason": "Dead Animal Pick Up",
    "date_created": "2024-12-02T15:24:37.000",
    "date_modified": "2024-12-02T15:24:38.000",
    "request_status": "Pending",
    "responsible_agency": "Department of Sanitation",
    "final_address": "10141 Curran Rd",
    "address_councildis": "E",
    "status": "Assigned to Contractor",
    "contractor": "Waste Pro",
    "rowid": "1152407",
    "final_x": "3708561.18513",
    "final_y": "565003.884194",
    "longitude": "-89.98137414479815",
    "latitude": "30.046714221694327",
    "geocoded_column": {
      "latitude": "30.046714221694327",
      "longitude": "-89.98137414479815"
    }
  },
  {
    "service_request": "2024-1152406",
    "request_type": "Roads and Streets",
    "request_reason": "Street Subsidence (Sinking)",
    "date_created": "2024-12-02T15:24:00.000",
    "date_modified": "2024-12-02T15:24:00.000",
    "request_status": "Pending",
    "responsible_agency": "Department of Public Works",
    "final_address": "301 Jewel St",
    "address_councildis": "D",
    "status": "Pending",
    "rowid": "1152406",
    "final_x": "3667473.44647",
    "final_y": "555895.968281",
    "longitude": "-90.11154055285837",
    "latitude": "30.02293970477739",
    "geocoded_column": {
      "latitude": "30.02293970477739",
      "longitude": "-90.11154055285837"
    }
  },
  {
    "service_request": "2024-1152405",
    "request_type": "Trash/Recycling",
    "request_reason": "Replace Trash Cart",
    "date_created": "2024-12-02T15:23:11.000",
    "date_modified": "2024-12-02T15:23:12.000",
    "request_status": "Pending",
    "responsible_agency": "Department of Sanitation",
    "final_address": "13479 Wales St",
    "address_councildis": "E",
    "status": "Assigned to Contractor",
    "contractor": "Waste Pro",
    "rowid": "1152405",
    "final_x": "3716442.21004",
    "final_y": "571169.996136",
    "longitude": "-89.95623202003989",
    "latitude": "30.06341045585077",
    "geocoded_column": {
      "latitude": "30.06341045585077",
      "longitude": "-89.95623202003989"
    }
  },
  {
    "service_request": "2024-1152404",
    "request_type": "Streetlights",
    "request_reason": "Streetlight Outage/Malfunction",
    "date_created": "2024-12-02T15:17:18.000",
    "date_modified": "2024-12-02T15:17:20.000",
    "request_status": "Pending",
    "responsible_agency": "Department of Public Works",
    "final_address": "5219 Timber Crest Dr",
    "address_councildis": "C",
    "status": "Pending",
    "contractor": "Legacy Professional Services",
    "rowid": "1152404",
    "final_x": "3703473.28177",
    "final_y": "511139.693808",
    "longitude": "-89.99943627856543",
    "latitude": "29.898771467981597",
    "geocoded_column": {
      "latitude": "29.898771467981597",
      "longitude": "-89.99943627856543"
    }
  },
  {
    "service_request": "2024-1152403",
    "request_type": "Trash/Recycling",
    "request_reason": "Request a Large Item Pick Up",
    "date_created": "2024-12-02T15:16:40.000",
    "date_modified": "2024-12-02T15:16:41.000",
    "request_status": "Pending",
    "responsible_agency": "Department of Sanitation",
    "final_address": "13691 Curran Rd",
    "address_councildis": "E",
    "status": "Assigned to Contractor",
    "contractor": "Waste Pro",
    "rowid": "1152403",
    "final_x": "3717551.39461",
    "final_y": "571464.004328",
    "longitude": "-89.95271466784698",
    "latitude": "30.0641821555394",
    "geocoded_column": {
      "latitude": "30.0641821555394",
      "longitude": "-89.95271466784698"
    }
  },
  {
    "service_request": "2024-1152402",
    "request_type": "Abandoned Vehicles",
    "request_reason": "Abandoned/Junk Vehicles",
    "date_created": "2024-12-02T15:16:05.000",
    "date_modified": "2024-12-02T15:16:05.000",
    "request_status": "Pending",
    "responsible_agency": "Department of Public Works",
    "final_address": "901 Foucher St Unit 1",
    "address_councildis": "B",
    "status": "Pending",
    "rowid": "1152402",
    "final_x": "3674490.33659",
    "final_y": "518737.330167",
    "longitude": "-90.09064209415699",
    "latitude": "29.92055848658641",
    "geocoded_column": {
      "latitude": "29.92055848658641",
      "longitude": "-90.09064209415699"
    }
  },
  {
    "service_request": "2024-1152401",
    "request_type": "Trash/Recycling",
    "request_reason": "Request a Large Item Pick Up",
    "date_created": "2024-12-02T15:11:33.000",
    "date_modified": "2024-12-02T15:11:34.000",
    "request_status": "Pending",
    "responsible_agency": "Department of Sanitation",
    "final_address": "4943 Michoud Blvd",
    "address_councildis": "E",
    "status": "Assigned to Contractor",
    "contractor": "Waste Pro",
    "rowid": "1152401",
    "final_x": "3725023.23865",
    "final_y": "561449.183902",
    "longitude": "-89.92948375578219",
    "latitude": "30.03639592323206",
    "geocoded_column": {
      "latitude": "30.03639592323206",
      "longitude": "-89.92948375578219"
    }
  },
  {
    "service_request": "2024-1152400",
    "request_type": "Roads and Streets",
    "request_reason": "Push-up/Pavement Expansion",
    "date_created": "2024-12-02T15:08:08.000",
    "date_modified": "2024-12-02T15:08:08.000",
    "request_status": "Pending",
    "responsible_agency": "Department of Public Works",
    "final_address": "1337 Mithra St",
    "address_councildis": "D",
    "status": "Pending",
    "rowid": "1152400",
    "final_x": "3677359.34325",
    "final_y": "552167.475094",
    "longitude": "-90.08043214131915",
    "latitude": "30.01239414503649",
    "geocoded_column": {
      "latitude": "30.01239414503649",
      "longitude": "-90.08043214131915"
    }
  },
  {
    "service_request": "2024-1152399",
    "request_type": "Trash/Recycling",
    "request_reason": "Request a Large Item Pick Up",
    "date_created": "2024-12-02T15:07:18.000",
    "date_modified": "2024-12-02T15:07:19.000",
    "request_status": "Pending",
    "responsible_agency": "Department of Sanitation",
    "final_address": "8712 Morrison Rd",
    "address_councildis": "E",
    "status": "Assigned to Contractor",
    "contractor": "Waste Pro",
    "rowid": "1152399",
    "final_x": "3705236.33201",
    "final_y": "561516.378783",
    "longitude": "-89.99201138094902",
    "latitude": "30.037232409128308",
    "geocoded_column": {
      "latitude": "30.037232409128308",
      "longitude": "-89.99201138094902"
    }
  },
  {
    "service_request": "2024-1152398",
    "request_type": "Trash/Recycling",
    "request_reason": "Request a Large Item Pick Up",
    "date_created": "2024-12-02T15:04:36.000",
    "date_modified": "2024-12-02T15:04:37.000",
    "request_status": "Pending",
    "responsible_agency": "Department of Sanitation",
    "final_address": "1021 Valence St",
    "address_councildis": "B",
    "status": "Assigned to Contractor",
    "contractor": "IV Waste",
    "rowid": "1152398",
    "final_x": "3669940.18394",
    "final_y": "519238.046199",
    "longitude": "-90.10498790596701",
    "latitude": "29.922070202504187",
    "geocoded_column": {
      "latitude": "29.922070202504187",
      "longitude": "-90.10498790596701"
    }
  },
  {
    "service_request": "2024-1152397",
    "request_type": "Traffic Signals",
    "request_reason": "Traffic Signal Malfunctioning or Damaged",
    "date_created": "2024-12-02T15:01:35.000",
    "date_modified": "2024-12-02T15:01:35.000",
    "request_status": "Pending",
    "responsible_agency": "Department of Public Works",
    "final_address": "4740 Chef Menteur Hwy",
    "address_councildis": "D",
    "status": "Pending",
    "rowid": "1152397",
    "final_x": "3692205.37737",
    "final_y": "549998.86434",
    "longitude": "-90.03360487218897",
    "latitude": "30.005976559212918",
    "geocoded_column": {
      "latitude": "30.005976559212918",
      "longitude": "-90.03360487218897"
    }
  },
  {
    "service_request": "2024-1152396",
    "request_type": "Trash/Recycling",
    "request_reason": "Order Trash Cart",
    "date_created": "2024-12-02T14:56:50.000",
    "date_modified": "2024-12-02T14:56:51.000",
    "request_status": "Pending",
    "responsible_agency": "Department of Sanitation",
    "final_address": "2717 Clover St",
    "address_councildis": "D",
    "status": "Assigned to Contractor",
    "contractor": "IV Waste",
    "rowid": "1152396",
    "final_x": "3687992.83267",
    "final_y": "546743.803729",
    "longitude": "-90.04702870896385",
    "latitude": "29.997157037826867",
    "geocoded_column": {
      "latitude": "29.997157037826867",
      "longitude": "-90.04702870896385"
    }
  },
  {
    "service_request": "2024-1152395",
    "request_type": "Property Maintenance",
    "request_reason": "Property Maintenance",
    "date_created": "2024-12-02T14:54:27.000",
    "date_modified": "2024-12-02T14:54:27.000",
    "request_status": "Pending",
    "responsible_agency": "Department of Code Enforcement",
    "final_address": "4958 Tulip St",
    "address_councildis": "E",
    "status": "Pending",
    "rowid": "1152395",
    "final_x": "3701922.75421",
    "final_y": "555509.814681",
    "longitude": "-90.00270340235697",
    "latitude": "30.02082292125486",
    "geocoded_column": {
      "latitude": "30.02082292125486",
      "longitude": "-90.00270340235697"
    }
  },
  {
    "service_request": "2024-1152394",
    "request_type": "Abandoned Vehicles",
    "request_reason": "Abandoned/Junk Vehicles",
    "date_created": "2024-12-02T14:53:18.000",
    "date_modified": "2024-12-02T14:53:19.000",
    "request_status": "Pending",
    "responsible_agency": "Department of Public Works",
    "final_address": "WALKER ST & GENERAL DIAZ ST",
    "address_councildis": "A",
    "status": "Pending",
    "rowid": "1152394",
    "final_x": "3670118.1",
    "final_y": "553896.78",
    "longitude": "-90.10325183310277",
    "latitude": "30.01736484539857",
    "geocoded_column": {
      "latitude": "30.01736484539857",
      "longitude": "-90.10325183310277"
    }
  },
  {
    "service_request": "2024-1152393",
    "request_type": "Abandoned Vehicles",
    "request_reason": "Abandoned/Junk Vehicles",
    "date_created": "2024-12-02T14:52:12.000",
    "date_modified": "2024-12-02T14:55:07.000",
    "request_status": "Pending",
    "responsible_agency": "Department of Public Works",
    "final_address": "2308 Jackson Ave",
    "address_councildis": "B",
    "status": "Pending",
    "rowid": "1152393",
    "final_x": "3675720.68635",
    "final_y": "526092.135486",
    "longitude": "-90.0865058303936",
    "latitude": "29.940745063223538",
    "geocoded_column": {
      "latitude": "29.940745063223538",
      "longitude": "-90.0865058303936"
    }
  },
  {
    "service_request": "2024-1152392",
    "request_type": "Streetlights",
    "request_reason": "Streetlight Outage/Malfunction",
    "date_created": "2024-12-02T14:49:22.000",
    "date_modified": "2024-12-02T14:55:32.000",
    "case_close_date": "2024-12-02T08:55:32.000",
    "request_status": "Closed",
    "responsible_agency": "Department of Public Works",
    "final_address": "1700 BLK General Ogden St",
    "address_councildis": "A",
    "status": "Duplicate Request",
    "contractor": "Legacy Professional Services",
    "rowid": "1152392",
    "final_x": "3661169.79508",
    "final_y": "531707.908485",
    "longitude": "-90.13225991397363",
    "latitude": "29.95661398540581",
    "geocoded_column": {
      "latitude": "29.95661398540581",
      "longitude": "-90.13225991397363"
    }
  },
  {
    "service_request": "2024-1152391",
    "request_type": "Streetlights",
    "request_reason": "Streetlight Outage/Malfunction",
    "date_created": "2024-12-02T14:48:51.000",
    "date_modified": "2024-12-02T14:50:13.000",
    "request_status": "Pending",
    "responsible_agency": "Department of Public Works",
    "final_address": "2402 Alabo St",
    "address_councildis": "E",
    "status": "Pending",
    "contractor": "Legacy Professional Services",
    "rowid": "1152391",
    "final_x": "3700197.313",
    "final_y": "538468.448073",
    "longitude": "-90.00877769665054",
    "latitude": "29.9740204840371",
    "geocoded_column": {
      "latitude": "29.9740204840371",
      "longitude": "-90.00877769665054"
    }
  },
  {
    "service_request": "2024-1152390",
    "request_type": "Abandoned Vehicles",
    "request_reason": "Abandoned/Junk Vehicles",
    "date_created": "2024-12-02T14:46:25.000",
    "date_modified": "2024-12-02T14:46:27.000",
    "request_status": "Pending",
    "responsible_agency": "Department of Public Works",
    "final_address": "3617 Franklin Ave",
    "address_councildis": "D",
    "status": "Pending",
    "rowid": "1152390",
    "final_x": "3687214.25762",
    "final_y": "546198.549456",
    "longitude": "-90.04950748789416",
    "latitude": "29.995681794422765",
    "geocoded_column": {
      "latitude": "29.995681794422765",
      "longitude": "-90.04950748789416"
    }
  },
  {
    "service_request": "2024-1152389",
    "request_type": "Property Maintenance",
    "request_reason": "Property Maintenance",
    "date_created": "2024-12-02T14:39:26.000",
    "date_modified": "2024-12-02T14:39:28.000",
    "request_status": "Pending",
    "responsible_agency": "Department of Code Enforcement",
    "final_address": "4559 Rosemont Pl",
    "address_councildis": "E",
    "status": "Pending",
    "rowid": "1152389",
    "final_x": "3702892.29745",
    "final_y": "553998.871512",
    "longitude": "-89.99969551699495",
    "latitude": "30.016637413075316",
    "geocoded_column": {
      "latitude": "30.016637413075316",
      "longitude": "-89.99969551699495"
    }
  },
  {
    "service_request": "2024-1152388",
    "request_type": "Trash/Recycling",
    "request_reason": "Request a Large Item Pick Up",
    "date_created": "2024-12-02T14:39:24.000",
    "date_modified": "2024-12-02T14:39:25.000",
    "request_status": "Pending",
    "responsible_agency": "Department of Sanitation",
    "final_address": "10712 Curran Rd",
    "address_councildis": "E",
    "status": "Assigned to Contractor",
    "contractor": "Waste Pro",
    "rowid": "1152388",
    "final_x": "3709677.91857",
    "final_y": "565515.597282",
    "longitude": "-89.97782557832946",
    "latitude": "30.048084950145846",
    "geocoded_column": {
      "latitude": "30.048084950145846",
      "longitude": "-89.97782557832946"
    }
  },
  {
    "service_request": "2024-1152387",
    "request_type": "Trash/Recycling",
    "request_reason": "Replace Trash Cart",
    "date_created": "2024-12-02T14:37:43.000",
    "date_modified": "2024-12-02T14:37:44.000",
    "request_status": "Pending",
    "responsible_agency": "Department of Sanitation",
    "final_address": "730 Valence St",
    "address_councildis": "B",
    "status": "Assigned to Contractor",
    "contractor": "IV Waste",
    "rowid": "1152387",
    "final_x": "3669885.90426",
    "final_y": "518186.202038",
    "longitude": "-90.10519483180308",
    "latitude": "29.919179564008594",
    "geocoded_column": {
      "latitude": "29.919179564008594",
      "longitude": "-90.10519483180308"
    }
  },
  {
    "service_request": "2024-1152386",
    "request_type": "Trash/Recycling",
    "request_reason": "Request a Large Item Pick Up",
    "date_created": "2024-12-02T14:37:21.000",
    "date_modified": "2024-12-02T14:37:22.000",
    "request_status": "Pending",
    "responsible_agency": "Department of Sanitation",
    "final_address": "4558 Rosemont Pl",
    "address_councildis": "E",
    "status": "Assigned to Contractor",
    "contractor": "Waste Pro",
    "rowid": "1152386",
    "final_x": "3702720.1546",
    "final_y": "553983.735384",
    "longitude": "-90.00023996775927",
    "latitude": "30.01660130244286",
    "geocoded_column": {
      "latitude": "30.01660130244286",
      "longitude": "-90.00023996775927"
    }
  },
  {
    "service_request": "2024-1152385",
    "request_type": "Streetlights",
    "request_reason": "Streetlight Outage/Malfunction",
    "date_created": "2024-12-02T14:37:19.000",
    "date_modified": "2024-12-02T14:37:20.000",
    "request_status": "Pending",
    "responsible_agency": "Department of Public Works",
    "final_address": "300 BLK Porteous St",
    "address_councildis": "A",
    "status": "Pending",
    "contractor": "Legacy Professional Services",
    "rowid": "1152385",
    "final_x": "3667703.80137",
    "final_y": "551463.978224",
    "longitude": "-90.11096207506733",
    "latitude": "30.01074654003249",
    "geocoded_column": {
      "latitude": "30.01074654003249",
      "longitude": "-90.11096207506733"
    }
  },
  {
    "service_request": "2024-1152384",
    "request_type": "Streetlights",
    "request_reason": "Streetlight Outage/Malfunction",
    "date_created": "2024-12-02T14:35:45.000",
    "date_modified": "2024-12-02T14:35:46.000",
    "request_status": "Pending",
    "responsible_agency": "Department of Public Works",
    "final_address": "200 BLK Porteous St",
    "address_councildis": "A",
    "status": "Pending",
    "contractor": "Legacy Professional Services",
    "rowid": "1152384",
    "final_x": "3667341.84474",
    "final_y": "551703.272693",
    "longitude": "-90.1120975832269",
    "latitude": "30.01141512834145",
    "geocoded_column": {
      "latitude": "30.01141512834145",
      "longitude": "-90.1120975832269"
    }
  },
  {
    "service_request": "2024-1152383",
    "request_type": "Trash/Recycling",
    "request_reason": "Return Recycling Cart",
    "date_created": "2024-12-02T14:35:16.000",
    "date_modified": "2024-12-02T14:35:16.000",
    "request_status": "Pending",
    "responsible_agency": "Department of Sanitation",
    "final_address": "730 Valence St",
    "address_councildis": "B",
    "status": "Pending",
    "rowid": "1152383",
    "final_x": "3669885.90426",
    "final_y": "518186.202038",
    "longitude": "-90.10519483180308",
    "latitude": "29.919179564008594",
    "geocoded_column": {
      "latitude": "29.919179564008594",
      "longitude": "-90.10519483180308"
    }
  },
  {
    "service_request": "2024-1152382",
    "request_type": "Property Maintenance",
    "request_reason": "Property Maintenance",
    "date_created": "2024-12-02T14:33:46.000",
    "date_modified": "2024-12-02T14:33:46.000",
    "request_status": "Pending",
    "responsible_agency": "Department of Code Enforcement",
    "final_address": "1834 St Philip St",
    "address_councildis": "D",
    "status": "Pending",
    "rowid": "1152382",
    "final_x": "3679878.36424",
    "final_y": "535860.772935",
    "longitude": "-90.07304010534864",
    "latitude": "29.96748046939176",
    "geocoded_column": {
      "latitude": "29.96748046939176",
      "longitude": "-90.07304010534864"
    }
  },
  {
    "service_request": "2024-1152381",
    "request_type": "Trash/Recycling",
    "request_reason": "Repair Trash Cart",
    "date_created": "2024-12-02T14:29:42.000",
    "date_modified": "2024-12-02T14:29:43.000",
    "request_status": "Pending",
    "responsible_agency": "Department of Sanitation",
    "final_address": "125 Mary Jane Ln",
    "address_councildis": "E",
    "status": "Assigned to Contractor",
    "contractor": "Waste Pro",
    "rowid": "1152381",
    "final_x": "3718134.52415",
    "final_y": "571657.89956",
    "longitude": "-89.95086397510131",
    "latitude": "30.06469595447786",
    "geocoded_column": {
      "latitude": "30.06469595447786",
      "longitude": "-89.95086397510131"
    }
  },
  {
    "service_request": "2024-1152380",
    "request_type": "Trash/Recycling",
    "request_reason": "Request a Large Item Pick Up",
    "date_created": "2024-12-02T14:26:55.000",
    "date_modified": "2024-12-02T14:26:56.000",
    "request_status": "Pending",
    "responsible_agency": "Department of Sanitation",
    "final_address": "315 N Rocheblave St",
    "address_councildis": "B",
    "status": "Assigned to Contractor",
    "contractor": "IV Waste",
    "rowid": "1152380",
    "final_x": "3676694.08424",
    "final_y": "535293.532678",
    "longitude": "-90.08311567559306",
    "latitude": "29.966016669514666",
    "geocoded_column": {
      "latitude": "29.966016669514666",
      "longitude": "-90.08311567559306"
    }
  },
  {
    "service_request": "2024-1152379",
    "request_type": "Roads and Streets",
    "request_reason": "Street Subsidence (Sinking)",
    "date_created": "2024-12-02T14:25:51.000",
    "date_modified": "2024-12-02T14:25:52.000",
    "request_status": "Pending",
    "responsible_agency": "Department of Public Works",
    "final_address": "1318 S Salcedo St Apt 101",
    "address_councildis": "B",
    "status": "Pending",
    "rowid": "1152379",
    "final_x": "3670847.20321",
    "final_y": "531367.71885",
    "longitude": "-90.10171327087775",
    "latitude": "29.955396105027063",
    "geocoded_column": {
      "latitude": "29.955396105027063",
      "longitude": "-90.10171327087775"
    }
  },
  {
    "service_request": "2024-1152378",
    "request_type": "Trash/Recycling",
    "request_reason": "Request a Large Item Pick Up",
    "date_created": "2024-12-02T14:24:21.000",
    "date_modified": "2024-12-02T14:24:22.000",
    "request_status": "Pending",
    "responsible_agency": "Department of Sanitation",
    "final_address": "4604 Magnolia St",
    "address_councildis": "B",
    "status": "Assigned to Contractor",
    "contractor": "IV Waste",
    "rowid": "1152378",
    "final_x": "3669654.78926",
    "final_y": "524623.369276",
    "longitude": "-90.10570665460844",
    "latitude": "29.936886528973236",
    "geocoded_column": {
      "latitude": "29.936886528973236",
      "longitude": "-90.10570665460844"
    }
  },
  {
    "service_request": "2024-1152377",
    "request_type": "Safety & Permits",
    "request_reason": "Zoning Enforcement",
    "date_created": "2024-12-02T14:21:57.000",
    "date_modified": "2024-12-02T15:26:39.000",
    "case_close_date": "2024-12-02T09:26:39.000",
    "request_status": "Closed",
    "responsible_agency": "Safety and Permits",
    "final_address": "3327 Sullen Pl",
    "address_councildis": "C",
    "status": "Pending",
    "contractor_action": "Completed",
    "rowid": "1152377",
    "final_x": "3707662.5114",
    "final_y": "518516.564279",
    "longitude": "-89.98594208131568",
    "latitude": "29.91892055911089",
    "geocoded_column": {
      "latitude": "29.91892055911089",
      "longitude": "-89.98594208131568"
    }
  },
  {
    "service_request": "2024-1152376",
    "request_type": "Roads and Streets",
    "request_reason": "Pothole",
    "date_created": "2024-12-02T14:20:11.000",
    "date_modified": "2024-12-02T14:20:11.000",
    "request_status": "Pending",
    "responsible_agency": "Department of Public Works",
    "final_address": "4309 Baudin St",
    "address_councildis": "A",
    "status": "Pending",
    "rowid": "1152376",
    "final_x": "3669261.43252",
    "final_y": "537763.413512",
    "longitude": "-90.10650434633183",
    "latitude": "29.973028911836995",
    "geocoded_column": {
      "latitude": "29.973028911836995",
      "longitude": "-90.10650434633183"
    }
  },
  {
    "service_request": "2024-1152375",
    "request_type": "Trash/Recycling",
    "request_reason": "Request a Large Item Pick Up",
    "date_created": "2024-12-02T14:16:52.000",
    "date_modified": "2024-12-02T14:16:54.000",
    "request_status": "Pending",
    "responsible_agency": "Department of Sanitation",
    "final_address": "2408 Chartres St",
    "address_councildis": "C",
    "status": "Assigned to Contractor",
    "contractor": "IV Waste",
    "rowid": "1152375",
    "final_x": "3685986.98498",
    "final_y": "534548.183173",
    "longitude": "-90.0537952922033",
    "latitude": "29.96368514524327",
    "geocoded_column": {
      "latitude": "29.96368514524327",
      "longitude": "-90.0537952922033"
    }
  },
  {
    "service_request": "2024-1152374",
    "request_type": "Streetlights",
    "request_reason": "Streetlight Outage/Malfunction",
    "date_created": "2024-12-02T14:14:40.000",
    "date_modified": "2024-12-02T14:14:41.000",
    "request_status": "Pending",
    "responsible_agency": "Department of Public Works",
    "final_address": "I 10 E SERVICE RD & READ BLVD",
    "address_councildis": "E",
    "status": "Pending",
    "contractor": "Legacy Professional Services",
    "rowid": "1152374",
    "final_x": "3710488.9",
    "final_y": "561072.98",
    "longitude": "-89.97542883620564",
    "latitude": "30.035843128001222",
    "geocoded_column": {
      "latitude": "30.035843128001222",
      "longitude": "-89.97542883620564"
    }
  },
  {
    "service_request": "2024-1152373",
    "request_type": "Trash/Recycling",
    "request_reason": "Request a Large Item Pick Up",
    "date_created": "2024-12-02T14:12:51.000",
    "date_modified": "2024-12-02T14:12:53.000",
    "request_status": "Pending",
    "responsible_agency": "Department of Sanitation",
    "final_address": "2343 Chippewa St",
    "address_councildis": "B",
    "status": "Assigned to Contractor",
    "contractor": "IV Waste",
    "rowid": "1152373",
    "final_x": "3679095.84527",
    "final_y": "520464.238776",
    "longitude": "-90.07604483278882",
    "latitude": "29.925168780310987",
    "geocoded_column": {
      "latitude": "29.925168780310987",
      "longitude": "-90.07604483278882"
    }
  },
  {
    "service_request": "2024-1152372",
    "request_type": "Streetlights",
    "request_reason": "Streetlight Outage/Malfunction",
    "date_created": "2024-12-02T14:10:56.000",
    "date_modified": "2024-12-02T14:10:57.000",
    "request_status": "Pending",
    "responsible_agency": "Department of Public Works",
    "final_address": "9050 Bunker Hill Rd",
    "address_councildis": "E",
    "status": "Pending",
    "contractor": "Legacy Professional Services",
    "rowid": "1152372",
    "final_x": "3706988.83486",
    "final_y": "560213.243805",
    "longitude": "-89.98652152502301",
    "latitude": "30.033592777506662",
    "geocoded_column": {
      "latitude": "30.033592777506662",
      "longitude": "-89.98652152502301"
    }
  },
  {
    "service_request": "2024-1152371",
    "request_type": "Trash/Recycling",
    "request_reason": "Repair Trash Cart",
    "date_created": "2024-12-02T14:10:31.000",
    "date_modified": "2024-12-02T14:10:33.000",
    "request_status": "Pending",
    "responsible_agency": "Department of Sanitation",
    "final_address": "1017 Dufossat St",
    "address_councildis": "B",
    "status": "Assigned to Contractor",
    "contractor": "IV Waste",
    "rowid": "1152371",
    "final_x": "3668146.15796",
    "final_y": "519143.010743",
    "longitude": "-90.11065411694987",
    "latitude": "29.921861644987967",
    "geocoded_column": {
      "latitude": "29.921861644987967",
      "longitude": "-90.11065411694987"
    }
  },
  {
    "service_request": "2024-1152370",
    "request_type": "Streetlights",
    "request_reason": "Streetlight Outage/Malfunction",
    "date_created": "2024-12-02T14:10:02.000",
    "date_modified": "2024-12-02T14:10:03.000",
    "request_status": "Pending",
    "responsible_agency": "Department of Public Works",
    "final_address": "9132 Bunker Hill Rd",
    "address_councildis": "E",
    "status": "Pending",
    "contractor": "Legacy Professional Services",
    "rowid": "1152370",
    "final_x": "3707144.9411",
    "final_y": "560298.379933",
    "longitude": "-89.98602505257027",
    "latitude": "30.03382182223394",
    "geocoded_column": {
      "latitude": "30.03382182223394",
      "longitude": "-89.98602505257027"
    }
  },
  {
    "service_request": "2024-1152369",
    "request_type": "Trash/Recycling",
    "request_reason": "Request a Large Item Pick Up",
    "date_created": "2024-12-02T14:08:59.000",
    "date_modified": "2024-12-02T14:09:00.000",
    "request_status": "Pending",
    "responsible_agency": "Department of Sanitation",
    "final_address": "7010 Cove Dr",
    "address_councildis": "E",
    "status": "Assigned to Contractor",
    "contractor": "Waste Pro",
    "rowid": "1152369",
    "final_x": "3700322.58429",
    "final_y": "558206.247451",
    "longitude": "-90.00766086858998",
    "latitude": "30.028288074069536",
    "geocoded_column": {
      "latitude": "30.028288074069536",
      "longitude": "-90.00766086858998"
    }
  },
  {
    "service_request": "2024-1152367",
    "request_type": "Trash/Recycling",
    "request_reason": "Request a Large Item Pick Up",
    "date_created": "2024-12-02T14:06:50.000",
    "date_modified": "2024-12-02T14:06:50.000",
    "request_status": "Pending",
    "responsible_agency": "Department of Sanitation",
    "final_address": "7000 Cove Dr",
    "address_councildis": "E",
    "status": "Assigned to Contractor",
    "contractor": "Waste Pro",
    "rowid": "1152367",
    "final_x": "3700346.33834",
    "final_y": "558144.995931",
    "longitude": "-90.00758804699463",
    "latitude": "30.028118900315583",
    "geocoded_column": {
      "latitude": "30.028118900315583",
      "longitude": "-90.00758804699463"
    }
  },
  {
    "service_request": "2024-1152368",
    "request_type": "Trash/Recycling",
    "request_reason": "Illegal Dumping",
    "date_created": "2024-12-02T14:06:50.000",
    "date_modified": "2024-12-02T14:06:51.000",
    "request_status": "Pending",
    "responsible_agency": "Department of Sanitation",
    "final_address": "2309 Baronne St",
    "address_councildis": "B",
    "status": "Pending",
    "rowid": "1152368",
    "final_x": "3676676.82216",
    "final_y": "523960.35142",
    "longitude": "-90.08356055055965",
    "latitude": "29.93485471487099",
    "geocoded_column": {
      "latitude": "29.93485471487099",
      "longitude": "-90.08356055055965"
    }
  },
  {
    "service_request": "2024-1152366",
    "request_type": "Trash/Recycling",
    "request_reason": "Illegal Dumping",
    "date_created": "2024-12-02T14:01:35.000",
    "date_modified": "2024-12-02T14:01:35.000",
    "request_status": "Pending",
    "responsible_agency": "Department of Sanitation",
    "final_address": "7919 Alabama St",
    "address_councildis": "D",
    "status": "Pending",
    "rowid": "1152366",
    "final_x": "3694679.92746",
    "final_y": "559505.366429",
    "longitude": "-90.02544441060382",
    "latitude": "30.032038450860746",
    "geocoded_column": {
      "latitude": "30.032038450860746",
      "longitude": "-90.02544441060382"
    }
  },
  {
    "service_request": "2024-1152365",
    "request_type": "Trash/Recycling",
    "request_reason": "Missed Trash Pick-Up",
    "date_created": "2024-12-02T14:01:08.000",
    "date_modified": "2024-12-02T17:50:10.000",
    "case_close_date": "2024-12-02T11:50:10.000",
    "request_status": "Closed",
    "responsible_agency": "Department of Sanitation",
    "final_address": "5205 St Claude Ave",
    "address_councildis": "E",
    "status": "Invalid Request",
    "contractor": "Waste Pro",
    "contractor_action": "Invalid Request",
    "rowid": "1152365",
    "final_x": "3696638.59069",
    "final_y": "534265.221253",
    "longitude": "-90.02016901798207",
    "latitude": "29.96257574522653",
    "geocoded_column": {
      "latitude": "29.96257574522653",
      "longitude": "-90.02016901798207"
    }
  },
  {
    "service_request": "2024-1152364",
    "request_type": "Mosquito, Termite & Rodent Control",
    "request_reason": "Rodent Complaint (Rats)",
    "date_created": "2024-12-02T13:59:11.000",
    "date_modified": "2024-12-02T13:59:11.000",
    "request_status": "Pending",
    "responsible_agency": "Mosquito, Termite & Rodent Control Board",
    "final_address": "165 Roosevelt Way",
    "address_councildis": "B",
    "status": "Pending",
    "rowid": "1152364",
    "final_x": "3679949.00136",
    "final_y": "531008.885954",
    "longitude": "-90.07298556761592",
    "latitude": "29.954137292584587",
    "geocoded_column": {
      "latitude": "29.954137292584587",
      "longitude": "-90.07298556761592"
    }
  },
  {
    "service_request": "2024-1152363",
    "request_type": "Trash/Recycling",
    "request_reason": "Request a Large Item Pick Up",
    "date_created": "2024-12-02T13:58:11.000",
    "date_modified": "2024-12-02T13:58:13.000",
    "request_status": "Pending",
    "responsible_agency": "Department of Sanitation",
    "final_address": "121 S Murat St",
    "address_councildis": "A",
    "status": "Assigned to Contractor",
    "contractor": "IV Waste",
    "rowid": "1152363",
    "final_x": "3669507.60257",
    "final_y": "539246.73345",
    "longitude": "-90.10567669999202",
    "latitude": "29.97710029244941",
    "geocoded_column": {
      "latitude": "29.97710029244941",
      "longitude": "-90.10567669999202"
    }
  },
  {
    "service_request": "2024-1152362",
    "request_type": "Trash/Recycling",
    "request_reason": "Repair Trash Cart",
    "date_created": "2024-12-02T13:53:48.000",
    "date_modified": "2024-12-02T13:53:49.000",
    "request_status": "Pending",
    "responsible_agency": "Department of Sanitation",
    "final_address": "4134 Copernicus St",
    "address_councildis": "C",
    "status": "Assigned to Contractor",
    "contractor": "Richards Disposal",
    "rowid": "1152362",
    "final_x": "3699275.08272",
    "final_y": "523298.839867",
    "longitude": "-90.01224265422171",
    "latitude": "29.93233870434791",
    "geocoded_column": {
      "latitude": "29.93233870434791",
      "longitude": "-90.01224265422171"
    }
  },
  {
    "service_request": "2024-1152361",
    "request_type": "Trash/Recycling",
    "request_reason": "Request a Large Item Pick Up",
    "date_created": "2024-12-02T13:53:04.000",
    "date_modified": "2024-12-02T13:53:05.000",
    "request_status": "Pending",
    "responsible_agency": "Department of Sanitation",
    "final_address": "7841 Branch Dr",
    "address_councildis": "E",
    "status": "Assigned to Contractor",
    "contractor": "Waste Pro",
    "rowid": "1152361",
    "final_x": "3714217.54539",
    "final_y": "569458.44151",
    "longitude": "-89.96332892388374",
    "latitude": "30.058777714628157",
    "geocoded_column": {
      "latitude": "30.058777714628157",
      "longitude": "-89.96332892388374"
    }
  },
  {
    "service_request": "2024-1152360",
    "request_type": "Trash/Recycling",
    "request_reason": "Request a Large Item Pick Up",
    "date_created": "2024-12-02T13:51:38.000",
    "date_modified": "2024-12-02T13:51:39.000",
    "request_status": "Pending",
    "responsible_agency": "Department of Sanitation",
    "final_address": "13201 St Helena Pl",
    "address_councildis": "E",
    "status": "Assigned to Contractor",
    "contractor": "Waste Pro",
    "rowid": "1152360",
    "final_x": "3726484.96102",
    "final_y": "564278.639777",
    "longitude": "-89.92475456939349",
    "latitude": "30.044126431606085",
    "geocoded_column": {
      "latitude": "30.044126431606085",
      "longitude": "-89.92475456939349"
    }
  },
  {
    "service_request": "2024-1152359",
    "request_type": "General Services",
    "request_reason": "General Service Request",
    "date_created": "2024-12-02T13:50:55.000",
    "date_modified": "2024-12-02T14:50:54.000",
    "case_close_date": "2024-12-02T08:50:54.000",
    "request_status": "Closed",
    "responsible_agency": "Orleans Parish Communication District",
    "final_address": "CHICKASAW ST & ALVAR ST",
    "address_councildis": "D",
    "status": "Referred to Risk Management",
    "rowid": "1152359",
    "final_x": "3693393.7",
    "final_y": "547391.88",
    "longitude": "-90.02994437957409",
    "latitude": "29.99877119549668",
    "geocoded_column": {
      "latitude": "29.99877119549668",
      "longitude": "-90.02994437957409"
    }
  },
  {
    "service_request": "2024-1152358",
    "request_type": "Roads and Streets",
    "request_reason": "Pothole",
    "date_created": "2024-12-02T13:50:38.000",
    "date_modified": "2024-12-02T13:50:39.000",
    "request_status": "Pending",
    "responsible_agency": "Department of Public Works",
    "final_address": "CHICKASAW ST & ALVAR ST",
    "address_councildis": "D",
    "status": "Pending",
    "rowid": "1152358",
    "final_x": "3693393.7",
    "final_y": "547391.88",
    "longitude": "-90.02994437957409",
    "latitude": "29.99877119549668",
    "geocoded_column": {
      "latitude": "29.99877119549668",
      "longitude": "-90.02994437957409"
    }
  },
  {
    "service_request": "2024-1152357",
    "request_type": "Trash/Recycling",
    "request_reason": "Order Second Trash Cart",
    "date_created": "2024-12-02T13:50:15.000",
    "date_modified": "2024-12-02T13:50:16.000",
    "request_status": "Pending",
    "responsible_agency": "Department of Sanitation",
    "final_address": "2917 St Claude Ave",
    "address_councildis": "C",
    "status": "Assigned to Contractor",
    "contractor": "IV Waste",
    "rowid": "1152357",
    "final_x": "3688311.01756",
    "final_y": "536280.783111",
    "longitude": "-90.04639480131141",
    "latitude": "29.968377626738363",
    "geocoded_column": {
      "latitude": "29.968377626738363",
      "longitude": "-90.04639480131141"
    }
  },
  {
    "service_request": "2024-1152356",
    "request_type": "Trash/Recycling",
    "request_reason": "Order Recycling Cart",
    "date_created": "2024-12-02T13:46:21.000",
    "date_modified": "2024-12-02T13:46:22.000",
    "request_status": "Pending",
    "responsible_agency": "Department of Sanitation",
    "final_address": "4319 Ulloa St",
    "address_councildis": "A",
    "status": "Pending",
    "rowid": "1152356",
    "final_x": "3668743.12814",
    "final_y": "537228.138568",
    "longitude": "-90.108159333115",
    "latitude": "29.971572333862532",
    "geocoded_column": {
      "latitude": "29.971572333862532",
      "longitude": "-90.108159333115"
    }
  },
  {
    "service_request": "2024-1152355",
    "request_type": "Abandoned Vehicles",
    "request_reason": "Abandoned/Junk Vehicles",
    "date_created": "2024-12-02T13:44:07.000",
    "date_modified": "2024-12-02T13:46:21.000",
    "request_status": "Pending",
    "responsible_agency": "Department of Public Works",
    "final_address": "3230 Ponce De Leon St",
    "address_councildis": "A",
    "status": "Pending",
    "rowid": "1152355",
    "final_x": "3675793.16853",
    "final_y": "540520.313483",
    "longitude": "-90.0857810336602",
    "latitude": "29.98041553087163",
    "geocoded_column": {
      "latitude": "29.98041553087163",
      "longitude": "-90.0857810336602"
    }
  },
  {
    "service_request": "2024-1152354",
    "request_type": "Trash/Recycling",
    "request_reason": "Repair Recycling Cart",
    "date_created": "2024-12-02T13:43:04.000",
    "date_modified": "2024-12-02T13:43:05.000",
    "request_status": "Pending",
    "responsible_agency": "Department of Sanitation",
    "final_address": "ETON ST & MACARTHUR BLVD",
    "address_councildis": "C",
    "status": "Pending",
    "rowid": "1152354",
    "final_x": "3703847.1",
    "final_y": "519684.38",
    "longitude": "-89.9979423105209",
    "latitude": "29.922254462409143",
    "geocoded_column": {
      "latitude": "29.922254462409143",
      "longitude": "-89.9979423105209"
    }
  },
  {
    "service_request": "2024-1152353",
    "request_type": "Trash/Recycling",
    "request_reason": "Order Second Trash Cart",
    "date_created": "2024-12-02T13:41:56.000",
    "date_modified": "2024-12-02T13:41:57.000",
    "request_status": "Pending",
    "responsible_agency": "Department of Sanitation",
    "final_address": "7235 Wales St",
    "address_councildis": "E",
    "status": "Assigned to Contractor",
    "contractor": "Waste Pro",
    "rowid": "1152353",
    "final_x": "3699420.10621",
    "final_y": "561117.603998",
    "longitude": "-90.01040641662448",
    "latitude": "30.03632185814726",
    "geocoded_column": {
      "latitude": "30.03632185814726",
      "longitude": "-90.01040641662448"
    }
  },
  {
    "service_request": "2024-1152352",
    "request_type": "Streetlights",
    "request_reason": "Streetlight Outage/Malfunction",
    "date_created": "2024-12-02T13:39:51.000",
    "date_modified": "2024-12-02T13:39:52.000",
    "request_status": "Pending",
    "responsible_agency": "Department of Public Works",
    "final_address": "1921 Music St",
    "address_councildis": "D",
    "status": "Pending",
    "contractor": "Legacy Professional Services",
    "rowid": "1152352",
    "final_x": "3686633.13737",
    "final_y": "539601.274698",
    "longitude": "-90.05157631350737",
    "latitude": "29.977559526020016",
    "geocoded_column": {
      "latitude": "29.977559526020016",
      "longitude": "-90.05157631350737"
    }
  },
  {
    "service_request": "2024-1152351",
    "request_type": "Trash/Recycling",
    "request_reason": "Request a Large Item Pick Up",
    "date_created": "2024-12-02T13:38:53.000",
    "date_modified": "2024-12-02T13:38:54.000",
    "request_status": "Pending",
    "responsible_agency": "Department of Sanitation",
    "final_address": "4935 Arthur Dr",
    "address_councildis": "E",
    "status": "Assigned to Contractor",
    "contractor": "Waste Pro",
    "rowid": "1152351",
    "final_x": "3707635.72996",
    "final_y": "556732.587354",
    "longitude": "-89.98460674961423",
    "latitude": "30.024001414087188",
    "geocoded_column": {
      "latitude": "30.024001414087188",
      "longitude": "-89.98460674961423"
    }
  },
  {
    "service_request": "2024-1152350",
    "request_type": "Trash/Recycling",
    "request_reason": "Request a Large Item Pick Up",
    "date_created": "2024-12-02T13:38:24.000",
    "date_modified": "2024-12-02T13:38:25.000",
    "request_status": "Pending",
    "responsible_agency": "Department of Sanitation",
    "final_address": "1201 Coliseum St Apt 1A",
    "address_councildis": "B",
    "status": "Assigned to Contractor",
    "contractor": "IV Waste",
    "rowid": "1152350",
    "final_x": "3680139.67362",
    "final_y": "525628.334973",
    "longitude": "-90.07257043751302",
    "latitude": "29.93933680971088",
    "geocoded_column": {
      "latitude": "29.93933680971088",
      "longitude": "-90.07257043751302"
    }
  },
  {
    "service_request": "2024-1152349",
    "request_type": "Abandoned Vehicles",
    "request_reason": "Abandoned/Junk Vehicles",
    "date_created": "2024-12-02T13:38:02.000",
    "date_modified": "2024-12-02T13:38:02.000",
    "request_status": "Pending",
    "responsible_agency": "Department of Public Works",
    "final_address": "3230 Ponce De Leon St",
    "address_councildis": "A",
    "status": "Pending",
    "rowid": "1152349",
    "final_x": "3675793.16853",
    "final_y": "540520.313483",
    "longitude": "-90.0857810336602",
    "latitude": "29.98041553087163",
    "geocoded_column": {
      "latitude": "29.98041553087163",
      "longitude": "-90.0857810336602"
    }
  },
  {
    "service_request": "2024-1152348",
    "request_type": "Trash/Recycling",
    "request_reason": "Request a Large Item Pick Up",
    "date_created": "2024-12-02T13:36:58.000",
    "date_modified": "2024-12-02T13:36:59.000",
    "request_status": "Pending",
    "responsible_agency": "Department of Sanitation",
    "final_address": "4920 Sherwood Dr",
    "address_councildis": "E",
    "status": "Assigned to Contractor",
    "contractor": "Waste Pro",
    "rowid": "1152348",
    "final_x": "3717839.66789",
    "final_y": "557854.956763",
    "longitude": "-89.95232190685832",
    "latitude": "30.02675328532648",
    "geocoded_column": {
      "latitude": "30.02675328532648",
      "longitude": "-89.95232190685832"
    }
  },
  {
    "service_request": "2024-1152347",
    "request_type": "Trash/Recycling",
    "request_reason": "Repair Trash Cart",
    "date_created": "2024-12-02T13:34:49.000",
    "date_modified": "2024-12-02T13:35:37.000",
    "request_status": "Pending",
    "responsible_agency": "Department of Sanitation",
    "final_address": "2463 Mercedes Blvd",
    "address_councildis": "C",
    "status": "Assigned to Contractor",
    "contractor": "Richards Disposal",
    "rowid": "1152347",
    "final_x": "3697973.07869",
    "final_y": "521863.72953",
    "longitude": "-90.01640500607125",
    "latitude": "29.928433856386963",
    "geocoded_column": {
      "latitude": "29.928433856386963",
      "longitude": "-90.01640500607125"
    }
  },
  {
    "service_request": "2024-1152346",
    "request_type": "Trash/Recycling",
    "request_reason": "Repair Trash Cart",
    "date_created": "2024-12-02T13:34:43.000",
    "date_modified": "2024-12-02T13:34:45.000",
    "request_status": "Pending",
    "responsible_agency": "Department of Sanitation",
    "final_address": "1209 Fern St",
    "address_councildis": "A",
    "status": "Assigned to Contractor",
    "contractor": "IV Waste",
    "rowid": "1152346",
    "final_x": "3662627.98573",
    "final_y": "527890.952127",
    "longitude": "-90.12778220678324",
    "latitude": "29.946076476101315",
    "geocoded_column": {
      "latitude": "29.946076476101315",
      "longitude": "-90.12778220678324"
    }
  },
  {
    "service_request": "2024-1152345",
    "request_type": "Trash/Recycling",
    "request_reason": "Repair Trash Cart",
    "date_created": "2024-12-02T13:33:07.000",
    "date_modified": "2024-12-02T13:33:08.000",
    "request_status": "Pending",
    "responsible_agency": "Department of Sanitation",
    "final_address": "2706 Aubry St",
    "address_councildis": "D",
    "status": "Assigned to Contractor",
    "contractor": "IV Waste",
    "rowid": "1152345",
    "final_x": "3679371.77653",
    "final_y": "541281.07726",
    "longitude": "-90.07445185777287",
    "latitude": "29.982399747732515",
    "geocoded_column": {
      "latitude": "29.982399747732515",
      "longitude": "-90.07445185777287"
    }
  },
  {
    "service_request": "2024-1152344",
    "request_type": "Streetlights",
    "request_reason": "Streetlight Outage/Malfunction",
    "date_created": "2024-12-02T13:32:00.000",
    "date_modified": "2024-12-02T13:32:01.000",
    "request_status": "Pending",
    "responsible_agency": "Department of Public Works",
    "final_address": "7513 Scottwood Dr",
    "address_councildis": "E",
    "status": "Pending",
    "contractor": "Legacy Professional Services",
    "rowid": "1152344",
    "final_x": "3717758.33932",
    "final_y": "570221.823399",
    "longitude": "-89.95210783902661",
    "latitude": "30.06075981789143",
    "geocoded_column": {
      "latitude": "30.06075981789143",
      "longitude": "-89.95210783902661"
    }
  },
  {
    "service_request": "2024-1152343",
    "request_type": "Trash/Recycling",
    "request_reason": "Repair Trash Cart",
    "date_created": "2024-12-02T13:30:33.000",
    "date_modified": "2024-12-02T13:30:34.000",
    "request_status": "Pending",
    "responsible_agency": "Department of Sanitation",
    "final_address": "7513 Burthe St",
    "address_councildis": "A",
    "status": "Assigned to Contractor",
    "contractor": "IV Waste",
    "rowid": "1152343",
    "final_x": "3662770.09683",
    "final_y": "526270.43155",
    "longitude": "-90.1273873606279",
    "latitude": "29.941616450081842",
    "geocoded_column": {
      "latitude": "29.941616450081842",
      "longitude": "-90.1273873606279"
    }
  },
  {
    "service_request": "2024-1152342",
    "request_type": "Abandoned Vehicles",
    "request_reason": "Abandoned/Junk Vehicles",
    "date_created": "2024-12-02T13:30:10.000",
    "date_modified": "2024-12-02T13:30:11.000",
    "request_status": "Pending",
    "responsible_agency": "Department of Public Works",
    "final_address": "2150 N Broad St",
    "address_councildis": "D",
    "status": "Pending",
    "rowid": "1152342",
    "final_x": "3681152.89083",
    "final_y": "542698.309325",
    "longitude": "-90.06877682603158",
    "latitude": "29.986242713468126",
    "geocoded_column": {
      "latitude": "29.986242713468126",
      "longitude": "-90.06877682603158"
    }
  },
  {
    "service_request": "2024-1152341",
    "request_type": "Trash/Recycling",
    "request_reason": "Repair Trash Cart",
    "date_created": "2024-12-02T13:28:21.000",
    "date_modified": "2024-12-02T13:28:23.000",
    "request_status": "Pending",
    "responsible_agency": "Department of Sanitation",
    "final_address": "6020 Franklin Ave",
    "address_councildis": "D",
    "status": "Assigned to Contractor",
    "contractor": "IV Waste",
    "rowid": "1152341",
    "final_x": "3686323.70678",
    "final_y": "555396.444761",
    "longitude": "-90.05199574187453",
    "latitude": "30.021000058655574",
    "geocoded_column": {
      "latitude": "30.021000058655574",
      "longitude": "-90.05199574187453"
    }
  },
  {
    "service_request": "2024-1152340",
    "request_type": "Trash/Recycling",
    "request_reason": "Replace Trash Cart",
    "date_created": "2024-12-02T13:28:19.000",
    "date_modified": "2024-12-02T13:28:20.000",
    "request_status": "Pending",
    "responsible_agency": "Department of Sanitation",
    "final_address": "7964 Edgelake Ct",
    "address_councildis": "E",
    "status": "Assigned to Contractor",
    "contractor": "Waste Pro",
    "rowid": "1152340",
    "final_x": "3702719.27236",
    "final_y": "562192.548959",
    "longitude": "-89.99994093958142",
    "latitude": "30.039172388720967",
    "geocoded_column": {
      "latitude": "30.039172388720967",
      "longitude": "-89.99994093958142"
    }
  },