[
  {
    "service_request": "2023-972290",
    "request_type": "Abandoned Vehicles",
    "request_reason": "Abandoned/Junk Vehicles",
    "date_created": "2023-02-02T01:50:24.000",
    "date_modified": "2023-02-02T01:50:24.000",
    "request_status": "Pending",
    "responsible_agency": "Department of Public Works",
    "final_address": "3625 Utah St",
    "address_councildis": "C",
    "status": "Pending",
    "rowid": "972290",
    "final_x": "3695340.16278",
    "final_y": "518049.486006",
    "longitude": "-90.02485400892748",
    "latitude": "29.918028923060604",
    "geocoded_column": {
      "latitude": "29.918028923060604",
      "longitude": "-90.02485400892748"
    }
  },
  {
    "service_request": "2023-972289",
    "request_type": "Traffic Signals/Signs/Striping/Streetlights",
    "request_reason": "Street Light Outage/Malfunction",
    "date_created": "2023-02-02T00:37:18.000",
    "date_modified": "2023-02-02T00:37:19.000",
    "request_status": "Pending",
    "responsible_agency": "Department of Public Works",
    "final_address": "1544 Camp St Apt 7",
    "address_councildis": "B",
    "status": "Assigned to Contractor",
    "contractor": "Legacy Professional Services",
    "rowid": "972289",
    "final_x": "3679758.98741",
    "final_y": "523497.693755",
    "longitude": "-90.07384625143573",
    "latitude": "29.93348976244954",
    "geocoded_column": {
      "latitude": "29.93348976244954",
      "longitude": "-90.07384625143573"
    }
  },
  {
    "service_request": "2023-972287",
    "request_type": "Trash/Recycling",
    "request_reason": "Request a Large Item Pick Up",
    "date_created": "2023-02-01T23:59:30.000",
    "date_modified": "2023-02-01T23:59:30.000",
    "request_status": "Pending",
    "responsible_agency": "Department of Sanitation",
    "final_address": "1234 Egania St",
    "address_councildis": "E",
    "status": "Assigned to Contractor",
    "contractor": "Waste Pro",
    "rowid": "972287",
    "final_x": "3696944.63178",
    "final_y": "534738.725894",
    "longitude": "-90.01918543823872",
    "latitude": "29.963868067328434",
    "geocoded_column": {
      "latitude": "29.963868067328434",
      "longitude": "-90.01918543823872"
    }
  },
  {
    "service_request": "2023-972286",
    "request_type": "Health Related Request",
    "request_reason": "Noise Ordinance Complaint",
    "date_created": "2023-02-01T22:33:31.000",
    "date_modified": "2023-02-01T22:33:31.000",
    "request_status": "Pending",
    "responsible_agency": "Health Department",
    "final_address": "1009 N Claiborne Ave, New Orleans, Louisiana, 70116",
    "address_councildis": "D",
    "status": "Pending",
    "rowid": "972286",
    "final_x": "3680417.66101",
    "final_y": "535635.218886",
    "longitude": "-90.07134484150656",
    "latitude": "29.966843952035386",
    "geocoded_column": {
      "latitude": "29.966843952035386",
      "longitude": "-90.07134484150656"
    }
  },
  {
    "service_request": "2023-972285",
    "request_type": "Property Maintenance",
    "request_reason": "Property Maintenance",
    "date_created": "2023-02-01T22:12:38.000",
    "date_modified": "2023-02-01T22:12:38.000",
    "request_status": "Pending",
    "responsible_agency": "Department of Code Enforcement",
    "final_address": "6160 S Hermes St",
    "address_councildis": "D",
    "status": "Pending",
    "rowid": "972285",
    "final_x": "3696906.98634",
    "final_y": "555024.996505",
    "longitude": "-90.01856925603778",
    "latitude": "30.019649057795082",
    "geocoded_column": {
      "latitude": "30.019649057795082",
      "longitude": "-90.01856925603778"
    }
  },
  {
    "service_request": "2023-972284",
    "request_type": "Health Related Request",
    "request_reason": "Noise Ordinance Complaint",
    "date_created": "2023-02-01T21:05:05.000",
    "date_modified": "2023-02-01T21:05:05.000",
    "request_status": "Pending",
    "responsible_agency": "Health Department",
    "final_address": "1009 N Claiborne Ave, New Orleans, Louisiana, 70116",
    "address_councildis": "D",
    "status": "Pending",
    "rowid": "972284",
    "final_x": "3680417.66101",
    "final_y": "535635.218886",
    "longitude": "-90.07134484150656",
    "latitude": "29.966843952035386",
    "geocoded_column": {
      "latitude": "29.966843952035386",
      "longitude": "-90.07134484150656"
    }
  },
  {
    "service_request": "2023-972283",
    "request_type": "Trash/Recycling",
    "request_reason": "Missed Trash Pick-Up",
    "date_created": "2023-02-01T20:46:47.000",
    "date_modified": "2023-02-01T20:46:47.000",
    "request_status": "Pending",
    "responsible_agency": "Department of Sanitation",
    "final_address": "4139 State Street Dr",
    "address_councildis": "B",
    "status": "Assigned to Contractor",
    "contractor": "Richards Disposal",
    "rowid": "972283",
    "final_x": "3668430.47412",
    "final_y": "530808.382338",
    "longitude": "-90.10936331414214",
    "latitude": "29.953929318484317",
    "geocoded_column": {
      "latitude": "29.953929318484317",
      "longitude": "-90.10936331414214"
    }
  },
  {
    "service_request": "2023-972282",
    "request_type": "Trash/Recycling",
    "request_reason": "Replace Trash Cart",
    "date_created": "2023-02-01T20:41:16.000",
    "date_modified": "2023-02-01T20:41:17.000",
    "request_status": "Pending",
    "responsible_agency": "Department of Sanitation",
    "final_address": "1000 Leontine St",
    "address_councildis": "B",
    "status": "Assigned to Contractor",
    "contractor": "Richards Disposal",
    "rowid": "972282",
    "final_x": "3667196.829",
    "final_y": "519170.263543",
    "longitude": "-90.11364984102431",
    "latitude": "29.92196440143432",
    "geocoded_column": {
      "latitude": "29.92196440143432",
      "longitude": "-90.11364984102431"
    }
  },
  {
    "service_request": "2023-972281",
    "request_type": "Traffic Signals/Signs/Striping/Streetlights",
    "request_reason": "Street Light Outage/Malfunction",
    "date_created": "2023-02-01T20:19:21.000",
    "date_modified": "2023-02-01T20:22:57.000",
    "request_status": "Pending",
    "responsible_agency": "Department of Public Works",
    "final_address": "6501 and 6515 Wuerpel Street ",
    "address_councildis": "A",
    "status": "Assigned to Contractor",
    "contractor": "Legacy Professional Services",
    "rowid": "972281",
    "final_x": "3667117.43949",
    "final_y": "550854.034069",
    "longitude": "-90.11283515318162",
    "latitude": "30.00908659337053",
    "geocoded_column": {
      "latitude": "30.00908659337053",
      "longitude": "-90.11283515318162"
    }
  },
  {
    "service_request": "2023-972280",
    "request_type": "Traffic Signals/Signs/Striping/Streetlights",
    "request_reason": "Street Light Outage/Malfunction",
    "date_created": "2023-02-01T20:16:52.000",
    "date_modified": "2023-02-01T20:24:29.000",
    "request_status": "Pending",
    "responsible_agency": "Department of Public Works",
    "final_address": "New Orleans,LA",
    "address_councildis": "A",
    "status": "Assigned to Contractor",
    "contractor": "Legacy Professional Services",
    "rowid": "972280",
    "final_x": "3667132.16513",
    "final_y": "551004.183445",
    "longitude": "-90.11278357673909",
    "latitude": "30.009499020445286",
    "geocoded_column": {
      "latitude": "30.009499020445286",
      "longitude": "-90.11278357673909"
    }
  },
  {
    "service_request": "2023-972279",
    "request_type": "Trash/Recycling",
    "request_reason": "Replace Trash Cart",
    "date_created": "2023-02-01T20:07:01.000",
    "date_modified": "2023-02-01T20:07:02.000",
    "request_status": "Pending",
    "responsible_agency": "Department of Sanitation",
    "final_address": "2300 General Pershing St",
    "address_councildis": "B",
    "status": "Assigned to Contractor",
    "contractor": "Richards Disposal",
    "rowid": "972279",
    "final_x": "3670956.05761",
    "final_y": "523419.928827",
    "longitude": "-90.10163931360023",
    "latitude": "29.933539057518978",
    "geocoded_column": {
      "latitude": "29.933539057518978",
      "longitude": "-90.10163931360023"
    }
  },
  {
    "service_request": "2023-972278",
    "request_type": "Abandoned Vehicles",
    "request_reason": "Abandoned/Junk Vehicles",
    "date_created": "2023-02-01T19:42:06.000",
    "date_modified": "2023-02-01T19:42:06.000",
    "request_status": "Pending",
    "responsible_agency": "Department of Public Works",
    "final_address": "1502 Milan St",
    "address_councildis": "B",
    "status": "Pending",
    "rowid": "972278",
    "final_x": "3671576.64897",
    "final_y": "520683.302521",
    "longitude": "-90.09977314384989",
    "latitude": "29.925995857078497",
    "geocoded_column": {
      "latitude": "29.925995857078497",
      "longitude": "-90.09977314384989"
    }
  },
  {
    "service_request": "2023-972277",
    "request_type": "Trash/Recycling",
    "request_reason": "Order Recycling Cart",
    "date_created": "2023-02-01T19:40:36.000",
    "date_modified": "2023-02-01T19:40:36.000",
    "request_status": "Pending",
    "responsible_agency": "Department of Sanitation",
    "final_address": "4430 St Bernard Ave",
    "address_councildis": "D",
    "status": "Pending",
    "rowid": "972277",
    "final_x": "3676730.23771",
    "final_y": "548592.985875",
    "longitude": "-90.08254304259707",
    "latitude": "30.002584472224402",
    "geocoded_column": {
      "latitude": "30.002584472224402",
      "longitude": "-90.08254304259707"
    }
  },
  {
    "service_request": "2023-972276",
    "request_type": "Trash/Recycling",
    "request_reason": "Illegal Dumping",
    "date_created": "2023-02-01T19:31:41.000",
    "date_modified": "2023-02-01T19:31:41.000",
    "request_status": "Pending",
    "responsible_agency": "Department of Sanitation",
    "final_address": "6767 Bundy Rd",
    "address_councildis": "E",
    "status": "Pending",
    "rowid": "972276",
    "final_x": "3707943.71448",
    "final_y": "559384.518173",
    "longitude": "-89.98353487492832",
    "latitude": "30.031283213315767",
    "geocoded_column": {
      "latitude": "30.031283213315767",
      "longitude": "-89.98353487492832"
    }
  },
  {
    "service_request": "2023-972275",
    "request_type": "Trash/Recycling",
    "request_reason": "Missed Trash Pick-Up",
    "date_created": "2023-02-01T19:03:50.000",
    "date_modified": "2023-02-01T19:03:51.000",
    "request_status": "Pending",
    "responsible_agency": "Department of Sanitation",
    "final_address": "2831 Audubon St",
    "address_councildis": "B",
    "status": "Assigned to Contractor",
    "contractor": "Richards Disposal",
    "rowid": "972275",
    "final_x": "3667694.17434",
    "final_y": "531295.870018",
    "longitude": "-90.11167184375363",
    "latitude": "29.955291355719048",
    "geocoded_column": {
      "latitude": "29.955291355719048",
      "longitude": "-90.11167184375363"
    }
  },
  {
    "service_request": "2023-972274",
    "request_type": "Trash/Recycling",
    "request_reason": "Order Recycling Cart",
    "date_created": "2023-02-01T18:55:00.000",
    "date_modified": "2023-02-01T18:55:00.000",
    "request_status": "Pending",
    "responsible_agency": "Department of Sanitation",
    "final_address": "3716 Annunciation St",
    "address_councildis": "B",
    "status": "Pending",
    "rowid": "972274",
    "final_x": "3673768.65902",
    "final_y": "518036.441846",
    "longitude": "-90.09294404760979",
    "latitude": "29.918652768966748",
    "geocoded_column": {
      "latitude": "29.918652768966748",
      "longitude": "-90.09294404760979"
    }
  },
  {
    "service_request": "2023-972273",
    "request_type": "Abandoned Vehicles",
    "request_reason": "Vehicle Blocking Your Driveway",
    "date_created": "2023-02-01T18:50:20.000",
    "date_modified": "2023-02-01T18:50:20.000",
    "request_status": "Pending",
    "responsible_agency": "Department of Public Works",
    "final_address": "932 N Prieur St",
    "address_councildis": "D",
    "status": "Pending",
    "rowid": "972273",
    "final_x": "3679543.36405",
    "final_y": "536036.570247",
    "longitude": "-90.0740919411065",
    "latitude": "29.9679739790298",
    "geocoded_column": {
      "latitude": "29.9679739790298",
      "longitude": "-90.0740919411065"
    }
  },
  {
    "service_request": "2023-972271",
    "request_type": "Trash/Recycling",
    "request_reason": "Missed Trash Pick-Up",
    "date_created": "2023-02-01T18:46:15.000",
    "date_modified": "2023-02-01T18:46:16.000",
    "request_status": "Pending",
    "responsible_agency": "Department of Sanitation",
    "final_address": "4140 Washington Ave",
    "address_councildis": "B",
    "status": "Assigned to Contractor",
    "contractor": "Richards Disposal",
    "rowid": "972271",
    "final_x": "3670876.92283",
    "final_y": "530207.305473",
    "longitude": "-90.10165881334878",
    "latitude": "29.952204472384715",
    "geocoded_column": {
      "latitude": "29.952204472384715",
      "longitude": "-90.10165881334878"
    }
  },
  {
    "service_request": "2023-972270",
    "request_type": "Trash/Recycling",
    "request_reason": "Missed Trash Pick-Up",
    "date_created": "2023-02-01T18:32:53.000",
    "date_modified": "2023-02-01T18:32:54.000",
    "request_status": "Pending",
    "responsible_agency": "Department of Sanitation",
    "final_address": "4956 Venus St",
    "address_councildis": "D",
    "status": "Assigned to Contractor",
    "contractor": "IV Waste",
    "rowid": "972270",
    "final_x": "3686336.67478",
    "final_y": "551460.660949",
    "longitude": "-90.05209382123702",
    "latitude": "30.010177701662567",
    "geocoded_column": {
      "latitude": "30.010177701662567",
      "longitude": "-90.05209382123702"
    }
  },
  {
    "service_request": "2023-972269",
    "request_type": "Trash/Recycling",
    "request_reason": "Request a Large Item Pick Up",
    "date_created": "2023-02-01T18:25:19.000",
    "date_modified": "2023-02-01T18:25:20.000",
    "request_status": "Pending",
    "responsible_agency": "Department of Sanitation",
    "final_address": "6318 N Roman St",
    "address_councildis": "E",
    "status": "Assigned to Contractor",
    "contractor": "Waste Pro",
    "rowid": "972269",
    "final_x": "3701287.05585",
    "final_y": "535436.165574",
    "longitude": "-90.00544704687863",
    "latitude": "29.96564812115842",
    "geocoded_column": {
      "latitude": "29.96564812115842",
      "longitude": "-90.00544704687863"
    }
  },
  {
    "service_request": "2023-972268",
    "request_type": "Trash/Recycling",
    "request_reason": "Request a Large Item Pick Up",
    "date_created": "2023-02-01T18:23:56.000",
    "date_modified": "2023-02-01T18:23:56.000",
    "request_status": "Pending",
    "responsible_agency": "Department of Sanitation",
    "final_address": "6314 N Roman St",
    "address_councildis": "E",
    "status": "Assigned to Contractor",
    "contractor": "Waste Pro",
    "rowid": "972268",
    "final_x": "3701259.10231",
    "final_y": "535447.694854",
    "longitude": "-90.0055349005607",
    "latitude": "29.965680713239486",
    "geocoded_column": {
      "latitude": "29.965680713239486",
      "longitude": "-90.0055349005607"
    }
  },
  {
    "service_request": "2023-972267",
    "request_type": "Traffic Signals/Signs/Striping/Streetlights",
    "request_reason": "Street Light Outage/Malfunction",
    "date_created": "2023-02-01T18:20:23.000",
    "date_modified": "2023-02-01T18:20:23.000",
    "request_status": "Pending",
    "responsible_agency": "Department of Public Works",
    "final_address": "115 W Hubbell Rd",
    "address_councildis": "C",
    "status": "Assigned to Contractor",
    "contractor": "Legacy Professional Services",
    "rowid": "972267",
    "final_x": "3689009.51209",
    "final_y": "531118.248066",
    "longitude": "-90.04437232791753",
    "latitude": "29.95416086042573",
    "geocoded_column": {
      "latitude": "29.95416086042573",
      "longitude": "-90.04437232791753"
    }
  },
  {
    "service_request": "2023-972266",
    "request_type": "Trash/Recycling",
    "request_reason": "Request a Large Item Pick Up",
    "date_created": "2023-02-01T18:20:19.000",
    "date_modified": "2023-02-01T18:20:20.000",
    "request_status": "Pending",
    "responsible_agency": "Department of Sanitation",
    "final_address": "1818 Lizardi St",
    "address_councildis": "E",
    "status": "Assigned to Contractor",
    "contractor": "Waste Pro",
    "rowid": "972266",
    "final_x": "3697226.95363",
    "final_y": "536916.803912",
    "longitude": "-90.01821495491416",
    "latitude": "29.96984809834802",
    "geocoded_column": {
      "latitude": "29.96984809834802",
      "longitude": "-90.01821495491416"
    }
  },
  {
    "service_request": "2023-972265",
    "request_type": "Abandoned Vehicles",
    "request_reason": "Abandoned/Junk Vehicles",
    "date_created": "2023-02-01T18:18:01.000",
    "date_modified": "2023-02-01T18:18:01.000",
    "request_status": "Pending",
    "responsible_agency": "Department of Public Works",
    "final_address": "941 St Andrew St",
    "address_councildis": "B",
    "status": "Pending",
    "rowid": "972265",
    "final_x": "3679794.34331",
    "final_y": "522298.53593",
    "longitude": "-90.07377624861738",
    "latitude": "29.930191404107234",
    "geocoded_column": {
      "latitude": "29.930191404107234",
      "longitude": "-90.07377624861738"
    }
  },
  {
    "service_request": "2023-972264",
    "request_type": "Trash/Recycling",
    "request_reason": "Illegal Dumping",
    "date_created": "2023-02-01T18:06:04.000",
    "date_modified": "2023-02-01T18:06:04.000",
    "request_status": "Pending",
    "responsible_agency": "Department of Code Enforcement",
    "final_address": "1834 Cambronne St",
    "address_councildis": "A",
    "status": "Pending",
    "rowid": "972264",
    "final_x": "3662721.63962",
    "final_y": "530869.552194",
    "longitude": "-90.12738753011241",
    "latitude": "29.95426395833758",
    "geocoded_column": {
      "latitude": "29.95426395833758",
      "longitude": "-90.12738753011241"
    }
  },
  {
    "service_request": "2023-972263",
    "request_type": "Trash/Recycling",
    "request_reason": "Illegal Dumping",
    "date_created": "2023-02-01T18:05:29.000",
    "date_modified": "2023-02-01T18:05:58.000",
    "request_status": "Pending",
    "responsible_agency": "Department of Code Enforcement",
    "final_address": "1834 Cambronne St",
    "address_councildis": "A",
    "status": "Pending",
    "rowid": "972263",
    "final_x": "3662721.63962",
    "final_y": "530869.552194",
    "longitude": "-90.12738753011241",
    "latitude": "29.95426395833758",
    "geocoded_column": {
      "latitude": "29.95426395833758",
      "longitude": "-90.12738753011241"
    }
  },
  {
    "service_request": "2023-972262",
    "request_type": "Trash/Recycling",
    "request_reason": "Order Trash Cart",
    "date_created": "2023-02-01T17:57:48.000",
    "date_modified": "2023-02-01T17:57:49.000",
    "request_status": "Pending",
    "responsible_agency": "Department of Sanitation",
    "final_address": "4705 Venus St, New Orleans, Louisiana, 70122",
    "address_councildis": "D",
    "status": "Assigned to Contractor",
    "contractor": "IV Waste",
    "rowid": "972262",
    "final_x": "3686596.79401",
    "final_y": "550376.865172",
    "longitude": "-90.05131032056786",
    "latitude": "30.00718965874292",
    "geocoded_column": {
      "latitude": "30.00718965874292",
      "longitude": "-90.05131032056786"
    }
  },
  {
    "service_request": "2023-972261",
    "request_type": "Trash/Recycling",
    "request_reason": "Missed Trash Pick-Up",
    "date_created": "2023-02-01T17:56:42.000",
    "date_modified": "2023-02-01T17:56:43.000",
    "request_status": "Pending",
    "responsible_agency": "Department of Sanitation",
    "final_address": "4705 Venus St, New Orleans, Louisiana, 70122",
    "address_councildis": "D",
    "status": "Assigned to Contractor",
    "contractor": "IV Waste",
    "rowid": "972261",
    "final_x": "3686596.79401",
    "final_y": "550376.865172",
    "longitude": "-90.05131032056786",
    "latitude": "30.00718965874292",
    "geocoded_column": {
      "latitude": "30.00718965874292",
      "longitude": "-90.05131032056786"
    }
  },
  {
    "service_request": "2023-972260",
    "request_type": "Trash/Recycling",
    "request_reason": "Order Recycling Cart",
    "date_created": "2023-02-01T17:50:32.000",
    "date_modified": "2023-02-01T17:50:32.000",
    "request_status": "Pending",
    "responsible_agency": "Department of Sanitation",
    "final_address": "7321 Northgate Dr",
    "address_councildis": "E",
    "status": "Pending",
    "rowid": "972260",
    "final_x": "3713365.4917",
    "final_y": "565667.425122",
    "longitude": "-89.9661651373025",
    "latitude": "30.048381952151942",
    "geocoded_column": {
      "latitude": "30.048381952151942",
      "longitude": "-89.9661651373025"
    }
  },
  {
    "service_request": "2023-972259",
    "request_type": "Trash/Recycling",
    "request_reason": "MIssed Recycling Pick-Up",
    "date_created": "2023-02-01T17:44:53.000",
    "date_modified": "2023-02-01T17:44:54.000",
    "request_status": "Pending",
    "responsible_agency": "Department of Sanitation",
    "final_address": "4620 S Liberty St",
    "address_councildis": "B",
    "status": "Assigned to Contractor",
    "contractor": "Richards Disposal",
    "rowid": "972259",
    "final_x": "3669668.0187",
    "final_y": "523214.864827",
    "longitude": "-90.10571252941148",
    "latitude": "29.933013205025297",
    "geocoded_column": {
      "latitude": "29.933013205025297",
      "longitude": "-90.10571252941148"
    }
  },
  {
    "service_request": "2023-972258",
    "request_type": "Trash/Recycling",
    "request_reason": "MIssed Recycling Pick-Up",
    "date_created": "2023-02-01T17:32:52.000",
    "date_modified": "2023-02-01T17:32:53.000",
    "request_status": "Pending",
    "responsible_agency": "Department of Sanitation",
    "final_address": "145 Morrison Ct",
    "address_councildis": "E",
    "status": "Assigned to Contractor",
    "contractor": "Waste Pro",
    "rowid": "972258",
    "final_x": "3703892.45495",
    "final_y": "561671.297567",
    "longitude": "-89.99625259359614",
    "latitude": "30.037701561981834",
    "geocoded_column": {
      "latitude": "30.037701561981834",
      "longitude": "-89.99625259359614"
    }
  },
  {
    "service_request": "2023-972257",
    "request_type": "Roads/Drainage",
    "request_reason": "Damaged Sidewalk",
    "date_created": "2023-02-01T17:32:50.000",
    "date_modified": "2023-02-01T17:32:50.000",
    "request_status": "Pending",
    "responsible_agency": "Department of Public Works",
    "final_address": "2917 Palmyra St",
    "address_councildis": "B",
    "status": "Pending",
    "rowid": "972257",
    "final_x": "3674050.23694",
    "final_y": "535202.161286",
    "longitude": "-90.09146801378745",
    "latitude": "29.965844483044272",
    "geocoded_column": {
      "latitude": "29.965844483044272",
      "longitude": "-90.09146801378745"
    }
  },
  {
    "service_request": "2023-972256",
    "request_type": "Trash/Recycling",
    "request_reason": "Missed Trash Pick-Up",
    "date_created": "2023-02-01T17:30:03.000",
    "date_modified": "2023-02-01T17:30:04.000",
    "request_status": "Pending",
    "responsible_agency": "Department of Sanitation",
    "final_address": "12940 Jeanne Ct",
    "address_councildis": "E",
    "status": "Assigned to Contractor",
    "contractor": "Waste Pro",
    "rowid": "972256",
    "final_x": "3716716.86872",
    "final_y": "568099.426085",
    "longitude": "-89.95548053379069",
    "latitude": "30.054958580863595",
    "geocoded_column": {
      "latitude": "30.054958580863595",
      "longitude": "-89.95548053379069"
    }
  },
  {
    "service_request": "2023-972255",
    "request_type": "Trash/Recycling",
    "request_reason": "Order Recycling Cart",
    "date_created": "2023-02-01T17:27:38.000",
    "date_modified": "2023-02-01T17:27:38.000",
    "request_status": "Pending",
    "responsible_agency": "Department of Sanitation",
    "final_address": "609 Wagner St",
    "address_councildis": "C",
    "status": "Pending",
    "rowid": "972255",
    "final_x": "3690511.27728",
    "final_y": "529265.848513",
    "longitude": "-90.03969640984072",
    "latitude": "29.949020864497726",
    "geocoded_column": {
      "latitude": "29.949020864497726",
      "longitude": "-90.03969640984072"
    }
  },
  {
    "service_request": "2023-972254",
    "request_type": "Abandoned Vehicles",
    "request_reason": "Vehicle Blocking Your Driveway",
    "date_created": "2023-02-01T17:25:01.000",
    "date_modified": "2023-02-01T17:25:01.000",
    "request_status": "Pending",
    "responsible_agency": "Department of Public Works",
    "final_address": "2625 Pine St",
    "address_councildis": "A",
    "status": "Pending",
    "rowid": "972254",
    "final_x": "3666889.08404",
    "final_y": "531018.118658",
    "longitude": "-90.1142233643263",
    "latitude": "29.95455120784346",
    "geocoded_column": {
      "latitude": "29.95455120784346",
      "longitude": "-90.1142233643263"
    }
  },
  {
    "service_request": "2023-972253",
    "request_type": "Abandoned Vehicles",
    "request_reason": "Abandoned/Junk Vehicles",
    "date_created": "2023-02-01T17:21:55.000",
    "date_modified": "2023-02-01T17:21:55.000",
    "request_status": "Pending",
    "responsible_agency": "Department of Public Works",
    "final_address": "1445 Leda St",
    "address_councildis": "A",
    "status": "Pending",
    "rowid": "972253",
    "final_x": "3675575.62632",
    "final_y": "541452.797516",
    "longitude": "-90.0864360766015",
    "latitude": "29.98298605156308",
    "geocoded_column": {
      "latitude": "29.98298605156308",
      "longitude": "-90.0864360766015"
    }
  },
  {
    "service_request": "2023-972252",
    "request_type": "Trash/Recycling",
    "request_reason": "Order Recycling Cart",
    "date_created": "2023-02-01T17:18:11.000",
    "date_modified": "2023-02-01T17:18:11.000",
    "request_status": "Pending",
    "responsible_agency": "Department of Sanitation",
    "final_address": "11316 Prentiss Ave",
    "address_councildis": "E",
    "status": "Pending",
    "rowid": "972252",
    "final_x": "3717169.67295",
    "final_y": "556677.585818",
    "longitude": "-89.95448376478822",
    "latitude": "30.02353817133616",
    "geocoded_column": {
      "latitude": "30.02353817133616",
      "longitude": "-89.95448376478822"
    }
  },
  {
    "service_request": "2023-972251",
    "request_type": "Abandoned Vehicles",
    "request_reason": "Abandoned/Junk Vehicles",
    "date_created": "2023-02-01T17:12:16.000",
    "date_modified": "2023-02-01T17:12:16.000",
    "request_status": "Pending",
    "responsible_agency": "Department of Public Works",
    "final_address": "2017 Laurel St",
    "address_councildis": "B",
    "status": "Pending",
    "rowid": "972251",
    "final_x": "3679777.22229",
    "final_y": "521907.75705",
    "longitude": "-90.07384385673966",
    "latitude": "29.92911740785258",
    "geocoded_column": {
      "latitude": "29.92911740785258",
      "longitude": "-90.07384385673966"
    }
  },
  {
    "service_request": "2023-972250",
    "request_type": "Trash/Recycling",
    "request_reason": "MIssed Recycling Pick-Up",
    "date_created": "2023-02-01T17:00:39.000",
    "date_modified": "2023-02-01T17:00:40.000",
    "request_status": "Pending",
    "responsible_agency": "Department of Sanitation",
    "final_address": "916 Cadiz St",
    "address_councildis": "B",
    "status": "Assigned to Contractor",
    "contractor": "Richards Disposal",
    "rowid": "972250",
    "final_x": "3670235.75687",
    "final_y": "518862.953015",
    "longitude": "-90.10406760526669",
    "latitude": "29.921030099444632",
    "geocoded_column": {
      "latitude": "29.921030099444632",
      "longitude": "-90.10406760526669"
    }
  },
  {
    "service_request": "2023-972249",
    "request_type": "Trash/Recycling",
    "request_reason": "MIssed Recycling Pick-Up",
    "date_created": "2023-02-01T16:57:32.000",
    "date_modified": "2023-02-01T16:57:33.000",
    "request_status": "Pending",
    "responsible_agency": "Department of Sanitation",
    "final_address": "2235 Prentiss Ave",
    "address_councildis": "D",
    "status": "Assigned to Contractor",
    "contractor": "IV Waste",
    "rowid": "972249",
    "final_x": "3683960.59074",
    "final_y": "553933.228504",
    "longitude": "-90.05951389894373",
    "latitude": "30.017049200221567",
    "geocoded_column": {
      "latitude": "30.017049200221567",
      "longitude": "-90.05951389894373"
    }
  },
  {
    "service_request": "2023-972248",
    "request_type": "Trash/Recycling",
    "request_reason": "Order Trash Cart",
    "date_created": "2023-02-01T16:55:51.000",
    "date_modified": "2023-02-01T16:55:52.000",
    "request_status": "Pending",
    "responsible_agency": "Department of Sanitation",
    "final_address": "7552 Michigan St",
    "address_councildis": "E",
    "status": "Assigned to Contractor",
    "contractor": "Waste Pro",
    "rowid": "972248",
    "final_x": "3711997.46021",
    "final_y": "566131.878819",
    "longitude": "-89.9704714081605",
    "latitude": "30.049703821989166",
    "geocoded_column": {
      "latitude": "30.049703821989166",
      "longitude": "-89.9704714081605"
    }
  },
  {
    "service_request": "2023-972247",
    "request_type": "Trash/Recycling",
    "request_reason": "Replace Trash Cart",
    "date_created": "2023-02-01T16:54:57.000",
    "date_modified": "2023-02-01T16:54:58.000",
    "request_status": "Pending",
    "responsible_agency": "Department of Sanitation",
    "final_address": "916 Cadiz St",
    "address_councildis": "B",
    "status": "Assigned to Contractor",
    "contractor": "Richards Disposal",
    "rowid": "972247",
    "final_x": "3670235.75687",
    "final_y": "518862.953015",
    "longitude": "-90.10406760526669",
    "latitude": "29.921030099444632",
    "geocoded_column": {
      "latitude": "29.921030099444632",
      "longitude": "-90.10406760526669"
    }
  },
  {
    "service_request": "2023-972246",
    "request_type": "Trash/Recycling",
    "request_reason": "Replace Recycling Cart",
    "date_created": "2023-02-01T16:50:46.000",
    "date_modified": "2023-02-01T16:50:46.000",
    "request_status": "Pending",
    "responsible_agency": "Department of Sanitation",
    "final_address": "3715 Jena St",
    "address_councildis": "B",
    "status": "Pending",
    "rowid": "972246",
    "final_x": "3669752.05972",
    "final_y": "528276.553792",
    "longitude": "-90.10527595747962",
    "latitude": "29.946928735888356",
    "geocoded_column": {
      "latitude": "29.946928735888356",
      "longitude": "-90.10527595747962"
    }
  },
  {
    "service_request": "2023-972245",
    "request_type": "Trash/Recycling",
    "request_reason": "Request a Large Item Pick Up",
    "date_created": "2023-02-01T16:48:33.000",
    "date_modified": "2023-02-01T16:48:33.000",
    "request_status": "Pending",
    "responsible_agency": "Department of Sanitation",
    "final_address": "15 St Claude Ct",
    "address_councildis": "E",
    "status": "Assigned to Contractor",
    "contractor": "Waste Pro",
    "rowid": "972245",
    "final_x": "3697509.32016",
    "final_y": "533639.439621",
    "longitude": "-90.01744208237321",
    "latitude": "29.960827601002112",
    "geocoded_column": {
      "latitude": "29.960827601002112",
      "longitude": "-90.01744208237321"
    }
  },
  {
    "service_request": "2023-972244",
    "request_type": "Trash/Recycling",
    "request_reason": "Illegal Dumping",
    "date_created": "2023-02-01T16:42:42.000",
    "date_modified": "2023-02-01T16:42:42.000",
    "request_status": "Pending",
    "responsible_agency": "Department of Sanitation",
    "final_address": "7809 Symmes Ave",
    "address_councildis": "E",
    "status": "Pending",
    "rowid": "972244",
    "final_x": "3707596.36721",
    "final_y": "565177.376354",
    "longitude": "-89.98441699741372",
    "latitude": "30.0472225212974",
    "geocoded_column": {
      "latitude": "30.0472225212974",
      "longitude": "-89.98441699741372"
    }
  },
  {
    "service_request": "2023-972243",
    "request_type": "Traffic Signals/Signs/Striping/Streetlights",
    "request_reason": "Street Light Outage/Malfunction",
    "date_created": "2023-02-01T16:38:35.000",
    "date_modified": "2023-02-01T16:38:36.000",
    "request_status": "Pending",
    "responsible_agency": "Department of Public Works",
    "final_address": "4430 Burgundy St",
    "address_councildis": "C",
    "status": "Assigned to Contractor",
    "contractor": "Legacy Professional Services",
    "rowid": "972243",
    "final_x": "3693057.12681",
    "final_y": "534086.308037",
    "longitude": "-90.03148516446547",
    "latitude": "29.962196169161007",
    "geocoded_column": {
      "latitude": "29.962196169161007",
      "longitude": "-90.03148516446547"
    }
  },
  {
    "service_request": "2023-972242",
    "request_type": "Trash/Recycling",
    "request_reason": "Order Recycling Cart",
    "date_created": "2023-02-01T16:36:25.000",
    "date_modified": "2023-02-01T16:36:25.000",
    "request_status": "Pending",
    "responsible_agency": "Department of Sanitation",
    "final_address": "1039 St Ferdinand St",
    "address_councildis": "C",
    "status": "Pending",
    "rowid": "972242",
    "final_x": "3687710.85551",
    "final_y": "536178.346119",
    "longitude": "-90.04829376467599",
    "latitude": "29.968114481622724",
    "geocoded_column": {
      "latitude": "29.968114481622724",
      "longitude": "-90.04829376467599"
    }
  },
  {
    "service_request": "2023-972241",
    "request_type": "Trash/Recycling",
    "request_reason": "Repair Trash Cart",
    "date_created": "2023-02-01T16:36:04.000",
    "date_modified": "2023-02-01T16:36:05.000",
    "request_status": "Pending",
    "responsible_agency": "Department of Sanitation",
    "final_address": "7414 Hurst St",
    "address_councildis": "A",
    "status": "Assigned to Contractor",
    "contractor": "Richards Disposal",
    "rowid": "972241",
    "final_x": "3661529.6144",
    "final_y": "523917.9815",
    "longitude": "-90.13138174200428",
    "latitude": "29.935183796818787",
    "geocoded_column": {
      "latitude": "29.935183796818787",
      "longitude": "-90.13138174200428"
    }
  },
  {
    "service_request": "2023-972240",
    "request_type": "Abandoned Vehicles",
    "request_reason": "Abandoned/Junk Vehicles",
    "date_created": "2023-02-01T16:34:21.000",
    "date_modified": "2023-02-01T16:39:36.000",
    "request_status": "Pending",
    "responsible_agency": "Department of Public Works",
    "final_address": "424 S Anthony St",
    "address_councildis": "A",
    "status": "Pending",
    "rowid": "972240",
    "final_x": "3667717.88122",
    "final_y": "539097.141194",
    "longitude": "-90.1113342772609",
    "latitude": "29.97674156766916",
    "geocoded_column": {
      "latitude": "29.97674156766916",
      "longitude": "-90.1113342772609"
    }
  },
  {
    "service_request": "2023-972239",
    "request_type": "Trash/Recycling",
    "request_reason": "Missed Trash Pick-Up",
    "date_created": "2023-02-01T16:34:06.000",
    "date_modified": "2023-02-01T16:34:06.000",
    "request_status": "Pending",
    "responsible_agency": "Department of Sanitation",
    "final_address": "10138 Hillwood St",
    "address_councildis": "E",
    "status": "Assigned to Contractor",
    "contractor": "Waste Pro",
    "rowid": "972239",
    "final_x": "3713090.31346",
    "final_y": "556600.599002",
    "longitude": "-89.96737646372216",
    "latitude": "30.023460833558698",
    "geocoded_column": {
      "latitude": "30.023460833558698",
      "longitude": "-89.96737646372216"
    }
  },
  {
    "service_request": "2023-972238",
    "request_type": "Traffic Signals/Signs/Striping/Streetlights",
    "request_reason": "Street Light Outage/Malfunction",
    "date_created": "2023-02-01T16:29:19.000",
    "date_modified": "2023-02-01T16:29:20.000",
    "request_status": "Pending",
    "responsible_agency": "Department of Public Works",
    "final_address": "LOUISA DR & STEPHEN GIRARD AVE",
    "address_councildis": "D",
    "status": "Assigned to Contractor",
    "contractor": "Legacy Professional Services",
    "rowid": "972238",
    "final_x": "3691059.6",
    "final_y": "550370.98",
    "longitude": "-90.03721134453387",
    "latitude": "30.007035426510587",
    "geocoded_column": {
      "latitude": "30.007035426510587",
      "longitude": "-90.03721134453387"
    }
  },
  {
    "service_request": "2023-972237",
    "request_type": "Trash/Recycling",
    "request_reason": "Missed Trash Pick-Up",
    "date_created": "2023-02-01T16:28:48.000",
    "date_modified": "2023-02-01T16:29:39.000",
    "request_status": "Pending",
    "responsible_agency": "Department of Sanitation",
    "final_address": "1531 Tricou St",
    "address_councildis": "E",
    "status": "Assigned to Contractor",
    "contractor": "Waste Pro",
    "rowid": "972237",
    "final_x": "3700820.05533",
    "final_y": "534648.312006",
    "longitude": "-90.00695060671637",
    "latitude": "29.96349667953982",
    "geocoded_column": {
      "latitude": "29.96349667953982",
      "longitude": "-90.00695060671637"
    }
  },
  {
    "service_request": "2023-972236",
    "request_type": "Trash/Recycling",
    "request_reason": "Replace Trash Cart",
    "date_created": "2023-02-01T16:26:36.000",
    "date_modified": "2023-02-01T16:26:36.000",
    "request_status": "Pending",
    "responsible_agency": "Department of Sanitation",
    "final_address": "4428 Burgundy St",
    "address_councildis": "C",
    "status": "Assigned to Contractor",
    "contractor": "IV Waste",
    "rowid": "972236",
    "final_x": "3693068.84515",
    "final_y": "534083.183045",
    "longitude": "-90.03144827196228",
    "latitude": "29.962187210442256",
    "geocoded_column": {
      "latitude": "29.962187210442256",
      "longitude": "-90.03144827196228"
    }
  },
  {
    "service_request": "2023-972235",
    "request_type": "Trash/Recycling",
    "request_reason": "Order Recycling Cart",
    "date_created": "2023-02-01T16:25:52.000",
    "date_modified": "2023-02-01T16:25:52.000",
    "request_status": "Pending",
    "responsible_agency": "Department of Sanitation",
    "final_address": "7600 Hansbrough Ave",
    "address_councildis": "E",
    "status": "Pending",
    "rowid": "972235",
    "final_x": "3707645.44203",
    "final_y": "564377.540257",
    "longitude": "-89.9842916576798",
    "latitude": "30.045021703279385",
    "geocoded_column": {
      "latitude": "30.045021703279385",
      "longitude": "-89.9842916576798"
    }
  },
  {
    "service_request": "2023-972234",
    "request_type": "Trash/Recycling",
    "request_reason": "Repair Trash Cart",
    "date_created": "2023-02-01T16:24:59.000",
    "date_modified": "2023-02-01T16:25:00.000",
    "request_status": "Pending",
    "responsible_agency": "Department of Sanitation",
    "final_address": "7600 Hansbrough Ave",
    "address_councildis": "E",
    "status": "Assigned to Contractor",
    "contractor": "Waste Pro",
    "rowid": "972234",
    "final_x": "3707645.44203",
    "final_y": "564377.540257",
    "longitude": "-89.9842916576798",
    "latitude": "30.045021703279385",
    "geocoded_column": {
      "latitude": "30.045021703279385",
      "longitude": "-89.9842916576798"
    }
  },
  {
    "service_request": "2023-972233",
    "request_type": "Trash/Recycling",
    "request_reason": "Repair Trash Cart",
    "date_created": "2023-02-01T16:24:52.000",
    "date_modified": "2023-02-01T16:24:53.000",
    "request_status": "Pending",
    "responsible_agency": "Department of Sanitation",
    "final_address": "4430 Burgundy St",
    "address_councildis": "C",
    "status": "Assigned to Contractor",
    "contractor": "IV Waste",
    "rowid": "972233",
    "final_x": "3693057.12681",
    "final_y": "534086.308037",
    "longitude": "-90.03148516446547",
    "latitude": "29.962196169161007",
    "geocoded_column": {
      "latitude": "29.962196169161007",
      "longitude": "-90.03148516446547"
    }
  },
  {
    "service_request": "2023-972232",
    "request_type": "Trash/Recycling",
    "request_reason": "Missed Trash Pick-Up",
    "date_created": "2023-02-01T16:23:14.000",
    "date_modified": "2023-02-01T16:23:15.000",
    "request_status": "Pending",
    "responsible_agency": "Department of Sanitation",
    "final_address": "4764 Perelli Dr",
    "address_councildis": "E",
    "status": "Assigned to Contractor",
    "contractor": "Waste Pro",
    "rowid": "972232",
    "final_x": "3711609.73451",
    "final_y": "556222.159386",
    "longitude": "-89.97206894326324",
    "latitude": "30.02246872110414",
    "geocoded_column": {
      "latitude": "30.02246872110414",
      "longitude": "-89.97206894326324"
    }
  },
  {
    "service_request": "2023-972231",
    "request_type": "Property Maintenance",
    "request_reason": "Property Maintenance",
    "date_created": "2023-02-01T16:19:21.000",
    "date_modified": "2023-02-01T16:19:22.000",
    "request_status": "Pending",
    "responsible_agency": "Department of Code Enforcement",
    "final_address": "5120 St Charles Ave",
    "address_councildis": "B",
    "status": "Pending",
    "rowid": "972231",
    "final_x": "3668257.95028",
    "final_y": "520882.598329",
    "longitude": "-90.1102426213579",
    "latitude": "29.926641679511686",
    "geocoded_column": {
      "latitude": "29.926641679511686",
      "longitude": "-90.1102426213579"
    }
  },
  {
    "service_request": "2023-972230",
    "request_type": "Roads/Drainage",
    "request_reason": "Pothole",
    "date_created": "2023-02-01T16:02:21.000",
    "date_modified": "2023-02-01T17:31:26.000",
    "request_status": "Pending",
    "responsible_agency": "Department of Public Works",
    "final_address": "Gannon Rd & Morrison Rd, New Orleans, Louisiana, 70128",
    "address_councildis": "E",
    "rowid": "972230",
    "final_x": "3716924.6",
    "final_y": "569197.48",
    "longitude": "-89.95478219091096",
    "latitude": "30.057970905569707",
    "geocoded_column": {
      "latitude": "30.057970905569707",
      "longitude": "-89.95478219091096"
    }
  },
  {
    "service_request": "2023-972229",
    "request_type": "Trash/Recycling",
    "request_reason": "MIssed Recycling Pick-Up",
    "date_created": "2023-02-01T15:59:55.000",
    "date_modified": "2023-02-01T15:59:56.000",
    "request_status": "Pending",
    "responsible_agency": "Department of Sanitation",
    "final_address": "2617 Danneel St",
    "address_councildis": "B",
    "status": "Assigned to Contractor",
    "contractor": "Richards Disposal",
    "rowid": "972229",
    "final_x": "3675487.8132",
    "final_y": "524006.052988",
    "longitude": "-90.08731267157579",
    "latitude": "29.93501598501583",
    "geocoded_column": {
      "latitude": "29.93501598501583",
      "longitude": "-90.08731267157579"
    }
  },
  {
    "service_request": "2023-972228",
    "request_type": "Trash/Recycling",
    "request_reason": "MIssed Recycling Pick-Up",
    "date_created": "2023-02-01T15:53:49.000",
    "date_modified": "2023-02-01T15:53:50.000",
    "request_status": "Pending",
    "responsible_agency": "Department of Sanitation",
    "final_address": "2735 Octavia St",
    "address_councildis": "A",
    "status": "Assigned to Contractor",
    "contractor": "Richards Disposal",
    "rowid": "972228",
    "final_x": "3667995.9682",
    "final_y": "525657.812733",
    "longitude": "-90.11090881442182",
    "latitude": "29.939779679428753",
    "geocoded_column": {
      "latitude": "29.939779679428753",
      "longitude": "-90.11090881442182"
    }
  },
  {
    "service_request": "2023-972227",
    "request_type": "Abandoned Vehicles",
    "request_reason": "Abandoned/Junk Vehicles",
    "date_created": "2023-02-01T15:50:47.000",
    "date_modified": "2023-02-01T15:50:47.000",
    "request_status": "Pending",
    "responsible_agency": "Department of Public Works",
    "final_address": "937 Fats Domino Ave",
    "address_councildis": "E",
    "status": "Pending",
    "rowid": "972227",
    "final_x": "3697942.42627",
    "final_y": "533287.40378",
    "longitude": "-90.01608720362415",
    "latitude": "29.959845944005593",
    "geocoded_column": {
      "latitude": "29.959845944005593",
      "longitude": "-90.01608720362415"
    }
  },
  {
    "service_request": "2023-972226",
    "request_type": "Abandoned Vehicles",
    "request_reason": "Abandoned/Junk Vehicles",
    "date_created": "2023-02-01T15:48:59.000",
    "date_modified": "2023-02-01T15:48:59.000",
    "request_status": "Pending",
    "responsible_agency": "Department of Public Works",
    "final_address": "937 Fats Domino Ave",
    "address_councildis": "E",
    "status": "Pending",
    "rowid": "972226",
    "final_x": "3697942.42627",
    "final_y": "533287.40378",
    "longitude": "-90.01608720362415",
    "latitude": "29.959845944005593",
    "geocoded_column": {
      "latitude": "29.959845944005593",
      "longitude": "-90.01608720362415"
    }
  },
  {
    "service_request": "2023-972225",
    "request_type": "Trash/Recycling",
    "request_reason": "Order Recycling Cart",
    "date_created": "2023-02-01T15:48:44.000",
    "date_modified": "2023-02-01T15:48:44.000",
    "request_status": "Pending",
    "responsible_agency": "Department of Sanitation",
    "final_address": "2637 Wisteria St",
    "address_councildis": "D",
    "status": "Pending",
    "rowid": "972225",
    "final_x": "3687358.55023",
    "final_y": "548459.501074",
    "longitude": "-90.04897162579994",
    "latitude": "30.001894148149983",
    "geocoded_column": {
      "latitude": "30.001894148149983",
      "longitude": "-90.04897162579994"
    }
  },
  {
    "service_request": "2023-972224",
    "request_type": "Trash/Recycling",
    "request_reason": "Request a Large Item Pick Up",
    "date_created": "2023-02-01T15:42:09.000",
    "date_modified": "2023-02-01T15:42:10.000",
    "request_status": "Pending",
    "responsible_agency": "Department of Sanitation",
    "final_address": "1823 Martin Luther King, Jr. Blvd",
    "address_councildis": "B",
    "status": "Assigned to Contractor",
    "contractor": "Richards Disposal",
    "rowid": "972224",
    "final_x": "3678293.37557",
    "final_y": "526182.716926",
    "longitude": "-90.07838027043971",
    "latitude": "29.940916906441064",
    "geocoded_column": {
      "latitude": "29.940916906441064",
      "longitude": "-90.07838027043971"
    }
  },
  {
    "service_request": "2023-972223",
    "request_type": "Trash/Recycling",
    "request_reason": "MIssed Recycling Pick-Up",
    "date_created": "2023-02-01T15:40:22.000",
    "date_modified": "2023-02-01T15:40:22.000",
    "request_status": "Pending",
    "responsible_agency": "Department of Sanitation",
    "final_address": "4718 Lurline St",
    "address_councildis": "E",
    "status": "Assigned to Contractor",
    "contractor": "Waste Pro",
    "rowid": "972223",
    "final_x": "3711915.11486",
    "final_y": "555937.896089",
    "longitude": "-89.9711147026227",
    "latitude": "30.02167712972963",
    "geocoded_column": {
      "latitude": "30.02167712972963",
      "longitude": "-89.9711147026227"
    }
  },
  {
    "service_request": "2023-972222",
    "request_type": "Trash/Recycling",
    "request_reason": "Request a Large Item Pick Up",
    "date_created": "2023-02-01T15:39:30.000",
    "date_modified": "2023-02-01T15:39:30.000",
    "request_status": "Pending",
    "responsible_agency": "Department of Sanitation",
    "final_address": "1921 Wilton Dr",
    "address_councildis": "D",
    "status": "Assigned to Contractor",
    "contractor": "IV Waste",
    "rowid": "972222",
    "final_x": "3681453.7318",
    "final_y": "550965.354389",
    "longitude": "-90.06753812626536",
    "latitude": "30.00896501225994",
    "geocoded_column": {
      "latitude": "30.00896501225994",
      "longitude": "-90.06753812626536"
    }
  },
  {
    "service_request": "2023-972221",
    "request_type": "Trash/Recycling",
    "request_reason": "Repair Trash Cart",
    "date_created": "2023-02-01T15:36:41.000",
    "date_modified": "2023-02-01T15:36:42.000",
    "request_status": "Pending",
    "responsible_agency": "Department of Sanitation",
    "final_address": "4842 Ray Ave",
    "address_councildis": "E",
    "status": "Assigned to Contractor",
    "contractor": "Waste Pro",
    "rowid": "972221",
    "final_x": "3698539.2481",
    "final_y": "554960.040344",
    "longitude": "-90.01341424086716",
    "latitude": "30.01941885431128",
    "geocoded_column": {
      "latitude": "30.01941885431128",
      "longitude": "-90.01341424086716"
    }
  },
  {
    "service_request": "2023-972220",
    "request_type": "Abandoned Vehicles",
    "request_reason": "Abandoned/Junk Vehicles",
    "date_created": "2023-02-01T15:34:16.000",
    "date_modified": "2023-02-01T15:34:16.000",
    "request_status": "Pending",
    "responsible_agency": "Department of Public Works",
    "final_address": "9601 Almonaster Ave",
    "address_councildis": "E",
    "status": "Pending",
    "rowid": "972220",
    "final_x": "3711196.02385",
    "final_y": "551737.307413",
    "longitude": "-89.9735443265587",
    "latitude": "30.010150633825056",
    "geocoded_column": {
      "latitude": "30.010150633825056",
      "longitude": "-89.9735443265587"
    }
  },
  {
    "service_request": "2023-972219",
    "request_type": "Roads/Drainage",
    "request_reason": "Street Flooding / Drainage",
    "date_created": "2023-02-01T15:32:39.000",
    "date_modified": "2023-02-01T15:32:39.000",
    "request_status": "Pending",
    "responsible_agency": "Department of Public Works",
    "final_address": "1340 Arts St",
    "address_councildis": "C",
    "status": "Pending",
    "rowid": "972219",
    "final_x": "3687088.62025",
    "final_y": "537545.365448",
    "longitude": "-90.0502104600317",
    "latitude": "29.97189248021323",
    "geocoded_column": {
      "latitude": "29.97189248021323",
      "longitude": "-90.0502104600317"
    }
  },
  {
    "service_request": "2023-972218",
    "request_type": "Property Maintenance",
    "request_reason": "Property Maintenance",
    "date_created": "2023-02-01T15:31:17.000",
    "date_modified": "2023-02-01T15:31:17.000",
    "request_status": "Pending",
    "responsible_agency": "Department of Code Enforcement",
    "final_address": "3534 Upperline St B",
    "address_councildis": "B",
    "status": "Pending",
    "rowid": "972218",
    "final_x": "3669232.88353",
    "final_y": "527991.830911",
    "longitude": "-90.10692481496007",
    "latitude": "29.946161130391793",
    "geocoded_column": {
      "latitude": "29.946161130391793",
      "longitude": "-90.10692481496007"
    }
  },
  {
    "service_request": "2023-972217",
    "request_type": "Property Maintenance",
    "request_reason": "Property Maintenance",
    "date_created": "2023-02-01T15:31:16.000",
    "date_modified": "2023-02-01T15:31:16.000",
    "request_status": "Pending",
    "responsible_agency": "Department of Code Enforcement",
    "final_address": "7240 Camberley Dr",
    "address_councildis": "E",
    "status": "Pending",
    "rowid": "972217",
    "final_x": "3712991.16421",
    "final_y": "565158.825122",
    "longitude": "-89.9673673800216",
    "latitude": "30.046995783687226",
    "geocoded_column": {
      "latitude": "30.046995783687226",
      "longitude": "-89.9673673800216"
    }
  },
  {
    "service_request": "2023-972216",
    "request_type": "Roads/Drainage",
    "request_reason": "Street Subsidence (Sinking)",
    "date_created": "2023-02-01T15:28:28.000",
    "date_modified": "2023-02-01T15:29:31.000",
    "request_status": "Pending",
    "responsible_agency": "Department of Public Works",
    "final_address": "BARTHOLOMEW ST & N ROBERTSON ST",
    "address_councildis": "D",
    "status": "Pending",
    "rowid": "972216",
    "final_x": "3692169.4",
    "final_y": "536800.48",
    "longitude": "-90.03419128662951",
    "latitude": "29.969686889120496",
    "geocoded_column": {
      "latitude": "29.969686889120496",
      "longitude": "-90.03419128662951"
    }
  },
  {
    "service_request": "2023-972215",
    "request_type": "Trash/Recycling",
    "request_reason": "MIssed Recycling Pick-Up",
    "date_created": "2023-02-01T15:23:34.000",
    "date_modified": "2023-02-01T15:23:35.000",
    "request_status": "Pending",
    "responsible_agency": "Department of Sanitation",
    "final_address": "4858 Citrus Dr",
    "address_councildis": "E",
    "status": "Assigned to Contractor",
    "contractor": "Waste Pro",
    "rowid": "972215",
    "final_x": "3710620.15313",
    "final_y": "556694.517786",
    "longitude": "-89.9751780615263",
    "latitude": "30.023799809678703",
    "geocoded_column": {
      "latitude": "30.023799809678703",
      "longitude": "-89.9751780615263"
    }
  },
  {
    "service_request": "2023-972214",
    "request_type": "Abandoned Vehicles",
    "request_reason": "Abandoned/Junk Vehicles",
    "date_created": "2023-02-01T15:23:07.000",
    "date_modified": "2023-02-01T15:23:07.000",
    "request_status": "Pending",
    "responsible_agency": "Department of Public Works",
    "final_address": "937 Fats Domino Ave",
    "address_councildis": "E",
    "status": "Pending",
    "rowid": "972214",
    "final_x": "3697942.42627",
    "final_y": "533287.40378",
    "longitude": "-90.01608720362415",
    "latitude": "29.959845944005593",
    "geocoded_column": {
      "latitude": "29.959845944005593",
      "longitude": "-90.01608720362415"
    }
  },
  {
    "service_request": "2023-972213",
    "request_type": "Trash/Recycling",
    "request_reason": "Missed Trash Pick-Up",
    "date_created": "2023-02-01T15:21:27.000",
    "date_modified": "2023-02-01T15:21:28.000",
    "request_status": "Pending",
    "responsible_agency": "Department of Sanitation",
    "final_address": "4422 Cerise Ave",
    "address_councildis": "E",
    "status": "Assigned to Contractor",
    "contractor": "Waste Pro",
    "rowid": "972213",
    "final_x": "3708712.60568",
    "final_y": "553922.727063",
    "longitude": "-89.98130882174473",
    "latitude": "30.016240494939822",
    "geocoded_column": {
      "latitude": "30.016240494939822",
      "longitude": "-89.98130882174473"
    }
  },
  {
    "service_request": "2023-972212",
    "request_type": "Abandoned Vehicles",
    "request_reason": "Abandoned/Junk Vehicles",
    "date_created": "2023-02-01T15:21:25.000",
    "date_modified": "2023-02-01T15:21:25.000",
    "request_status": "Pending",
    "responsible_agency": "Department of Public Works",
    "final_address": "937 Fats Domino Ave",
    "address_councildis": "E",
    "status": "Pending",
    "rowid": "972212",
    "final_x": "3697942.42627",
    "final_y": "533287.40378",
    "longitude": "-90.01608720362415",
    "latitude": "29.959845944005593",
    "geocoded_column": {
      "latitude": "29.959845944005593",
      "longitude": "-90.01608720362415"
    }
  },
  {
    "service_request": "2023-972211",
    "request_type": "Abandoned Vehicles",
    "request_reason": "Abandoned/Junk Vehicles",
    "date_created": "2023-02-01T15:20:42.000",
    "date_modified": "2023-02-01T15:20:42.000",
    "request_status": "Pending",
    "responsible_agency": "Department of Public Works",
    "final_address": "937 Fats Domino Ave",
    "address_councildis": "E",
    "status": "Pending",
    "rowid": "972211",
    "final_x": "3697942.42627",
    "final_y": "533287.40378",
    "longitude": "-90.01608720362415",
    "latitude": "29.959845944005593",
    "geocoded_column": {
      "latitude": "29.959845944005593",
      "longitude": "-90.01608720362415"
    }
  },
  {
    "service_request": "2023-972210",
    "request_type": "Trash/Recycling",
    "request_reason": "Replace Trash Cart",
    "date_created": "2023-02-01T15:19:41.000",
    "date_modified": "2023-02-01T15:19:42.000",
    "request_status": "Pending",
    "responsible_agency": "Department of Sanitation",
    "final_address": "6030 Erin Dr",
    "address_councildis": "E",
    "status": "Assigned to Contractor",
    "contractor": "Waste Pro",
    "rowid": "972210",
    "final_x": "3695550.68074",
    "final_y": "558393.377564",
    "longitude": "-90.02273298088598",
    "latitude": "30.028953549214986",
    "geocoded_column": {
      "latitude": "30.028953549214986",
      "longitude": "-90.02273298088598"
    }
  },
  {
    "service_request": "2023-972209",
    "request_type": "Roads/Drainage",
    "request_reason": "Street Subsidence (Sinking)",
    "date_created": "2023-02-01T15:19:25.000",
    "date_modified": "2023-02-01T15:19:26.000",
    "request_status": "Pending",
    "responsible_agency": "Department of Public Works",
    "final_address": "5231 St Charles Ave",
    "address_councildis": "B",
    "status": "Pending",
    "rowid": "972209",
    "final_x": "3667943.80679",
    "final_y": "521403.149305",
    "longitude": "-90.11121676372267",
    "latitude": "29.928082245970227",
    "geocoded_column": {
      "latitude": "29.928082245970227",
      "longitude": "-90.11121676372267"
    }
  },
  {
    "service_request": "2023-972208",
    "request_type": "Abandoned Vehicles",
    "request_reason": "Abandoned/Junk Vehicles",
    "date_created": "2023-02-01T15:18:31.000",
    "date_modified": "2023-02-01T15:18:31.000",
    "request_status": "Pending",
    "responsible_agency": "Department of Public Works",
    "final_address": "937 Fats Domino Ave",
    "address_councildis": "E",
    "status": "Pending",
    "rowid": "972208",
    "final_x": "3697942.42627",
    "final_y": "533287.40378",
    "longitude": "-90.01608720362415",
    "latitude": "29.959845944005593",
    "geocoded_column": {
      "latitude": "29.959845944005593",
      "longitude": "-90.01608720362415"
    }
  },
  {
    "service_request": "2023-972207",
    "request_type": "Property Maintenance",
    "request_reason": "Property Maintenance",
    "date_created": "2023-02-01T15:15:14.000",
    "date_modified": "2023-02-01T15:15:15.000",
    "request_status": "Pending",
    "responsible_agency": "Department of Code Enforcement",
    "final_address": "401 Mandeville St",
    "address_councildis": "C",
    "status": "Pending",
    "rowid": "972207",
    "final_x": "3686120.00828",
    "final_y": "534142.812613",
    "longitude": "-90.05338951830682",
    "latitude": "29.962566431290647",
    "geocoded_column": {
      "latitude": "29.962566431290647",
      "longitude": "-90.05338951830682"
    }
  },
  {
    "service_request": "2023-972206",
    "request_type": "Trash/Recycling",
    "request_reason": "Return Trash Cart",
    "date_created": "2023-02-01T15:06:31.000",
    "date_modified": "2023-02-01T15:06:32.000",
    "request_status": "Pending",
    "responsible_agency": "Department of Sanitation",
    "final_address": "7824 Sandy Cove Dr",
    "address_councildis": "E",
    "status": "Assigned to Contractor",
    "contractor": "Waste Pro",
    "rowid": "972206",
    "final_x": "3715034.28088",
    "final_y": "570008.361318",
    "longitude": "-89.96072650231936",
    "latitude": "30.06026289143848",
    "geocoded_column": {
      "latitude": "30.06026289143848",
      "longitude": "-89.96072650231936"
    }
  },
  {
    "service_request": "2023-972205",
    "request_type": "Trash/Recycling",
    "request_reason": "Illegal Dumping",
    "date_created": "2023-02-01T15:02:22.000",
    "date_modified": "2023-02-01T15:02:22.000",
    "request_status": "Pending",
    "responsible_agency": "Department of Sanitation",
    "final_address": "1310 Sunset Ave",
    "address_councildis": "C",
    "status": "Pending",
    "rowid": "972205",
    "final_x": "3688867.03183",
    "final_y": "526630.09139",
    "longitude": "-90.04498156554848",
    "latitude": "29.941824372858367",
    "geocoded_column": {
      "latitude": "29.941824372858367",
      "longitude": "-90.04498156554848"
    }
  },
  {
    "service_request": "2023-972204",
    "request_type": "Traffic Signals/Signs/Striping/Streetlights",
    "request_reason": "Street Light Outage/Malfunction",
    "date_created": "2023-02-01T14:59:35.000",
    "date_modified": "2023-02-01T14:59:36.000",
    "request_status": "Pending",
    "responsible_agency": "Department of Public Works",
    "final_address": "6323 Franklin Ave",
    "address_councildis": "D",
    "status": "Assigned to Contractor",
    "contractor": "Legacy Professional Services",
    "rowid": "972204",
    "final_x": "3686393.56118",
    "final_y": "556575.975066",
    "longitude": "-90.05173333695171",
    "latitude": "30.02424118153623",
    "geocoded_column": {
      "latitude": "30.02424118153623",
      "longitude": "-90.05173333695171"
    }
  },
  {
    "service_request": "2023-972203",
    "request_type": "Traffic Signals/Signs/Striping/Streetlights",
    "request_reason": "Street Light Outage/Malfunction",
    "date_created": "2023-02-01T14:58:44.000",
    "date_modified": "2023-02-01T14:58:45.000",
    "request_status": "Pending",
    "responsible_agency": "Department of Public Works",
    "final_address": "6323 Franklin Ave",
    "address_councildis": "D",
    "status": "Assigned to Contractor",
    "contractor": "Legacy Professional Services",
    "rowid": "972203",
    "final_x": "3686393.56118",
    "final_y": "556575.975066",
    "longitude": "-90.05173333695171",
    "latitude": "30.02424118153623",
    "geocoded_column": {
      "latitude": "30.02424118153623",
      "longitude": "-90.05173333695171"
    }
  },
  {
    "service_request": "2023-972202",
    "request_type": "Traffic Signals/Signs/Striping/Streetlights",
    "request_reason": "Street Light Outage/Malfunction",
    "date_created": "2023-02-01T14:58:02.000",
    "date_modified": "2023-02-01T14:58:03.000",
    "request_status": "Pending",
    "responsible_agency": "Department of Public Works",
    "final_address": "3701 Banks St",
    "address_councildis": "A",
    "status": "Assigned to Contractor",
    "contractor": "Legacy Professional Services",
    "rowid": "972202",
    "final_x": "3671613.36647",
    "final_y": "536513.488519",
    "longitude": "-90.09911898353445",
    "latitude": "29.969522588712692",
    "geocoded_column": {
      "latitude": "29.969522588712692",
      "longitude": "-90.09911898353445"
    }
  },
  {
    "service_request": "2023-972201",
    "request_type": "Traffic Signals/Signs/Striping/Streetlights",
    "request_reason": "Street Light Outage/Malfunction",
    "date_created": "2023-02-01T14:56:12.000",
    "date_modified": "2023-02-01T14:56:13.000",
    "request_status": "Pending",
    "responsible_agency": "Department of Public Works",
    "final_address": "4911 Miles Dr",
    "address_councildis": "D",
    "status": "Assigned to Contractor",
    "contractor": "Legacy Professional Services",
    "rowid": "972201",
    "final_x": "3680258.03989",
    "final_y": "549509.306579",
    "longitude": "-90.07136637701485",
    "latitude": "30.004997668215562",
    "geocoded_column": {
      "latitude": "30.004997668215562",
      "longitude": "-90.07136637701485"
    }
  },
  {
    "service_request": "2023-972200",
    "request_type": "Abandoned Vehicles",
    "request_reason": "Abandoned/Junk Vehicles",
    "date_created": "2023-02-01T14:52:41.000",
    "date_modified": "2023-02-01T14:52:41.000",
    "request_status": "Pending",
    "responsible_agency": "Department of Public Works",
    "final_address": "4834 Read Blvd",
    "address_councildis": "E",
    "status": "Pending",
    "rowid": "972200",
    "final_x": "3712614.72389",
    "final_y": "556686.649114",
    "longitude": "-89.96887597417188",
    "latitude": "30.02371301788379",
    "geocoded_column": {
      "latitude": "30.02371301788379",
      "longitude": "-89.96887597417188"
    }
  },
  {
    "service_request": "2023-972199",
    "request_type": "Trash/Recycling",
    "request_reason": "Order Recycling Cart",
    "date_created": "2023-02-01T14:50:03.000",
    "date_modified": "2023-02-01T14:50:03.000",
    "request_status": "Pending",
    "responsible_agency": "Department of Sanitation",
    "final_address": "252 28Th St",
    "address_councildis": "A",
    "status": "Pending",
    "rowid": "972199",
    "final_x": "3665397.53236",
    "final_y": "550160.152596",
    "longitude": "-90.1182921869118",
    "latitude": "30.0072289207425",
    "geocoded_column": {
      "latitude": "30.0072289207425",
      "longitude": "-90.1182921869118"
    }
  },
  {
    "service_request": "2023-972198",
    "request_type": "Roads/Drainage",
    "request_reason": "Pothole",
    "date_created": "2023-02-01T14:48:58.000",
    "date_modified": "2023-02-01T14:58:16.000",
    "request_status": "Pending",
    "responsible_agency": "Department of Public Works",
    "final_address": "DAUPHINE ST & CLOUET ST",
    "address_councildis": "C",
    "status": "Pending",
    "rowid": "972198",
    "final_x": "3688718.0",
    "final_y": "534863.18",
    "longitude": "-90.04515986470669",
    "latitude": "29.96446713861656",
    "geocoded_column": {
      "latitude": "29.96446713861656",
      "longitude": "-90.04515986470669"
    }
  },
  {
    "service_request": "2023-972197",
    "request_type": "Trash/Recycling",
    "request_reason": "Request a Large Item Pick Up",
    "date_created": "2023-02-01T14:46:06.000",
    "date_modified": "2023-02-01T14:47:28.000",
    "request_status": "Pending",
    "responsible_agency": "Department of Sanitation",
    "final_address": "6961 Edgefield Dr",
    "address_councildis": "E",
    "status": "Assigned to Contractor",
    "contractor": "Waste Pro",
    "rowid": "972197",
    "final_x": "3719126.55058",
    "final_y": "568802.783461",
    "longitude": "-89.94783725049903",
    "latitude": "30.05681262901049",
    "geocoded_column": {
      "latitude": "30.05681262901049",
      "longitude": "-89.94783725049903"
    }
  },
  {
    "service_request": "2023-972196",
    "request_type": "Trash/Recycling",
    "request_reason": "Order Trash Cart",
    "date_created": "2023-02-01T14:42:28.000",
    "date_modified": "2023-02-01T14:42:51.000",
    "request_status": "Pending",
    "responsible_agency": "Department of Sanitation",
    "final_address": "3329 Frenchmen St",
    "address_councildis": "D",
    "status": "Assigned to Contractor",
    "contractor": "IV Waste",
    "rowid": "972196",
    "final_x": "3683934.31823",
    "final_y": "544985.241551",
    "longitude": "-90.05991110756422",
    "latitude": "29.992446269776092",
    "geocoded_column": {
      "latitude": "29.992446269776092",
      "longitude": "-90.05991110756422"
    }
  },
  {
    "service_request": "2023-972195",
    "request_type": "Abandoned Vehicles",
    "request_reason": "Abandoned/Junk Vehicles",
    "date_created": "2023-02-01T14:39:09.000",
    "date_modified": "2023-02-01T14:39:09.000",
    "request_status": "Pending",
    "responsible_agency": "Department of Public Works",
    "final_address": "3322 N Dorgenois St",
    "address_councildis": "D",
    "status": "Pending",
    "rowid": "972195",
    "final_x": "3691326.79171",
    "final_y": "540980.432459",
    "longitude": "-90.03670293044682",
    "latitude": "29.981206515185768",
    "geocoded_column": {
      "latitude": "29.981206515185768",
      "longitude": "-90.03670293044682"
    }
  },
  {
    "service_request": "2023-972194",
    "request_type": "Trash/Recycling",
    "request_reason": "MIssed Recycling Pick-Up",
    "date_created": "2023-02-01T14:37:45.000",
    "date_modified": "2023-02-01T14:37:45.000",
    "request_status": "Pending",
    "responsible_agency": "Department of Sanitation",
    "final_address": "10901 Morrison Rd",
    "address_councildis": "E",
    "status": "Assigned to Contractor",
    "contractor": "Waste Pro",
    "rowid": "972194",
    "final_x": "3710752.20824",
    "final_y": "564858.67101",
    "longitude": "-89.97445486473423",
    "latitude": "30.046243680097923",
    "geocoded_column": {
      "latitude": "30.046243680097923",
      "longitude": "-89.97445486473423"
    }
  },
  {
    "service_request": "2023-972193",
    "request_type": "Trash/Recycling",
    "request_reason": "Illegal Dumping",
    "date_created": "2023-02-01T14:37:25.000",
    "date_modified": "2023-02-01T14:37:25.000",
    "request_status": "Pending",
    "responsible_agency": "Department of Sanitation",
    "final_address": "2764 N Dorgenois St",
    "address_councildis": "D",
    "status": "Pending",
    "rowid": "972193",
    "final_x": "3687800.52771",
    "final_y": "541675.7547",
    "longitude": "-90.04781580398932",
    "latitude": "29.98322765292357",
    "geocoded_column": {
      "latitude": "29.98322765292357",
      "longitude": "-90.04781580398932"
    }
  },
  {
    "service_request": "2023-972192",
    "request_type": "Roads/Drainage",
    "request_reason": "Pothole",
    "date_created": "2023-02-01T14:35:42.000",
    "date_modified": "2023-02-01T14:35:42.000",
    "request_status": "Pending",
    "responsible_agency": "Department of Public Works",
    "final_address": "2431 Desire St",
    "address_councildis": "D",
    "status": "Pending",
    "rowid": "972192",
    "final_x": "3691496.94409",
    "final_y": "540834.262859",
    "longitude": "-90.03617074045822",
    "latitude": "29.980799305673553",
    "geocoded_column": {
      "latitude": "29.980799305673553",
      "longitude": "-90.03617074045822"
    }
  },
  {
    "service_request": "2023-972191",
    "request_type": "Trash/Recycling",
    "request_reason": "Illegal Dumping",
    "date_created": "2023-02-01T14:34:21.000",
    "date_modified": "2023-02-01T14:34:21.000",
    "request_status": "Pending",
    "responsible_agency": "Department of Sanitation",
    "final_address": "3319 N Rocheblave St",
    "address_councildis": "D",
    "status": "Pending",
    "rowid": "972191",
    "final_x": "3691229.3352",
    "final_y": "540692.953547",
    "longitude": "-90.03702101342495",
    "latitude": "29.980419082889817",
    "geocoded_column": {
      "latitude": "29.980419082889817",
      "longitude": "-90.03702101342495"
    }
  },
  {
    "service_request": "2023-972190",
    "request_type": "Trash/Recycling",
    "request_reason": "Request a Large Item Pick Up",
    "date_created": "2023-02-01T14:34:18.000",
    "date_modified": "2023-02-01T14:34:19.000",
    "request_status": "Pending",
    "responsible_agency": "Department of Sanitation",
    "final_address": "1106 Thayer St",
    "address_councildis": "C",
    "status": "Assigned to Contractor",
    "contractor": "Richards Disposal",
    "rowid": "972190",
    "final_x": "3689480.25404",
    "final_y": "527352.025215",
    "longitude": "-90.04301983519376",
    "latitude": "29.94379047175896",
    "geocoded_column": {
      "latitude": "29.94379047175896",
      "longitude": "-90.04301983519376"
    }
  },
  {
    "service_request": "2023-972189",
    "request_type": "Trash/Recycling",
    "request_reason": "Request a Large Item Pick Up",
    "date_created": "2023-02-01T14:33:48.000",
    "date_modified": "2023-02-01T14:33:49.000",
    "request_status": "Pending",
    "responsible_agency": "Department of Sanitation",
    "final_address": "4342 Genoa St",
    "address_councildis": "E",
    "status": "Assigned to Contractor",
    "contractor": "Waste Pro",
    "rowid": "972189",
    "final_x": "3761023.01449",
    "final_y": "573632.229994",
    "longitude": "-89.81521020552164",
    "latitude": "30.06863190042958",
    "geocoded_column": {
      "latitude": "30.06863190042958",
      "longitude": "-89.81521020552164"
    }
  },
  {
    "service_request": "2023-972188",
    "request_type": "Property Maintenance",
    "request_reason": "Property Maintenance",
    "date_created": "2023-02-01T14:33:15.000",
    "date_modified": "2023-02-01T14:33:15.000",
    "request_status": "Pending",
    "responsible_agency": "Department of Code Enforcement",
    "final_address": "3201 N Miro St",
    "address_councildis": "D",
    "status": "Pending",
    "rowid": "972188",
    "final_x": "3690636.84348",
    "final_y": "540026.761291",
    "longitude": "-90.03891611922846",
    "latitude": "29.978605709067043",
    "geocoded_column": {
      "latitude": "29.978605709067043",
      "longitude": "-90.03891611922846"
    }
  },
  {
    "service_request": "2023-972187",
    "request_type": "Trash/Recycling",
    "request_reason": "Request a Large Item Pick Up",
    "date_created": "2023-02-01T14:33:13.000",
    "date_modified": "2023-02-01T14:33:14.000",
    "request_status": "Pending",
    "responsible_agency": "Department of Sanitation",
    "final_address": "1104 Thayer St",
    "address_councildis": "C",
    "status": "Assigned to Contractor",
    "contractor": "Richards Disposal",
    "rowid": "972187",
    "final_x": "3689477.25084",
    "final_y": "527384.564543",
    "longitude": "-90.04302816019657",
    "latitude": "29.94388003679111",
    "geocoded_column": {
      "latitude": "29.94388003679111",
      "longitude": "-90.04302816019657"
    }
  },
  {
    "service_request": "2023-972186",
    "request_type": "Property Maintenance",
    "request_reason": "Property Maintenance",
    "date_created": "2023-02-01T14:31:32.000",
    "date_modified": "2023-02-01T14:31:32.000",
    "request_status": "Pending",
    "responsible_agency": "Department of Code Enforcement",
    "final_address": "3221 N Miro St",
    "address_councildis": "D",
    "status": "Pending",
    "rowid": "972186",
    "final_x": "3690786.99888",
    "final_y": "539988.181067",
    "longitude": "-90.0384432514166",
    "latitude": "29.978494962223504",
    "geocoded_column": {
      "latitude": "29.978494962223504",
      "longitude": "-90.0384432514166"
    }
  },
  {
    "service_request": "2023-972185",
    "request_type": "Property Maintenance",
    "request_reason": "Property Maintenance",
    "date_created": "2023-02-01T14:29:37.000",
    "date_modified": "2023-02-01T14:29:37.000",
    "request_status": "Pending",
    "responsible_agency": "Department of Code Enforcement",
    "final_address": "3200 N Dorgenois St",
    "address_councildis": "D",
    "status": "Pending",
    "rowid": "972185",
    "final_x": "3690993.27702",
    "final_y": "541066.265868",
    "longitude": "-90.03775325203345",
    "latitude": "29.9814528994754",
    "geocoded_column": {
      "latitude": "29.9814528994754",
      "longitude": "-90.03775325203345"
    }
  },
  {
    "service_request": "2023-972184",
    "request_type": "Trash/Recycling",
    "request_reason": "Illegal Dumping",
    "date_created": "2023-02-01T14:28:15.000",
    "date_modified": "2023-02-01T14:28:15.000",
    "request_status": "Pending",
    "responsible_agency": "Department of Sanitation",
    "final_address": "3143 N Dorgenois St",
    "address_councildis": "D",
    "status": "Pending",
    "rowid": "972184",
    "final_x": "3690684.74524",
    "final_y": "541246.04526",
    "longitude": "-90.03872131882581",
    "latitude": "29.981956817159958",
    "geocoded_column": {
      "latitude": "29.981956817159958",
      "longitude": "-90.03872131882581"
    }
  },
  {
    "service_request": "2023-972183",
    "request_type": "Trash/Recycling",
    "request_reason": "Request a Large Item Pick Up",
    "date_created": "2023-02-01T14:26:23.000",
    "date_modified": "2023-02-01T14:26:24.000",
    "request_status": "Pending",
    "responsible_agency": "Department of Sanitation",
    "final_address": "137 Mary Jane Ln",
    "address_councildis": "E",
    "status": "Assigned to Contractor",
    "contractor": "Waste Pro",
    "rowid": "972183",
    "final_x": "3718264.99839",
    "final_y": "571529.030888",
    "longitude": "-89.95045645459774",
    "latitude": "30.064337290475148",
    "geocoded_column": {
      "latitude": "30.064337290475148",
      "longitude": "-89.95045645459774"
    }
  },
  {
    "service_request": "2023-972182",
    "request_type": "Trash/Recycling",
    "request_reason": "Request a Large Item Pick Up",
    "date_created": "2023-02-01T14:25:28.000",
    "date_modified": "2023-02-01T14:25:29.000",
    "request_status": "Pending",
    "responsible_agency": "Department of Sanitation",
    "final_address": "5415 Burgundy St",
    "address_councildis": "E",
    "status": "Assigned to Contractor",
    "contractor": "Waste Pro",
    "rowid": "972182",
    "final_x": "3697082.16797",
    "final_y": "533198.77082",
    "longitude": "-90.01880690380933",
    "latitude": "29.959629399258237",
    "geocoded_column": {
      "latitude": "29.959629399258237",
      "longitude": "-90.01880690380933"
    }
  },
  {
    "service_request": "2023-972181",
    "request_type": "Property Maintenance",
    "request_reason": "Property Maintenance",
    "date_created": "2023-02-01T14:25:27.000",
    "date_modified": "2023-02-01T14:25:27.000",
    "request_status": "Pending",
    "responsible_agency": "Department of Code Enforcement",
    "final_address": "3103 N Dorgenois St",
    "address_councildis": "D",
    "status": "Pending",
    "rowid": "972181",
    "final_x": "3690375.51632",
    "final_y": "541297.674508",
    "longitude": "-90.03969616699469",
    "latitude": "29.9821083822035",
    "geocoded_column": {
      "latitude": "29.9821083822035",
      "longitude": "-90.03969616699469"
    }
  },
  {
    "service_request": "2023-972180",
    "request_type": "Trash/Recycling",
    "request_reason": "Illegal Dumping",
    "date_created": "2023-02-01T14:22:48.000",
    "date_modified": "2023-02-01T14:22:48.000",
    "request_status": "Pending",
    "responsible_agency": "Department of Sanitation",
    "final_address": "3101 N Dorgenois St",
    "address_councildis": "D",
    "status": "Pending",
    "rowid": "972180",
    "final_x": "3690368.09545",
    "final_y": "541299.529804",
    "longitude": "-90.03971953944368",
    "latitude": "29.982113713970012",
    "geocoded_column": {
      "latitude": "29.982113713970012",
      "longitude": "-90.03971953944368"
    }
  },
  {
    "service_request": "2023-972179",
    "request_type": "Traffic Signals/Signs/Striping/Streetlights",
    "request_reason": "Traffic Signal Malfunctioning/Damaged",
    "date_created": "2023-02-01T14:19:46.000",
    "date_modified": "2023-02-01T14:19:47.000",
    "request_status": "Pending",
    "responsible_agency": "Department of Public Works",
    "final_address": "1419 Basin St",
    "address_councildis": "C",
    "status": "Pending",
    "rowid": "972179",
    "final_x": "3680564.42485",
    "final_y": "534202.605445",
    "longitude": "-90.07093120582029",
    "latitude": "29.962900309546708",
    "geocoded_column": {
      "latitude": "29.962900309546708",
      "longitude": "-90.07093120582029"
    }
  },
  {
    "service_request": "2023-972178",
    "request_type": "Traffic Signals/Signs/Striping/Streetlights",
    "request_reason": "Street Light Outage/Malfunction",
    "date_created": "2023-02-01T14:19:41.000",
    "date_modified": "2023-02-01T14:19:42.000",
    "request_status": "Pending",
    "responsible_agency": "Department of Public Works",
    "final_address": "4667 Evangeline Dr",
    "address_councildis": "E",
    "status": "Assigned to Contractor",
    "contractor": "Legacy Professional Services",
    "rowid": "972178",
    "final_x": "3709221.31077",
    "final_y": "555317.626265",
    "longitude": "-89.97964948419498",
    "latitude": "30.020059411203043",
    "geocoded_column": {
      "latitude": "30.020059411203043",
      "longitude": "-89.97964948419498"
    }
  },
  {
    "service_request": "2023-972177",
    "request_type": "Property Maintenance",
    "request_reason": "Property Maintenance",
    "date_created": "2023-02-01T14:18:33.000",
    "date_modified": "2023-02-01T14:18:33.000",
    "request_status": "Pending",
    "responsible_agency": "Department of Code Enforcement",
    "final_address": "3300 Law St",
    "address_councildis": "D",
    "status": "Pending",
    "rowid": "972177",
    "final_x": "3691274.55945",
    "final_y": "541404.614092",
    "longitude": "-90.03685274410559",
    "latitude": "29.982374488034402",
    "geocoded_column": {
      "latitude": "29.982374488034402",
      "longitude": "-90.03685274410559"
    }
  },
  {
    "service_request": "2023-972176",
    "request_type": "Trash/Recycling",
    "request_reason": "Illegal Dumping",
    "date_created": "2023-02-01T14:16:33.000",
    "date_modified": "2023-02-01T14:16:33.000",
    "request_status": "Pending",
    "responsible_agency": "Department of Sanitation",
    "final_address": "3162 Law St",
    "address_councildis": "D",
    "status": "Pending",
    "rowid": "972176",
    "final_x": "3690893.25936",
    "final_y": "541496.536396",
    "longitude": "-90.03805379052841",
    "latitude": "29.982639098747605",
    "geocoded_column": {
      "latitude": "29.982639098747605",
      "longitude": "-90.03805379052841"
    }
  },
  {
    "service_request": "2023-972175",
    "request_type": "Property Maintenance",
    "request_reason": "Property Maintenance",
    "date_created": "2023-02-01T14:14:51.000",
    "date_modified": "2023-02-01T14:14:51.000",
    "request_status": "Pending",
    "responsible_agency": "Department of Code Enforcement",
    "final_address": "3041 Law St",
    "address_councildis": "D",
    "status": "Pending",
    "rowid": "972175",
    "final_x": "3690227.50774",
    "final_y": "541743.194764",
    "longitude": "-90.04014776671987",
    "latitude": "29.98333799758149",
    "geocoded_column": {
      "latitude": "29.98333799758149",
      "longitude": "-90.04014776671987"
    }
  },
  {
    "service_request": "2023-972174",
    "request_type": "Trash/Recycling",
    "request_reason": "Illegal Dumping",
    "date_created": "2023-02-01T14:13:03.000",
    "date_modified": "2023-02-01T14:13:03.000",
    "request_status": "Pending",
    "responsible_agency": "Department of Sanitation",
    "final_address": "3022 Laussat Pl",
    "address_councildis": "D",
    "status": "Pending",
    "rowid": "972174",
    "final_x": "3690095.367",
    "final_y": "541967.923148",
    "longitude": "-90.04055712633976",
    "latitude": "29.983960020270786",
    "geocoded_column": {
      "latitude": "29.983960020270786",
      "longitude": "-90.04055712633976"
    }
  },
  {
    "service_request": "2023-972173",
    "request_type": "Roads/Drainage",
    "request_reason": "Damaged Sidewalk",
    "date_created": "2023-02-01T14:12:13.000",
    "date_modified": "2023-02-01T14:12:13.000",
    "request_status": "Pending",
    "responsible_agency": "Department of Public Works",
    "final_address": "2400 Canal St",
    "address_councildis": "B",
    "status": "Pending",
    "rowid": "972173",
    "final_x": "3676204.35777",
    "final_y": "534218.670085",
    "longitude": "-90.08469920887903",
    "latitude": "29.96307584424019",
    "geocoded_column": {
      "latitude": "29.96307584424019",
      "longitude": "-90.08469920887903"
    }
  },
  {
    "service_request": "2023-972172",
    "request_type": "Property Maintenance",
    "request_reason": "Property Maintenance",
    "date_created": "2023-02-01T14:11:08.000",
    "date_modified": "2023-02-01T14:11:08.000",
    "request_status": "Pending",
    "responsible_agency": "Department of Code Enforcement",
    "final_address": "3044 Law St",
    "address_councildis": "D",
    "status": "Pending",
    "rowid": "972172",
    "final_x": "3690230.40508",
    "final_y": "541661.70158",
    "longitude": "-90.04014152042284",
    "latitude": "29.983113830541473",
    "geocoded_column": {
      "latitude": "29.983113830541473",
      "longitude": "-90.04014152042284"
    }
  },
  {
    "service_request": "2023-972171",
    "request_type": "Trash/Recycling",
    "request_reason": "Illegal Dumping",
    "date_created": "2023-02-01T14:09:09.000",
    "date_modified": "2023-02-01T14:09:09.000",
    "request_status": "Pending",
    "responsible_agency": "Department of Sanitation",
    "final_address": "3046 Florida Ave",
    "address_councildis": "D",
    "status": "Pending",
    "rowid": "972171",
    "final_x": "3690360.3944",
    "final_y": "542158.594701",
    "longitude": "-90.03971323020181",
    "latitude": "29.98447607432695",
    "geocoded_column": {
      "latitude": "29.98447607432695",
      "longitude": "-90.03971323020181"
    }
  },
  {
    "service_request": "2023-972169",
    "request_type": "Roads/Drainage",
    "request_reason": "Pothole",
    "date_created": "2023-02-01T14:05:36.000",
    "date_modified": "2023-02-01T14:05:36.000",
    "request_status": "Pending",
    "responsible_agency": "Department of Public Works",
    "final_address": "8132 Jeannette St",
    "address_councildis": "A",
    "status": "Pending",
    "rowid": "972169",
    "final_x": "3662457.61127",
    "final_y": "529293.256193",
    "longitude": "-90.12827357601262",
    "latitude": "29.949937290350242",
    "geocoded_column": {
      "latitude": "29.949937290350242",
      "longitude": "-90.12827357601262"
    }
  },
  {
    "service_request": "2023-972168",
    "request_type": "Tax and Revenue",
    "request_reason": "Occupational License Tax",
    "date_created": "2023-02-01T14:05:19.000",
    "date_modified": "2023-02-01T17:16:34.000",
    "request_status": "Pending",
    "responsible_agency": "Bureau of Revenue",
    "final_address": "New Orleans,LA",
    "rowid": "972168",
    "longitude": "0.0",
    "latitude": "0.0",
    "geocoded_column": {
      "latitude": "0.0",
      "longitude": "0.0"
    }
  },
  {
    "service_request": "2023-972167",
    "request_type": "Roads/Drainage",
    "request_reason": "Pothole",
    "date_created": "2023-02-01T14:05:10.000",
    "date_modified": "2023-02-01T14:05:11.000",
    "request_status": "Pending",
    "responsible_agency": "Department of Public Works",
    "final_address": "8209 Oleander St",
    "address_councildis": "A",
    "status": "Pending",
    "rowid": "972167",
    "final_x": "3666448.46407",
    "final_y": "534019.819845",
    "longitude": "-90.11551393950737",
    "latitude": "29.962817784631046",
    "geocoded_column": {
      "latitude": "29.962817784631046",
      "longitude": "-90.11551393950737"
    }
  },
  {
    "service_request": "2023-972166",
    "request_type": "Roads/Drainage",
    "request_reason": "Catch Basin - Clogged",
    "date_created": "2023-02-01T14:04:11.000",
    "date_modified": "2023-02-01T14:04:11.000",
    "request_status": "Pending",
    "responsible_agency": "Department of Public Works",
    "final_address": "8132 Jeannette St",
    "address_councildis": "A",
    "status": "Pending",
    "rowid": "972166",
    "final_x": "3662457.61127",
    "final_y": "529293.256193",
    "longitude": "-90.12827357601262",
    "latitude": "29.949937290350242",
    "geocoded_column": {
      "latitude": "29.949937290350242",
      "longitude": "-90.12827357601262"
    }
  },
  {
    "service_request": "2023-972165",
    "request_type": "Trash/Recycling",
    "request_reason": "Request a Large Item Pick Up",
    "date_created": "2023-02-01T14:00:56.000",
    "date_modified": "2023-02-01T14:02:21.000",
    "request_status": "Pending",
    "responsible_agency": "Department of Sanitation",
    "final_address": "5570 New England Dr",
    "address_councildis": "E",
    "status": "Assigned to Contractor",
    "contractor": "Waste Pro",
    "rowid": "972165",
    "final_x": "3723604.23436",
    "final_y": "563969.113249",
    "longitude": "-89.9338707709996",
    "latitude": "30.043372418114092",
    "geocoded_column": {
      "latitude": "30.043372418114092",
      "longitude": "-89.9338707709996"
    }
  },
  {
    "service_request": "2023-972164",
    "request_type": "Roads/Drainage",
    "request_reason": "Pothole",
    "date_created": "2023-02-01T13:57:33.000",
    "date_modified": "2023-02-01T17:13:45.000",
    "request_status": "Pending",
    "responsible_agency": "Department of Public Works",
    "final_address": "2258 Lafreniere St, New Orleans, Louisiana, 70122",
    "address_councildis": "D",
    "rowid": "972164",
    "final_x": "3684835.82108",
    "final_y": "545485.959184",
    "longitude": "-90.05704581935107",
    "latitude": "29.993795485621195",
    "geocoded_column": {
      "latitude": "29.993795485621195",
      "longitude": "-90.05704581935107"
    }
  },
  {
    "service_request": "2023-972163",
    "request_type": "Abandoned Vehicles",
    "request_reason": "Abandoned/Junk Vehicles",
    "date_created": "2023-02-01T13:54:19.000",
    "date_modified": "2023-02-01T13:54:20.000",
    "request_status": "Pending",
    "responsible_agency": "Department of Public Works",
    "final_address": "1725 Amelia St",
    "address_councildis": "B",
    "status": "Pending",
    "rowid": "972163",
    "final_x": "3673079.2772",
    "final_y": "521676.216761",
    "longitude": "-90.09499590485682",
    "latitude": "29.92868148589817",
    "geocoded_column": {
      "latitude": "29.92868148589817",
      "longitude": "-90.09499590485682"
    }
  },
  {
    "service_request": "2023-972162",
    "request_type": "Roads/Drainage",
    "request_reason": "Catch Basin - Clogged",
    "date_created": "2023-02-01T13:53:50.000",
    "date_modified": "2023-02-01T13:53:51.000",
    "request_status": "Pending",
    "responsible_agency": "Department of Public Works",
    "final_address": "S SOLOMON ST & CLEVELAND AVE",
    "address_councildis": "A",
    "status": "Pending",
    "rowid": "972162",
    "final_x": "3670332.5",
    "final_y": "538390.48",
    "longitude": "-90.10310043505515",
    "latitude": "29.974721557571844",
    "geocoded_column": {
      "latitude": "29.974721557571844",
      "longitude": "-90.10310043505515"
    }
  },
  {
    "service_request": "2023-972161",
    "request_type": "Trash/Recycling",
    "request_reason": "Replace Recycling Cart",
    "date_created": "2023-02-01T13:51:56.000",
    "date_modified": "2023-02-01T13:51:56.000",
    "request_status": "Pending",
    "responsible_agency": "Department of Sanitation",
    "final_address": "8419 Palm St, Neww Orleans, LA 70118",
    "status": "Pending",
    "rowid": "972161",
    "longitude": "0.0",
    "latitude": "0.0",
    "geocoded_column": {
      "latitude": "0.0",
      "longitude": "0.0"
    }
  },
  {
    "service_request": "2023-972160",
    "request_type": "Trash/Recycling",
    "request_reason": "Replace Trash Cart",
    "date_created": "2023-02-01T13:48:16.000",
    "date_modified": "2023-02-01T13:48:17.000",
    "request_status": "Pending",
    "responsible_agency": "Department of Sanitation",
    "final_address": "144 S Hennessey St",
    "address_councildis": "A",
    "status": "Assigned to Contractor",
    "contractor": "Richards Disposal",
    "rowid": "972160",
    "final_x": "3670093.80519",
    "final_y": "538613.596873",
    "longitude": "-90.10384673360792",
    "latitude": "29.975342098236364",
    "geocoded_column": {
      "latitude": "29.975342098236364",
      "longitude": "-90.10384673360792"
    }
  },
  {
    "service_request": "2023-972159",
    "request_type": "Trash/Recycling",
    "request_reason": "Missed Trash Pick-Up",
    "date_created": "2023-02-01T13:41:41.000",
    "date_modified": "2023-02-01T13:41:42.000",
    "request_status": "Pending",
    "responsible_agency": "Department of Sanitation",
    "final_address": "4123 State Street Dr",
    "address_councildis": "B",
    "status": "Assigned to Contractor",
    "contractor": "Richards Disposal",
    "rowid": "972159",
    "final_x": "3668410.14689",
    "final_y": "530763.558722",
    "longitude": "-90.10942901118659",
    "latitude": "29.953806665254618",
    "geocoded_column": {
      "latitude": "29.953806665254618",
      "longitude": "-90.10942901118659"
    }
  },
  {
    "service_request": "2023-972158",
    "request_type": "Roads/Drainage",
    "request_reason": "Pothole",
    "date_created": "2023-02-01T13:36:21.000",
    "date_modified": "2023-02-01T13:36:56.000",
    "case_close_date": "2023-02-01T07:36:56.000",
    "request_status": "Closed",
    "responsible_agency": "Department of Public Works",
    "final_address": "719 Red Allen Way",
    "address_councildis": "C",
    "status": "Resolved",
    "rowid": "972158",
    "final_x": "3687643.65583",
    "final_y": "528688.269696",
    "longitude": "-90.04877115945686",
    "latitude": "29.9475214288628",
    "geocoded_column": {
      "latitude": "29.9475214288628",
      "longitude": "-90.04877115945686"
    }
  },
  {
    "service_request": "2023-972157",
    "request_type": "Roads/Drainage",
    "request_reason": "Catch Basin - Clogged",
    "date_created": "2023-02-01T13:31:33.000",
    "date_modified": "2023-02-01T13:31:34.000",
    "request_status": "Pending",
    "responsible_agency": "Department of Public Works",
    "final_address": "1927 Second St",
    "address_councildis": "B",
    "status": "Pending",
    "rowid": "972157",
    "final_x": "3676003.28584",
    "final_y": "524153.439932",
    "longitude": "-90.08568026055516",
    "latitude": "29.935405827852808",
    "geocoded_column": {
      "latitude": "29.935405827852808",
      "longitude": "-90.08568026055516"
    }
  },
  {
    "service_request": "2023-972156",
    "request_type": "Trash/Recycling",
    "request_reason": "MIssed Recycling Pick-Up",
    "date_created": "2023-02-01T13:31:18.000",
    "date_modified": "2023-02-01T13:31:19.000",
    "request_status": "Pending",
    "responsible_agency": "Department of Sanitation",
    "final_address": "5540 Norgate Dr",
    "address_councildis": "E",
    "status": "Assigned to Contractor",
    "contractor": "Waste Pro",
    "rowid": "972156",
    "final_x": "3707087.62084",
    "final_y": "558121.129115",
    "longitude": "-89.98628707511972",
    "latitude": "30.02783709007401",
    "geocoded_column": {
      "latitude": "30.02783709007401",
      "longitude": "-89.98628707511972"
    }
  },
  {
    "service_request": "2023-972155",
    "request_type": "Property Maintenance",
    "request_reason": "Property Maintenance",
    "date_created": "2023-02-01T13:28:46.000",
    "date_modified": "2023-02-01T13:28:47.000",
    "request_status": "Pending",
    "responsible_agency": "Department of Code Enforcement",
    "final_address": "7415 West End Blvd",
    "address_councildis": "D",
    "status": "Pending",
    "rowid": "972155",
    "final_x": "3667131.45569",
    "final_y": "556044.940249",
    "longitude": "-90.11261615600698",
    "latitude": "30.023359347177216",
    "geocoded_column": {
      "latitude": "30.023359347177216",
      "longitude": "-90.11261615600698"
    }
  },
  {
    "service_request": "2023-972154",
    "request_type": "Roads/Drainage",
    "request_reason": "Damaged Sidewalk",
    "date_created": "2023-02-01T13:27:51.000",
    "date_modified": "2023-02-01T13:27:51.000",
    "request_status": "Pending",
    "responsible_agency": "Department of Public Works",
    "final_address": "1552 Magazine St",
    "address_councildis": "B",
    "status": "Pending",
    "rowid": "972154",
    "final_x": "3680133.25832",
    "final_y": "523383.380347",
    "longitude": "-90.0726686699988",
    "latitude": "29.933164121034533",
    "geocoded_column": {
      "latitude": "29.933164121034533",
      "longitude": "-90.0726686699988"
    }
  },
  {
    "service_request": "2023-972153",
    "request_type": "Trash/Recycling",
    "request_reason": "Order Trash Cart",
    "date_created": "2023-02-01T13:18:39.000",
    "date_modified": "2023-02-01T13:18:39.000",
    "request_status": "Pending",
    "responsible_agency": "Department of Sanitation",
    "final_address": "6015 St Claude Ave",
    "address_councildis": "E",
    "status": "Assigned to Contractor",
    "contractor": "Waste Pro",
    "rowid": "972153",
    "final_x": "3699372.98058",
    "final_y": "533477.118404",
    "longitude": "-90.01156294904106",
    "latitude": "29.960322294654546",
    "geocoded_column": {
      "latitude": "29.960322294654546",
      "longitude": "-90.01156294904106"
    }
  },
  {
    "service_request": "2023-972152",
    "request_type": "Trash/Recycling",
    "request_reason": "Request a Large Item Pick Up",
    "date_created": "2023-02-01T13:17:37.000",
    "date_modified": "2023-02-01T13:17:37.000",
    "request_status": "Pending",
    "responsible_agency": "Department of Sanitation",
    "final_address": "4942 Virgilian St",
    "address_councildis": "D",
    "status": "Assigned to Contractor",
    "contractor": "Waste Pro",
    "rowid": "972152",
    "final_x": "3697297.09744",
    "final_y": "554899.664088",
    "longitude": "-90.01734118831622",
    "latitude": "30.01929212738507",
    "geocoded_column": {
      "latitude": "30.01929212738507",
      "longitude": "-90.01734118831622"
    }
  },
  {
    "service_request": "2023-972150",
    "request_type": "Trash/Recycling",
    "request_reason": "Request a Large Item Pick Up",
    "date_created": "2023-02-01T13:17:14.000",
    "date_modified": "2023-02-01T13:17:15.000",
    "request_status": "Pending",
    "responsible_agency": "Department of Sanitation",
    "final_address": "6015 St Claude Ave",
    "address_councildis": "E",
    "status": "Assigned to Contractor",
    "contractor": "Waste Pro",
    "rowid": "972150",
    "final_x": "3699372.98058",
    "final_y": "533477.118404",
    "longitude": "-90.01156294904106",
    "latitude": "29.960322294654546",
    "geocoded_column": {
      "latitude": "29.960322294654546",
      "longitude": "-90.01156294904106"
    }
  },
  {
    "service_request": "2023-972149",
    "request_type": "Trash/Recycling",
    "request_reason": "MIssed Recycling Pick-Up",
    "date_created": "2023-02-01T13:14:27.000",
    "date_modified": "2023-02-01T13:14:28.000",
    "request_status": "Pending",
    "responsible_agency": "Department of Sanitation",
    "final_address": "3638 Laurel St",
    "address_councildis": "B",
    "status": "Assigned to Contractor",
    "contractor": "Richards Disposal",
    "rowid": "972149",
    "final_x": "3674062.22958",
    "final_y": "518440.124662",
    "longitude": "-90.09200359414213",
    "latitude": "29.91975402612017",
    "geocoded_column": {
      "latitude": "29.91975402612017",
      "longitude": "-90.09200359414213"
    }
  },
  {
    "service_request": "2023-972148",
    "request_type": "Traffic Signals/Signs/Striping/Streetlights",
    "request_reason": "Street Light Outage/Malfunction",
    "date_created": "2023-02-01T13:12:52.000",
    "date_modified": "2023-02-01T13:12:53.000",
    "request_status": "Pending",
    "responsible_agency": "Department of Public Works",
    "final_address": "2045 Lakeshore Dr",
    "address_councildis": "D",
    "status": "Assigned to Contractor",
    "contractor": "Legacy Professional Services",
    "rowid": "972148",
    "final_x": "3682608.32309",
    "final_y": "559197.068124",
    "longitude": "-90.06360220605082",
    "latitude": "30.031564086054733",
    "geocoded_column": {
      "latitude": "30.031564086054733",
      "longitude": "-90.06360220605082"
    }
  },