[
  {
    "service_request": "2022-907413",
    "request_type": "Roads/Drainage",
    "request_reason": "Street Subsidence (Sinking)",
    "date_created": "2022-08-07T23:16:58.000",
    "date_modified": "2022-08-07T23:16:58.000",
    "request_status": "Pending",
    "responsible_agency": "Department of Public Works",
    "final_address": "5534 S Liberty St",
    "address_councildis": "A",
    "status": "Pending",
    "rowid": "907413",
    "final_x": "3667159.26644",
    "final_y": "523372.620027",
    "longitude": "-90.11362720855008",
    "latitude": "29.933520648995206",
    "geocoded_column": {
      "latitude": "29.933520648995206",
      "longitude": "-90.11362720855008"
    }
  },
  {
    "service_request": "2022-907411",
    "request_type": "Trash/Recycling",
    "request_reason": "Illegal Dumping",
    "date_created": "2022-08-07T21:54:08.000",
    "date_modified": "2022-08-07T21:54:09.000",
    "request_status": "Pending",
    "responsible_agency": "Department of Sanitation",
    "final_address": "2700 BLK N Rocheblave St",
    "address_councildis": "D",
    "status": "Pending",
    "rowid": "907411",
    "final_x": "3687338.83821",
    "final_y": "541310.552665",
    "longitude": "-90.04928698103724",
    "latitude": "29.9822377111429",
    "geocoded_column": {
      "latitude": "29.9822377111429",
      "longitude": "-90.04928698103724"
    }
  },
  {
    "service_request": "2022-907410",
    "request_type": "Abandoned Vehicles",
    "request_reason": "Abandoned/Junk Vehicles",
    "date_created": "2022-08-07T21:32:04.000",
    "date_modified": "2022-08-07T21:32:04.000",
    "request_status": "Pending",
    "responsible_agency": "Department of Public Works",
    "final_address": "4525 Cartier Ave",
    "address_councildis": "D",
    "status": "Pending",
    "rowid": "907410",
    "final_x": "3678001.77064",
    "final_y": "549229.155411",
    "longitude": "-90.0785040935821",
    "latitude": "30.00429548607523",
    "geocoded_column": {
      "latitude": "30.00429548607523",
      "longitude": "-90.0785040935821"
    }
  },
  {
    "service_request": "2022-907409",
    "request_type": "Traffic Signals/Signs/Striping/Streetlights",
    "request_reason": "Street Light Outage/Malfunction",
    "date_created": "2022-08-07T21:30:51.000",
    "date_modified": "2022-08-07T21:30:52.000",
    "request_status": "Pending",
    "responsible_agency": "Department of Public Works",
    "final_address": "213 River Oaks Dr",
    "address_councildis": "C",
    "status": "Pending",
    "contractor": "Royal Engineering",
    "rowid": "907409",
    "final_x": "3701536.04279",
    "final_y": "523051.275515",
    "longitude": "-90.00511412157888",
    "latitude": "29.931586117539354",
    "geocoded_column": {
      "latitude": "29.931586117539354",
      "longitude": "-90.00511412157888"
    }
  },
  {
    "service_request": "2022-907408",
    "request_type": "Traffic Signals/Signs/Striping/Streetlights",
    "request_reason": "Street Light Outage/Malfunction",
    "date_created": "2022-08-07T21:15:43.000",
    "date_modified": "2022-08-07T21:15:44.000",
    "request_status": "Pending",
    "responsible_agency": "Department of Public Works",
    "final_address": "2729 Danbury Dr",
    "address_councildis": "C",
    "status": "Pending",
    "contractor": "Royal Engineering",
    "rowid": "907408",
    "final_x": "3703595.20081",
    "final_y": "520715.602297",
    "longitude": "-89.99869953189645",
    "latitude": "29.925098036398424",
    "geocoded_column": {
      "latitude": "29.925098036398424",
      "longitude": "-89.99869953189645"
    }
  },
  {
    "service_request": "2022-907407",
    "request_type": "Traffic Signals/Signs/Striping/Streetlights",
    "request_reason": "Street Light Outage/Malfunction",
    "date_created": "2022-08-07T20:43:28.000",
    "date_modified": "2022-08-07T20:43:29.000",
    "request_status": "Pending",
    "responsible_agency": "Department of Public Works",
    "final_address": "439 S Norman C Francis Prkwy",
    "address_councildis": "B",
    "status": "Pending",
    "contractor": "Royal Engineering",
    "rowid": "907407",
    "final_x": "3672146.25371",
    "final_y": "535583.154182",
    "longitude": "-90.09746776652378",
    "latitude": "29.96694868871269",
    "geocoded_column": {
      "latitude": "29.96694868871269",
      "longitude": "-90.09746776652378"
    }
  },
  {
    "service_request": "2022-907406",
    "request_type": "Trash/Recycling",
    "request_reason": "Order Recycling Cart",
    "date_created": "2022-08-07T20:28:54.000",
    "date_modified": "2022-08-07T20:28:54.000",
    "request_status": "Pending",
    "responsible_agency": "Department of Sanitation",
    "final_address": "7904 Oak St",
    "address_councildis": "A",
    "status": "Pending",
    "rowid": "907406",
    "final_x": "3662462.55507",
    "final_y": "527867.166911",
    "longitude": "-90.12830532030006",
    "latitude": "29.94601585917088",
    "geocoded_column": {
      "latitude": "29.94601585917088",
      "longitude": "-90.12830532030006"
    }
  },
  {
    "service_request": "2022-907405",
    "request_type": "Trash/Recycling",
    "request_reason": "Replace Trash Cart",
    "date_created": "2022-08-07T20:08:35.000",
    "date_modified": "2022-08-07T20:08:35.000",
    "request_status": "Pending",
    "responsible_agency": "Department of Sanitation",
    "final_address": "1494 Granada Dr",
    "address_councildis": "D",
    "status": "Assigned to Contractor",
    "contractor": "Metro Disposal",
    "rowid": "907405",
    "final_x": "3678585.76469",
    "final_y": "550542.075604",
    "longitude": "-90.0766136569246",
    "latitude": "30.007887949698866",
    "geocoded_column": {
      "latitude": "30.007887949698866",
      "longitude": "-90.0766136569246"
    }
  },
  {
    "service_request": "2022-907404",
    "request_type": "Traffic Signals/Signs/Striping/Streetlights",
    "request_reason": "Traffic Sign Missing/Damaged",
    "date_created": "2022-08-07T20:02:41.000",
    "date_modified": "2022-08-07T20:02:41.000",
    "request_status": "Pending",
    "responsible_agency": "Department of Public Works",
    "final_address": "3727 Laurel St",
    "address_councildis": "B",
    "status": "Pending",
    "rowid": "907404",
    "final_x": "3673602.56398",
    "final_y": "518387.069366",
    "longitude": "-90.09345634750645",
    "latitude": "29.91962182562369",
    "geocoded_column": {
      "latitude": "29.91962182562369",
      "longitude": "-90.09345634750645"
    }
  },
  {
    "service_request": "2022-907403",
    "request_type": "Roads/Drainage",
    "request_reason": "Catch Basin - Clogged",
    "date_created": "2022-08-07T19:55:25.000",
    "date_modified": "2022-08-07T19:55:25.000",
    "request_status": "Pending",
    "responsible_agency": "Department of Public Works",
    "final_address": "S Hennessey St & Banks St, New Orleans, Louisiana, 70119",
    "address_councildis": "A",
    "status": "Pending",
    "rowid": "907403",
    "final_x": "3669544.6",
    "final_y": "537973.38",
    "longitude": "-90.10560294062778",
    "latitude": "29.97359790958618",
    "geocoded_column": {
      "latitude": "29.97359790958618",
      "longitude": "-90.10560294062778"
    }
  },
  {
    "service_request": "2022-907402",
    "request_type": "Property Maintenance",
    "request_reason": "Property Maintenance",
    "date_created": "2022-08-07T19:38:49.000",
    "date_modified": "2022-08-07T19:38:49.000",
    "request_status": "Pending",
    "responsible_agency": "Department of Code Enforcement",
    "final_address": "4808 St Claude Ave",
    "address_councildis": "E",
    "status": "Pending",
    "rowid": "907402",
    "final_x": "3695140.33008",
    "final_y": "534421.409861",
    "longitude": "-90.0248946657472",
    "latitude": "29.963052336513883",
    "geocoded_column": {
      "latitude": "29.963052336513883",
      "longitude": "-90.0248946657472"
    }
  },
  {
    "service_request": "2022-907401",
    "request_type": "Trash/Recycling",
    "request_reason": "Replace Trash Cart",
    "date_created": "2022-08-07T19:33:21.000",
    "date_modified": "2022-08-07T19:33:22.000",
    "request_status": "Pending",
    "responsible_agency": "Department of Sanitation",
    "final_address": "3026 Fern St",
    "address_councildis": "B",
    "status": "Assigned to Contractor",
    "contractor": "Richards Disposal",
    "rowid": "907401",
    "final_x": "3666967.28071",
    "final_y": "532831.819076",
    "longitude": "-90.11391550175169",
    "latitude": "29.959536001710735",
    "geocoded_column": {
      "latitude": "29.959536001710735",
      "longitude": "-90.11391550175169"
    }
  },
  {
    "service_request": "2022-907400",
    "request_type": "Property Maintenance",
    "request_reason": "Property Maintenance",
    "date_created": "2022-08-07T19:32:36.000",
    "date_modified": "2022-08-07T19:32:36.000",
    "request_status": "Pending",
    "responsible_agency": "Department of Code Enforcement",
    "final_address": "1032 Deslonde St",
    "address_councildis": "E",
    "status": "Pending",
    "rowid": "907400",
    "final_x": "3695293.28048",
    "final_y": "534245.183173",
    "longitude": "-90.02441802631043",
    "latitude": "29.96256297216016",
    "geocoded_column": {
      "latitude": "29.96256297216016",
      "longitude": "-90.02441802631043"
    }
  },
  {
    "service_request": "2022-907399",
    "request_type": "Trash/Recycling",
    "request_reason": "Replace Trash Cart",
    "date_created": "2022-08-07T19:22:47.000",
    "date_modified": "2022-08-07T19:22:47.000",
    "request_status": "Pending",
    "responsible_agency": "Department of Sanitation",
    "final_address": "727 Touro St",
    "address_councildis": "C",
    "status": "Assigned to Contractor",
    "contractor": "Metro Disposal",
    "rowid": "907399",
    "final_x": "3684372.83695",
    "final_y": "535040.010438",
    "longitude": "-90.05887532593896",
    "latitude": "29.965086964106327",
    "geocoded_column": {
      "latitude": "29.965086964106327",
      "longitude": "-90.05887532593896"
    }
  },
  {
    "service_request": "2022-907398",
    "request_type": "Traffic Signals/Signs/Striping/Streetlights",
    "request_reason": "Traffic Signal Malfunctioning/Damaged",
    "date_created": "2022-08-07T19:19:31.000",
    "date_modified": "2022-08-07T19:19:31.000",
    "request_status": "Pending",
    "responsible_agency": "Department of Public Works",
    "final_address": "643 Magazine St",
    "address_councildis": "B",
    "status": "Pending",
    "rowid": "907398",
    "final_x": "3681282.14421",
    "final_y": "528427.908096",
    "longitude": "-90.06886597656198",
    "latitude": "29.947000085796354",
    "geocoded_column": {
      "latitude": "29.947000085796354",
      "longitude": "-90.06886597656198"
    }
  },
  {
    "service_request": "2022-907397",
    "request_type": "Trash/Recycling",
    "request_reason": "Missed Trash Pick-Up",
    "date_created": "2022-08-07T19:13:43.000",
    "date_modified": "2022-08-07T19:13:44.000",
    "request_status": "Pending",
    "responsible_agency": "Department of Sanitation",
    "final_address": "2716 Onzaga St",
    "address_councildis": "D",
    "status": "Assigned to Contractor",
    "contractor": "Metro Disposal",
    "rowid": "907397",
    "final_x": "3678881.0132",
    "final_y": "540751.019403",
    "longitude": "-90.07602030024272",
    "latitude": "29.980957089087575",
    "geocoded_column": {
      "latitude": "29.980957089087575",
      "longitude": "-90.07602030024272"
    }
  },
  {
    "service_request": "2022-907396",
    "request_type": "Trash/Recycling",
    "request_reason": "Missed Trash Pick-Up",
    "date_created": "2022-08-07T19:12:57.000",
    "date_modified": "2022-08-07T19:12:58.000",
    "request_status": "Pending",
    "responsible_agency": "Department of Sanitation",
    "final_address": "7830 Freret St",
    "address_councildis": "A",
    "status": "Assigned to Contractor",
    "contractor": "Richards Disposal",
    "rowid": "907396",
    "final_x": "3662117.96832",
    "final_y": "527233.845503",
    "longitude": "-90.1294143130036",
    "latitude": "29.944284387471967",
    "geocoded_column": {
      "latitude": "29.944284387471967",
      "longitude": "-90.1294143130036"
    }
  },
  {
    "service_request": "2022-907395",
    "request_type": "Trash/Recycling",
    "request_reason": "MIssed Recycling Pick-Up",
    "date_created": "2022-08-07T19:12:27.000",
    "date_modified": "2022-08-07T19:12:27.000",
    "request_status": "Pending",
    "responsible_agency": "Department of Sanitation",
    "final_address": "7830 Freret St",
    "address_councildis": "A",
    "status": "Assigned to Contractor",
    "contractor": "Richards Disposal",
    "rowid": "907395",
    "final_x": "3662117.96832",
    "final_y": "527233.845503",
    "longitude": "-90.1294143130036",
    "latitude": "29.944284387471967",
    "geocoded_column": {
      "latitude": "29.944284387471967",
      "longitude": "-90.1294143130036"
    }
  },
  {
    "service_request": "2022-907393",
    "request_type": "Abandoned Vehicles",
    "request_reason": "Abandoned/Junk Vehicles",
    "date_created": "2022-08-07T18:29:39.000",
    "date_modified": "2022-08-07T18:29:39.000",
    "request_status": "Pending",
    "responsible_agency": "Department of Public Works",
    "final_address": "1825 Duels St",
    "address_councildis": "D",
    "status": "Pending",
    "rowid": "907393",
    "final_x": "3681743.71688",
    "final_y": "542374.197837",
    "longitude": "-90.0669219512397",
    "latitude": "29.9853335787027",
    "geocoded_column": {
      "latitude": "29.9853335787027",
      "longitude": "-90.0669219512397"
    }
  },
  {
    "service_request": "2022-907392",
    "request_type": "Property Maintenance",
    "request_reason": "Property Maintenance",
    "date_created": "2022-08-07T18:28:01.000",
    "date_modified": "2022-08-07T18:28:01.000",
    "request_status": "Pending",
    "responsible_agency": "Department of Code Enforcement",
    "final_address": "1825 Duels St",
    "address_councildis": "D",
    "status": "Pending",
    "rowid": "907392",
    "final_x": "3681743.71688",
    "final_y": "542374.197837",
    "longitude": "-90.0669219512397",
    "latitude": "29.9853335787027",
    "geocoded_column": {
      "latitude": "29.9853335787027",
      "longitude": "-90.0669219512397"
    }
  },
  {
    "service_request": "2022-907391",
    "request_type": "Property Maintenance",
    "request_reason": "Property Maintenance",
    "date_created": "2022-08-07T18:14:19.000",
    "date_modified": "2022-08-07T18:14:19.000",
    "request_status": "Pending",
    "responsible_agency": "Department of Code Enforcement",
    "final_address": "2423 Pauger St",
    "address_councildis": "D",
    "status": "Pending",
    "rowid": "907391",
    "final_x": "3683711.25218",
    "final_y": "538621.665801",
    "longitude": "-90.06083896163213",
    "latitude": "29.974955491611535",
    "geocoded_column": {
      "latitude": "29.974955491611535",
      "longitude": "-90.06083896163213"
    }
  },
  {
    "service_request": "2022-907390",
    "request_type": "Safety & Permits",
    "request_reason": "Licenses & Permits",
    "date_created": "2022-08-07T18:12:13.000",
    "date_modified": "2022-08-07T18:12:14.000",
    "request_status": "Pending",
    "responsible_agency": "Safety and Permits",
    "final_address": "2024 St Maurice Ave",
    "address_councildis": "E",
    "status": "Pending",
    "rowid": "907390",
    "final_x": "3701113.98327",
    "final_y": "536615.522503",
    "longitude": "-90.00595045537028",
    "latitude": "29.968896441418195",
    "geocoded_column": {
      "latitude": "29.968896441418195",
      "longitude": "-90.00595045537028"
    }
  },
  {
    "service_request": "2022-907389",
    "request_type": "Traffic Signals/Signs/Striping/Streetlights",
    "request_reason": "Traffic Signal Malfunctioning/Damaged",
    "date_created": "2022-08-07T18:06:51.000",
    "date_modified": "2022-08-07T18:06:51.000",
    "request_status": "Pending",
    "responsible_agency": "Department of Public Works",
    "final_address": "700 Magazine St Ste 101",
    "address_councildis": "B",
    "status": "Pending",
    "rowid": "907389",
    "final_x": "3681324.90632",
    "final_y": "528251.377664",
    "longitude": "-90.06873711218184",
    "latitude": "29.946513388740737",
    "geocoded_column": {
      "latitude": "29.946513388740737",
      "longitude": "-90.06873711218184"
    }
  },
  {
    "service_request": "2022-907388",
    "request_type": "Property Maintenance",
    "request_reason": "Property Maintenance",
    "date_created": "2022-08-07T18:04:51.000",
    "date_modified": "2022-08-07T18:04:51.000",
    "request_status": "Pending",
    "responsible_agency": "Department of Code Enforcement",
    "final_address": "1807 Andry St",
    "address_councildis": "E",
    "status": "Pending",
    "rowid": "907388",
    "final_x": "3697949.05264",
    "final_y": "536636.580743",
    "longitude": "-90.01594468615085",
    "latitude": "29.969054776880906",
    "geocoded_column": {
      "latitude": "29.969054776880906",
      "longitude": "-90.01594468615085"
    }
  },
  {
    "service_request": "2022-907387",
    "request_type": "Trash/Recycling",
    "request_reason": "MIssed Recycling Pick-Up",
    "date_created": "2022-08-07T18:04:28.000",
    "date_modified": "2022-08-07T18:04:29.000",
    "request_status": "Pending",
    "responsible_agency": "Department of Sanitation",
    "final_address": "1631 Saint Charles Ave, New Orleans, Louisiana, 70130",
    "status": "Assigned to Contractor",
    "rowid": "907387",
    "longitude": "0.0",
    "latitude": "0.0",
    "geocoded_column": {
      "latitude": "0.0",
      "longitude": "0.0"
    }
  },
  {
    "service_request": "2022-907386",
    "request_type": "Trash/Recycling",
    "request_reason": "Missed Trash Pick-Up",
    "date_created": "2022-08-07T18:02:35.000",
    "date_modified": "2022-08-07T18:02:36.000",
    "request_status": "Pending",
    "responsible_agency": "Department of Sanitation",
    "final_address": "1631 Saint Charles Ave, New Orleans, Louisiana, 70130",
    "status": "Assigned to Contractor",
    "rowid": "907386",
    "longitude": "0.0",
    "latitude": "0.0",
    "geocoded_column": {
      "latitude": "0.0",
      "longitude": "0.0"
    }
  },
  {
    "service_request": "2022-907385",
    "request_type": "Trash/Recycling",
    "request_reason": "Request a Large Item Pick Up",
    "date_created": "2022-08-07T17:58:45.000",
    "date_modified": "2022-08-07T17:58:46.000",
    "request_status": "Pending",
    "responsible_agency": "Department of Sanitation",
    "final_address": "5008 S Robertson St",
    "address_councildis": "B",
    "status": "Assigned to Contractor",
    "contractor": "Richards Disposal",
    "rowid": "907385",
    "final_x": "3668664.08206",
    "final_y": "524226.297404",
    "longitude": "-90.10884777397663",
    "latitude": "29.935823857329765",
    "geocoded_column": {
      "latitude": "29.935823857329765",
      "longitude": "-90.10884777397663"
    }
  },
  {
    "service_request": "2022-907384",
    "request_type": "Traffic Signals/Signs/Striping/Streetlights",
    "request_reason": "Traffic Signal Malfunctioning/Damaged",
    "date_created": "2022-08-07T17:56:00.000",
    "date_modified": "2022-08-07T17:56:00.000",
    "request_status": "Pending",
    "responsible_agency": "Department of Public Works",
    "final_address": "700 Carondelet St",
    "address_councildis": "B",
    "status": "Pending",
    "rowid": "907384",
    "final_x": "3680161.29013",
    "final_y": "528605.420864",
    "longitude": "-90.07239876012606",
    "latitude": "29.947522149329476",
    "geocoded_column": {
      "latitude": "29.947522149329476",
      "longitude": "-90.07239876012606"
    }
  },
  {
    "service_request": "2022-907383",
    "request_type": "Trash/Recycling",
    "request_reason": "Illegal Dumping",
    "date_created": "2022-08-07T17:55:35.000",
    "date_modified": "2022-08-07T17:55:35.000",
    "request_status": "Pending",
    "responsible_agency": "Department of Sanitation",
    "final_address": "1008 Jourdan Ave",
    "address_councildis": "E",
    "status": "Pending",
    "rowid": "907383",
    "final_x": "3694860.40611",
    "final_y": "534204.322437",
    "longitude": "-90.02578645031606",
    "latitude": "29.96246420898069",
    "geocoded_column": {
      "latitude": "29.96246420898069",
      "longitude": "-90.02578645031606"
    }
  },
  {
    "service_request": "2022-907382",
    "request_type": "Trash/Recycling",
    "request_reason": "Replace Trash Cart",
    "date_created": "2022-08-07T17:35:33.000",
    "date_modified": "2022-08-07T17:35:33.000",
    "request_status": "Pending",
    "responsible_agency": "Department of Sanitation",
    "final_address": "935 Barracks St",
    "address_councildis": "C",
    "status": "Assigned to Contractor",
    "contractor": "Empire Services",
    "rowid": "907382",
    "final_x": "3683086.21858",
    "final_y": "534841.932102",
    "longitude": "-90.06294532425949",
    "latitude": "29.96458160274991",
    "geocoded_column": {
      "latitude": "29.96458160274991",
      "longitude": "-90.06294532425949"
    }
  },
  {
    "service_request": "2022-907381",
    "request_type": "Trash/Recycling",
    "request_reason": "MIssed Recycling Pick-Up",
    "date_created": "2022-08-07T17:34:35.000",
    "date_modified": "2022-08-07T17:34:36.000",
    "request_status": "Pending",
    "responsible_agency": "Department of Sanitation",
    "final_address": "7921 Burthe St",
    "address_councildis": "A",
    "status": "Assigned to Contractor",
    "contractor": "Richards Disposal",
    "rowid": "907381",
    "final_x": "3661720.66963",
    "final_y": "527225.345279",
    "longitude": "-90.13066898645403",
    "latitude": "29.944272486714294",
    "geocoded_column": {
      "latitude": "29.944272486714294",
      "longitude": "-90.13066898645403"
    }
  },
  {
    "service_request": "2022-907380",
    "request_type": "Roads/Drainage",
    "request_reason": "Damaged Sidewalk",
    "date_created": "2022-08-07T17:31:15.000",
    "date_modified": "2022-08-07T17:31:15.000",
    "request_status": "Pending",
    "responsible_agency": "Department of Public Works",
    "final_address": "8603 Palm St",
    "address_councildis": "A",
    "status": "Pending",
    "rowid": "907380",
    "final_x": "3666400.54708",
    "final_y": "535963.871495",
    "longitude": "-90.11560001324641",
    "latitude": "29.968164684285092",
    "geocoded_column": {
      "latitude": "29.968164684285092",
      "longitude": "-90.11560001324641"
    }
  },
  {
    "service_request": "2022-907379",
    "request_type": "Trash/Recycling",
    "request_reason": "Missed Trash Pick-Up",
    "date_created": "2022-08-07T17:24:45.000",
    "date_modified": "2022-08-07T17:24:46.000",
    "request_status": "Pending",
    "responsible_agency": "Department of Sanitation",
    "final_address": "2907 Pine St",
    "address_councildis": "B",
    "status": "Assigned to Contractor",
    "contractor": "Richards Disposal",
    "rowid": "907379",
    "final_x": "3667360.72154",
    "final_y": "531822.152003",
    "longitude": "-90.11270706648929",
    "latitude": "29.95674823006948",
    "geocoded_column": {
      "latitude": "29.95674823006948",
      "longitude": "-90.11270706648929"
    }
  },
  {
    "service_request": "2022-907378",
    "request_type": "Trash/Recycling",
    "request_reason": "Request a Large Item Pick Up",
    "date_created": "2022-08-07T17:12:11.000",
    "date_modified": "2022-08-07T17:12:12.000",
    "request_status": "Pending",
    "responsible_agency": "Department of Sanitation",
    "final_address": "4422 S Liberty St, New Orleans, Louisiana, 70115",
    "address_councildis": "B",
    "status": "Assigned to Contractor",
    "contractor": "Richards Disposal",
    "rowid": "907378",
    "final_x": "3670388.88871",
    "final_y": "523284.562491",
    "longitude": "-90.10343442647199",
    "latitude": "29.93318359523881",
    "geocoded_column": {
      "latitude": "29.93318359523881",
      "longitude": "-90.10343442647199"
    }
  },
  {
    "service_request": "2022-907377",
    "request_type": "Property Maintenance",
    "request_reason": "Property Maintenance",
    "date_created": "2022-08-07T17:04:23.000",
    "date_modified": "2022-08-07T17:04:23.000",
    "request_status": "Pending",
    "responsible_agency": "Department of Code Enforcement",
    "final_address": "1729 Marais St",
    "address_councildis": "C",
    "status": "Pending",
    "rowid": "907377",
    "final_x": "3683350.5126",
    "final_y": "536571.498375",
    "longitude": "-90.06205010611903",
    "latitude": "29.969329253424014",
    "geocoded_column": {
      "latitude": "29.969329253424014",
      "longitude": "-90.06205010611903"
    }
  },
  {
    "service_request": "2022-907376",
    "request_type": "Abandoned Vehicles",
    "request_reason": "Abandoned/Junk Vehicles",
    "date_created": "2022-08-07T17:02:23.000",
    "date_modified": "2022-08-07T17:02:23.000",
    "request_status": "Pending",
    "responsible_agency": "Department of Public Works",
    "final_address": "1709 Marais St",
    "address_councildis": "C",
    "status": "Pending",
    "rowid": "907376",
    "final_x": "3683199.03132",
    "final_y": "536555.745607",
    "longitude": "-90.06252904692543",
    "latitude": "29.969290559099438",
    "geocoded_column": {
      "latitude": "29.969290559099438",
      "longitude": "-90.06252904692543"
    }
  },
  {
    "service_request": "2022-907375",
    "request_type": "Trash/Recycling",
    "request_reason": "Request a Large Item Pick Up",
    "date_created": "2022-08-07T16:42:14.000",
    "date_modified": "2022-08-07T16:42:15.000",
    "request_status": "Pending",
    "responsible_agency": "Department of Sanitation",
    "final_address": "630 N Rampart St",
    "address_councildis": "C",
    "status": "Assigned to Contractor",
    "contractor": "Empire Services",
    "rowid": "907375",
    "final_x": "3681338.20034",
    "final_y": "533211.538308",
    "longitude": "-90.06852226785222",
    "latitude": "29.96015174992283",
    "geocoded_column": {
      "latitude": "29.96015174992283",
      "longitude": "-90.06852226785222"
    }
  },
  {
    "service_request": "2022-907373",
    "request_type": "Trash/Recycling",
    "request_reason": "Request a Large Item Pick Up",
    "date_created": "2022-08-07T16:38:32.000",
    "date_modified": "2022-08-07T16:38:32.000",
    "request_status": "Pending",
    "responsible_agency": "Department of Sanitation",
    "final_address": "4484 Painters St",
    "address_councildis": "D",
    "status": "Assigned to Contractor",
    "contractor": "Metro Disposal",
    "rowid": "907373",
    "final_x": "3686206.55369",
    "final_y": "549511.675795",
    "longitude": "-90.05257374713486",
    "latitude": "30.004822702146402",
    "geocoded_column": {
      "latitude": "30.004822702146402",
      "longitude": "-90.05257374713486"
    }
  },
  {
    "service_request": "2022-907372",
    "request_type": "Property Maintenance",
    "request_reason": "Property Maintenance",
    "date_created": "2022-08-07T16:38:14.000",
    "date_modified": "2022-08-07T16:38:14.000",
    "request_status": "Pending",
    "responsible_agency": "Department of Code Enforcement",
    "final_address": "145 N Telemachus St",
    "address_councildis": "B",
    "status": "Pending",
    "rowid": "907372",
    "final_x": "3672498.97895",
    "final_y": "537753.334408",
    "longitude": "-90.09627986718958",
    "latitude": "29.972905486981844",
    "geocoded_column": {
      "latitude": "29.972905486981844",
      "longitude": "-90.09627986718958"
    }
  },
  {
    "service_request": "2022-907371",
    "request_type": "Trash/Recycling",
    "request_reason": "Request a Large Item Pick Up",
    "date_created": "2022-08-07T16:34:41.000",
    "date_modified": "2022-08-07T16:34:42.000",
    "request_status": "Pending",
    "responsible_agency": "Department of Sanitation",
    "final_address": "7929 Freret St",
    "address_councildis": "A",
    "status": "Assigned to Contractor",
    "contractor": "Richards Disposal",
    "rowid": "907371",
    "final_x": "3661926.85114",
    "final_y": "527522.518655",
    "longitude": "-90.13000815603785",
    "latitude": "29.9450836666227",
    "geocoded_column": {
      "latitude": "29.9450836666227",
      "longitude": "-90.13000815603785"
    }
  },
  {
    "service_request": "2022-907370",
    "request_type": "Roads/Drainage",
    "request_reason": "Damaged Sidewalk",
    "date_created": "2022-08-07T16:32:53.000",
    "date_modified": "2022-08-07T16:32:53.000",
    "request_status": "Pending",
    "responsible_agency": "Department of Public Works",
    "final_address": "717 St Charles Ave",
    "address_councildis": "B",
    "status": "Pending",
    "rowid": "907370",
    "final_x": "3680447.63675",
    "final_y": "528422.482816",
    "longitude": "-90.07150101395531",
    "latitude": "29.947010463452596",
    "geocoded_column": {
      "latitude": "29.947010463452596",
      "longitude": "-90.07150101395531"
    }
  },
  {
    "service_request": "2022-907369",
    "request_type": "Trash/Recycling",
    "request_reason": "Replace Recycling Cart",
    "date_created": "2022-08-07T16:32:21.000",
    "date_modified": "2022-08-07T16:32:21.000",
    "request_status": "Pending",
    "responsible_agency": "Department of Sanitation",
    "final_address": "7929 Freret St",
    "address_councildis": "A",
    "status": "Pending",
    "rowid": "907369",
    "final_x": "3661926.85114",
    "final_y": "527522.518655",
    "longitude": "-90.13000815603785",
    "latitude": "29.9450836666227",
    "geocoded_column": {
      "latitude": "29.9450836666227",
      "longitude": "-90.13000815603785"
    }
  },
  {
    "service_request": "2022-907368",
    "request_type": "Roads/Drainage",
    "request_reason": "Damaged Sidewalk",
    "date_created": "2022-08-07T16:25:26.000",
    "date_modified": "2022-08-07T16:25:26.000",
    "request_status": "Pending",
    "responsible_agency": "Department of Public Works",
    "final_address": "822 Camp St",
    "address_councildis": "B",
    "status": "Pending",
    "rowid": "907368",
    "final_x": "3680783.10402",
    "final_y": "527713.594815",
    "longitude": "-90.07046648783425",
    "latitude": "29.94505109660232",
    "geocoded_column": {
      "latitude": "29.94505109660232",
      "longitude": "-90.07046648783425"
    }
  },
  {
    "service_request": "2022-907366",
    "request_type": "Property Maintenance",
    "request_reason": "Property Maintenance",
    "date_created": "2022-08-07T16:06:55.000",
    "date_modified": "2022-08-07T16:06:55.000",
    "request_status": "Pending",
    "responsible_agency": "Department of Code Enforcement",
    "final_address": "8118 Burthe St, New Orleans, Louisiana, 70118",
    "address_councildis": "A",
    "status": "Pending",
    "rowid": "907366",
    "final_x": "3661126.08256",
    "final_y": "527665.425983",
    "longitude": "-90.1325317161274",
    "latitude": "29.945499715085198",
    "geocoded_column": {
      "latitude": "29.945499715085198",
      "longitude": "-90.1325317161274"
    }
  },
  {
    "service_request": "2022-907365",
    "request_type": "Traffic Signals/Signs/Striping/Streetlights",
    "request_reason": "Street Light Outage/Malfunction",
    "date_created": "2022-08-07T15:17:37.000",
    "date_modified": "2022-08-07T15:17:38.000",
    "request_status": "Pending",
    "responsible_agency": "Department of Public Works",
    "final_address": "923 Constance St",
    "address_councildis": "B",
    "status": "Pending",
    "contractor": "Royal Engineering",
    "rowid": "907365",
    "final_x": "3681231.46927",
    "final_y": "526965.338814",
    "longitude": "-90.0690769270892",
    "latitude": "29.94298004760233",
    "geocoded_column": {
      "latitude": "29.94298004760233",
      "longitude": "-90.0690769270892"
    }
  },
  {
    "service_request": "2022-907364",
    "request_type": "Mosquito, Termite & Rodent Control",
    "request_reason": "Mosquito Complaint",
    "date_created": "2022-08-07T15:17:33.000",
    "date_modified": "2022-08-07T15:17:33.000",
    "request_status": "Pending",
    "responsible_agency": "Mosquito, Termite & Rodent Control Board",
    "final_address": "510 Diana St",
    "address_councildis": "C",
    "status": "Pending",
    "rowid": "907364",
    "final_x": "3687085.07266",
    "final_y": "527622.084543",
    "longitude": "-90.0505725049408",
    "latitude": "29.944606989223065",
    "geocoded_column": {
      "latitude": "29.944606989223065",
      "longitude": "-90.0505725049408"
    }
  },
  {
    "service_request": "2022-907363",
    "request_type": "Traffic Signals/Signs/Striping/Streetlights",
    "request_reason": "Street Light Outage/Malfunction",
    "date_created": "2022-08-07T15:12:48.000",
    "date_modified": "2022-08-07T15:12:48.000",
    "request_status": "Pending",
    "responsible_agency": "Department of Public Works",
    "final_address": "923 Constance St",
    "address_councildis": "B",
    "status": "Pending",
    "contractor": "Royal Engineering",
    "rowid": "907363",
    "final_x": "3681231.46927",
    "final_y": "526965.338814",
    "longitude": "-90.0690769270892",
    "latitude": "29.94298004760233",
    "geocoded_column": {
      "latitude": "29.94298004760233",
      "longitude": "-90.0690769270892"
    }
  },
  {
    "service_request": "2022-907362",
    "request_type": "Trash/Recycling",
    "request_reason": "Replace Trash Cart",
    "date_created": "2022-08-07T15:07:24.000",
    "date_modified": "2022-08-07T15:07:25.000",
    "request_status": "Pending",
    "responsible_agency": "Department of Sanitation",
    "final_address": "8419 Apple St",
    "address_councildis": "A",
    "status": "Assigned to Contractor",
    "contractor": "Richards Disposal",
    "rowid": "907362",
    "final_x": "3664463.53735",
    "final_y": "532966.520196",
    "longitude": "-90.12181727904452",
    "latitude": "29.959979413499106",
    "geocoded_column": {
      "latitude": "29.959979413499106",
      "longitude": "-90.12181727904452"
    }
  },
  {
    "service_request": "2022-907361",
    "request_type": "Roads/Drainage",
    "request_reason": "Damaged Sidewalk",
    "date_created": "2022-08-07T15:07:02.000",
    "date_modified": "2022-08-07T15:07:03.000",
    "request_status": "Pending",
    "responsible_agency": "Department of Public Works",
    "final_address": "6843 Glengary Rd",
    "address_councildis": "E",
    "status": "Pending",
    "rowid": "907361",
    "final_x": "3701739.94039",
    "final_y": "557367.117723",
    "longitude": "-90.00321291335761",
    "latitude": "30.025935626715665",
    "geocoded_column": {
      "latitude": "30.025935626715665",
      "longitude": "-90.00321291335761"
    }
  },
  {
    "service_request": "2022-907360",
    "request_type": "Traffic Signals/Signs/Striping/Streetlights",
    "request_reason": "Additional signage",
    "date_created": "2022-08-07T15:02:36.000",
    "date_modified": "2022-08-07T15:02:36.000",
    "request_status": "Pending",
    "responsible_agency": "Department of Public Works",
    "final_address": "1016 Annunciation St",
    "address_councildis": "B",
    "status": "Pending",
    "rowid": "907360",
    "final_x": "3681706.88296",
    "final_y": "526431.03379",
    "longitude": "-90.06759456570985",
    "latitude": "29.941496455574875",
    "geocoded_column": {
      "latitude": "29.941496455574875",
      "longitude": "-90.06759456570985"
    }
  },
  {
    "service_request": "2022-907359",
    "request_type": "Mosquito, Termite & Rodent Control",
    "request_reason": "Non-Rodent Complaint (Mice, Possums, Snakes)",
    "date_created": "2022-08-07T14:55:22.000",
    "date_modified": "2022-08-07T14:55:22.000",
    "request_status": "Pending",
    "responsible_agency": "Mosquito, Termite & Rodent Control Board",
    "final_address": "4522 Palmyra St",
    "address_councildis": "A",
    "status": "Pending",
    "rowid": "907359",
    "final_x": "3669038.29895",
    "final_y": "538857.705097",
    "longitude": "-90.10717206527951",
    "latitude": "29.97604441290429",
    "geocoded_column": {
      "latitude": "29.97604441290429",
      "longitude": "-90.10717206527951"
    }
  },
  {
    "service_request": "2022-907358",
    "request_type": "Trash/Recycling",
    "request_reason": "Missed Trash Pick-Up",
    "date_created": "2022-08-07T14:53:39.000",
    "date_modified": "2022-08-07T14:53:40.000",
    "request_status": "Pending",
    "responsible_agency": "Department of Sanitation",
    "final_address": "5318 N Roman St",
    "address_councildis": "E",
    "status": "Assigned to Contractor",
    "contractor": "Metro Disposal",
    "rowid": "907358",
    "final_x": "3697667.97392",
    "final_y": "536524.026247",
    "longitude": "-90.01683643100368",
    "latitude": "29.96875417510839",
    "geocoded_column": {
      "latitude": "29.96875417510839",
      "longitude": "-90.01683643100368"
    }
  },
  {
    "service_request": "2022-907357",
    "request_type": "Trash/Recycling",
    "request_reason": "Start Trash Service",
    "date_created": "2022-08-07T14:49:47.000",
    "date_modified": "2022-08-07T14:49:47.000",
    "request_status": "Pending",
    "responsible_agency": "Department of Sanitation",
    "final_address": "7839 Fig St",
    "address_councildis": "B",
    "status": "Assigned to Contractor",
    "contractor": "Richards Disposal",
    "rowid": "907357",
    "final_x": "3666959.18977",
    "final_y": "532650.956164",
    "longitude": "-90.11394712896758",
    "latitude": "29.959038924889875",
    "geocoded_column": {
      "latitude": "29.959038924889875",
      "longitude": "-90.11394712896758"
    }
  },
  {
    "service_request": "2022-907356",
    "request_type": "Traffic Signals/Signs/Striping/Streetlights",
    "request_reason": "Traffic Signal Malfunctioning/Damaged",
    "date_created": "2022-08-07T14:44:46.000",
    "date_modified": "2022-08-07T14:44:46.000",
    "request_status": "Pending",
    "responsible_agency": "Department of Public Works",
    "final_address": "JACKSON AVE & MAGAZINE ST",
    "address_councildis": "B",
    "status": "Pending",
    "rowid": "907356",
    "final_x": "3678870.3",
    "final_y": "522088.08",
    "longitude": "-90.0767005914357",
    "latitude": "29.9296406165973",
    "geocoded_column": {
      "latitude": "29.9296406165973",
      "longitude": "-90.0767005914357"
    }
  },
  {
    "service_request": "2022-907355",
    "request_type": "Traffic Signals/Signs/Striping/Streetlights",
    "request_reason": "Street Light Outage/Malfunction",
    "date_created": "2022-08-07T14:30:44.000",
    "date_modified": "2022-08-07T14:30:44.000",
    "request_status": "Pending",
    "responsible_agency": "Department of Public Works",
    "final_address": "800 Solomon Pl",
    "address_councildis": "A",
    "status": "Pending",
    "contractor": "Royal Engineering",
    "rowid": "907355",
    "final_x": "3672500.30932",
    "final_y": "540492.241739",
    "longitude": "-90.0961822725638",
    "latitude": "29.98043651159096",
    "geocoded_column": {
      "latitude": "29.98043651159096",
      "longitude": "-90.0961822725638"
    }
  },
  {
    "service_request": "2022-907354",
    "request_type": "Property Maintenance",
    "request_reason": "Property Maintenance",
    "date_created": "2022-08-07T14:29:47.000",
    "date_modified": "2022-08-07T14:29:47.000",
    "request_status": "Pending",
    "responsible_agency": "Department of Code Enforcement",
    "final_address": "1434 Touro St",
    "address_councildis": "C",
    "status": "Pending",
    "rowid": "907354",
    "final_x": "3684093.57186",
    "final_y": "537631.391816",
    "longitude": "-90.05966626445561",
    "latitude": "29.972220903105466",
    "geocoded_column": {
      "latitude": "29.972220903105466",
      "longitude": "-90.05966626445561"
    }
  },
  {
    "service_request": "2022-907353",
    "request_type": "Trash/Recycling",
    "request_reason": "Replace Trash Cart",
    "date_created": "2022-08-07T14:12:14.000",
    "date_modified": "2022-08-07T14:12:14.000",
    "request_status": "Pending",
    "responsible_agency": "Department of Sanitation",
    "final_address": "1624 Jo Ann Pl",
    "address_councildis": "C",
    "status": "Assigned to Contractor",
    "contractor": "Richards Disposal",
    "rowid": "907353",
    "final_x": "3695002.19632",
    "final_y": "525209.159997",
    "longitude": "-90.02566287071679",
    "latitude": "29.937726197659323",
    "geocoded_column": {
      "latitude": "29.937726197659323",
      "longitude": "-90.02566287071679"
    }
  },
  {
    "service_request": "2022-907352",
    "request_type": "Trash/Recycling",
    "request_reason": "Illegal Dumping",
    "date_created": "2022-08-07T13:51:54.000",
    "date_modified": "2022-08-07T13:51:55.000",
    "request_status": "Pending",
    "responsible_agency": "Department of Sanitation",
    "final_address": "MISTLETOE ST & PEACH ST",
    "address_councildis": "A",
    "status": "Pending",
    "rowid": "907352",
    "final_x": "3665790.9",
    "final_y": "538335.68",
    "longitude": "-90.117445829572",
    "latitude": "29.974704170174668",
    "geocoded_column": {
      "latitude": "29.974704170174668",
      "longitude": "-90.117445829572"
    }
  },
  {
    "service_request": "2022-907351",
    "request_type": "Trash/Recycling",
    "request_reason": "Replace Trash Cart",
    "date_created": "2022-08-07T13:37:32.000",
    "date_modified": "2022-08-07T13:37:33.000",
    "request_status": "Pending",
    "responsible_agency": "Department of Sanitation",
    "final_address": "1537 Henry Clay Ave",
    "address_councildis": "A",
    "status": "Assigned to Contractor",
    "contractor": "Richards Disposal",
    "rowid": "907351",
    "final_x": "3664953.62023",
    "final_y": "522371.946554",
    "longitude": "-90.12062377558361",
    "latitude": "29.93083348743632",
    "geocoded_column": {
      "latitude": "29.93083348743632",
      "longitude": "-90.12062377558361"
    }
  },
  {
    "service_request": "2022-907350",
    "request_type": "Trash/Recycling",
    "request_reason": "Request a Large Item Pick Up",
    "date_created": "2022-08-07T13:32:22.000",
    "date_modified": "2022-08-07T13:32:22.000",
    "request_status": "Pending",
    "responsible_agency": "Department of Sanitation",
    "final_address": "4028 Annunciation St",
    "address_councildis": "B",
    "status": "Assigned to Contractor",
    "contractor": "Richards Disposal",
    "rowid": "907350",
    "final_x": "3672379.08065",
    "final_y": "517830.757238",
    "longitude": "-90.09733722860796",
    "latitude": "29.918128490286563",
    "geocoded_column": {
      "latitude": "29.918128490286563",
      "longitude": "-90.09733722860796"
    }
  },
  {
    "service_request": "2022-907349",
    "request_type": "Property Maintenance",
    "request_reason": "Property Maintenance",
    "date_created": "2022-08-07T13:31:26.000",
    "date_modified": "2022-08-07T13:31:27.000",
    "request_status": "Pending",
    "responsible_agency": "Department of Code Enforcement",
    "final_address": "216 Bermuda St",
    "address_councildis": "C",
    "status": "Pending",
    "rowid": "907349",
    "final_x": "3686163.25116",
    "final_y": "530991.500802",
    "longitude": "-90.05336412636225",
    "latitude": "29.9539000797935",
    "geocoded_column": {
      "latitude": "29.9539000797935",
      "longitude": "-90.05336412636225"
    }
  },
  {
    "service_request": "2022-907348",
    "request_type": "Trash/Recycling",
    "request_reason": "Request a Large Item Pick Up",
    "date_created": "2022-08-07T13:24:14.000",
    "date_modified": "2022-08-07T13:24:15.000",
    "request_status": "Pending",
    "responsible_agency": "Department of Sanitation",
    "final_address": "2504 Esplanade Ave",
    "address_councildis": "D",
    "status": "Assigned to Contractor",
    "contractor": "Richards Disposal",
    "rowid": "907348",
    "final_x": "3678544.27688",
    "final_y": "538565.112649",
    "longitude": "-90.07715955248932",
    "latitude": "29.974956756161657",
    "geocoded_column": {
      "latitude": "29.974956756161657",
      "longitude": "-90.07715955248932"
    }
  },
  {
    "service_request": "2022-907347",
    "request_type": "Safety & Permits",
    "request_reason": "Licenses & Permits",
    "date_created": "2022-08-07T13:12:24.000",
    "date_modified": "2022-08-07T13:12:24.000",
    "request_status": "Pending",
    "responsible_agency": "Safety and Permits",
    "status": "Pending",
    "rowid": "907347",
    "longitude": "0.0",
    "latitude": "0.0",
    "geocoded_column": {
      "latitude": "0.0",
      "longitude": "0.0"
    }
  },
  {
    "service_request": "2022-907346",
    "request_type": "Parks & Parkways",
    "request_reason": "Request Tree Service (Right of Way/Public Property)",
    "date_created": "2022-08-07T13:04:10.000",
    "date_modified": "2022-08-07T13:04:10.000",
    "request_status": "Pending",
    "responsible_agency": "Department of Parks & Parkway",
    "final_address": "2733 Constance St",
    "address_councildis": "B",
    "status": "Pending",
    "rowid": "907346",
    "final_x": "3677286.24053",
    "final_y": "520565.019448",
    "longitude": "-90.08175370540431",
    "latitude": "29.92550036831288",
    "geocoded_column": {
      "latitude": "29.92550036831288",
      "longitude": "-90.08175370540431"
    }
  },
  {
    "service_request": "2022-907345",
    "request_type": "Roads/Drainage",
    "request_reason": "Catch Basin - Clogged",
    "date_created": "2022-08-07T12:50:42.000",
    "date_modified": "2022-08-07T12:50:42.000",
    "request_status": "Pending",
    "responsible_agency": "Department of Public Works",
    "final_address": "1808 Iberville St",
    "address_councildis": "B",
    "status": "Pending",
    "rowid": "907345",
    "final_x": "3678260.67918",
    "final_y": "533376.481284",
    "longitude": "-90.07823472246108",
    "latitude": "29.96069833594444",
    "geocoded_column": {
      "latitude": "29.96069833594444",
      "longitude": "-90.07823472246108"
    }
  },
  {
    "service_request": "2022-907344",
    "request_type": "Roads/Drainage",
    "request_reason": "Debris in Roadway",
    "date_created": "2022-08-07T12:42:43.000",
    "date_modified": "2022-08-07T12:42:43.000",
    "request_status": "Pending",
    "responsible_agency": "Department of Public Works",
    "final_address": "2751 Banks St A",
    "address_councildis": "B",
    "status": "Pending",
    "rowid": "907344",
    "final_x": "3674310.73076",
    "final_y": "534466.630469",
    "longitude": "-90.0906705721494",
    "latitude": "29.963814255451986",
    "geocoded_column": {
      "latitude": "29.963814255451986",
      "longitude": "-90.0906705721494"
    }
  },
  {
    "service_request": "2022-907343",
    "request_type": "Trash/Recycling",
    "request_reason": "Request a Large Item Pick Up",
    "date_created": "2022-08-07T12:39:36.000",
    "date_modified": "2022-08-07T12:39:37.000",
    "request_status": "Pending",
    "responsible_agency": "Department of Sanitation",
    "final_address": "3311 Octavia St",
    "address_councildis": "A",
    "status": "Assigned to Contractor",
    "contractor": "Richards Disposal",
    "rowid": "907343",
    "final_x": "3668470.02906",
    "final_y": "527769.967295",
    "longitude": "-90.10934089988201",
    "latitude": "29.945573506311465",
    "geocoded_column": {
      "latitude": "29.945573506311465",
      "longitude": "-90.10934089988201"
    }
  },
  {
    "service_request": "2022-907342",
    "request_type": "Roads/Drainage",
    "request_reason": "Debris in Roadway",
    "date_created": "2022-08-07T12:36:56.000",
    "date_modified": "2022-08-07T12:36:56.000",
    "request_status": "Pending",
    "responsible_agency": "Department of Public Works",
    "final_address": "5909 General Meyer Ave",
    "address_councildis": "C",
    "status": "Pending",
    "rowid": "907342",
    "final_x": "3705922.29137",
    "final_y": "521199.712249",
    "longitude": "-89.99133581893898",
    "latitude": "29.926354434636036",
    "geocoded_column": {
      "latitude": "29.926354434636036",
      "longitude": "-89.99133581893898"
    }
  },
  {
    "service_request": "2022-907341",
    "request_type": "Trash/Recycling",
    "request_reason": "MIssed Recycling Pick-Up",
    "date_created": "2022-08-07T12:22:34.000",
    "date_modified": "2022-08-07T12:22:35.000",
    "request_status": "Pending",
    "responsible_agency": "Department of Sanitation",
    "final_address": "7933 Hampson St",
    "address_councildis": "A",
    "status": "Assigned to Contractor",
    "contractor": "Richards Disposal",
    "rowid": "907341",
    "final_x": "3661201.28256",
    "final_y": "526782.756734",
    "longitude": "-90.13232349471072",
    "latitude": "29.943070488443226",
    "geocoded_column": {
      "latitude": "29.943070488443226",
      "longitude": "-90.13232349471072"
    }
  },
  {
    "service_request": "2022-907340",
    "request_type": "Trash/Recycling",
    "request_reason": "Missed Trash Pick-Up",
    "date_created": "2022-08-07T12:14:30.000",
    "date_modified": "2022-08-07T12:14:31.000",
    "request_status": "Pending",
    "responsible_agency": "Department of Sanitation",
    "final_address": "1241 Louisa St",
    "address_councildis": "C",
    "status": "Assigned to Contractor",
    "contractor": "Metro Disposal",
    "rowid": "907340",
    "final_x": "3689769.20848",
    "final_y": "536543.812295",
    "longitude": "-90.04178041706983",
    "latitude": "29.96905575152679",
    "geocoded_column": {
      "latitude": "29.96905575152679",
      "longitude": "-90.04178041706983"
    }
  },
  {
    "service_request": "2022-907339",
    "request_type": "Roads/Drainage",
    "request_reason": "Catch Basin - Clogged",
    "date_created": "2022-08-07T12:06:44.000",
    "date_modified": "2022-08-07T12:06:44.000",
    "request_status": "Pending",
    "responsible_agency": "Department of Public Works",
    "final_address": "6034 Magazine St",
    "address_councildis": "A",
    "status": "Pending",
    "rowid": "907339",
    "final_x": "3664381.55098",
    "final_y": "519218.923063",
    "longitude": "-90.1225349053704",
    "latitude": "29.92218029952682",
    "geocoded_column": {
      "latitude": "29.92218029952682",
      "longitude": "-90.1225349053704"
    }
  },
  {
    "service_request": "2022-907338",
    "request_type": "Roads/Drainage",
    "request_reason": "Catch Basin - Clogged",
    "date_created": "2022-08-07T11:47:52.000",
    "date_modified": "2022-08-07T11:47:52.000",
    "request_status": "Pending",
    "responsible_agency": "Department of Public Works",
    "final_address": "1429 Dauphine St",
    "address_councildis": "C",
    "status": "Pending",
    "rowid": "907338",
    "final_x": "3683611.21935",
    "final_y": "535087.94759",
    "longitude": "-90.06127878741916",
    "latitude": "29.965242045324032",
    "geocoded_column": {
      "latitude": "29.965242045324032",
      "longitude": "-90.06127878741916"
    }
  },
  {
    "service_request": "2022-907336",
    "request_type": "Trash/Recycling",
    "request_reason": "Missed Trash Pick-Up",
    "date_created": "2022-08-07T11:37:45.000",
    "date_modified": "2022-08-07T11:37:45.000",
    "request_status": "Pending",
    "responsible_agency": "Department of Sanitation",
    "final_address": "1712 Louisa St",
    "address_councildis": "D",
    "status": "Assigned to Contractor",
    "contractor": "Metro Disposal",
    "rowid": "907336",
    "final_x": "3690106.94364",
    "final_y": "538215.405769",
    "longitude": "-90.04065427468126",
    "latitude": "29.973641572461844",
    "geocoded_column": {
      "latitude": "29.973641572461844",
      "longitude": "-90.04065427468126"
    }
  },
  {
    "service_request": "2022-907335",
    "request_type": "Trash/Recycling",
    "request_reason": "Request a Large Item Pick Up",
    "date_created": "2022-08-07T11:35:32.000",
    "date_modified": "2022-08-07T11:35:33.000",
    "request_status": "Pending",
    "responsible_agency": "Department of Sanitation",
    "final_address": "7506 Briarheath Dr",
    "address_councildis": "E",
    "status": "Assigned to Contractor",
    "contractor": "Metro Disposal",
    "rowid": "907335",
    "final_x": "3714806.03429",
    "final_y": "567117.040036",
    "longitude": "-89.96155738607433",
    "latitude": "30.052320462402502",
    "geocoded_column": {
      "latitude": "30.052320462402502",
      "longitude": "-89.96155738607433"
    }
  },
  {
    "service_request": "2022-907334",
    "request_type": "Trash/Recycling",
    "request_reason": "Dead Animal Pick Up",
    "date_created": "2022-08-07T11:30:46.000",
    "date_modified": "2022-08-07T11:30:47.000",
    "request_status": "Pending",
    "responsible_agency": "Department of Sanitation",
    "final_address": "1402 Saux Ln",
    "address_councildis": "C",
    "status": "Assigned to Contractor",
    "contractor": "Richards Disposal",
    "rowid": "907334",
    "final_x": "3692656.16592",
    "final_y": "526101.422846",
    "longitude": "-90.03303747391458",
    "latitude": "29.940253025158498",
    "geocoded_column": {
      "latitude": "29.940253025158498",
      "longitude": "-90.03303747391458"
    }
  },
  {
    "service_request": "2022-907333",
    "request_type": "Trash/Recycling",
    "request_reason": "Request a Large Item Pick Up",
    "date_created": "2022-08-07T11:25:27.000",
    "date_modified": "2022-08-07T11:25:28.000",
    "request_status": "Pending",
    "responsible_agency": "Department of Sanitation",
    "final_address": "2337 Gallier St",
    "address_councildis": "D",
    "status": "Assigned to Contractor",
    "contractor": "Metro Disposal",
    "rowid": "907333",
    "final_x": "3691694.9558",
    "final_y": "540439.364683",
    "longitude": "-90.03555946102934",
    "latitude": "29.97970731171094",
    "geocoded_column": {
      "latitude": "29.97970731171094",
      "longitude": "-90.03555946102934"
    }
  },
  {
    "service_request": "2022-907332",
    "request_type": "Trash/Recycling",
    "request_reason": "Missed Trash Pick-Up",
    "date_created": "2022-08-07T11:14:43.000",
    "date_modified": "2022-08-07T11:14:44.000",
    "request_status": "Pending",
    "responsible_agency": "Department of Sanitation",
    "final_address": "13031 New Hampshire Dr",
    "address_councildis": "E",
    "status": "Assigned to Contractor",
    "contractor": "Metro Disposal",
    "rowid": "907332",
    "final_x": "3723470.53382",
    "final_y": "564857.397218",
    "longitude": "-89.93425903756426",
    "latitude": "30.045819320914184",
    "geocoded_column": {
      "latitude": "30.045819320914184",
      "longitude": "-89.93425903756426"
    }
  },
  {
    "service_request": "2022-907331",
    "request_type": "Trash/Recycling",
    "request_reason": "Request a Large Item Pick Up",
    "date_created": "2022-08-07T11:00:59.000",
    "date_modified": "2022-08-07T11:01:00.000",
    "request_status": "Pending",
    "responsible_agency": "Department of Sanitation",
    "final_address": "1700 Valmont St",
    "address_councildis": "B",
    "status": "Assigned to Contractor",
    "contractor": "Richards Disposal",
    "rowid": "907331",
    "final_x": "3667867.92033",
    "final_y": "521862.805306",
    "longitude": "-90.11144084744744",
    "latitude": "29.92934837915848",
    "geocoded_column": {
      "latitude": "29.92934837915848",
      "longitude": "-90.11144084744744"
    }
  },
  {
    "service_request": "2022-907330",
    "request_type": "Trash/Recycling",
    "request_reason": "Order Recycling Cart",
    "date_created": "2022-08-07T10:57:39.000",
    "date_modified": "2022-08-07T10:57:39.000",
    "request_status": "Pending",
    "responsible_agency": "Department of Sanitation",
    "final_address": "1127 Pine St",
    "address_councildis": "A",
    "status": "Pending",
    "rowid": "907330",
    "final_x": "3663885.39104",
    "final_y": "526541.359294",
    "longitude": "-90.12385710805556",
    "latitude": "29.942329092097637",
    "geocoded_column": {
      "latitude": "29.942329092097637",
      "longitude": "-90.12385710805556"
    }
  },
  {
    "service_request": "2022-907329",
    "request_type": "Trash/Recycling",
    "request_reason": "Request a Large Item Pick Up",
    "date_created": "2022-08-07T10:44:29.000",
    "date_modified": "2022-08-07T10:44:30.000",
    "request_status": "Pending",
    "responsible_agency": "Department of Sanitation",
    "final_address": "216 Audubon St, New Orleans, Louisiana, 70118",
    "address_councildis": "A",
    "status": "Assigned to Contractor",
    "contractor": "Richards Disposal",
    "rowid": "907329",
    "final_x": "3661011.92928",
    "final_y": "521334.282553",
    "longitude": "-90.13310152069046",
    "latitude": "29.928094356235587",
    "geocoded_column": {
      "latitude": "29.928094356235587",
      "longitude": "-90.13310152069046"
    }
  },
  {
    "service_request": "2022-907328",
    "request_type": "Roads/Drainage",
    "request_reason": "Damaged Sidewalk",
    "date_created": "2022-08-07T10:41:44.000",
    "date_modified": "2022-08-07T10:41:44.000",
    "request_status": "Pending",
    "responsible_agency": "Department of Public Works",
    "final_address": "3030 St Ann St",
    "address_councildis": "A",
    "status": "Pending",
    "rowid": "907328",
    "final_x": "3675710.02152",
    "final_y": "538095.799881",
    "longitude": "-90.08612699867632",
    "latitude": "29.97375143838111",
    "geocoded_column": {
      "latitude": "29.97375143838111",
      "longitude": "-90.08612699867632"
    }
  },
  {
    "service_request": "2022-907327",
    "request_type": "Trash/Recycling",
    "request_reason": "Missed Trash Pick-Up",
    "date_created": "2022-08-07T10:07:02.000",
    "date_modified": "2022-08-07T10:07:03.000",
    "request_status": "Pending",
    "responsible_agency": "Department of Sanitation",
    "final_address": "1740 Louisa St",
    "address_councildis": "D",
    "status": "Assigned to Contractor",
    "contractor": "Metro Disposal",
    "rowid": "907327",
    "final_x": "3690123.73539",
    "final_y": "538436.929225",
    "longitude": "-90.04059334981201",
    "latitude": "29.974250162743083",
    "geocoded_column": {
      "latitude": "29.974250162743083",
      "longitude": "-90.04059334981201"
    }
  },
  {
    "service_request": "2022-907326",
    "request_type": "Traffic Signals/Signs/Striping/Streetlights",
    "request_reason": "Street Light Outage/Malfunction",
    "date_created": "2022-08-07T10:03:42.000",
    "date_modified": "2022-08-07T10:03:43.000",
    "request_status": "Pending",
    "responsible_agency": "Department of Public Works",
    "final_address": "2324 N Robertson St",
    "address_councildis": "C",
    "status": "Pending",
    "contractor": "Royal Engineering",
    "rowid": "907326",
    "final_x": "3685855.4102",
    "final_y": "537817.851657",
    "longitude": "-90.0540955179075",
    "latitude": "29.97267963611057",
    "geocoded_column": {
      "latitude": "29.97267963611057",
      "longitude": "-90.0540955179075"
    }
  },
  {
    "service_request": "2022-907325",
    "request_type": "Trash/Recycling",
    "request_reason": "Request a Large Item Pick Up",
    "date_created": "2022-08-07T10:03:02.000",
    "date_modified": "2022-08-07T10:03:02.000",
    "request_status": "Pending",
    "responsible_agency": "Department of Sanitation",
    "final_address": "1335 Riviera Ave",
    "address_councildis": "D",
    "status": "Assigned to Contractor",
    "contractor": "Metro Disposal",
    "rowid": "907325",
    "final_x": "3677490.84642",
    "final_y": "550910.792469",
    "longitude": "-90.08006009133753",
    "latitude": "30.008934763549835",
    "geocoded_column": {
      "latitude": "30.008934763549835",
      "longitude": "-90.08006009133753"
    }
  },
  {
    "service_request": "2022-907324",
    "request_type": "Roads/Drainage",
    "request_reason": "Street Flooding / Drainage",
    "date_created": "2022-08-07T09:51:02.000",
    "date_modified": "2022-08-07T09:51:02.000",
    "request_status": "Pending",
    "responsible_agency": "Department of Public Works",
    "final_address": "1538 Adams St",
    "address_councildis": "A",
    "status": "Pending",
    "rowid": "907324",
    "final_x": "3663936.85901",
    "final_y": "528411.317312",
    "longitude": "-90.12363228222057",
    "latitude": "29.947469383061577",
    "geocoded_column": {
      "latitude": "29.947469383061577",
      "longitude": "-90.12363228222057"
    }
  },
  {
    "service_request": "2022-907323",
    "request_type": "Roads/Drainage",
    "request_reason": "Accessibility Ramps, Curbs and Sidewalk Repair",
    "date_created": "2022-08-07T09:46:01.000",
    "date_modified": "2022-08-07T09:46:01.000",
    "request_status": "Pending",
    "responsible_agency": "Department of Public Works",
    "final_address": "1619 Eighth St",
    "address_councildis": "B",
    "status": "Pending",
    "rowid": "907323",
    "final_x": "3674882.57531",
    "final_y": "522130.592506",
    "longitude": "-90.0892876879156",
    "latitude": "29.92987716137391",
    "geocoded_column": {
      "latitude": "29.92987716137391",
      "longitude": "-90.0892876879156"
    }
  },
  {
    "service_request": "2022-907322",
    "request_type": "Trash/Recycling",
    "request_reason": "Request a Large Item Pick Up",
    "date_created": "2022-08-07T09:43:29.000",
    "date_modified": "2022-08-07T09:43:29.000",
    "request_status": "Pending",
    "responsible_agency": "Department of Sanitation",
    "final_address": "2246 Louisa St",
    "address_councildis": "D",
    "status": "Assigned to Contractor",
    "contractor": "Metro Disposal",
    "rowid": "907322",
    "final_x": "3690635.7279",
    "final_y": "540359.764427",
    "longitude": "-90.03890776133268",
    "latitude": "29.979521383766382",
    "geocoded_column": {
      "latitude": "29.979521383766382",
      "longitude": "-90.03890776133268"
    }
  },
  {
    "service_request": "2022-907321",
    "request_type": "Roads/Drainage",
    "request_reason": "Catch Basin - Clogged",
    "date_created": "2022-08-07T09:42:41.000",
    "date_modified": "2022-08-07T09:42:41.000",
    "request_status": "Pending",
    "responsible_agency": "Department of Public Works",
    "final_address": "1619 Eighth St",
    "address_councildis": "B",
    "status": "Pending",
    "rowid": "907321",
    "final_x": "3674882.57531",
    "final_y": "522130.592506",
    "longitude": "-90.0892876879156",
    "latitude": "29.92987716137391",
    "geocoded_column": {
      "latitude": "29.92987716137391",
      "longitude": "-90.0892876879156"
    }
  },
  {
    "service_request": "2022-907320",
    "request_type": "Roads/Drainage",
    "request_reason": "Pothole",
    "date_created": "2022-08-07T09:42:08.000",
    "date_modified": "2022-08-07T09:42:08.000",
    "request_status": "Pending",
    "responsible_agency": "Department of Public Works",
    "final_address": "1025 Richard St",
    "address_councildis": "B",
    "status": "Pending",
    "rowid": "907320",
    "final_x": "3680194.48725",
    "final_y": "523114.910523",
    "longitude": "-90.07248470048943",
    "latitude": "29.932424065033068",
    "geocoded_column": {
      "latitude": "29.932424065033068",
      "longitude": "-90.07248470048943"
    }
  },
  {
    "service_request": "2022-907319",
    "request_type": "Traffic Signals/Signs/Striping/Streetlights",
    "request_reason": "Street Light Outage/Malfunction",
    "date_created": "2022-08-07T09:35:15.000",
    "date_modified": "2022-08-07T09:35:15.000",
    "request_status": "Pending",
    "responsible_agency": "Department of Public Works",
    "final_address": "921 Lafayette St",
    "address_councildis": "B",
    "status": "Pending",
    "contractor": "Royal Engineering",
    "rowid": "907319",
    "final_x": "3679623.52079",
    "final_y": "529178.056256",
    "longitude": "-90.07407683625019",
    "latitude": "29.94911296611653",
    "geocoded_column": {
      "latitude": "29.94911296611653",
      "longitude": "-90.07407683625019"
    }
  },
  {
    "service_request": "2022-907318",
    "request_type": "Trash/Recycling",
    "request_reason": "Start Trash Service",
    "date_created": "2022-08-07T09:32:21.000",
    "date_modified": "2022-08-07T09:32:22.000",
    "request_status": "Pending",
    "responsible_agency": "Department of Sanitation",
    "final_address": "816 First St",
    "address_councildis": "B",
    "status": "Assigned to Contractor",
    "contractor": "Richards Disposal",
    "rowid": "907318",
    "final_x": "3678555.42229",
    "final_y": "520684.461049",
    "longitude": "-90.07774315831291",
    "latitude": "29.92579061400443",
    "geocoded_column": {
      "latitude": "29.92579061400443",
      "longitude": "-90.07774315831291"
    }
  },
  {
    "service_request": "2022-907317",
    "request_type": "Trash/Recycling",
    "request_reason": "Order Trash Cart",
    "date_created": "2022-08-07T09:29:44.000",
    "date_modified": "2022-08-07T09:29:44.000",
    "request_status": "Pending",
    "responsible_agency": "Department of Sanitation",
    "final_address": "New Orleans,LA",
    "status": "Assigned to Contractor",
    "rowid": "907317",
    "longitude": "0.0",
    "latitude": "0.0",
    "geocoded_column": {
      "latitude": "0.0",
      "longitude": "0.0"
    }
  },
  {
    "service_request": "2022-907316",
    "request_type": "Parks & Parkways",
    "request_reason": "Request Tree Service (Right of Way/Public Property)",
    "date_created": "2022-08-07T09:23:47.000",
    "date_modified": "2022-08-07T11:48:20.000",
    "request_status": "Pending",
    "responsible_agency": "Department of Parks & Parkway",
    "final_address": "1829 Wagner St",
    "address_councildis": "C",
    "status": "Pending",
    "rowid": "907316",
    "final_x": "3690265.34025",
    "final_y": "524090.491388",
    "longitude": "-90.04065728599984",
    "latitude": "29.934798031534296",
    "geocoded_column": {
      "latitude": "29.934798031534296",
      "longitude": "-90.04065728599984"
    }
  },
  {
    "service_request": "2022-907314",
    "request_type": "Trash/Recycling",
    "request_reason": "Order Trash Cart",
    "date_created": "2022-08-07T09:15:52.000",
    "date_modified": "2022-08-07T09:15:53.000",
    "request_status": "Pending",
    "responsible_agency": "Department of Sanitation",
    "final_address": "3103 Milan St",
    "address_councildis": "B",
    "status": "Assigned to Contractor",
    "contractor": "Richards Disposal",
    "rowid": "907314",
    "final_x": "3671085.37127",
    "final_y": "526377.884542",
    "longitude": "-90.10113065718738",
    "latitude": "29.941668655308458",
    "geocoded_column": {
      "latitude": "29.941668655308458",
      "longitude": "-90.10113065718738"
    }
  },
  {
    "service_request": "2022-907312",
    "request_type": "Roads/Drainage",
    "request_reason": "Debris in Roadway",
    "date_created": "2022-08-07T09:14:36.000",
    "date_modified": "2022-08-07T09:14:36.000",
    "request_status": "Pending",
    "responsible_agency": "Department of Public Works",
    "final_address": "726 Touro St",
    "address_councildis": "C",
    "status": "Pending",
    "rowid": "907312",
    "final_x": "3684301.88553",
    "final_y": "535016.555462",
    "longitude": "-90.05910020985046",
    "latitude": "29.96502464073368",
    "geocoded_column": {
      "latitude": "29.96502464073368",
      "longitude": "-90.05910020985046"
    }
  },
  {
    "service_request": "2022-907311",
    "request_type": "Traffic Signals/Signs/Striping/Streetlights",
    "request_reason": "Traffic Sign Missing/Damaged",
    "date_created": "2022-08-07T09:09:07.000",
    "date_modified": "2022-08-07T09:09:08.000",
    "request_status": "Pending",
    "responsible_agency": "Department of Public Works",
    "final_address": "N RAMPART ST & CAFFIN AVE",
    "address_councildis": "E",
    "status": "Pending",
    "rowid": "907311",
    "final_x": "3697905.2",
    "final_y": "533326.28",
    "longitude": "-90.01620334408608",
    "latitude": "29.95995401647851",
    "geocoded_column": {
      "latitude": "29.95995401647851",
      "longitude": "-90.01620334408608"
    }
  },
  {
    "service_request": "2022-907310",
    "request_type": "Trash/Recycling",
    "request_reason": "Order Recycling Cart",
    "date_created": "2022-08-07T09:02:14.000",
    "date_modified": "2022-08-07T09:02:14.000",
    "request_status": "Pending",
    "responsible_agency": "Department of Sanitation",
    "final_address": "3707 Pauger St",
    "address_councildis": "D",
    "status": "Pending",
    "rowid": "907310",
    "final_x": "3683360.66901",
    "final_y": "543660.31323",
    "longitude": "-90.06176959788444",
    "latitude": "29.988820703868388",
    "geocoded_column": {
      "latitude": "29.988820703868388",
      "longitude": "-90.06176959788444"
    }
  },
  {
    "service_request": "2022-907309",
    "request_type": "Trash/Recycling",
    "request_reason": "Replace Trash Cart",
    "date_created": "2022-08-07T08:54:50.000",
    "date_modified": "2022-08-07T08:54:51.000",
    "request_status": "Pending",
    "responsible_agency": "Department of Sanitation",
    "final_address": "6348 Carlson Dr",
    "address_councildis": "D",
    "status": "Assigned to Contractor",
    "contractor": "Metro Disposal",
    "rowid": "907309",
    "final_x": "3679100.85512",
    "final_y": "557130.381402",
    "longitude": "-90.07475770964348",
    "latitude": "30.025987860498343",
    "geocoded_column": {
      "latitude": "30.025987860498343",
      "longitude": "-90.07475770964348"
    }
  },
  {
    "service_request": "2022-907308",
    "request_type": "Trash/Recycling",
    "request_reason": "Missed Trash Pick-Up",
    "date_created": "2022-08-07T08:43:51.000",
    "date_modified": "2022-08-07T08:43:52.000",
    "request_status": "Pending",
    "responsible_agency": "Department of Sanitation",
    "final_address": "107 Larchmont Pl",
    "address_councildis": "C",
    "status": "Assigned to Contractor",
    "contractor": "Richards Disposal",
    "rowid": "907308",
    "final_x": "3707267.14392",
    "final_y": "520902.595833",
    "longitude": "-89.98710155519882",
    "latitude": "29.92549409068828",
    "geocoded_column": {
      "latitude": "29.92549409068828",
      "longitude": "-89.98710155519882"
    }
  },
  {
    "service_request": "2022-907307",
    "request_type": "Roads/Drainage",
    "request_reason": "Street Flooding / Drainage",
    "date_created": "2022-08-07T08:39:32.000",
    "date_modified": "2022-08-07T08:39:32.000",
    "request_status": "Pending",
    "responsible_agency": "Department of Public Works",
    "final_address": "928 Clouet St",
    "address_councildis": "C",
    "status": "Pending",
    "rowid": "907307",
    "final_x": "3688829.30172",
    "final_y": "535436.470854",
    "longitude": "-90.04478802461254",
    "latitude": "29.96604004731693",
    "geocoded_column": {
      "latitude": "29.96604004731693",
      "longitude": "-90.04478802461254"
    }
  },
  {
    "service_request": "2022-907306",
    "request_type": "Traffic Signals/Signs/Striping/Streetlights",
    "request_reason": "Street Light Outage/Malfunction",
    "date_created": "2022-08-07T08:38:04.000",
    "date_modified": "2022-08-07T08:38:05.000",
    "request_status": "Pending",
    "responsible_agency": "Department of Public Works",
    "final_address": "8416 Nelson St",
    "address_councildis": "A",
    "status": "Pending",
    "contractor": "Royal Engineering",
    "rowid": "907306",
    "final_x": "3664212.22842",
    "final_y": "532620.564548",
    "longitude": "-90.12262240435895",
    "latitude": "29.95903545223911",
    "geocoded_column": {
      "latitude": "29.95903545223911",
      "longitude": "-90.12262240435895"
    }
  },
  {
    "service_request": "2022-907305",
    "request_type": "Property Maintenance",
    "request_reason": "Property Maintenance",
    "date_created": "2022-08-07T08:35:50.000",
    "date_modified": "2022-08-07T08:35:50.000",
    "request_status": "Pending",
    "responsible_agency": "Department of Code Enforcement",
    "final_address": "7629 Burke Ave",
    "address_councildis": "E",
    "status": "Pending",
    "rowid": "907305",
    "final_x": "3705446.19492",
    "final_y": "563057.65712",
    "longitude": "-89.99129112370339",
    "latitude": "30.041463559439848",
    "geocoded_column": {
      "latitude": "30.041463559439848",
      "longitude": "-89.99129112370339"
    }
  },
  {
    "service_request": "2022-907304",
    "request_type": "Traffic Signals/Signs/Striping/Streetlights",
    "request_reason": "Traffic Signal Malfunctioning/Damaged",
    "date_created": "2022-08-07T08:31:10.000",
    "date_modified": "2022-08-07T08:31:11.000",
    "request_status": "Pending",
    "responsible_agency": "Department of Public Works",
    "final_address": "GIROD ST & CARONDELET ST",
    "address_councildis": "B",
    "status": "Pending",
    "rowid": "907304",
    "final_x": "3680129.4",
    "final_y": "528644.98",
    "longitude": "-90.07249807521346",
    "latitude": "29.94763188861492",
    "geocoded_column": {
      "latitude": "29.94763188861492",
      "longitude": "-90.07249807521346"
    }
  },
  {
    "service_request": "2022-907303",
    "request_type": "Trash/Recycling",
    "request_reason": "Request a Large Item Pick Up",
    "date_created": "2022-08-07T08:19:25.000",
    "date_modified": "2022-08-07T08:19:25.000",
    "request_status": "Pending",
    "responsible_agency": "Department of Sanitation",
    "final_address": "2018 Cambronne St",
    "address_councildis": "A",
    "status": "Assigned to Contractor",
    "contractor": "Richards Disposal",
    "rowid": "907303",
    "final_x": "3663143.28243",
    "final_y": "531326.667842",
    "longitude": "-90.12604093603818",
    "latitude": "29.955508669672373",
    "geocoded_column": {
      "latitude": "29.955508669672373",
      "longitude": "-90.12604093603818"
    }
  },
  {
    "service_request": "2022-907302",
    "request_type": "Trash/Recycling",
    "request_reason": "Illegal Dumping",
    "date_created": "2022-08-07T08:07:08.000",
    "date_modified": "2022-08-07T08:07:08.000",
    "request_status": "Pending",
    "responsible_agency": "Department of Sanitation",
    "final_address": "1730 Allen St",
    "address_councildis": "D",
    "status": "Pending",
    "rowid": "907302",
    "final_x": "3682548.38863",
    "final_y": "538579.196361",
    "longitude": "-90.06451306364718",
    "latitude": "29.974874173178637",
    "geocoded_column": {
      "latitude": "29.974874173178637",
      "longitude": "-90.06451306364718"
    }
  },
  {
    "service_request": "2022-907301",
    "request_type": "Trash/Recycling",
    "request_reason": "Order Recycling Cart",
    "date_created": "2022-08-07T08:05:55.000",
    "date_modified": "2022-08-07T08:05:55.000",
    "request_status": "Pending",
    "responsible_agency": "Department of Sanitation",
    "final_address": "New Orleans,LA",
    "status": "Pending",
    "rowid": "907301",
    "longitude": "0.0",
    "latitude": "0.0",
    "geocoded_column": {
      "latitude": "0.0",
      "longitude": "0.0"
    }
  },
  {
    "service_request": "2022-907300",
    "request_type": "Trash/Recycling",
    "request_reason": "Missed Trash Pick-Up",
    "date_created": "2022-08-07T07:49:25.000",
    "date_modified": "2022-08-07T07:49:26.000",
    "request_status": "Pending",
    "responsible_agency": "Department of Sanitation",
    "final_address": "4500 Viola St",
    "address_councildis": "E",
    "status": "Assigned to Contractor",
    "contractor": "Metro Disposal",
    "rowid": "907300",
    "final_x": "3704045.79703",
    "final_y": "553537.868951",
    "longitude": "-89.99606797508197",
    "latitude": "30.01533286702284",
    "geocoded_column": {
      "latitude": "30.01533286702284",
      "longitude": "-89.99606797508197"
    }
  },
  {
    "service_request": "2022-907298",
    "request_type": "Trash/Recycling",
    "request_reason": "Illegal Dumping",
    "date_created": "2022-08-07T07:33:01.000",
    "date_modified": "2022-08-07T07:33:01.000",
    "request_status": "Pending",
    "responsible_agency": "Department of Sanitation",
    "final_address": "2120 S Roman St",
    "address_councildis": "B",
    "status": "Pending",
    "rowid": "907298",
    "final_x": "3674318.58932",
    "final_y": "528326.377792",
    "longitude": "-90.09085601211284",
    "latitude": "29.946930371493615",
    "geocoded_column": {
      "latitude": "29.946930371493615",
      "longitude": "-90.09085601211284"
    }
  },
  {
    "service_request": "2022-907297",
    "request_type": "Parks & Parkways",
    "request_reason": "Request Grass Cutting Service (City Owned Property)",
    "date_created": "2022-08-07T07:18:25.000",
    "date_modified": "2022-08-07T07:18:25.000",
    "request_status": "Pending",
    "responsible_agency": "Department of Parks & Parkway",
    "final_address": "249 Hendee St",
    "address_councildis": "C",
    "status": "Pending",
    "rowid": "907297",
    "final_x": "3690881.89699",
    "final_y": "530671.05933",
    "longitude": "-90.0384760676738",
    "latitude": "29.9528731985894",
    "geocoded_column": {
      "latitude": "29.9528731985894",
      "longitude": "-90.0384760676738"
    }
  },
  {
    "service_request": "2022-907296",
    "request_type": "Roads/Drainage",
    "request_reason": "Man hole cover issue",
    "date_created": "2022-08-07T06:50:28.000",
    "date_modified": "2022-08-07T06:50:29.000",
    "request_status": "Pending",
    "responsible_agency": "Department of Public Works",
    "final_address": "7501 Briarheath Dr",
    "address_councildis": "E",
    "status": "Pending",
    "rowid": "907296",
    "final_x": "3714672.76517",
    "final_y": "567020.796772",
    "longitude": "-89.96198224656051",
    "latitude": "30.052060219042236",
    "geocoded_column": {
      "latitude": "30.052060219042236",
      "longitude": "-89.96198224656051"
    }
  },
  {
    "service_request": "2022-907295",
    "request_type": "Trash/Recycling",
    "request_reason": "Request a Large Item Pick Up",
    "date_created": "2022-08-07T04:36:25.000",
    "date_modified": "2022-08-07T04:36:25.000",
    "request_status": "Pending",
    "responsible_agency": "Department of Sanitation",
    "final_address": "8000 Sycamore St",
    "address_councildis": "A",
    "status": "Assigned to Contractor",
    "contractor": "Richards Disposal",
    "rowid": "907295",
    "final_x": "3664607.50567",
    "final_y": "530664.58669",
    "longitude": "-90.12143953698366",
    "latitude": "29.95364565988401",
    "geocoded_column": {
      "latitude": "29.95364565988401",
      "longitude": "-90.12143953698366"
    }
  },
  {
    "service_request": "2022-907294",
    "request_type": "Trash/Recycling",
    "request_reason": "Missed Trash Pick-Up",
    "date_created": "2022-08-07T04:01:56.000",
    "date_modified": "2022-08-07T04:01:56.000",
    "request_status": "Pending",
    "responsible_agency": "Department of Sanitation",
    "final_address": "206 Berkley Dr",
    "address_councildis": "C",
    "status": "Assigned to Contractor",
    "contractor": "Richards Disposal",
    "rowid": "907294",
    "final_x": "3706338.01847",
    "final_y": "518164.190518",
    "longitude": "-89.990135823656",
    "latitude": "29.917994412272026",
    "geocoded_column": {
      "latitude": "29.917994412272026",
      "longitude": "-89.990135823656"
    }
  },
  {
    "service_request": "2022-907293",
    "request_type": "Traffic Signals/Signs/Striping/Streetlights",
    "request_reason": "Street Light Outage/Malfunction",
    "date_created": "2022-08-06T23:55:14.000",
    "date_modified": "2022-08-06T23:55:15.000",
    "request_status": "Pending",
    "responsible_agency": "Department of Public Works",
    "final_address": "6120 Cartier Ave",
    "address_councildis": "D",
    "status": "Pending",
    "contractor": "Royal Engineering",
    "rowid": "907293",
    "final_x": "3677537.96782",
    "final_y": "555046.125017",
    "longitude": "-90.07976828746212",
    "latitude": "30.0203040224647",
    "geocoded_column": {
      "latitude": "30.0203040224647",
      "longitude": "-90.07976828746212"
    }
  },
  {
    "service_request": "2022-907291",
    "request_type": "Traffic Signals/Signs/Striping/Streetlights",
    "request_reason": "Street Light Outage/Malfunction",
    "date_created": "2022-08-06T22:20:12.000",
    "date_modified": "2022-08-06T22:20:12.000",
    "request_status": "Pending",
    "responsible_agency": "Department of Public Works",
    "final_address": "5012 Paris Ave",
    "address_councildis": "D",
    "status": "Pending",
    "contractor": "Royal Engineering",
    "rowid": "907291",
    "final_x": "3679152.77141",
    "final_y": "550853.261845",
    "longitude": "-90.07481151529407",
    "latitude": "30.008726488795013",
    "geocoded_column": {
      "latitude": "30.008726488795013",
      "longitude": "-90.07481151529407"
    }
  },
  {
    "service_request": "2022-907290",
    "request_type": "Trash/Recycling",
    "request_reason": "MIssed Recycling Pick-Up",
    "date_created": "2022-08-06T22:13:46.000",
    "date_modified": "2022-08-06T22:13:46.000",
    "request_status": "Pending",
    "responsible_agency": "Department of Sanitation",
    "final_address": "8326 Forshey St",
    "address_councildis": "A",
    "status": "Assigned to Contractor",
    "contractor": "Richards Disposal",
    "rowid": "907290",
    "final_x": "3666260.05569",
    "final_y": "534545.125189",
    "longitude": "-90.11609128909129",
    "latitude": "29.964267705827456",
    "geocoded_column": {
      "latitude": "29.964267705827456",
      "longitude": "-90.11609128909129"
    }
  },
  {
    "service_request": "2022-907289",
    "request_type": "Roads/Drainage",
    "request_reason": "Catch Basin - Clogged",
    "date_created": "2022-08-06T22:10:37.000",
    "date_modified": "2022-08-06T22:10:37.000",
    "request_status": "Pending",
    "responsible_agency": "Department of Public Works",
    "final_address": "2017 Audubon St",
    "address_councildis": "A",
    "status": "Pending",
    "rowid": "907289",
    "final_x": "3666146.94196",
    "final_y": "528819.427904",
    "longitude": "-90.11664048781174",
    "latitude": "29.948527213227106",
    "geocoded_column": {
      "latitude": "29.948527213227106",
      "longitude": "-90.11664048781174"
    }
  },
  {
    "service_request": "2022-907288",
    "request_type": "Trash/Recycling",
    "request_reason": "Missed Trash Pick-Up",
    "date_created": "2022-08-06T21:59:19.000",
    "date_modified": "2022-08-06T21:59:20.000",
    "request_status": "Pending",
    "responsible_agency": "Department of Sanitation",
    "final_address": "2424 Chelsea Dr",
    "address_councildis": "C",
    "status": "Assigned to Contractor",
    "contractor": "Richards Disposal",
    "rowid": "907288",
    "final_x": "3704812.57412",
    "final_y": "522445.613626",
    "longitude": "-89.99479291180056",
    "latitude": "29.92981591915055",
    "geocoded_column": {
      "latitude": "29.92981591915055",
      "longitude": "-89.99479291180056"
    }
  },
  {
    "service_request": "2022-907287",
    "request_type": "Roads/Drainage",
    "request_reason": "Street Subsidence (Sinking)",
    "date_created": "2022-08-06T21:28:05.000",
    "date_modified": "2022-08-06T21:28:05.000",
    "request_status": "Pending",
    "responsible_agency": "Department of Public Works",
    "final_address": "816 Orleans Ave",
    "address_councildis": "C",
    "status": "Pending",
    "rowid": "907287",
    "final_x": "3682223.82376",
    "final_y": "532887.010436",
    "longitude": "-90.0657369969134",
    "latitude": "29.95923249929515",
    "geocoded_column": {
      "latitude": "29.95923249929515",
      "longitude": "-90.0657369969134"
    }
  },
  {
    "service_request": "2022-907286",
    "request_type": "Traffic Signals/Signs/Striping/Streetlights",
    "request_reason": "Traffic Signal Malfunctioning/Damaged",
    "date_created": "2022-08-06T21:12:54.000",
    "date_modified": "2022-08-06T21:12:54.000",
    "request_status": "Pending",
    "responsible_agency": "Department of Public Works",
    "final_address": "GIROD ST & CARONDELET ST",
    "address_councildis": "B",
    "status": "Pending",
    "rowid": "907286",
    "final_x": "3680129.4",
    "final_y": "528644.98",
    "longitude": "-90.07249807521346",
    "latitude": "29.94763188861492",
    "geocoded_column": {
      "latitude": "29.94763188861492",
      "longitude": "-90.07249807521346"
    }
  },
  {
    "service_request": "2022-907285",
    "request_type": "Roads/Drainage",
    "request_reason": "Damaged Sidewalk",
    "date_created": "2022-08-06T21:03:22.000",
    "date_modified": "2022-08-06T21:03:22.000",
    "request_status": "Pending",
    "responsible_agency": "Department of Public Works",
    "final_address": "400 Canal St",
    "address_councildis": "B",
    "status": "Pending",
    "rowid": "907285",
    "final_x": "3682054.79522",
    "final_y": "529897.078337",
    "longitude": "-90.06637514234355",
    "latitude": "29.951016341316624",
    "geocoded_column": {
      "latitude": "29.951016341316624",
      "longitude": "-90.06637514234355"
    }
  },
  {
    "service_request": "2022-907283",
    "request_type": "Traffic Signals/Signs/Striping/Streetlights",
    "request_reason": "Street Light Outage/Malfunction",
    "date_created": "2022-08-06T20:53:38.000",
    "date_modified": "2022-08-06T20:53:38.000",
    "request_status": "Pending",
    "responsible_agency": "Department of Public Works",
    "final_address": "6251 Caldwell Dr",
    "address_councildis": "D",
    "status": "Pending",
    "contractor": "Royal Engineering",
    "rowid": "907283",
    "final_x": "3679422.70075",
    "final_y": "556415.425498",
    "longitude": "-90.073765552702",
    "latitude": "30.024012269263725",
    "geocoded_column": {
      "latitude": "30.024012269263725",
      "longitude": "-90.073765552702"
    }
  },
  {
    "service_request": "2022-907282",
    "request_type": "Safety & Permits",
    "request_reason": "Safety & Permits Request (Cyber Incident Back Up)",
    "date_created": "2022-08-06T20:44:39.000",
    "date_modified": "2022-08-06T20:44:39.000",
    "request_status": "Pending",
    "responsible_agency": "Safety and Permits",
    "final_address": "4527 Urquhart St",
    "address_councildis": "D",
    "status": "Pending",
    "rowid": "907282",
    "final_x": "3693735.17347",
    "final_y": "535696.892295",
    "longitude": "-90.02928612108667",
    "latitude": "29.96660350769254",
    "geocoded_column": {
      "latitude": "29.96660350769254",
      "longitude": "-90.02928612108667"
    }
  },
  {
    "service_request": "2022-907280",
    "request_type": "Safety & Permits",
    "request_reason": "Safety & Permits Request (Cyber Incident Back Up)",
    "date_created": "2022-08-06T20:36:02.000",
    "date_modified": "2022-08-06T20:36:02.000",
    "request_status": "Pending",
    "responsible_agency": "Safety and Permits",
    "final_address": "1444 Japonica St",
    "address_councildis": "D",
    "status": "Pending",
    "rowid": "907280",
    "final_x": "3693996.92931",
    "final_y": "536299.250183",
    "longitude": "-90.02843783927136",
    "latitude": "29.968251584724925",
    "geocoded_column": {
      "latitude": "29.968251584724925",
      "longitude": "-90.02843783927136"
    }
  },
  {
    "service_request": "2022-907279",
    "request_type": "Traffic Signals/Signs/Striping/Streetlights",
    "request_reason": "Street Light Outage/Malfunction",
    "date_created": "2022-08-06T20:31:17.000",
    "date_modified": "2022-08-06T20:31:18.000",
    "request_status": "Pending",
    "responsible_agency": "Department of Public Works",
    "final_address": "3329 Joseph St",
    "address_councildis": "A",
    "status": "Pending",
    "contractor": "Royal Engineering",
    "rowid": "907279",
    "final_x": "3668192.0978",
    "final_y": "527999.439871",
    "longitude": "-90.11021068848942",
    "latitude": "29.9462126419332",
    "geocoded_column": {
      "latitude": "29.9462126419332",
      "longitude": "-90.11021068848942"
    }
  },
  {
    "service_request": "2022-907278",
    "request_type": "Trash/Recycling",
    "request_reason": "Missed Trash Pick-Up",
    "date_created": "2022-08-06T20:29:12.000",
    "date_modified": "2022-08-06T20:29:13.000",
    "request_status": "Pending",
    "responsible_agency": "Department of Sanitation",
    "final_address": "4305 S Carrollton Ave, New Orleans, Louisiana, 70119",
    "address_councildis": "A",
    "status": "Assigned to Contractor",
    "contractor": "Richards Disposal",
    "rowid": "907278",
    "final_x": "3669742.43098",
    "final_y": "536962.314376",
    "longitude": "-90.10501237668194",
    "latitude": "29.970811988824202",
    "geocoded_column": {
      "latitude": "29.970811988824202",
      "longitude": "-90.10501237668194"
    }
  },
  {
    "service_request": "2022-907277",
    "request_type": "Trash/Recycling",
    "request_reason": "Request a Large Item Pick Up",
    "date_created": "2022-08-06T20:27:32.000",
    "date_modified": "2022-08-06T20:27:32.000",
    "request_status": "Pending",
    "responsible_agency": "Department of Sanitation",
    "final_address": "4305 S Carrollton Ave, New Orleans, Louisiana, 70119",
    "address_councildis": "A",
    "status": "Assigned to Contractor",
    "contractor": "Richards Disposal",
    "rowid": "907277",
    "final_x": "3669742.43098",
    "final_y": "536962.314376",
    "longitude": "-90.10501237668194",
    "latitude": "29.970811988824202",
    "geocoded_column": {
      "latitude": "29.970811988824202",
      "longitude": "-90.10501237668194"
    }
  },
  {
    "service_request": "2022-907276",
    "request_type": "Trash/Recycling",
    "request_reason": "Illegal Dumping",
    "date_created": "2022-08-06T19:52:20.000",
    "date_modified": "2022-08-06T19:52:20.000",
    "request_status": "Pending",
    "responsible_agency": "Department of Sanitation",
    "final_address": "2ND ST & S SARATOGA ST",
    "address_councildis": "B",
    "status": "Pending",
    "rowid": "907276",
    "final_x": "3675716.8",
    "final_y": "524537.18",
    "longitude": "-90.08657151683964",
    "latitude": "29.93646956182817",
    "geocoded_column": {
      "latitude": "29.93646956182817",
      "longitude": "-90.08657151683964"
    }
  },
  {
    "service_request": "2022-907275",
    "request_type": "Traffic Signals/Signs/Striping/Streetlights",
    "request_reason": "Street Light Outage/Malfunction",
    "date_created": "2022-08-06T19:43:56.000",
    "date_modified": "2022-08-06T19:47:43.000",
    "request_status": "Pending",
    "responsible_agency": "Department of Public Works",
    "final_address": "3RD ST & LOYOLA AVE",
    "address_councildis": "B",
    "status": "Pending",
    "contractor": "Royal Engineering",
    "rowid": "907275",
    "final_x": "3675267.3",
    "final_y": "524658.28",
    "longitude": "-90.0879864519217",
    "latitude": "29.93681598796814",
    "geocoded_column": {
      "latitude": "29.93681598796814",
      "longitude": "-90.0879864519217"
    }
  },
  {
    "service_request": "2022-907274",
    "request_type": "Traffic Signals/Signs/Striping/Streetlights",
    "request_reason": "Street Light Outage/Malfunction",
    "date_created": "2022-08-06T19:40:35.000",
    "date_modified": "2022-08-06T19:48:54.000",
    "request_status": "Pending",
    "responsible_agency": "Department of Public Works",
    "final_address": "3RD ST & S LIBERTY ST",
    "address_councildis": "B",
    "status": "Pending",
    "contractor": "Royal Engineering",
    "rowid": "907274",
    "final_x": "3675067.1",
    "final_y": "524956.38",
    "longitude": "-90.08860827057251",
    "latitude": "29.93764164689506",
    "geocoded_column": {
      "latitude": "29.93764164689506",
      "longitude": "-90.08860827057251"
    }
  },
  {
    "service_request": "2022-907273",
    "request_type": "Traffic Signals/Signs/Striping/Streetlights",
    "request_reason": "Street Light Outage/Malfunction",
    "date_created": "2022-08-06T19:38:23.000",
    "date_modified": "2022-08-06T19:49:54.000",
    "request_status": "Pending",
    "responsible_agency": "Department of Public Works",
    "final_address": "2ND ST & LOYOLA AVE",
    "address_councildis": "B",
    "status": "Pending",
    "contractor": "Royal Engineering",
    "rowid": "907273",
    "final_x": "3675514.2",
    "final_y": "524830.68",
    "longitude": "-90.08720105652469",
    "latitude": "29.93728265075417",
    "geocoded_column": {
      "latitude": "29.93728265075417",
      "longitude": "-90.08720105652469"
    }
  },
  {
    "service_request": "2022-907272",
    "request_type": "Traffic Signals/Signs/Striping/Streetlights",
    "request_reason": "Traffic Sign Missing/Damaged",
    "date_created": "2022-08-06T19:35:42.000",
    "date_modified": "2022-08-06T19:35:42.000",
    "request_status": "Pending",
    "responsible_agency": "Department of Public Works",
    "final_address": "830 Julia St",
    "address_councildis": "B",
    "status": "Pending",
    "rowid": "907272",
    "final_x": "3679742.20469",
    "final_y": "528146.135743",
    "longitude": "-90.07373791615615",
    "latitude": "29.946271943078706",
    "geocoded_column": {
      "latitude": "29.946271943078706",
      "longitude": "-90.07373791615615"
    }
  },
  {
    "service_request": "2022-907271",
    "request_type": "Property Maintenance",
    "request_reason": "Property Maintenance",
    "date_created": "2022-08-06T19:31:25.000",
    "date_modified": "2022-08-06T19:31:25.000",
    "request_status": "Pending",
    "responsible_agency": "Department of Code Enforcement",
    "final_address": "1914 Stephen Girard St",
    "address_councildis": "D",
    "status": "Pending",
    "rowid": "907271",
    "final_x": "3681976.77576",
    "final_y": "548621.380691",
    "longitude": "-90.06596756568922",
    "latitude": "30.00250403014837",
    "geocoded_column": {
      "latitude": "30.00250403014837",
      "longitude": "-90.06596756568922"
    }
  },
  {
    "service_request": "2022-907270",
    "request_type": "Trash/Recycling",
    "request_reason": "Missed Trash Pick-Up",
    "date_created": "2022-08-06T19:14:07.000",
    "date_modified": "2022-08-06T19:14:08.000",
    "request_status": "Pending",
    "responsible_agency": "Department of Sanitation",
    "final_address": "2417 Chelsea Dr",
    "address_councildis": "C",
    "status": "Assigned to Contractor",
    "contractor": "Richards Disposal",
    "rowid": "907270",
    "final_x": "3704715.27524",
    "final_y": "522591.334714",
    "longitude": "-89.99509469257933",
    "latitude": "29.930219726167703",
    "geocoded_column": {
      "latitude": "29.930219726167703",
      "longitude": "-89.99509469257933"
    }
  },
  {
    "service_request": "2022-907269",
    "request_type": "Trash/Recycling",
    "request_reason": "Request a Large Item Pick Up",
    "date_created": "2022-08-06T19:11:22.000",
    "date_modified": "2022-08-06T19:11:22.000",
    "request_status": "Pending",
    "responsible_agency": "Department of Sanitation",
    "final_address": "8312 Panola St",
    "address_councildis": "A",
    "status": "Assigned to Contractor",
    "contractor": "Richards Disposal",
    "rowid": "907269",
    "final_x": "3663428.43648",
    "final_y": "531266.43053",
    "longitude": "-90.12514252348274",
    "latitude": "29.955334772224738",
    "geocoded_column": {
      "latitude": "29.955334772224738",
      "longitude": "-90.12514252348274"
    }
  },
  {
    "service_request": "2022-907268",
    "request_type": "Trash/Recycling",
    "request_reason": "Repair Trash Cart",
    "date_created": "2022-08-06T19:09:28.000",
    "date_modified": "2022-08-06T19:09:29.000",
    "request_status": "Pending",
    "responsible_agency": "Department of Sanitation",
    "final_address": "8312 Panola St",
    "address_councildis": "A",
    "status": "Assigned to Contractor",
    "contractor": "Richards Disposal",
    "rowid": "907268",
    "final_x": "3663428.43648",
    "final_y": "531266.43053",
    "longitude": "-90.12514252348274",
    "latitude": "29.955334772224738",
    "geocoded_column": {
      "latitude": "29.955334772224738",
      "longitude": "-90.12514252348274"
    }
  },
  {
    "service_request": "2022-907267",
    "request_type": "Roads/Drainage",
    "request_reason": "Street Flooding / Drainage",
    "date_created": "2022-08-06T18:59:03.000",
    "date_modified": "2022-08-06T18:59:03.000",
    "request_status": "Pending",
    "responsible_agency": "Department of Public Works",
    "final_address": "5432 N Tonti St",
    "address_councildis": "E",
    "status": "Pending",
    "rowid": "907267",
    "final_x": "3698710.71248",
    "final_y": "538346.579401",
    "longitude": "-90.01347712230108",
    "latitude": "29.973732557170134",
    "geocoded_column": {
      "latitude": "29.973732557170134",
      "longitude": "-90.01347712230108"
    }
  },
  {
    "service_request": "2022-907266",
    "request_type": "Trash/Recycling",
    "request_reason": "Missed Trash Pick-Up",
    "date_created": "2022-08-06T18:45:48.000",
    "date_modified": "2022-08-06T18:45:48.000",
    "request_status": "Pending",
    "responsible_agency": "Department of Sanitation",
    "final_address": "5318 N Roman St",
    "address_councildis": "E",
    "status": "Assigned to Contractor",
    "contractor": "Metro Disposal",
    "rowid": "907266",
    "final_x": "3697667.97392",
    "final_y": "536524.026247",
    "longitude": "-90.01683643100368",
    "latitude": "29.96875417510839",
    "geocoded_column": {
      "latitude": "29.96875417510839",
      "longitude": "-90.01683643100368"
    }
  },
  {
    "service_request": "2022-907265",
    "request_type": "Traffic Signals/Signs/Striping/Streetlights",
    "request_reason": "Traffic Sign Missing/Damaged",
    "date_created": "2022-08-06T18:36:40.000",
    "date_modified": "2022-08-06T18:36:40.000",
    "request_status": "Pending",
    "responsible_agency": "Department of Public Works",
    "final_address": "15 St Claude Ct",
    "address_councildis": "E",
    "status": "Pending",
    "rowid": "907265",
    "final_x": "3697509.32016",
    "final_y": "533639.439621",
    "longitude": "-90.01744208237321",
    "latitude": "29.960827601002112",
    "geocoded_column": {
      "latitude": "29.960827601002112",
      "longitude": "-90.01744208237321"
    }
  },
  {
    "service_request": "2022-907264",
    "request_type": "Trash/Recycling",
    "request_reason": "Missed Trash Pick-Up",
    "date_created": "2022-08-06T18:29:41.000",
    "date_modified": "2022-08-06T18:29:41.000",
    "request_status": "Pending",
    "responsible_agency": "Department of Sanitation",
    "final_address": "200 Berkley Dr, New Orleans, Louisiana, 70131",
    "address_councildis": "C",
    "status": "Assigned to Contractor",
    "contractor": "Richards Disposal",
    "rowid": "907264",
    "final_x": "3707008.21643",
    "final_y": "518158.053686",
    "longitude": "-89.98802062060994",
    "latitude": "29.917955918844577",
    "geocoded_column": {
      "latitude": "29.917955918844577",
      "longitude": "-89.98802062060994"
    }
  },