[
  {
    "service_request": "2026-1293956",
    "request_type": "Trash/Recycling",
    "request_reason": "Illegal Dumping",
    "date_created": "2026-06-24T23:59:22.000",
    "date_modified": "2026-06-24T23:59:24.000",
    "request_status": "Pending",
    "responsible_agency": "Department of Sanitation",
    "final_address": "5000 Basinview Dr",
    "address_councildis": "E",
    "status": "Pending",
    "rowid": "1293956",
    "final_x": "3698581.58096",
    "final_y": "555483.560729",
    "longitude": "-90.01326142739428",
    "latitude": "30.020856995409183",
    "geocoded_column": {
      "latitude": "30.020856995409183",
      "longitude": "-90.01326142739428"
    }
  },
  {
    "service_request": "2026-1293955",
    "request_type": "Trash/Recycling",
    "request_reason": "Order Recycling Cart",
    "date_created": "2026-06-24T23:50:15.000",
    "date_modified": "2026-06-24T23:50:18.000",
    "request_status": "Pending",
    "responsible_agency": "Department of Sanitation",
    "final_address": "2520 Cadiz St",
    "address_councildis": "B",
    "status": "Pending",
    "rowid": "1293955",
    "final_x": "3669722.63854",
    "final_y": "524148.572412",
    "longitude": "-90.10550851244287",
    "latitude": "29.935578991582414",
    "geocoded_column": {
      "latitude": "29.935578991582414",
      "longitude": "-90.10550851244287"
    }
  },
  {
    "service_request": "2026-1293954",
    "request_type": "Trash/Recycling",
    "request_reason": "Return Recycling Cart",
    "date_created": "2026-06-24T23:17:26.000",
    "date_modified": "2026-06-24T23:17:28.000",
    "request_status": "Pending",
    "responsible_agency": "Department of Sanitation",
    "final_address": "4678 Spain St",
    "address_councildis": "D",
    "status": "Pending",
    "rowid": "1293954",
    "final_x": "3684964.23791",
    "final_y": "550113.314644",
    "longitude": "-90.0564772858009",
    "latitude": "30.006515113880017",
    "geocoded_column": {
      "latitude": "30.006515113880017",
      "longitude": "-90.0564772858009"
    }
  },
  {
    "service_request": "2026-1293953",
    "request_type": "Streetlights",
    "request_reason": "Streetlight Outage/Malfunction",
    "date_created": "2026-06-24T23:12:05.000",
    "date_modified": "2026-06-24T23:12:07.000",
    "request_status": "Pending",
    "responsible_agency": "Department of Public Works",
    "final_address": "4614 Laurel St",
    "address_councildis": "B",
    "status": "Pending",
    "rowid": "1293953",
    "final_x": "3670244.53799",
    "final_y": "517924.562422",
    "longitude": "-90.10407166443915",
    "latitude": "29.918449563408082",
    "geocoded_column": {
      "latitude": "29.918449563408082",
      "longitude": "-90.10407166443915"
    }
  },
  {
    "service_request": "2026-1293952",
    "request_type": "Trash/Recycling",
    "request_reason": "Request a Large Item Pick Up",
    "date_created": "2026-06-24T22:17:32.000",
    "date_modified": "2026-06-24T22:17:35.000",
    "request_status": "Pending",
    "responsible_agency": "Department of Sanitation",
    "final_address": "4934 Stephen Girard Ave",
    "address_councildis": "D",
    "status": "Assigned to Contractor",
    "contractor": "IV Waste",
    "rowid": "1293952",
    "final_x": "3692394.96771",
    "final_y": "550886.714453",
    "longitude": "-90.03297408186151",
    "latitude": "30.00841190463684",
    "geocoded_column": {
      "latitude": "30.00841190463684",
      "longitude": "-90.03297408186151"
    }
  },
  {
    "service_request": "2026-1293951",
    "request_type": "Trash/Recycling",
    "request_reason": "Repair Trash Cart",
    "date_created": "2026-06-24T21:58:59.000",
    "date_modified": "2026-06-24T21:59:01.000",
    "request_status": "Pending",
    "responsible_agency": "Department of Sanitation",
    "final_address": "Bienville",
    "address_councildis": "C",
    "status": "Assigned to Contractor",
    "contractor": "IV Waste",
    "rowid": "1293951",
    "final_x": "3682114.65244",
    "final_y": "530923.089346",
    "longitude": "-90.06615031646949",
    "latitude": "29.953835704385035",
    "geocoded_column": {
      "latitude": "29.953835704385035",
      "longitude": "-90.06615031646949"
    }
  },
  {
    "service_request": "2026-1293950",
    "request_type": "Trash/Recycling",
    "request_reason": "Request a Large Item Pick Up",
    "date_created": "2026-06-24T21:33:36.000",
    "date_modified": "2026-06-24T21:33:38.000",
    "request_status": "Pending",
    "responsible_agency": "Department of Sanitation",
    "final_address": "5451 N Robertson St",
    "address_councildis": "E",
    "status": "Assigned to Contractor",
    "contractor": "Waste Pro",
    "rowid": "1293950",
    "final_x": "3697945.27523",
    "final_y": "535393.872198",
    "longitude": "-90.01600173456389",
    "latitude": "29.965637892350614",
    "geocoded_column": {
      "latitude": "29.965637892350614",
      "longitude": "-90.01600173456389"
    }
  },
  {
    "service_request": "2026-1293949",
    "request_type": "Streetlights",
    "request_reason": "Streetlight Outage/Malfunction",
    "date_created": "2026-06-24T21:18:42.000",
    "date_modified": "2026-06-24T21:18:44.000",
    "request_status": "Pending",
    "responsible_agency": "Department of Public Works",
    "final_address": "119 Fremont St",
    "address_councildis": "A",
    "status": "Pending",
    "rowid": "1293949",
    "final_x": "3666785.477",
    "final_y": "549994.261332",
    "longitude": "-90.11391284570519",
    "latitude": "30.006732236076335",
    "geocoded_column": {
      "latitude": "30.006732236076335",
      "longitude": "-90.11391284570519"
    }
  },
  {
    "service_request": "2026-1293948",
    "request_type": "Roads and Streets",
    "request_reason": "Pothole",
    "date_created": "2026-06-24T21:15:27.000",
    "date_modified": "2026-06-24T21:15:29.000",
    "request_status": "Pending",
    "responsible_agency": "Department of Public Works",
    "final_address": "702 Mazant St",
    "address_councildis": "C",
    "status": "Pending",
    "rowid": "1293948",
    "final_x": "3691703.06857",
    "final_y": "533796.761541",
    "longitude": "-90.03577141759311",
    "latitude": "29.96144224935131",
    "geocoded_column": {
      "latitude": "29.96144224935131",
      "longitude": "-90.03577141759311"
    }
  },
  {
    "service_request": "2026-1293947",
    "request_type": "Streetlights",
    "request_reason": "Streetlight Outage/Malfunction",
    "date_created": "2026-06-24T21:00:28.000",
    "date_modified": "2026-06-24T21:00:31.000",
    "request_status": "Pending",
    "responsible_agency": "Department of Public Works",
    "final_address": "1702 Prytania St",
    "address_councildis": "B",
    "status": "Pending",
    "rowid": "1293947",
    "final_x": "3679334.8388",
    "final_y": "524685.44838",
    "longitude": "-90.07514409141615",
    "latitude": "29.93676850873255",
    "geocoded_column": {
      "latitude": "29.93676850873255",
      "longitude": "-90.07514409141615"
    }
  },
  {
    "service_request": "2026-1293946",
    "request_type": "Abandoned Vehicles",
    "request_reason": "Vehicle Blocking Your Driveway",
    "date_created": "2026-06-24T20:53:33.000",
    "date_modified": "2026-06-24T20:53:36.000",
    "request_status": "Pending",
    "responsible_agency": "Department of Public Works",
    "final_address": "4800 N Roman St, New Orleans, Louisiana, 70117",
    "status": "Pending",
    "rowid": "1293946",
    "longitude": "0.0",
    "latitude": "0.0",
    "geocoded_column": {
      "latitude": "0.0",
      "longitude": "0.0"
    }
  },
  {
    "service_request": "2026-1293945",
    "request_type": "Street and Traffic Signs",
    "request_reason": "Street Name Sign Damaged or Missing",
    "date_created": "2026-06-24T20:40:47.000",
    "date_modified": "2026-06-24T20:40:49.000",
    "request_status": "Pending",
    "responsible_agency": "Department of Public Works",
    "final_address": "2137 Lapeyrouse St",
    "address_councildis": "D",
    "status": "Pending",
    "rowid": "1293945",
    "final_x": "3680570.55445",
    "final_y": "539099.045706",
    "longitude": "-90.07074147111123",
    "latitude": "29.976363651118422",
    "geocoded_column": {
      "latitude": "29.976363651118422",
      "longitude": "-90.07074147111123"
    }
  },
  {
    "service_request": "2026-1293944",
    "request_type": "Trash/Recycling",
    "request_reason": "Illegal Dumping",
    "date_created": "2026-06-24T20:28:34.000",
    "date_modified": "2026-06-24T20:28:37.000",
    "request_status": "Pending",
    "responsible_agency": "Department of Sanitation",
    "final_address": "15510 Dwyer Blvd",
    "address_councildis": "E",
    "status": "Pending",
    "rowid": "1293944",
    "final_x": "3730925.67962",
    "final_y": "563688.651233",
    "longitude": "-89.91074329848843",
    "latitude": "30.042353362796096",
    "geocoded_column": {
      "latitude": "30.042353362796096",
      "longitude": "-89.91074329848843"
    }
  },
  {
    "service_request": "2026-1293943",
    "request_type": "Trash/Recycling",
    "request_reason": "Return Recycling Cart",
    "date_created": "2026-06-24T20:25:40.000",
    "date_modified": "2026-06-24T20:25:42.000",
    "request_status": "Pending",
    "responsible_agency": "Department of Sanitation",
    "final_address": "2025 Harmony St",
    "address_councildis": "B",
    "status": "Pending",
    "rowid": "1293943",
    "final_x": "3674159.69211",
    "final_y": "523270.069819",
    "longitude": "-90.09153072647374",
    "latitude": "29.93303191546082",
    "geocoded_column": {
      "latitude": "29.93303191546082",
      "longitude": "-90.09153072647374"
    }
  },
  {
    "service_request": "2026-1293942",
    "request_type": "Trash/Recycling",
    "request_reason": "Illegal Dumping",
    "date_created": "2026-06-24T20:24:38.000",
    "date_modified": "2026-06-24T20:24:40.000",
    "request_status": "Pending",
    "responsible_agency": "Department of Sanitation",
    "final_address": "15510 Dwyer Blvd",
    "address_councildis": "E",
    "status": "Pending",
    "rowid": "1293942",
    "final_x": "3730925.67962",
    "final_y": "563688.651233",
    "longitude": "-89.91074329848843",
    "latitude": "30.042353362796096",
    "geocoded_column": {
      "latitude": "30.042353362796096",
      "longitude": "-89.91074329848843"
    }
  },
  {
    "service_request": "2026-1293941",
    "request_type": "Trash/Recycling",
    "request_reason": "Request a Large Item Pick Up",
    "date_created": "2026-06-24T20:19:56.000",
    "date_modified": "2026-06-24T20:19:57.000",
    "request_status": "Pending",
    "responsible_agency": "Department of Sanitation",
    "final_address": "15520 Dwyer Blvd",
    "address_councildis": "E",
    "status": "Assigned to Contractor",
    "contractor": "Waste Pro",
    "rowid": "1293941",
    "final_x": "3730985.17587",
    "final_y": "563708.999265",
    "longitude": "-89.91055447174456",
    "latitude": "30.04240728018116",
    "geocoded_column": {
      "latitude": "30.04240728018116",
      "longitude": "-89.91055447174456"
    }
  },
  {
    "service_request": "2026-1293940",
    "request_type": "Trash/Recycling",
    "request_reason": "Request a Large Item Pick Up",
    "date_created": "2026-06-24T20:19:33.000",
    "date_modified": "2026-06-24T20:19:35.000",
    "request_status": "Pending",
    "responsible_agency": "Department of Sanitation",
    "final_address": "3008 Mandeville St",
    "address_councildis": "D",
    "status": "Assigned to Contractor",
    "contractor": "IV Waste",
    "rowid": "1293940",
    "final_x": "3685128.91817",
    "final_y": "543828.33627",
    "longitude": "-90.05617833317521",
    "latitude": "29.989228633647564",
    "geocoded_column": {
      "latitude": "29.989228633647564",
      "longitude": "-90.05617833317521"
    }
  },
  {
    "service_request": "2026-1293939",
    "request_type": "Trash/Recycling",
    "request_reason": "Replace Recycling Cart",
    "date_created": "2026-06-24T20:11:55.000",
    "date_modified": "2026-06-24T20:11:57.000",
    "request_status": "Pending",
    "responsible_agency": "Department of Sanitation",
    "final_address": "7719 Pearl St",
    "address_councildis": "A",
    "status": "Pending",
    "rowid": "1293939",
    "final_x": "3661322.75584",
    "final_y": "525685.491069",
    "longitude": "-90.1319762934953",
    "latitude": "29.940049854606897",
    "geocoded_column": {
      "latitude": "29.940049854606897",
      "longitude": "-90.1319762934953"
    }
  },
  {
    "service_request": "2026-1293938",
    "request_type": "Street and Traffic Signs",
    "request_reason": "Street Name Sign Damaged or Missing",
    "date_created": "2026-06-24T20:01:22.000",
    "date_modified": "2026-06-24T20:01:24.000",
    "request_status": "Pending",
    "responsible_agency": "Department of Public Works",
    "final_address": "HOLLYGROVE ST & S CLAIBORNE AVE",
    "address_councildis": "A",
    "status": "Pending",
    "rowid": "1293938",
    "final_x": "3662458.9",
    "final_y": "533642.28",
    "longitude": "-90.12812507306833",
    "latitude": "29.961895660803535",
    "geocoded_column": {
      "latitude": "29.961895660803535",
      "longitude": "-90.12812507306833"
    }
  },
  {
    "service_request": "2026-1293937",
    "request_type": "Street and Traffic Signs",
    "request_reason": "Street Name Sign Damaged or Missing",
    "date_created": "2026-06-24T19:59:32.000",
    "date_modified": "2026-06-24T19:59:34.000",
    "request_status": "Pending",
    "responsible_agency": "Department of Public Works",
    "final_address": "S CLAIBORNE AVE & HAMILTON ST",
    "address_councildis": "A",
    "status": "Pending",
    "rowid": "1293937",
    "final_x": "3662273.0",
    "final_y": "533953.98",
    "longitude": "-90.12870177087791",
    "latitude": "29.962758109343714",
    "geocoded_column": {
      "latitude": "29.962758109343714",
      "longitude": "-90.12870177087791"
    }
  },
  {
    "service_request": "2026-1293936",
    "request_type": "Trash/Recycling",
    "request_reason": "Return Recycling Cart",
    "date_created": "2026-06-24T19:57:55.000",
    "date_modified": "2026-06-24T19:58:04.000",
    "request_status": "Pending",
    "responsible_agency": "Department of Sanitation",
    "final_address": "2012 Third St",
    "address_councildis": "B",
    "status": "Pending",
    "rowid": "1293936",
    "final_x": "3675544.32225",
    "final_y": "524164.835068",
    "longitude": "-90.08712882095386",
    "latitude": "29.935450894103326",
    "geocoded_column": {
      "latitude": "29.935450894103326",
      "longitude": "-90.08712882095386"
    }
  },
  {
    "service_request": "2026-1293935",
    "request_type": "Trash/Recycling",
    "request_reason": "Request a Large Item Pick Up",
    "date_created": "2026-06-24T19:50:49.000",
    "date_modified": "2026-06-24T19:50:51.000",
    "request_status": "Pending",
    "responsible_agency": "Department of Sanitation",
    "final_address": "1028 Fourth St",
    "address_councildis": "B",
    "status": "Assigned to Contractor",
    "contractor": "IV Waste",
    "rowid": "1293935",
    "final_x": "3677358.20514",
    "final_y": "520877.215353",
    "longitude": "-90.08151576869176",
    "latitude": "29.926356644097172",
    "geocoded_column": {
      "latitude": "29.926356644097172",
      "longitude": "-90.08151576869176"
    }
  },
  {
    "service_request": "2026-1293934",
    "request_type": "Parks & Grass Service",
    "request_reason": "Request Grass Cutting Service (City Owned Property)",
    "date_created": "2026-06-24T19:38:37.000",
    "date_modified": "2026-06-24T19:38:40.000",
    "request_status": "Pending",
    "responsible_agency": "Department of Parks & Parkways",
    "final_address": "4901 Piety Dr",
    "address_councildis": "D",
    "status": "Pending",
    "rowid": "1293934",
    "final_x": "3691531.2383",
    "final_y": "551871.81871",
    "longitude": "-90.03566761861497",
    "latitude": "30.01114750101827",
    "geocoded_column": {
      "latitude": "30.01114750101827",
      "longitude": "-90.03566761861497"
    }
  },
  {
    "service_request": "2026-1293933",
    "request_type": "Trash/Recycling",
    "request_reason": "Request a Large Item Pick Up",
    "date_created": "2026-06-24T19:26:54.000",
    "date_modified": "2026-06-24T19:26:57.000",
    "request_status": "Pending",
    "responsible_agency": "Department of Sanitation",
    "final_address": "10923 Chaucer St",
    "address_councildis": "E",
    "status": "Assigned to Contractor",
    "contractor": "Waste Pro",
    "rowid": "1293933",
    "final_x": "3712713.05906",
    "final_y": "561901.340127",
    "longitude": "-89.96836897450633",
    "latitude": "30.03804812499919",
    "geocoded_column": {
      "latitude": "30.03804812499919",
      "longitude": "-89.96836897450633"
    }
  },
  {
    "service_request": "2026-1293932",
    "request_type": "General Services",
    "request_reason": "General Service Request",
    "date_created": "2026-06-24T19:21:49.000",
    "date_modified": "2026-06-24T19:21:50.000",
    "request_status": "Pending",
    "responsible_agency": "Orleans Parish Communication District",
    "final_address": "2613 Tennessee St",
    "address_councildis": "E",
    "status": "Pending",
    "rowid": "1293932",
    "final_x": "3697332.34019",
    "final_y": "540068.149963",
    "longitude": "-90.01776787231418",
    "latitude": "29.978509839523475",
    "geocoded_column": {
      "latitude": "29.978509839523475",
      "longitude": "-90.01776787231418"
    }
  },
  {
    "service_request": "2026-1293931",
    "request_type": "Alley Ways",
    "request_reason": "Alley Way Issues",
    "date_created": "2026-06-24T19:17:11.000",
    "date_modified": "2026-06-24T19:17:13.000",
    "request_status": "Pending",
    "responsible_agency": "Department of Public Works",
    "final_address": "5110 Press Dr",
    "address_councildis": "D",
    "status": "Pending",
    "rowid": "1293931",
    "final_x": "3689290.60713",
    "final_y": "552190.397078",
    "longitude": "-90.04273531408613",
    "latitude": "30.012093056339886",
    "geocoded_column": {
      "latitude": "30.012093056339886",
      "longitude": "-90.04273531408613"
    }
  },
  {
    "service_request": "2026-1293930",
    "request_type": "Alley Ways",
    "request_reason": "Alley Way Issues",
    "date_created": "2026-06-24T19:13:38.000",
    "date_modified": "2026-06-24T19:13:40.000",
    "request_status": "Pending",
    "responsible_agency": "Department of Public Works",
    "final_address": "5110 Press Dr",
    "address_councildis": "D",
    "status": "Pending",
    "rowid": "1293930",
    "final_x": "3689290.60713",
    "final_y": "552190.397078",
    "longitude": "-90.04273531408613",
    "latitude": "30.012093056339886",
    "geocoded_column": {
      "latitude": "30.012093056339886",
      "longitude": "-90.04273531408613"
    }
  },
  {
    "service_request": "2026-1293929",
    "request_type": "Road Striping",
    "request_reason": "Lane Striping or other Pavement Markings",
    "date_created": "2026-06-24T19:09:53.000",
    "date_modified": "2026-06-24T19:09:55.000",
    "request_status": "Pending",
    "responsible_agency": "Department of Public Works",
    "final_address": "1 Almonaster Ave",
    "address_councildis": "D",
    "status": "Pending",
    "rowid": "1293929",
    "final_x": "3688053.015",
    "final_y": "540761.172875",
    "longitude": "-90.04705074841057",
    "latitude": "29.98070508640901",
    "geocoded_column": {
      "latitude": "29.98070508640901",
      "longitude": "-90.04705074841057"
    }
  },
  {
    "service_request": "2026-1293928",
    "request_type": "Trash/Recycling",
    "request_reason": "Request a Large Item Pick Up",
    "date_created": "2026-06-24T19:08:17.000",
    "date_modified": "2026-06-24T19:08:19.000",
    "request_status": "Pending",
    "responsible_agency": "Department of Sanitation",
    "final_address": "1005 Gordon St",
    "address_councildis": "E",
    "status": "Assigned to Contractor",
    "contractor": "Waste Pro",
    "rowid": "1293928",
    "final_x": "3699047.69616",
    "final_y": "533077.458564",
    "longitude": "-90.01260467010422",
    "latitude": "29.959233685733825",
    "geocoded_column": {
      "latitude": "29.959233685733825",
      "longitude": "-90.01260467010422"
    }
  },
  {
    "service_request": "2026-1293927",
    "request_type": "Trash/Recycling",
    "request_reason": "Request a Large Item Pick Up",
    "date_created": "2026-06-24T19:04:28.000",
    "date_modified": "2026-06-24T19:04:30.000",
    "request_status": "Pending",
    "responsible_agency": "Department of Sanitation",
    "final_address": "2147 Carnot St",
    "address_councildis": "D",
    "status": "Assigned to Contractor",
    "contractor": "IV Waste",
    "rowid": "1293927",
    "final_x": "3683541.35951",
    "final_y": "549940.04866",
    "longitude": "-90.06097859392806",
    "latitude": "30.00608221578773",
    "geocoded_column": {
      "latitude": "30.00608221578773",
      "longitude": "-90.06097859392806"
    }
  },
  {
    "service_request": "2026-1293926",
    "request_type": "Trash/Recycling",
    "request_reason": "Damaged Caused By Contractor",
    "date_created": "2026-06-24T18:56:12.000",
    "date_modified": "2026-06-24T18:56:14.000",
    "request_status": "Pending",
    "responsible_agency": "Department of Sanitation",
    "final_address": "3129 Magazine St",
    "address_councildis": "B",
    "status": "Assigned to Contractor",
    "contractor": "IV Waste",
    "rowid": "1293926",
    "final_x": "3675879.67022",
    "final_y": "520099.755448",
    "longitude": "-90.08620980300192",
    "latitude": "29.924263212868755",
    "geocoded_column": {
      "latitude": "29.924263212868755",
      "longitude": "-90.08620980300192"
    }
  },
  {
    "service_request": "2026-1293925",
    "request_type": "Property Maintenance",
    "request_reason": "Property Maintenance",
    "date_created": "2026-06-24T18:50:23.000",
    "date_modified": "2026-06-24T18:50:26.000",
    "request_status": "Pending",
    "responsible_agency": "Department of Code Enforcement",
    "final_address": "6932 Boston Dr",
    "address_councildis": "E",
    "status": "Pending",
    "rowid": "1293925",
    "final_x": "3706548.31063",
    "final_y": "560325.351197",
    "longitude": "-89.9879094596238",
    "latitude": "30.033915258619324",
    "geocoded_column": {
      "latitude": "30.033915258619324",
      "longitude": "-89.9879094596238"
    }
  },
  {
    "service_request": "2026-1293924",
    "request_type": "Health Related Request",
    "request_reason": "Noise Ordinance Complaint",
    "date_created": "2026-06-24T18:36:41.000",
    "date_modified": "2026-06-24T18:36:44.000",
    "request_status": "Pending",
    "responsible_agency": "Health Department",
    "final_address": "1429 Elysian Fields Ave",
    "address_councildis": "C",
    "status": "Pending",
    "rowid": "1293924",
    "final_x": "3685005.24732",
    "final_y": "537663.329224",
    "longitude": "-90.05678592050026",
    "latitude": "29.972280823917412",
    "geocoded_column": {
      "latitude": "29.972280823917412",
      "longitude": "-90.05678592050026"
    }
  },
  {
    "service_request": "2026-1293923",
    "request_type": "Mosquito, Termite & Rodent Control",
    "request_reason": "Mosquito Complaint",
    "date_created": "2026-06-24T18:25:16.000",
    "date_modified": "2026-06-24T18:25:17.000",
    "request_status": "Pending",
    "responsible_agency": "Mosquito, Termite & Rodent Control Board",
    "final_address": "2518 N Rampart St",
    "address_councildis": "C",
    "status": "Pending",
    "rowid": "1293923",
    "final_x": "3686698.81244",
    "final_y": "536042.087815",
    "longitude": "-90.05149464288847",
    "latitude": "29.967770988203572",
    "geocoded_column": {
      "latitude": "29.967770988203572",
      "longitude": "-90.05149464288847"
    }
  },
  {
    "service_request": "2026-1293922",
    "request_type": "Trash/Recycling",
    "request_reason": "Request a Large Item Pick Up",
    "date_created": "2026-06-24T18:22:23.000",
    "date_modified": "2026-06-24T18:22:30.000",
    "request_status": "Pending",
    "responsible_agency": "Department of Sanitation",
    "final_address": "4400 Lancelot Dr",
    "address_councildis": "E",
    "status": "Assigned to Contractor",
    "contractor": "Waste Pro",
    "rowid": "1293922",
    "final_x": "3707563.97854",
    "final_y": "553561.206295",
    "longitude": "-89.98495139090652",
    "latitude": "30.01528366853365",
    "geocoded_column": {
      "latitude": "30.01528366853365",
      "longitude": "-89.98495139090652"
    }
  },
  {
    "service_request": "2026-1293921",
    "request_type": "Property Maintenance",
    "request_reason": "Property Maintenance",
    "date_created": "2026-06-24T18:20:26.000",
    "date_modified": "2026-06-24T18:20:27.000",
    "request_status": "Pending",
    "responsible_agency": "Department of Code Enforcement",
    "final_address": "2517 Banks St",
    "address_councildis": "B",
    "status": "Pending",
    "rowid": "1293921",
    "final_x": "3675310.47067",
    "final_y": "533699.422085",
    "longitude": "-90.08753982776392",
    "latitude": "29.96167484058573",
    "geocoded_column": {
      "latitude": "29.96167484058573",
      "longitude": "-90.08753982776392"
    }
  },
  {
    "service_request": "2026-1293920",
    "request_type": "Trash/Recycling",
    "request_reason": "Replace Trash Cart",
    "date_created": "2026-06-24T18:16:32.000",
    "date_modified": "2026-06-24T18:16:33.000",
    "request_status": "Pending",
    "responsible_agency": "Department of Sanitation",
    "final_address": "5319 Constance St",
    "address_councildis": "B",
    "status": "Assigned to Contractor",
    "contractor": "IV Waste",
    "rowid": "1293920",
    "final_x": "3667281.60749",
    "final_y": "518333.232886",
    "longitude": "-90.11341035985879",
    "latitude": "29.919660348834636",
    "geocoded_column": {
      "latitude": "29.919660348834636",
      "longitude": "-90.11341035985879"
    }
  },
  {
    "service_request": "2026-1293919",
    "request_type": "Graffiti Removal",
    "request_reason": "Graffiti Removal",
    "date_created": "2026-06-24T18:14:10.000",
    "date_modified": "2026-06-24T18:14:12.000",
    "request_status": "Pending",
    "responsible_agency": "Department of Code Enforcement",
    "final_address": "822 N Rampart St Apt 201",
    "address_councildis": "C",
    "status": "Pending",
    "rowid": "1293919",
    "final_x": "3681778.38063",
    "final_y": "533757.261957",
    "longitude": "-90.06711323001295",
    "latitude": "29.96163893616549",
    "geocoded_column": {
      "latitude": "29.96163893616549",
      "longitude": "-90.06711323001295"
    }
  },
  {
    "service_request": "2026-1293918",
    "request_type": "Property Maintenance",
    "request_reason": "Property Maintenance",
    "date_created": "2026-06-24T18:13:43.000",
    "date_modified": "2026-06-24T18:13:45.000",
    "request_status": "Pending",
    "responsible_agency": "Department of Code Enforcement",
    "final_address": "1908 Dublin St",
    "address_councildis": "A",
    "status": "Pending",
    "rowid": "1293918",
    "final_x": "3663399.25632",
    "final_y": "530527.212034",
    "longitude": "-90.12525927381809",
    "latitude": "29.953303006724866",
    "geocoded_column": {
      "latitude": "29.953303006724866",
      "longitude": "-90.12525927381809"
    }
  },
  {
    "service_request": "2026-1293917",
    "request_type": "Property Maintenance",
    "request_reason": "Property Maintenance",
    "date_created": "2026-06-24T18:10:58.000",
    "date_modified": "2026-06-24T18:11:00.000",
    "request_status": "Pending",
    "responsible_agency": "Department of Code Enforcement",
    "final_address": "7512 Read Blvd",
    "address_councildis": "E",
    "status": "Pending",
    "rowid": "1293917",
    "final_x": "3708561.42206",
    "final_y": "564270.778401",
    "longitude": "-89.98140073330406",
    "latitude": "30.04469846670807",
    "geocoded_column": {
      "latitude": "30.04469846670807",
      "longitude": "-89.98140073330406"
    }
  },
  {
    "service_request": "2026-1293916",
    "request_type": "Mosquito, Termite & Rodent Control",
    "request_reason": "Rodent Complaint (Mice & Rats)",
    "date_created": "2026-06-24T18:07:01.000",
    "date_modified": "2026-06-24T18:07:03.000",
    "request_status": "Pending",
    "responsible_agency": "Mosquito, Termite & Rodent Control Board",
    "final_address": "7512 Read Blvd",
    "address_councildis": "E",
    "status": "Pending",
    "rowid": "1293916",
    "final_x": "3708561.42206",
    "final_y": "564270.778401",
    "longitude": "-89.98140073330406",
    "latitude": "30.04469846670807",
    "geocoded_column": {
      "latitude": "30.04469846670807",
      "longitude": "-89.98140073330406"
    }
  },
  {
    "service_request": "2026-1293915",
    "request_type": "Mosquito, Termite & Rodent Control",
    "request_reason": "Rodent Complaint (Mice & Rats)",
    "date_created": "2026-06-24T18:07:01.000",
    "date_modified": "2026-06-24T18:07:03.000",
    "request_status": "Pending",
    "responsible_agency": "Mosquito, Termite & Rodent Control Board",
    "final_address": "7512 Read Blvd",
    "address_councildis": "E",
    "status": "Pending",
    "rowid": "1293915",
    "final_x": "3708561.42206",
    "final_y": "564270.778401",
    "longitude": "-89.98140073330406",
    "latitude": "30.04469846670807",
    "geocoded_column": {
      "latitude": "30.04469846670807",
      "longitude": "-89.98140073330406"
    }
  },
  {
    "service_request": "2026-1293914",
    "request_type": "Mosquito, Termite & Rodent Control",
    "request_reason": "Rodent Complaint (Mice & Rats)",
    "date_created": "2026-06-24T18:07:01.000",
    "date_modified": "2026-06-24T18:07:03.000",
    "request_status": "Pending",
    "responsible_agency": "Mosquito, Termite & Rodent Control Board",
    "final_address": "7512 Read Blvd",
    "address_councildis": "E",
    "status": "Pending",
    "rowid": "1293914",
    "final_x": "3708561.42206",
    "final_y": "564270.778401",
    "longitude": "-89.98140073330406",
    "latitude": "30.04469846670807",
    "geocoded_column": {
      "latitude": "30.04469846670807",
      "longitude": "-89.98140073330406"
    }
  },
  {
    "service_request": "2026-1293913",
    "request_type": "Abandoned Vehicles",
    "request_reason": "Abandoned/Junk Vehicles",
    "date_created": "2026-06-24T17:57:45.000",
    "date_modified": "2026-06-24T17:57:46.000",
    "request_status": "Pending",
    "responsible_agency": "Department of Public Works",
    "final_address": "10941 Harrow Rd",
    "address_councildis": "E",
    "status": "Pending",
    "rowid": "1293913",
    "final_x": "3711686.98744",
    "final_y": "563934.942561",
    "longitude": "-89.97153520911975",
    "latitude": "30.04367328439858",
    "geocoded_column": {
      "latitude": "30.04367328439858",
      "longitude": "-89.97153520911975"
    }
  },
  {
    "service_request": "2026-1293912",
    "request_type": "Abandoned Vehicles",
    "request_reason": "Abandoned/Junk Vehicles",
    "date_created": "2026-06-24T17:55:49.000",
    "date_modified": "2026-06-24T17:55:51.000",
    "request_status": "Pending",
    "responsible_agency": "Department of Public Works",
    "final_address": "417 S Rendon St",
    "address_councildis": "B",
    "status": "Pending",
    "rowid": "1293912",
    "final_x": "3672708.14395",
    "final_y": "535366.557254",
    "longitude": "-90.09570070047269",
    "latitude": "29.966336444064666",
    "geocoded_column": {
      "latitude": "29.966336444064666",
      "longitude": "-90.09570070047269"
    }
  },
  {
    "service_request": "2026-1293911",
    "request_type": "Street and Traffic Signs",
    "request_reason": "Additional Signage Request",
    "date_created": "2026-06-24T17:48:50.000",
    "date_modified": "2026-06-24T17:48:52.000",
    "request_status": "Pending",
    "responsible_agency": "Department of Public Works",
    "final_address": "21135 Chef Menteur Hwy",
    "address_councildis": "E",
    "status": "Pending",
    "rowid": "1293911",
    "final_x": "3765454.31888",
    "final_y": "574701.902955",
    "longitude": "-89.80115705151728",
    "latitude": "30.071410828363792",
    "geocoded_column": {
      "latitude": "30.071410828363792",
      "longitude": "-89.80115705151728"
    }
  },
  {
    "service_request": "2026-1293910",
    "request_type": "Trash/Recycling",
    "request_reason": "MIssed Recycling Pick-Up",
    "date_created": "2026-06-24T17:44:29.000",
    "date_modified": "2026-06-24T17:50:22.000",
    "case_close_date": "2026-06-24T12:50:20.000",
    "request_status": "Closed",
    "responsible_agency": "Department of Sanitation",
    "final_address": "4516 Freret St",
    "address_councildis": "B",
    "status": "Invalid Request",
    "contractor": "IV Waste",
    "contractor_action": "Invalid Request",
    "rowid": "1293910",
    "final_x": "3669970.10606",
    "final_y": "523956.404988",
    "longitude": "-90.10473375781446",
    "latitude": "29.935043299317307",
    "geocoded_column": {
      "latitude": "29.935043299317307",
      "longitude": "-90.10473375781446"
    }
  },
  {
    "service_request": "2026-1293909",
    "request_type": "Property Maintenance",
    "request_reason": "Property Maintenance",
    "date_created": "2026-06-24T17:43:15.000",
    "date_modified": "2026-06-24T17:43:16.000",
    "request_status": "Pending",
    "responsible_agency": "Department of Code Enforcement",
    "final_address": "2407 Clouet St",
    "address_councildis": "D",
    "status": "Pending",
    "rowid": "1293909",
    "final_x": "3690284.7798",
    "final_y": "540950.329483",
    "longitude": "-90.03999513873364",
    "latitude": "29.98115612375926",
    "geocoded_column": {
      "latitude": "29.98115612375926",
      "longitude": "-90.03999513873364"
    }
  },
  {
    "service_request": "2026-1293908",
    "request_type": "Trash/Recycling",
    "request_reason": "Repair Trash Cart",
    "date_created": "2026-06-24T17:42:34.000",
    "date_modified": "2026-06-24T17:42:36.000",
    "request_status": "Pending",
    "responsible_agency": "Department of Sanitation",
    "final_address": "12 Sullivan Pl",
    "address_councildis": "C",
    "status": "Assigned to Contractor",
    "contractor": "Richards Disposal",
    "rowid": "1293908",
    "final_x": "3702104.90647",
    "final_y": "522167.200442",
    "longitude": "-90.00335069226068",
    "latitude": "29.929137074452402",
    "geocoded_column": {
      "latitude": "29.929137074452402",
      "longitude": "-90.00335069226068"
    }
  },
  {
    "service_request": "2026-1293907",
    "request_type": "Tree Service",
    "request_reason": "Blocking Stop Sign or Traffic Signal",
    "date_created": "2026-06-24T17:41:40.000",
    "date_modified": "2026-06-24T17:41:41.000",
    "request_status": "Pending",
    "responsible_agency": "Department of Parks & Parkways",
    "final_address": "3100 St Claude Ave",
    "address_councildis": "C",
    "status": "Pending",
    "rowid": "1293907",
    "final_x": "3689050.25398",
    "final_y": "535959.463239",
    "longitude": "-90.04407168212794",
    "latitude": "29.967471259498",
    "geocoded_column": {
      "latitude": "29.967471259498",
      "longitude": "-90.04407168212794"
    }
  },
  {
    "service_request": "2026-1293906",
    "request_type": "Trash/Recycling",
    "request_reason": "Return Trash Cart",
    "date_created": "2026-06-24T17:39:21.000",
    "date_modified": "2026-06-24T17:39:23.000",
    "request_status": "Pending",
    "responsible_agency": "Department of Sanitation",
    "final_address": "4720 Prytania St",
    "address_councildis": "B",
    "status": "Assigned to Contractor",
    "contractor": "IV Waste",
    "rowid": "1293906",
    "final_x": "3669597.0011",
    "final_y": "520139.923384",
    "longitude": "-90.10604070185525",
    "latitude": "29.92456018994522",
    "geocoded_column": {
      "latitude": "29.92456018994522",
      "longitude": "-90.10604070185525"
    }
  },
  {
    "service_request": "2026-1293905",
    "request_type": "Drainage",
    "request_reason": "Ditch and Culvert Maintenance",
    "date_created": "2026-06-24T17:34:48.000",
    "date_modified": "2026-06-24T17:34:51.000",
    "request_status": "Pending",
    "responsible_agency": "Department of Public Works",
    "final_address": "6052 Shetland Dr",
    "address_councildis": "C",
    "status": "Pending",
    "rowid": "1293905",
    "final_x": "3705455.23972",
    "final_y": "520490.569528",
    "longitude": "-89.99283634571478",
    "latitude": "29.924419571920094",
    "geocoded_column": {
      "latitude": "29.924419571920094",
      "longitude": "-89.99283634571478"
    }
  },
  {
    "service_request": "2026-1293904",
    "request_type": "Trash/Recycling",
    "request_reason": "Request a Large Item Pick Up",
    "date_created": "2026-06-24T17:24:53.000",
    "date_modified": "2026-06-24T17:24:55.000",
    "request_status": "Pending",
    "responsible_agency": "Department of Sanitation",
    "final_address": "7401 Crestmont Rd",
    "address_councildis": "E",
    "status": "Assigned to Contractor",
    "contractor": "Waste Pro",
    "rowid": "1293904",
    "final_x": "3700001.74794",
    "final_y": "559634.687453",
    "longitude": "-90.00862250317479",
    "latitude": "30.03222593518999",
    "geocoded_column": {
      "latitude": "30.03222593518999",
      "longitude": "-90.00862250317479"
    }
  },
  {
    "service_request": "2026-1293903",
    "request_type": "Trash/Recycling",
    "request_reason": "MIssed Recycling Pick-Up",
    "date_created": "2026-06-24T17:19:30.000",
    "date_modified": "2026-06-24T17:19:33.000",
    "request_status": "Pending",
    "responsible_agency": "Department of Sanitation",
    "final_address": "7704 S Interstate 10 Service Rd",
    "address_councildis": "E",
    "status": "Assigned to Contractor",
    "contractor": "Waste Pro",
    "rowid": "1293903",
    "final_x": "3702383.36023",
    "final_y": "557854.588059",
    "longitude": "-90.00116189660335",
    "latitude": "30.02725542917181",
    "geocoded_column": {
      "latitude": "30.02725542917181",
      "longitude": "-90.00116189660335"
    }
  },
  {
    "service_request": "2026-1293902",
    "request_type": "Trash/Recycling",
    "request_reason": "Order Second Trash Cart",
    "date_created": "2026-06-24T17:16:42.000",
    "date_modified": "2026-06-24T17:16:43.000",
    "request_status": "Pending",
    "responsible_agency": "Department of Sanitation",
    "final_address": "7151 Whitmore Pl",
    "address_councildis": "E",
    "status": "Assigned to Contractor",
    "contractor": "Waste Pro",
    "rowid": "1293902",
    "final_x": "3718675.74015",
    "final_y": "569775.889702",
    "longitude": "-89.9492250220578",
    "latitude": "30.05950324723422",
    "geocoded_column": {
      "latitude": "30.05950324723422",
      "longitude": "-89.9492250220578"
    }
  },
  {
    "service_request": "2026-1293901",
    "request_type": "Trash/Recycling",
    "request_reason": "MIssed Recycling Pick-Up",
    "date_created": "2026-06-24T17:11:41.000",
    "date_modified": "2026-06-24T17:11:44.000",
    "request_status": "Pending",
    "responsible_agency": "Department of Sanitation",
    "final_address": "7704 S Interstate 10 Service Rd",
    "address_councildis": "E",
    "status": "Assigned to Contractor",
    "contractor": "Waste Pro",
    "rowid": "1293901",
    "final_x": "3702383.36023",
    "final_y": "557854.588059",
    "longitude": "-90.00116189660335",
    "latitude": "30.02725542917181",
    "geocoded_column": {
      "latitude": "30.02725542917181",
      "longitude": "-90.00116189660335"
    }
  },
  {
    "service_request": "2026-1293900",
    "request_type": "Abandoned Vehicles",
    "request_reason": "Abandoned/Junk Vehicles",
    "date_created": "2026-06-24T17:06:41.000",
    "date_modified": "2026-06-24T17:06:43.000",
    "request_status": "Pending",
    "responsible_agency": "Department of Public Works",
    "final_address": "1714 Bartholomew St",
    "address_councildis": "D",
    "status": "Pending",
    "rowid": "1293900",
    "final_x": "3692367.74838",
    "final_y": "537727.059336",
    "longitude": "-90.03353169335388",
    "latitude": "29.972228468924126",
    "geocoded_column": {
      "latitude": "29.972228468924126",
      "longitude": "-90.03353169335388"
    }
  },
  {
    "service_request": "2026-1293899",
    "request_type": "Trash/Recycling",
    "request_reason": "Request a Large Item Pick Up",
    "date_created": "2026-06-24T17:05:43.000",
    "date_modified": "2026-06-24T17:05:45.000",
    "request_status": "Pending",
    "responsible_agency": "Department of Sanitation",
    "final_address": "141 26Th St",
    "address_councildis": "A",
    "status": "Assigned to Contractor",
    "contractor": "IV Waste",
    "rowid": "1293899",
    "final_x": "3665889.99533",
    "final_y": "549944.994836",
    "longitude": "-90.11674357062894",
    "latitude": "30.00662294361968",
    "geocoded_column": {
      "latitude": "30.00662294361968",
      "longitude": "-90.11674357062894"
    }
  },
  {
    "service_request": "2026-1293898",
    "request_type": "Tree Service",
    "request_reason": "Street or Sidewalk Blocked",
    "date_created": "2026-06-24T17:03:56.000",
    "date_modified": "2026-06-24T17:03:57.000",
    "request_status": "Pending",
    "responsible_agency": "Department of Parks & Parkways",
    "final_address": "1440 Newton St",
    "address_councildis": "C",
    "status": "Pending",
    "rowid": "1293898",
    "final_x": "3689956.64726",
    "final_y": "527924.691391",
    "longitude": "-90.04149535399564",
    "latitude": "29.945350348415865",
    "geocoded_column": {
      "latitude": "29.945350348415865",
      "longitude": "-90.04149535399564"
    }
  },
  {
    "service_request": "2026-1293897",
    "request_type": "Trash/Recycling",
    "request_reason": "Request a Large Item Pick Up",
    "date_created": "2026-06-24T16:56:56.000",
    "date_modified": "2026-06-24T16:56:59.000",
    "request_status": "Pending",
    "responsible_agency": "Department of Sanitation",
    "final_address": "2223 Mithra St",
    "address_councildis": "D",
    "status": "Assigned to Contractor",
    "contractor": "IV Waste",
    "rowid": "1293897",
    "final_x": "3683953.81116",
    "final_y": "552731.843094",
    "longitude": "-90.0595775159338",
    "latitude": "30.01374603681611",
    "geocoded_column": {
      "latitude": "30.01374603681611",
      "longitude": "-90.0595775159338"
    }
  },
  {
    "service_request": "2026-1293896",
    "request_type": "Parks & Grass Service",
    "request_reason": "Request Grass Cutting Service (City Owned Property)",
    "date_created": "2026-06-24T16:53:40.000",
    "date_modified": "2026-06-24T16:53:42.000",
    "request_status": "Pending",
    "responsible_agency": "Department of Parks & Parkways",
    "final_address": "5220 Camp St",
    "address_councildis": "B",
    "status": "Pending",
    "rowid": "1293896",
    "final_x": "3667865.86202",
    "final_y": "518903.204343",
    "longitude": "-90.11154696678571",
    "latitude": "29.921210474109266",
    "geocoded_column": {
      "latitude": "29.921210474109266",
      "longitude": "-90.11154696678571"
    }
  },
  {
    "service_request": "2026-1293895",
    "request_type": "Trash/Recycling",
    "request_reason": "Request a Large Item Pick Up",
    "date_created": "2026-06-24T16:52:56.000",
    "date_modified": "2026-06-24T16:52:58.000",
    "request_status": "Pending",
    "responsible_agency": "Department of Sanitation",
    "final_address": "1419 Forstall St",
    "address_councildis": "E",
    "status": "Assigned to Contractor",
    "contractor": "Waste Pro",
    "rowid": "1293895",
    "final_x": "3696685.21175",
    "final_y": "535441.56775",
    "longitude": "-90.01997921778296",
    "latitude": "29.965808810829003",
    "geocoded_column": {
      "latitude": "29.965808810829003",
      "longitude": "-90.01997921778296"
    }
  },
  {
    "service_request": "2026-1293894",
    "request_type": "Trash/Recycling",
    "request_reason": "Replace Trash Cart",
    "date_created": "2026-06-24T16:51:45.000",
    "date_modified": "2026-06-24T16:51:47.000",
    "request_status": "Pending",
    "responsible_agency": "Department of Sanitation",
    "final_address": "1922 S Rendon St",
    "address_councildis": "B",
    "status": "Assigned to Contractor",
    "contractor": "IV Waste",
    "rowid": "1293894",
    "final_x": "3669305.94439",
    "final_y": "530037.218753",
    "longitude": "-90.1066249982208",
    "latitude": "29.95178312864123",
    "geocoded_column": {
      "latitude": "29.95178312864123",
      "longitude": "-90.1066249982208"
    }
  },
  {
    "service_request": "2026-1293893",
    "request_type": "Trash/Recycling",
    "request_reason": "Order Trash Cart",
    "date_created": "2026-06-24T16:50:01.000",
    "date_modified": "2026-06-24T16:50:02.000",
    "request_status": "Pending",
    "responsible_agency": "Department of Sanitation",
    "final_address": "7600 Adventure Ave",
    "address_councildis": "E",
    "status": "Assigned to Contractor",
    "contractor": "Waste Pro",
    "rowid": "1293893",
    "final_x": "3725541.6304",
    "final_y": "570549.477351",
    "longitude": "-89.9274927158791",
    "latitude": "30.061400457185247",
    "geocoded_column": {
      "latitude": "30.061400457185247",
      "longitude": "-89.9274927158791"
    }
  },
  {
    "service_request": "2026-1293892",
    "request_type": "Trash/Recycling",
    "request_reason": "Replace Trash Cart",
    "date_created": "2026-06-24T16:48:17.000",
    "date_modified": "2026-06-24T16:48:19.000",
    "request_status": "Pending",
    "responsible_agency": "Department of Sanitation",
    "final_address": "5468 Dayna Ct",
    "address_councildis": "A",
    "status": "Assigned to Contractor",
    "contractor": "IV Waste",
    "rowid": "1293892",
    "final_x": "3664247.14055",
    "final_y": "543745.077262",
    "longitude": "-90.12214083975994",
    "latitude": "29.989623150612854",
    "geocoded_column": {
      "latitude": "29.989623150612854",
      "longitude": "-90.12214083975994"
    }
  },
  {
    "service_request": "2026-1293891",
    "request_type": "Streetlights",
    "request_reason": "Streetlight Outage/Malfunction",
    "date_created": "2026-06-24T16:46:51.000",
    "date_modified": "2026-06-24T16:46:53.000",
    "request_status": "Pending",
    "responsible_agency": "Department of Public Works",
    "final_address": "7712 Swift St",
    "address_councildis": "E",
    "status": "Pending",
    "rowid": "1293891",
    "final_x": "3695307.41891",
    "final_y": "559023.41366",
    "longitude": "-90.02347891752457",
    "latitude": "30.03069355634748",
    "geocoded_column": {
      "latitude": "30.03069355634748",
      "longitude": "-90.02347891752457"
    }
  },
  {
    "service_request": "2026-1293890",
    "request_type": "Abandoned Vehicles",
    "request_reason": "Abandoned/Junk Vehicles",
    "date_created": "2026-06-24T16:43:08.000",
    "date_modified": "2026-06-24T16:43:10.000",
    "request_status": "Pending",
    "responsible_agency": "Department of Public Works",
    "final_address": "654 Aurora Oaks Dr",
    "address_councildis": "C",
    "status": "Pending",
    "rowid": "1293890",
    "final_x": "3701297.68657",
    "final_y": "520276.139576",
    "longitude": "-90.00596806571446",
    "latitude": "29.923963048231045",
    "geocoded_column": {
      "latitude": "29.923963048231045",
      "longitude": "-90.00596806571446"
    }
  },
  {
    "service_request": "2026-1293889",
    "request_type": "Trash/Recycling",
    "request_reason": "Replace Trash Cart",
    "date_created": "2026-06-24T16:42:59.000",
    "date_modified": "2026-06-24T16:43:01.000",
    "request_status": "Pending",
    "responsible_agency": "Department of Sanitation",
    "final_address": "7941 Devine Ave",
    "address_councildis": "E",
    "status": "Assigned to Contractor",
    "contractor": "Waste Pro",
    "rowid": "1293889",
    "final_x": "3705165.00081",
    "final_y": "564101.731873",
    "longitude": "-89.99214116981864",
    "latitude": "30.044343404004003",
    "geocoded_column": {
      "latitude": "30.044343404004003",
      "longitude": "-89.99214116981864"
    }
  },
  {
    "service_request": "2026-1293888",
    "request_type": "Trash/Recycling",
    "request_reason": "Request a Large Item Pick Up",
    "date_created": "2026-06-24T16:40:58.000",
    "date_modified": "2026-06-24T16:41:00.000",
    "request_status": "Pending",
    "responsible_agency": "Department of Sanitation",
    "final_address": "5432 Douglass St",
    "address_councildis": "E",
    "status": "Assigned to Contractor",
    "contractor": "Waste Pro",
    "rowid": "1293888",
    "final_x": "3696835.45917",
    "final_y": "531717.414275",
    "longitude": "-90.0196395795817",
    "latitude": "29.95556397163048",
    "geocoded_column": {
      "latitude": "29.95556397163048",
      "longitude": "-90.0196395795817"
    }
  },
  {
    "service_request": "2026-1293887",
    "request_type": "Trash/Recycling",
    "request_reason": "Request a Large Item Pick Up",
    "date_created": "2026-06-24T16:40:20.000",
    "date_modified": "2026-06-24T16:45:01.000",
    "request_status": "Pending",
    "responsible_agency": "Department of Sanitation",
    "final_address": "432 Country Club Dr",
    "address_councildis": "A",
    "status": "Pending",
    "contractor": "IV Waste",
    "rowid": "1293887",
    "final_x": "3664160.71687",
    "final_y": "544266.165455",
    "longitude": "-90.12239643435693",
    "latitude": "29.991058478230965",
    "geocoded_column": {
      "latitude": "29.991058478230965",
      "longitude": "-90.12239643435693"
    }
  },
  {
    "service_request": "2026-1293886",
    "request_type": "Trash/Recycling",
    "request_reason": "Repair Trash Cart",
    "date_created": "2026-06-24T16:34:52.000",
    "date_modified": "2026-06-24T16:34:53.000",
    "request_status": "Pending",
    "responsible_agency": "Department of Sanitation",
    "final_address": "2611 Chelsea Dr",
    "address_councildis": "C",
    "status": "Assigned to Contractor",
    "contractor": "Richards Disposal",
    "rowid": "1293886",
    "final_x": "3704169.61482",
    "final_y": "521513.776121",
    "longitude": "-89.99685691815226",
    "latitude": "29.927274327557303",
    "geocoded_column": {
      "latitude": "29.927274327557303",
      "longitude": "-89.99685691815226"
    }
  },
  {
    "service_request": "2026-1293885",
    "request_type": "Trash/Recycling",
    "request_reason": "Order Recycling Cart",
    "date_created": "2026-06-24T16:32:26.000",
    "date_modified": "2026-06-24T16:32:28.000",
    "request_status": "Pending",
    "responsible_agency": "Department of Sanitation",
    "final_address": "2923 Amelia St",
    "address_councildis": "B",
    "status": "Pending",
    "rowid": "1293885",
    "final_x": "3671975.62004",
    "final_y": "525805.380925",
    "longitude": "-90.09833943695031",
    "latitude": "29.940068102912353",
    "geocoded_column": {
      "latitude": "29.940068102912353",
      "longitude": "-90.09833943695031"
    }
  },
  {
    "service_request": "2026-1293884",
    "request_type": "Trash/Recycling",
    "request_reason": "Repair Trash Cart",
    "date_created": "2026-06-24T16:31:57.000",
    "date_modified": "2026-06-24T16:31:59.000",
    "request_status": "Pending",
    "responsible_agency": "Department of Sanitation",
    "final_address": "4 Shepard Ct A",
    "address_councildis": "C",
    "status": "Assigned to Contractor",
    "contractor": "Richards Disposal",
    "rowid": "1293884",
    "final_x": "3692477.32854",
    "final_y": "524515.311548",
    "longitude": "-90.03365888829936",
    "latitude": "29.935897340358935",
    "geocoded_column": {
      "latitude": "29.935897340358935",
      "longitude": "-90.03365888829936"
    }
  },
  {
    "service_request": "2026-1293883",
    "request_type": "Trash/Recycling",
    "request_reason": "Request a Large Item Pick Up",
    "date_created": "2026-06-24T16:30:19.000",
    "date_modified": "2026-06-24T16:30:22.000",
    "request_status": "Pending",
    "responsible_agency": "Department of Sanitation",
    "final_address": "5011 N Roman St",
    "address_councildis": "E",
    "status": "Assigned to Contractor",
    "contractor": "Waste Pro",
    "rowid": "1293883",
    "final_x": "3696827.31779",
    "final_y": "536931.826824",
    "longitude": "-90.01947649161538",
    "latitude": "29.969902011898583",
    "geocoded_column": {
      "latitude": "29.969902011898583",
      "longitude": "-90.01947649161538"
    }
  },
  {
    "service_request": "2026-1293882",
    "request_type": "Trash/Recycling",
    "request_reason": "Return Recycling Cart",
    "date_created": "2026-06-24T16:27:03.000",
    "date_modified": "2026-06-24T16:27:04.000",
    "request_status": "Pending",
    "responsible_agency": "Department of Sanitation",
    "final_address": "1720 St Charles Ave",
    "address_councildis": "B",
    "status": "Pending",
    "rowid": "1293882",
    "final_x": "3678851.32475",
    "final_y": "524807.80582",
    "longitude": "-90.07666633188111",
    "latitude": "29.937119541078165",
    "geocoded_column": {
      "latitude": "29.937119541078165",
      "longitude": "-90.07666633188111"
    }
  },
  {
    "service_request": "2026-1293881",
    "request_type": "Trash/Recycling",
    "request_reason": "Replace Trash Cart",
    "date_created": "2026-06-24T16:24:08.000",
    "date_modified": "2026-06-24T16:24:10.000",
    "request_status": "Pending",
    "responsible_agency": "Department of Sanitation",
    "final_address": "10905 N Hardy St",
    "address_councildis": "E",
    "status": "Assigned to Contractor",
    "contractor": "Waste Pro",
    "rowid": "1293881",
    "final_x": "3712423.39058",
    "final_y": "562042.593567",
    "longitude": "-89.96927907684865",
    "latitude": "30.038446000109083",
    "geocoded_column": {
      "latitude": "30.038446000109083",
      "longitude": "-89.96927907684865"
    }
  },
  {
    "service_request": "2026-1293880",
    "request_type": "Trash/Recycling",
    "request_reason": "Missed Trash Pick-Up",
    "date_created": "2026-06-24T16:23:24.000",
    "date_modified": "2026-06-24T16:23:26.000",
    "request_status": "Pending",
    "responsible_agency": "Department of Sanitation",
    "final_address": "4700 Cardenas Dr",
    "address_councildis": "E",
    "status": "Assigned to Contractor",
    "contractor": "Waste Pro",
    "rowid": "1293880",
    "final_x": "3713644.22271",
    "final_y": "556044.230809",
    "longitude": "-89.965647228498",
    "latitude": "30.021912872819005",
    "geocoded_column": {
      "latitude": "30.021912872819005",
      "longitude": "-89.965647228498"
    }
  },
  {
    "service_request": "2026-1293879",
    "request_type": "Roads and Streets",
    "request_reason": "Street Subsidence (Sinking)",
    "date_created": "2026-06-24T16:22:27.000",
    "date_modified": "2026-06-24T16:22:30.000",
    "request_status": "Pending",
    "responsible_agency": "Sewerage & Water Board",
    "final_address": "1125 Saux Ln",
    "address_councildis": "C",
    "status": "Pending",
    "rowid": "1293879",
    "final_x": "3692691.09699",
    "final_y": "527070.569086",
    "longitude": "-90.03289246574256",
    "latitude": "29.942916754583162",
    "geocoded_column": {
      "latitude": "29.942916754583162",
      "longitude": "-90.03289246574256"
    }
  },
  {
    "service_request": "2026-1293878",
    "request_type": "Trash/Recycling",
    "request_reason": "Request a Large Item Pick Up",
    "date_created": "2026-06-24T16:21:35.000",
    "date_modified": "2026-06-24T16:21:37.000",
    "request_status": "Pending",
    "responsible_agency": "Department of Sanitation",
    "final_address": "4010 Sullen Pl",
    "address_councildis": "C",
    "status": "Assigned to Contractor",
    "contractor": "Richards Disposal",
    "rowid": "1293878",
    "final_x": "3707560.73342",
    "final_y": "516083.288756",
    "longitude": "-89.98635362700051",
    "latitude": "29.91223318608092",
    "geocoded_column": {
      "latitude": "29.91223318608092",
      "longitude": "-89.98635362700051"
    }
  },
  {
    "service_request": "2026-1293877",
    "request_type": "Trash/Recycling",
    "request_reason": "Illegal Dumping",
    "date_created": "2026-06-24T16:17:39.000",
    "date_modified": "2026-06-24T16:19:03.000",
    "request_status": "Pending",
    "responsible_agency": "Department of Sanitation",
    "final_address": "1808 Allen St",
    "address_councildis": "D",
    "status": "Pending",
    "rowid": "1293877",
    "final_x": "3682423.56706",
    "final_y": "538787.522761",
    "longitude": "-90.06489999797404",
    "latitude": "29.97545079830909",
    "geocoded_column": {
      "latitude": "29.97545079830909",
      "longitude": "-90.06489999797404"
    }
  },
  {
    "service_request": "2026-1293876",
    "request_type": "Trash/Recycling",
    "request_reason": "Replace Trash Cart",
    "date_created": "2026-06-24T16:17:10.000",
    "date_modified": "2026-06-24T16:17:12.000",
    "request_status": "Pending",
    "responsible_agency": "Department of Sanitation",
    "final_address": "6970 Louisville St",
    "address_councildis": "A",
    "status": "Assigned to Contractor",
    "contractor": "IV Waste",
    "rowid": "1293876",
    "final_x": "3668298.73518",
    "final_y": "553973.347864",
    "longitude": "-90.10899772965006",
    "latitude": "30.01762895831461",
    "geocoded_column": {
      "latitude": "30.01762895831461",
      "longitude": "-90.10899772965006"
    }
  },
  {
    "service_request": "2026-1293875",
    "request_type": "Trash/Recycling",
    "request_reason": "Request a Large Item Pick Up",
    "date_created": "2026-06-24T16:06:20.000",
    "date_modified": "2026-06-24T16:06:22.000",
    "request_status": "Pending",
    "responsible_agency": "Department of Sanitation",
    "final_address": "524 Valmont St",
    "address_councildis": "B",
    "status": "Assigned to Contractor",
    "contractor": "IV Waste",
    "rowid": "1293875",
    "final_x": "3667273.92807",
    "final_y": "517380.215477",
    "longitude": "-90.1134666256072",
    "latitude": "29.917040074771197",
    "geocoded_column": {
      "latitude": "29.917040074771197",
      "longitude": "-90.1134666256072"
    }
  },
  {
    "service_request": "2026-1293874",
    "request_type": "Trash/Recycling",
    "request_reason": "Request a Large Item Pick Up",
    "date_created": "2026-06-24T16:04:48.000",
    "date_modified": "2026-06-24T16:04:50.000",
    "request_status": "Pending",
    "responsible_agency": "Department of Sanitation",
    "final_address": "5019 Congress Dr",
    "address_councildis": "D",
    "status": "Assigned to Contractor",
    "contractor": "IV Waste",
    "rowid": "1293874",
    "final_x": "3692067.20259",
    "final_y": "552865.282071",
    "longitude": "-90.03393870510023",
    "latitude": "30.01386245578446",
    "geocoded_column": {
      "latitude": "30.01386245578446",
      "longitude": "-90.03393870510023"
    }
  },
  {
    "service_request": "2026-1293873",
    "request_type": "Roads and Streets",
    "request_reason": "Sidewalk Damaged or Missing",
    "date_created": "2026-06-24T16:01:49.000",
    "date_modified": "2026-06-24T16:01:51.000",
    "request_status": "Pending",
    "responsible_agency": "Department of Public Works",
    "final_address": "215 Liberty Terrace Dr",
    "address_councildis": "D",
    "status": "Pending",
    "rowid": "1293873",
    "final_x": "3689624.26211",
    "final_y": "545553.612432",
    "longitude": "-90.04191748151301",
    "latitude": "29.993833984143052",
    "geocoded_column": {
      "latitude": "29.993833984143052",
      "longitude": "-90.04191748151301"
    }
  },
  {
    "service_request": "2026-1293872",
    "request_type": "Streetlights",
    "request_reason": "Streetlight Outage/Malfunction",
    "date_created": "2026-06-24T16:00:15.000",
    "date_modified": "2026-06-24T16:00:17.000",
    "request_status": "Pending",
    "responsible_agency": "Department of Public Works",
    "final_address": "6354 Orleans Ave",
    "address_councildis": "A",
    "status": "Pending",
    "rowid": "1293872",
    "final_x": "3671047.45876",
    "final_y": "549495.561939",
    "longitude": "-90.10046504789682",
    "latitude": "30.00523558448891",
    "geocoded_column": {
      "latitude": "30.00523558448891",
      "longitude": "-90.10046504789682"
    }
  },
  {
    "service_request": "2026-1293871",
    "request_type": "Streetlights",
    "request_reason": "Streetlight Outage/Malfunction",
    "date_created": "2026-06-24T16:00:03.000",
    "date_modified": "2026-06-24T16:00:06.000",
    "request_status": "Pending",
    "responsible_agency": "Department of Public Works",
    "final_address": "3120 Eagle St",
    "address_councildis": "A",
    "status": "Pending",
    "rowid": "1293871",
    "final_x": "3664829.64308",
    "final_y": "535253.036742",
    "longitude": "-90.12058477269925",
    "latitude": "29.966255934441936",
    "geocoded_column": {
      "latitude": "29.966255934441936",
      "longitude": "-90.12058477269925"
    }
  },
  {
    "service_request": "2026-1293870",
    "request_type": "Trash/Recycling",
    "request_reason": "Repair Trash Cart",
    "date_created": "2026-06-24T15:55:51.000",
    "date_modified": "2026-06-24T15:55:53.000",
    "request_status": "Pending",
    "responsible_agency": "Department of Sanitation",
    "final_address": "7801 Means Ave",
    "address_councildis": "E",
    "status": "Assigned to Contractor",
    "contractor": "Waste Pro",
    "rowid": "1293870",
    "final_x": "3707838.69636",
    "final_y": "565240.850594",
    "longitude": "-89.98364874911981",
    "latitude": "30.047389203783567",
    "geocoded_column": {
      "latitude": "30.047389203783567",
      "longitude": "-89.98364874911981"
    }
  },
  {
    "service_request": "2026-1293869",
    "request_type": "Trash/Recycling",
    "request_reason": "Repair Recycling Cart",
    "date_created": "2026-06-24T15:50:38.000",
    "date_modified": "2026-06-24T15:50:40.000",
    "request_status": "Pending",
    "responsible_agency": "Department of Sanitation",
    "final_address": "7717 Belfast St",
    "address_councildis": "A",
    "status": "Pending",
    "rowid": "1293869",
    "final_x": "3666671.88993",
    "final_y": "531447.718915",
    "longitude": "-90.114894756607",
    "latitude": "29.9557388203765",
    "geocoded_column": {
      "latitude": "29.9557388203765",
      "longitude": "-90.114894756607"
    }
  },
  {
    "service_request": "2026-1293868",
    "request_type": "Trash/Recycling",
    "request_reason": "Repair Trash Cart",
    "date_created": "2026-06-24T15:43:54.000",
    "date_modified": "2026-06-24T15:43:56.000",
    "request_status": "Pending",
    "responsible_agency": "Department of Sanitation",
    "final_address": "4318 N Robertson St",
    "address_councildis": "D",
    "status": "Assigned to Contractor",
    "contractor": "IV Waste",
    "rowid": "1293868",
    "final_x": "3693228.50569",
    "final_y": "536483.891463",
    "longitude": "-90.03085791591678",
    "latitude": "29.968783322409333",
    "geocoded_column": {
      "latitude": "29.968783322409333",
      "longitude": "-90.03085791591678"
    }
  },
  {
    "service_request": "2026-1293867",
    "request_type": "Trash/Recycling",
    "request_reason": "Replace Trash Cart",
    "date_created": "2026-06-24T15:42:26.000",
    "date_modified": "2026-06-24T15:42:34.000",
    "request_status": "Pending",
    "responsible_agency": "Department of Sanitation",
    "final_address": "4916 Bienville Ave",
    "address_councildis": "A",
    "status": "Assigned to Contractor",
    "contractor": "IV Waste",
    "rowid": "1293867",
    "final_x": "3668838.34356",
    "final_y": "540984.357643",
    "longitude": "-90.10773174308302",
    "latitude": "29.98189787082955",
    "geocoded_column": {
      "latitude": "29.98189787082955",
      "longitude": "-90.10773174308302"
    }
  },
  {
    "service_request": "2026-1293866",
    "request_type": "Tree Service",
    "request_reason": "Dead or Dying Tree",
    "date_created": "2026-06-24T15:41:11.000",
    "date_modified": "2026-06-24T15:41:13.000",
    "request_status": "Pending",
    "responsible_agency": "Department of Parks & Parkways",
    "final_address": "6210 Paris Ave",
    "address_councildis": "D",
    "status": "Pending",
    "rowid": "1293866",
    "final_x": "3678746.28315",
    "final_y": "555599.001177",
    "longitude": "-90.07593121281081",
    "latitude": "30.021787827654887",
    "geocoded_column": {
      "latitude": "30.021787827654887",
      "longitude": "-90.07593121281081"
    }
  },
  {
    "service_request": "2026-1293865",
    "request_type": "Healthy Homes",
    "request_reason": "Healthy Homes",
    "date_created": "2026-06-24T15:34:00.000",
    "date_modified": "2026-06-24T15:56:45.000",
    "request_status": "Pending",
    "responsible_agency": "Department of Code Enforcement",
    "final_address": "1547 Milton St",
    "address_councildis": "D",
    "status": "Pending",
    "rowid": "1293865",
    "final_x": "3679147.98728",
    "final_y": "546252.150672",
    "longitude": "-90.07498626684023",
    "latitude": "29.996075215659957",
    "geocoded_column": {
      "latitude": "29.996075215659957",
      "longitude": "-90.07498626684023"
    }
  },
  {
    "service_request": "2026-1293864",
    "request_type": "Trash/Recycling",
    "request_reason": "Illegal Dumping",
    "date_created": "2026-06-24T15:32:59.000",
    "date_modified": "2026-06-24T15:33:02.000",
    "request_status": "Pending",
    "responsible_agency": "Department of Sanitation",
    "final_address": "3712 Herschel St",
    "address_councildis": "C",
    "status": "Pending",
    "rowid": "1293864",
    "final_x": "3697383.69379",
    "final_y": "521206.070457",
    "longitude": "-90.01828938289724",
    "latitude": "29.926644131756852",
    "geocoded_column": {
      "latitude": "29.926644131756852",
      "longitude": "-90.01828938289724"
    }
  },
  {
    "service_request": "2026-1293863",
    "request_type": "Roads and Streets",
    "request_reason": "Abandoned Service Cut",
    "date_created": "2026-06-24T15:30:07.000",
    "date_modified": "2026-06-24T15:30:09.000",
    "request_status": "Pending",
    "responsible_agency": "Department of Public Works",
    "final_address": "3712 Herschel St",
    "address_councildis": "C",
    "status": "Pending",
    "rowid": "1293863",
    "final_x": "3697383.69379",
    "final_y": "521206.070457",
    "longitude": "-90.01828938289724",
    "latitude": "29.926644131756852",
    "geocoded_column": {
      "latitude": "29.926644131756852",
      "longitude": "-90.01828938289724"
    }
  },
  {
    "service_request": "2026-1293862",
    "request_type": "Drainage",
    "request_reason": "Catch Basin Not Draining",
    "date_created": "2026-06-24T15:28:23.000",
    "date_modified": "2026-06-24T15:28:26.000",
    "request_status": "Pending",
    "responsible_agency": "Sewerage & Water Board",
    "final_address": "4229 Burgundy St",
    "address_councildis": "C",
    "status": "Pending",
    "rowid": "1293862",
    "final_x": "3692453.70198",
    "final_y": "534391.297157",
    "longitude": "-90.03337975650551",
    "latitude": "29.963053619501004",
    "geocoded_column": {
      "latitude": "29.963053619501004",
      "longitude": "-90.03337975650551"
    }
  },
  {
    "service_request": "2026-1293861",
    "request_type": "Trash/Recycling",
    "request_reason": "Order Recycling Cart",
    "date_created": "2026-06-24T15:27:38.000",
    "date_modified": "2026-06-24T15:27:40.000",
    "request_status": "Pending",
    "responsible_agency": "Department of Sanitation",
    "final_address": "2117 Lapeyrouse St",
    "address_councildis": "D",
    "status": "Pending",
    "rowid": "1293861",
    "final_x": "3680694.49858",
    "final_y": "539025.227338",
    "longitude": "-90.07035258824878",
    "latitude": "29.976156920320896",
    "geocoded_column": {
      "latitude": "29.976156920320896",
      "longitude": "-90.07035258824878"
    }
  },
  {
    "service_request": "2026-1293860",
    "request_type": "Trash/Recycling",
    "request_reason": "Request a Large Item Pick Up",
    "date_created": "2026-06-24T15:23:04.000",
    "date_modified": "2026-06-24T15:23:06.000",
    "request_status": "Pending",
    "responsible_agency": "Department of Sanitation",
    "final_address": "1727 Bordeaux St",
    "address_councildis": "B",
    "status": "Assigned to Contractor",
    "contractor": "IV Waste",
    "rowid": "1293860",
    "final_x": "3669423.18746",
    "final_y": "521314.262521",
    "longitude": "-90.10654968566124",
    "latitude": "29.92779436673298",
    "geocoded_column": {
      "latitude": "29.92779436673298",
      "longitude": "-90.10654968566124"
    }
  },
  {
    "service_request": "2026-1293859",
    "request_type": "Parks & Grass Service",
    "request_reason": "Request Grass Cutting Service (City Owned Property)",
    "date_created": "2026-06-24T15:21:34.000",
    "date_modified": "2026-06-24T15:21:35.000",
    "request_status": "Pending",
    "responsible_agency": "Department of Parks & Parkways",
    "final_address": "8701 Airline Hwy",
    "address_councildis": "A",
    "status": "Pending",
    "rowid": "1293859",
    "final_x": "3666945.24378",
    "final_y": "537182.141704",
    "longitude": "-90.11383888598499",
    "latitude": "29.97149859377334",
    "geocoded_column": {
      "latitude": "29.97149859377334",
      "longitude": "-90.11383888598499"
    }
  },
  {
    "service_request": "2026-1293858",
    "request_type": "Property Maintenance",
    "request_reason": "Property Maintenance",
    "date_created": "2026-06-24T15:21:04.000",
    "date_modified": "2026-06-24T15:21:15.000",
    "request_status": "Pending",
    "responsible_agency": "Department of Code Enforcement",
    "final_address": "2221 Painters St",
    "address_councildis": "D",
    "status": "Pending",
    "rowid": "1293858",
    "final_x": "3687259.72911",
    "final_y": "540745.769739",
    "longitude": "-90.0495568314101",
    "latitude": "29.980687195479245",
    "geocoded_column": {
      "latitude": "29.980687195479245",
      "longitude": "-90.0495568314101"
    }
  },
  {
    "service_request": "2026-1293857",
    "request_type": "Trash/Recycling",
    "request_reason": "Request a Large Item Pick Up",
    "date_created": "2026-06-24T15:16:20.000",
    "date_modified": "2026-06-24T15:16:22.000",
    "request_status": "Pending",
    "responsible_agency": "Department of Sanitation",
    "final_address": "4801 Rhodes Dr",
    "address_councildis": "E",
    "status": "Assigned to Contractor",
    "contractor": "Waste Pro",
    "rowid": "1293857",
    "final_x": "3702555.1377",
    "final_y": "554606.839064",
    "longitude": "-90.00073845103945",
    "latitude": "30.01831987701211",
    "geocoded_column": {
      "latitude": "30.01831987701211",
      "longitude": "-90.00073845103945"
    }
  },
  {
    "service_request": "2026-1293855",
    "request_type": "Traffic Signals",
    "request_reason": "Traffic Signal Malfunctioning or Damaged",
    "date_created": "2026-06-24T15:13:35.000",
    "date_modified": "2026-06-24T15:13:37.000",
    "request_status": "Pending",
    "responsible_agency": "Department of Public Works",
    "final_address": "N MIRO ST & ELYSIAN FIELDS AVE & I 10 E ONRAMP",
    "address_councildis": "D",
    "status": "Pending",
    "rowid": "1293855",
    "final_x": "3684741.2",
    "final_y": "540361.48",
    "longitude": "-90.05752494826591",
    "latitude": "29.979707880571503",
    "geocoded_column": {
      "latitude": "29.979707880571503",
      "longitude": "-90.05752494826591"
    }
  },
  {
    "service_request": "2026-1293854",
    "request_type": "Trash/Recycling",
    "request_reason": "Missed Trash Pick-Up",
    "date_created": "2026-06-24T15:08:12.000",
    "date_modified": "2026-06-24T16:08:44.000",
    "case_close_date": "2026-06-24T11:08:42.000",
    "request_status": "Closed",
    "responsible_agency": "Department of Sanitation",
    "final_address": "114 Ringold St",
    "address_councildis": "A",
    "status": "Invalid Request",
    "contractor": "IV Waste",
    "contractor_action": "Invalid Request",
    "rowid": "1293854",
    "final_x": "3666740.24455",
    "final_y": "548420.673618",
    "longitude": "-90.11410864508747",
    "latitude": "30.0024067390531",
    "geocoded_column": {
      "latitude": "30.0024067390531",
      "longitude": "-90.11410864508747"
    }
  },
  {
    "service_request": "2026-1293853",
    "request_type": "Safety & Permits",
    "request_reason": "Zoning Enforcement",
    "date_created": "2026-06-24T15:06:41.000",
    "date_modified": "2026-06-24T15:09:52.000",
    "request_status": "Pending",
    "responsible_agency": "Safety and Permits",
    "final_address": "168 Pinewood Ct",
    "address_councildis": "C",
    "status": "Pending",
    "rowid": "1293853",
    "final_x": "3695962.8879",
    "final_y": "523529.121531",
    "longitude": "-90.02269057697023",
    "latitude": "29.93307648804741",
    "geocoded_column": {
      "latitude": "29.93307648804741",
      "longitude": "-90.02269057697023"
    }
  },
  {
    "service_request": "2026-1293852",
    "request_type": "Trash/Recycling",
    "request_reason": "Order Trash Cart",
    "date_created": "2026-06-24T15:06:23.000",
    "date_modified": "2026-06-24T15:06:25.000",
    "request_status": "Pending",
    "responsible_agency": "Department of Sanitation",
    "final_address": "3001 Clouet St",
    "address_councildis": "D",
    "status": "Assigned to Contractor",
    "contractor": "IV Waste",
    "rowid": "1293852",
    "final_x": "3690964.75894",
    "final_y": "543559.06459",
    "longitude": "-90.0377543020033",
    "latitude": "29.9883080883185",
    "geocoded_column": {
      "latitude": "29.9883080883185",
      "longitude": "-90.0377543020033"
    }
  },
  {
    "service_request": "2026-1293851",
    "request_type": "Abandoned Vehicles",
    "request_reason": "Abandoned/Junk Vehicles",
    "date_created": "2026-06-24T14:59:23.000",
    "date_modified": "2026-06-24T14:59:25.000",
    "request_status": "Pending",
    "responsible_agency": "Department of Public Works",
    "final_address": "5927 Music St",
    "address_councildis": "D",
    "status": "Pending",
    "rowid": "1293851",
    "final_x": "3685412.04194",
    "final_y": "554944.360216",
    "longitude": "-90.05489227412014",
    "latitude": "30.019784993184444",
    "geocoded_column": {
      "latitude": "30.019784993184444",
      "longitude": "-90.05489227412014"
    }
  },
  {
    "service_request": "2026-1293850",
    "request_type": "Utility Poles",
    "request_reason": "Wires Sagging/Hanging Low",
    "date_created": "2026-06-24T14:52:26.000",
    "date_modified": "2026-06-24T14:52:30.000",
    "request_status": "Pending",
    "responsible_agency": "Utility Company Collective",
    "final_address": "SPAIN ST & MADRID ST",
    "address_councildis": "D",
    "status": "Pending",
    "rowid": "1293850",
    "final_x": "3684603.3",
    "final_y": "555421.88",
    "longitude": "-90.05743083124383",
    "latitude": "30.021122782736974",
    "geocoded_column": {
      "latitude": "30.021122782736974",
      "longitude": "-90.05743083124383"
    }
  },
  {
    "service_request": "2026-1293849",
    "request_type": "Tree Service",
    "request_reason": "Tree Trim",
    "date_created": "2026-06-24T14:50:56.000",
    "date_modified": "2026-06-24T14:50:58.000",
    "request_status": "Pending",
    "responsible_agency": "Department of Parks & Parkways",
    "final_address": "6111 Spain St",
    "address_councildis": "D",
    "status": "Pending",
    "rowid": "1293849",
    "final_x": "3684679.59561",
    "final_y": "555521.170009",
    "longitude": "-90.05718626499142",
    "latitude": "30.021393457451868",
    "geocoded_column": {
      "latitude": "30.021393457451868",
      "longitude": "-90.05718626499142"
    }
  },
  {
    "service_request": "2026-1293848",
    "request_type": "Trash/Recycling",
    "request_reason": "Order Recycling Cart",
    "date_created": "2026-06-24T14:49:30.000",
    "date_modified": "2026-06-24T14:49:33.000",
    "request_status": "Pending",
    "responsible_agency": "Department of Sanitation",
    "final_address": "2701 Octavia St",
    "address_councildis": "A",
    "status": "Pending",
    "rowid": "1293848",
    "final_x": "3667932.02349",
    "final_y": "525386.066045",
    "longitude": "-90.11111984895606",
    "latitude": "29.939034339134572",
    "geocoded_column": {
      "latitude": "29.939034339134572",
      "longitude": "-90.11111984895606"
    }
  },
  {
    "service_request": "2026-1293847",
    "request_type": "Abandoned Vehicles",
    "request_reason": "Abandoned/Junk Vehicles",
    "date_created": "2026-06-24T14:46:49.000",
    "date_modified": "2026-06-24T14:46:50.000",
    "request_status": "Pending",
    "responsible_agency": "Department of Public Works",
    "final_address": "1850 Benefit St",
    "address_councildis": "D",
    "status": "Pending",
    "rowid": "1293847",
    "final_x": "3681818.95477",
    "final_y": "544157.043854",
    "longitude": "-90.066622053299",
    "latitude": "29.99023349071914",
    "geocoded_column": {
      "latitude": "29.99023349071914",
      "longitude": "-90.066622053299"
    }
  },
  {
    "service_request": "2026-1293846",
    "request_type": "Abandoned Vehicles",
    "request_reason": "Abandoned/Junk Vehicles",
    "date_created": "2026-06-24T14:43:43.000",
    "date_modified": "2026-06-24T14:43:45.000",
    "request_status": "Pending",
    "responsible_agency": "Department of Public Works",
    "final_address": "1850 Benefit St",
    "address_councildis": "D",
    "status": "Pending",
    "rowid": "1293846",
    "final_x": "3681818.95477",
    "final_y": "544157.043854",
    "longitude": "-90.066622053299",
    "latitude": "29.99023349071914",
    "geocoded_column": {
      "latitude": "29.99023349071914",
      "longitude": "-90.066622053299"
    }
  },
  {
    "service_request": "2026-1293845",
    "request_type": "Abandoned Vehicles",
    "request_reason": "Abandoned/Junk Vehicles",
    "date_created": "2026-06-24T14:39:13.000",
    "date_modified": "2026-06-24T14:39:14.000",
    "request_status": "Pending",
    "responsible_agency": "Department of Public Works",
    "final_address": "1850 Benefit St",
    "address_councildis": "D",
    "status": "Pending",
    "rowid": "1293845",
    "final_x": "3681818.95477",
    "final_y": "544157.043854",
    "longitude": "-90.066622053299",
    "latitude": "29.99023349071914",
    "geocoded_column": {
      "latitude": "29.99023349071914",
      "longitude": "-90.066622053299"
    }
  },
  {
    "service_request": "2026-1293844",
    "request_type": "Roads and Streets",
    "request_reason": "Sidewalk Damaged or Missing",
    "date_created": "2026-06-24T14:38:31.000",
    "date_modified": "2026-06-24T16:23:46.000",
    "request_status": "Pending",
    "responsible_agency": "Department of Public Works",
    "final_address": "509 Octavia St Ste 2A",
    "address_councildis": "A",
    "status": "Pending",
    "rowid": "1293844",
    "final_x": "3666280.57441",
    "final_y": "517968.598774",
    "longitude": "-90.11658236136898",
    "latitude": "29.918686986089636",
    "geocoded_column": {
      "latitude": "29.918686986089636",
      "longitude": "-90.11658236136898"
    }
  },
  {
    "service_request": "2026-1293843",
    "request_type": "Trash/Recycling",
    "request_reason": "Repair Trash Cart",
    "date_created": "2026-06-24T14:36:57.000",
    "date_modified": "2026-06-24T16:22:55.000",
    "request_status": "Pending",
    "responsible_agency": "Department of Sanitation",
    "final_address": "8333 Cohn St",
    "address_councildis": "A",
    "status": "Pending",
    "contractor": "IV Waste",
    "rowid": "1293843",
    "final_x": "3662923.11431",
    "final_y": "530887.834242",
    "longitude": "-90.1267507424972",
    "latitude": "29.95430839603811",
    "geocoded_column": {
      "latitude": "29.95430839603811",
      "longitude": "-90.1267507424972"
    }
  },
  {
    "service_request": "2026-1293842",
    "request_type": "Abandoned Vehicles",
    "request_reason": "Abandoned/Junk Vehicles",
    "date_created": "2026-06-24T14:34:08.000",
    "date_modified": "2026-06-24T14:34:10.000",
    "request_status": "Pending",
    "responsible_agency": "Department of Public Works",
    "final_address": "1850 Benefit St",
    "address_councildis": "D",
    "status": "Pending",
    "rowid": "1293842",
    "final_x": "3681818.95477",
    "final_y": "544157.043854",
    "longitude": "-90.066622053299",
    "latitude": "29.99023349071914",
    "geocoded_column": {
      "latitude": "29.99023349071914",
      "longitude": "-90.066622053299"
    }
  },
  {
    "service_request": "2026-1293841",
    "request_type": "Trash/Recycling",
    "request_reason": "Damaged Caused By Contractor",
    "date_created": "2026-06-24T14:31:08.000",
    "date_modified": "2026-06-24T14:31:10.000",
    "request_status": "Pending",
    "responsible_agency": "Department of Sanitation",
    "final_address": "5020 Wilton Dr",
    "address_councildis": "D",
    "status": "Assigned to Contractor",
    "contractor": "IV Waste",
    "rowid": "1293841",
    "final_x": "3681892.45685",
    "final_y": "551246.167765",
    "longitude": "-90.06614223762601",
    "latitude": "30.009723814059104",
    "geocoded_column": {
      "latitude": "30.009723814059104",
      "longitude": "-90.06614223762601"
    }
  },
  {
    "service_request": "2026-1293840",
    "request_type": "Trash/Recycling",
    "request_reason": "Request a Large Item Pick Up",
    "date_created": "2026-06-24T14:30:49.000",
    "date_modified": "2026-06-24T14:31:08.000",
    "request_status": "Pending",
    "responsible_agency": "Department of Sanitation",
    "final_address": "8218 Burthe St",
    "address_councildis": "A",
    "status": "Assigned to Contractor",
    "contractor": "IV Waste",
    "rowid": "1293840",
    "final_x": "3660842.01491",
    "final_y": "527919.907135",
    "longitude": "-90.13342020052988",
    "latitude": "29.94620763970581",
    "geocoded_column": {
      "latitude": "29.94620763970581",
      "longitude": "-90.13342020052988"
    }
  },
  {
    "service_request": "2026-1293839",
    "request_type": "Trash/Recycling",
    "request_reason": "Illegal Dumping",
    "date_created": "2026-06-24T14:30:33.000",
    "date_modified": "2026-06-24T14:36:16.000",
    "request_status": "Pending",
    "responsible_agency": "Department of Sanitation",
    "final_address": "509 S Dupre St",
    "address_councildis": "B",
    "status": "Pending",
    "rowid": "1293839",
    "final_x": "3673543.33537",
    "final_y": "534323.830917",
    "longitude": "-90.09309881754265",
    "latitude": "29.963444466064715",
    "geocoded_column": {
      "latitude": "29.963444466064715",
      "longitude": "-90.09309881754265"
    }
  },
  {
    "service_request": "2026-1293838",
    "request_type": "Trash/Recycling",
    "request_reason": "Request a Large Item Pick Up",
    "date_created": "2026-06-24T14:29:03.000",
    "date_modified": "2026-06-24T14:29:06.000",
    "request_status": "Pending",
    "responsible_agency": "Department of Sanitation",
    "final_address": "4876 Cardenas Dr",
    "address_councildis": "E",
    "status": "Assigned to Contractor",
    "contractor": "Waste Pro",
    "rowid": "1293838",
    "final_x": "3713538.91371",
    "final_y": "557091.315738",
    "longitude": "-89.96594049205254",
    "latitude": "30.024795398631493",
    "geocoded_column": {
      "latitude": "30.024795398631493",
      "longitude": "-89.96594049205254"
    }
  },
  {
    "service_request": "2026-1293837",
    "request_type": "Trash/Recycling",
    "request_reason": "Request a Large Item Pick Up",
    "date_created": "2026-06-24T14:19:50.000",
    "date_modified": "2026-06-24T14:19:54.000",
    "request_status": "Pending",
    "responsible_agency": "Department of Sanitation",
    "final_address": "1417 Terpsichore St Apt B",
    "address_councildis": "B",
    "status": "Assigned to Contractor",
    "contractor": "IV Waste",
    "rowid": "1293837",
    "final_x": "3679734.97256",
    "final_y": "524940.390268",
    "longitude": "-90.07387200361345",
    "latitude": "29.93745742742018",
    "geocoded_column": {
      "latitude": "29.93745742742018",
      "longitude": "-90.07387200361345"
    }
  },
  {
    "service_request": "2026-1293836",
    "request_type": "Trash/Recycling",
    "request_reason": "Order Second Trash Cart",
    "date_created": "2026-06-24T14:18:57.000",
    "date_modified": "2026-06-24T14:19:00.000",
    "request_status": "Pending",
    "responsible_agency": "Department of Sanitation",
    "final_address": "5921 Wright Rd",
    "address_councildis": "E",
    "status": "Assigned to Contractor",
    "contractor": "Waste Pro",
    "rowid": "1293836",
    "final_x": "3713721.694",
    "final_y": "562064.703967",
    "longitude": "-89.96517530219515",
    "latitude": "30.038464234119978",
    "geocoded_column": {
      "latitude": "30.038464234119978",
      "longitude": "-89.96517530219515"
    }
  },
  {
    "service_request": "2026-1293835",
    "request_type": "Trash/Recycling",
    "request_reason": "Request a Large Item Pick Up",
    "date_created": "2026-06-24T14:13:54.000",
    "date_modified": "2026-06-24T14:13:56.000",
    "request_status": "Pending",
    "responsible_agency": "Department of Sanitation",
    "final_address": "819 Aline St",
    "address_councildis": "B",
    "status": "Assigned to Contractor",
    "contractor": "IV Waste",
    "rowid": "1293835",
    "final_x": "3674796.96705",
    "final_y": "518542.659447",
    "longitude": "-90.08968087253628",
    "latitude": "29.920014056950823",
    "geocoded_column": {
      "latitude": "29.920014056950823",
      "longitude": "-90.08968087253628"
    }
  },
  {
    "service_request": "2026-1293834",
    "request_type": "Trash/Recycling",
    "request_reason": "Request a Large Item Pick Up",
    "date_created": "2026-06-24T14:13:43.000",
    "date_modified": "2026-06-24T14:13:45.000",
    "request_status": "Pending",
    "responsible_agency": "Department of Sanitation",
    "final_address": "6651 Louisville St",
    "address_councildis": "A",
    "status": "Assigned to Contractor",
    "contractor": "IV Waste",
    "rowid": "1293834",
    "final_x": "3668246.64577",
    "final_y": "551825.044694",
    "longitude": "-90.10923482617561",
    "latitude": "30.01172341176789",
    "geocoded_column": {
      "latitude": "30.01172341176789",
      "longitude": "-90.10923482617561"
    }
  },
  {
    "service_request": "2026-1293833",
    "request_type": "Street and Traffic Signs",
    "request_reason": "Street Name Sign Damaged or Missing",
    "date_created": "2026-06-24T14:10:40.000",
    "date_modified": "2026-06-24T14:10:41.000",
    "request_status": "Pending",
    "responsible_agency": "Department of Public Works",
    "final_address": "7513 Founders Ct",
    "address_councildis": "E",
    "status": "Pending",
    "rowid": "1293833",
    "final_x": "3726061.4206",
    "final_y": "570699.196583",
    "longitude": "-89.92584387340301",
    "latitude": "30.06179457617904",
    "geocoded_column": {
      "latitude": "30.06179457617904",
      "longitude": "-89.92584387340301"
    }
  },
  {
    "service_request": "2026-1293832",
    "request_type": "Street and Traffic Signs",
    "request_reason": "Stop Sign Missing or Damaged",
    "date_created": "2026-06-24T14:10:11.000",
    "date_modified": "2026-06-24T14:10:13.000",
    "request_status": "Pending",
    "responsible_agency": "Department of Public Works",
    "final_address": "BAUDIN ST & S WHITE ST",
    "address_councildis": "B",
    "status": "Pending",
    "rowid": "1293832",
    "final_x": "3673908.7",
    "final_y": "534181.68",
    "longitude": "-90.0919498971468",
    "latitude": "29.96304271981596",
    "geocoded_column": {
      "latitude": "29.96304271981596",
      "longitude": "-90.0919498971468"
    }
  },
  {
    "service_request": "2026-1293831",
    "request_type": "Trash/Recycling",
    "request_reason": "Request a Large Item Pick Up",
    "date_created": "2026-06-24T14:09:53.000",
    "date_modified": "2026-06-24T15:16:54.000",
    "request_status": "Pending",
    "responsible_agency": "Department of Sanitation",
    "final_address": "712 General Taylor St",
    "address_councildis": "B",
    "status": "Assigned to Contractor",
    "contractor": "IV Waste",
    "rowid": "1293831",
    "final_x": "3673207.37684",
    "final_y": "518381.719734",
    "longitude": "-90.09470394255884",
    "latitude": "29.91961886807795",
    "geocoded_column": {
      "latitude": "29.91961886807795",
      "longitude": "-90.09470394255884"
    }
  },
  {
    "service_request": "2026-1293830",
    "request_type": "Trash/Recycling",
    "request_reason": "Repair Trash Cart",
    "date_created": "2026-06-24T14:09:01.000",
    "date_modified": "2026-06-24T14:09:04.000",
    "request_status": "Pending",
    "responsible_agency": "Department of Sanitation",
    "final_address": "4957 Major Dr",
    "address_councildis": "E",
    "status": "Assigned to Contractor",
    "contractor": "Waste Pro",
    "rowid": "1293830",
    "final_x": "3718209.90911",
    "final_y": "558258.927388",
    "longitude": "-89.95113659946351",
    "latitude": "30.02785176776602",
    "geocoded_column": {
      "latitude": "30.02785176776602",
      "longitude": "-89.95113659946351"
    }
  },
  {
    "service_request": "2026-1293829",
    "request_type": "Trash/Recycling",
    "request_reason": "Request a Large Item Pick Up",
    "date_created": "2026-06-24T14:08:15.000",
    "date_modified": "2026-06-24T14:08:17.000",
    "request_status": "Pending",
    "responsible_agency": "Department of Sanitation",
    "final_address": "7513 Founders Ct",
    "address_councildis": "E",
    "status": "Assigned to Contractor",
    "contractor": "Waste Pro",
    "rowid": "1293829",
    "final_x": "3726061.4206",
    "final_y": "570699.196583",
    "longitude": "-89.92584387340301",
    "latitude": "30.06179457617904",
    "geocoded_column": {
      "latitude": "30.06179457617904",
      "longitude": "-89.92584387340301"
    }
  },
  {
    "service_request": "2026-1293828",
    "request_type": "Trash/Recycling",
    "request_reason": "Request a Large Item Pick Up",
    "date_created": "2026-06-24T14:08:11.000",
    "date_modified": "2026-06-24T14:08:15.000",
    "request_status": "Pending",
    "responsible_agency": "Department of Sanitation",
    "final_address": "10680 Lincoln Beach Blvd",
    "address_councildis": "E",
    "status": "Assigned to Contractor",
    "contractor": "Waste Pro",
    "rowid": "1293828",
    "final_x": "3708720.11428",
    "final_y": "566440.840995",
    "longitude": "-89.98081824247406",
    "latitude": "30.050660118191985",
    "geocoded_column": {
      "latitude": "30.050660118191985",
      "longitude": "-89.98081824247406"
    }
  },
  {
    "service_request": "2026-1293827",
    "request_type": "Tree Service",
    "request_reason": "Tree Trim",
    "date_created": "2026-06-24T14:07:11.000",
    "date_modified": "2026-06-24T14:07:13.000",
    "request_status": "Pending",
    "responsible_agency": "Department of Parks & Parkways",
    "final_address": "872 Florida Blvd",
    "address_councildis": "A",
    "status": "Pending",
    "rowid": "1293827",
    "final_x": "3669432.45006",
    "final_y": "545189.497743",
    "longitude": "-90.1057129689375",
    "latitude": "29.99344308199599",
    "geocoded_column": {
      "latitude": "29.99344308199599",
      "longitude": "-90.1057129689375"
    }
  },
  {
    "service_request": "2026-1293826",
    "request_type": "Streetlights",
    "request_reason": "Streetlight Outage/Malfunction",
    "date_created": "2026-06-24T14:06:40.000",
    "date_modified": "2026-06-24T14:06:42.000",
    "request_status": "Pending",
    "responsible_agency": "Department of Public Works",
    "final_address": "862 Florida Blvd",
    "address_councildis": "A",
    "status": "Pending",
    "rowid": "1293826",
    "final_x": "3669330.07943",
    "final_y": "545193.888719",
    "longitude": "-90.10603619387734",
    "latitude": "29.99345817100376",
    "geocoded_column": {
      "latitude": "29.99345817100376",
      "longitude": "-90.10603619387734"
    }
  },
  {
    "service_request": "2026-1293825",
    "request_type": "Streetlights",
    "request_reason": "Streetlight Outage/Malfunction",
    "date_created": "2026-06-24T14:03:32.000",
    "date_modified": "2026-06-24T14:03:34.000",
    "request_status": "Pending",
    "responsible_agency": "Department of Public Works",
    "final_address": "872 Florida Blvd",
    "address_councildis": "A",
    "status": "Pending",
    "rowid": "1293825",
    "final_x": "3669432.45006",
    "final_y": "545189.497743",
    "longitude": "-90.1057129689375",
    "latitude": "29.99344308199599",
    "geocoded_column": {
      "latitude": "29.99344308199599",
      "longitude": "-90.1057129689375"
    }
  },
  {
    "service_request": "2026-1293824",
    "request_type": "Trash/Recycling",
    "request_reason": "Request a Large Item Pick Up",
    "date_created": "2026-06-24T14:03:12.000",
    "date_modified": "2026-06-24T15:15:29.000",
    "request_status": "Pending",
    "responsible_agency": "Department of Sanitation",
    "final_address": "2231 Amelia St",
    "address_councildis": "B",
    "status": "Assigned to Contractor",
    "contractor": "IV Waste",
    "rowid": "1293824",
    "final_x": "3672588.72654",
    "final_y": "523519.092027",
    "longitude": "-90.09648167764865",
    "latitude": "29.933763366540227",
    "geocoded_column": {
      "latitude": "29.933763366540227",
      "longitude": "-90.09648167764865"
    }
  },
  {
    "service_request": "2026-1293823",
    "request_type": "Healthy Homes",
    "request_reason": "Healthy Homes",
    "date_created": "2026-06-24T14:02:58.000",
    "date_modified": "2026-06-24T14:03:01.000",
    "request_status": "Pending",
    "responsible_agency": "Department of Code Enforcement",
    "final_address": "1620 Seventh St",
    "address_councildis": "B",
    "status": "Pending",
    "rowid": "1293823",
    "final_x": "3675084.91624",
    "final_y": "522258.747194",
    "longitude": "-90.08864453667368",
    "latitude": "29.93022350309982",
    "geocoded_column": {
      "latitude": "29.93022350309982",
      "longitude": "-90.08864453667368"
    }
  },
  {
    "service_request": "2026-1293822",
    "request_type": "Trash/Recycling",
    "request_reason": "Missed Trash Pick-Up",
    "date_created": "2026-06-24T14:00:13.000",
    "date_modified": "2026-06-24T14:00:14.000",
    "request_status": "Pending",
    "responsible_agency": "Department of Sanitation",
    "final_address": "4964 Redwood St",
    "address_councildis": "E",
    "status": "Assigned to Contractor",
    "contractor": "Waste Pro",
    "rowid": "1293822",
    "final_x": "3712271.46379",
    "final_y": "557581.842523",
    "longitude": "-89.96992693901",
    "latitude": "30.026185681260735",
    "geocoded_column": {
      "latitude": "30.026185681260735",
      "longitude": "-89.96992693901"
    }
  },
  {
    "service_request": "2026-1293821",
    "request_type": "Property Maintenance",
    "request_reason": "Property Maintenance",
    "date_created": "2026-06-24T13:54:16.000",
    "date_modified": "2026-06-24T15:15:24.000",
    "case_close_date": "2026-06-24T10:15:23.000",
    "request_status": "Closed",
    "responsible_agency": "Department of Code Enforcement",
    "final_address": "3146 N Claiborne Ave",
    "address_councildis": "D",
    "status": "Resolved",
    "rowid": "1293821",
    "final_x": "3689857.84176",
    "final_y": "537728.910408",
    "longitude": "-90.04145831192021",
    "latitude": "29.972311606777694",
    "geocoded_column": {
      "latitude": "29.972311606777694",
      "longitude": "-90.04145831192021"
    }
  },
  {
    "service_request": "2026-1293820",
    "request_type": "Traffic Signals",
    "request_reason": "Traffic Signal Malfunctioning or Damaged",
    "date_created": "2026-06-24T13:52:38.000",
    "date_modified": "2026-06-24T13:52:40.000",
    "request_status": "Pending",
    "responsible_agency": "Department of Public Works",
    "final_address": "N CARROLLTON AVE & ORLEANS AVE",
    "address_councildis": "A",
    "status": "Pending",
    "rowid": "1293820",
    "final_x": "3672801.3",
    "final_y": "540117.48",
    "longitude": "-90.09524440248875",
    "latitude": "29.979397105626184",
    "geocoded_column": {
      "latitude": "29.979397105626184",
      "longitude": "-90.09524440248875"
    }
  },
  {
    "service_request": "2026-1293819",
    "request_type": "Roads and Streets",
    "request_reason": "Sidewalk Damaged or Missing",
    "date_created": "2026-06-24T13:48:53.000",
    "date_modified": "2026-06-24T13:48:54.000",
    "request_status": "Pending",
    "responsible_agency": "Department of Public Works",
    "final_address": "2600 BLK Dante St",
    "address_councildis": "A",
    "status": "Pending",
    "rowid": "1293819",
    "final_x": "3664937.82527",
    "final_y": "532720.107904",
    "longitude": "-90.12032781221963",
    "latitude": "29.95928806296131",
    "geocoded_column": {
      "latitude": "29.95928806296131",
      "longitude": "-90.12032781221963"
    }
  },
  {
    "service_request": "2026-1293818",
    "request_type": "Drainage",
    "request_reason": "Catch Basin Not Draining",
    "date_created": "2026-06-24T13:47:42.000",
    "date_modified": "2026-06-24T13:47:43.000",
    "request_status": "Pending",
    "responsible_agency": "Sewerage & Water Board",
    "final_address": "2643 Dante St",
    "address_councildis": "A",
    "status": "Pending",
    "rowid": "1293818",
    "final_x": "3665052.38298",
    "final_y": "532801.28186",
    "longitude": "-90.11996335060707",
    "latitude": "29.95950792969848",
    "geocoded_column": {
      "latitude": "29.95950792969848",
      "longitude": "-90.11996335060707"
    }
  },
  {
    "service_request": "2026-1293817",
    "request_type": "Trash/Recycling",
    "request_reason": "Request a Large Item Pick Up",
    "date_created": "2026-06-24T13:47:10.000",
    "date_modified": "2026-06-24T15:15:03.000",
    "request_status": "Pending",
    "responsible_agency": "Department of Sanitation",
    "final_address": "1016 Bordeaux St",
    "address_councildis": "B",
    "status": "Assigned to Contractor",
    "contractor": "IV Waste",
    "rowid": "1293817",
    "final_x": "3669483.77806",
    "final_y": "519153.703415",
    "longitude": "-90.10643144372524",
    "latitude": "29.921851731996213",
    "geocoded_column": {
      "latitude": "29.921851731996213",
      "longitude": "-90.10643144372524"
    }
  },
  {
    "service_request": "2026-1293816",
    "request_type": "Trash/Recycling",
    "request_reason": "Request a Large Item Pick Up",
    "date_created": "2026-06-24T13:47:08.000",
    "date_modified": "2026-06-24T13:47:10.000",
    "request_status": "Pending",
    "responsible_agency": "Department of Sanitation",
    "final_address": "1932 Allen Toussaint Blvd",
    "address_councildis": "D",
    "status": "Assigned to Contractor",
    "contractor": "IV Waste",
    "rowid": "1293816",
    "final_x": "3681748.06159",
    "final_y": "555498.584729",
    "longitude": "-90.0664498922029",
    "latitude": "30.021420803561615",
    "geocoded_column": {
      "latitude": "30.021420803561615",
      "longitude": "-90.0664498922029"
    }
  },