[
  {
    "service_request": "2023-1018454",
    "request_type": "Abandoned Vehicles",
    "request_reason": "Abandoned/Junk Vehicles",
    "date_created": "2023-07-19T01:59:05.000",
    "date_modified": "2023-07-19T01:59:05.000",
    "request_status": "Pending",
    "responsible_agency": "Department of Public Works",
    "final_address": "4600 BLK Paris Ave",
    "address_councildis": "D",
    "status": "Pending",
    "rowid": "1018454",
    "final_x": "3679307.61937",
    "final_y": "549691.05723",
    "longitude": "-90.07436264328081",
    "latitude": "30.005526164978054",
    "geocoded_column": {
      "latitude": "30.005526164978054",
      "longitude": "-90.07436264328081"
    }
  },
  {
    "service_request": "2023-1018453",
    "request_type": "Roads/Drainage",
    "request_reason": "Pothole",
    "date_created": "2023-07-19T01:48:24.000",
    "date_modified": "2023-07-19T01:48:24.000",
    "request_status": "Pending",
    "responsible_agency": "Department of Public Works",
    "final_address": "1221 Constantinople St",
    "address_councildis": "B",
    "status": "Pending",
    "rowid": "1018453",
    "final_x": "3672464.70081",
    "final_y": "520181.419896",
    "longitude": "-90.09698691327688",
    "latitude": "29.92458952289487",
    "geocoded_column": {
      "latitude": "29.92458952289487",
      "longitude": "-90.09698691327688"
    }
  },
  {
    "service_request": "2023-1018452",
    "request_type": "Trash/Recycling",
    "request_reason": "Order Recycling Cart",
    "date_created": "2023-07-19T01:29:11.000",
    "date_modified": "2023-07-19T01:29:11.000",
    "request_status": "Pending",
    "responsible_agency": "Department of Sanitation",
    "final_address": "1620 Broadway St",
    "address_councildis": "A",
    "status": "Pending",
    "rowid": "1018452",
    "final_x": "3665008.65031",
    "final_y": "527862.567551",
    "longitude": "-90.1202665518321",
    "latitude": "29.945929341320046",
    "geocoded_column": {
      "latitude": "29.945929341320046",
      "longitude": "-90.1202665518321"
    }
  },
  {
    "service_request": "2023-1018451",
    "request_type": "Roads/Drainage",
    "request_reason": "Pothole",
    "date_created": "2023-07-19T00:16:15.000",
    "date_modified": "2023-07-19T00:16:15.000",
    "request_status": "Pending",
    "responsible_agency": "Department of Public Works",
    "final_address": "4200 Perrier St",
    "address_councildis": "B",
    "status": "Pending",
    "rowid": "1018451",
    "final_x": "3671579.76411",
    "final_y": "520095.16844",
    "longitude": "-90.09978329705561",
    "latitude": "29.924378584144126",
    "geocoded_column": {
      "latitude": "29.924378584144126",
      "longitude": "-90.09978329705561"
    }
  },
  {
    "service_request": "2023-1018449",
    "request_type": "Trash/Recycling",
    "request_reason": "Request a Large Item Pick Up",
    "date_created": "2023-07-18T23:07:46.000",
    "date_modified": "2023-07-18T23:07:46.000",
    "request_status": "Pending",
    "responsible_agency": "Department of Sanitation",
    "final_address": "5118 Burgundy St",
    "address_councildis": "E",
    "status": "Assigned to Contractor",
    "contractor": "Waste Pro",
    "rowid": "1018449",
    "final_x": "3696159.65098",
    "final_y": "533352.931012",
    "longitude": "-90.0217144133535",
    "latitude": "29.960082353416187",
    "geocoded_column": {
      "latitude": "29.960082353416187",
      "longitude": "-90.0217144133535"
    }
  },
  {
    "service_request": "2023-1018448",
    "request_type": "Trash/Recycling",
    "request_reason": "Repair Recycling Cart",
    "date_created": "2023-07-18T22:46:01.000",
    "date_modified": "2023-07-18T22:46:01.000",
    "request_status": "Pending",
    "responsible_agency": "Department of Sanitation",
    "final_address": "5339 Cameron Blvd",
    "address_councildis": "D",
    "status": "Pending",
    "rowid": "1018448",
    "final_x": "3682689.89896",
    "final_y": "552659.32655",
    "longitude": "-90.06357336112005",
    "latitude": "30.013585214790485",
    "geocoded_column": {
      "latitude": "30.013585214790485",
      "longitude": "-90.06357336112005"
    }
  },
  {
    "service_request": "2023-1018447",
    "request_type": "Trash/Recycling",
    "request_reason": "Request a Large Item Pick Up",
    "date_created": "2023-07-18T22:32:35.000",
    "date_modified": "2023-07-18T22:32:35.000",
    "request_status": "Pending",
    "responsible_agency": "Department of Sanitation",
    "final_address": "4524 Baudin St",
    "address_councildis": "A",
    "status": "Assigned to Contractor",
    "contractor": "Richards Disposal",
    "rowid": "1018447",
    "final_x": "3668485.79886",
    "final_y": "538264.270473",
    "longitude": "-90.10893705383815",
    "latitude": "29.974428912348138",
    "geocoded_column": {
      "latitude": "29.974428912348138",
      "longitude": "-90.10893705383815"
    }
  },
  {
    "service_request": "2023-1018446",
    "request_type": "Trash/Recycling",
    "request_reason": "Repair Trash Cart",
    "date_created": "2023-07-18T21:57:21.000",
    "date_modified": "2023-07-18T21:57:22.000",
    "request_status": "Pending",
    "responsible_agency": "Department of Sanitation",
    "final_address": "3633 Camp St",
    "address_councildis": "B",
    "status": "Assigned to Contractor",
    "contractor": "Richards Disposal",
    "rowid": "1018446",
    "final_x": "3673778.61876",
    "final_y": "519601.614136",
    "longitude": "-90.09285912535428",
    "latitude": "29.92295619560548",
    "geocoded_column": {
      "latitude": "29.92295619560548",
      "longitude": "-90.09285912535428"
    }
  },
  {
    "service_request": "2023-1018445",
    "request_type": "Traffic Signals/Signs/Striping/Streetlights",
    "request_reason": "Street Light Outage/Malfunction",
    "date_created": "2023-07-18T21:37:37.000",
    "date_modified": "2023-07-18T21:37:38.000",
    "request_status": "Pending",
    "responsible_agency": "Department of Public Works",
    "final_address": "2401 Marengo St",
    "address_councildis": "B",
    "status": "Assigned to Contractor",
    "contractor": "Legacy Professional Services",
    "rowid": "1018445",
    "final_x": "3671715.37486",
    "final_y": "523840.489019",
    "longitude": "-90.09922788559095",
    "latitude": "29.9346729972627",
    "geocoded_column": {
      "latitude": "29.9346729972627",
      "longitude": "-90.09922788559095"
    }
  },
  {
    "service_request": "2023-1018444",
    "request_type": "Traffic Signals/Signs/Striping/Streetlights",
    "request_reason": "Street Light Outage/Malfunction",
    "date_created": "2023-07-18T21:12:57.000",
    "date_modified": "2023-07-18T21:12:57.000",
    "request_status": "Pending",
    "responsible_agency": "Department of Public Works",
    "final_address": "6643 Coventry St",
    "address_councildis": "E",
    "status": "Assigned to Contractor",
    "contractor": "Legacy Professional Services",
    "rowid": "1018444",
    "final_x": "3697771.64701",
    "final_y": "559422.910877",
    "longitude": "-90.01567743255546",
    "latitude": "30.031714334163297",
    "geocoded_column": {
      "latitude": "30.031714334163297",
      "longitude": "-90.01567743255546"
    }
  },
  {
    "service_request": "2023-1018443",
    "request_type": "Trash/Recycling",
    "request_reason": "Request a Large Item Pick Up",
    "date_created": "2023-07-18T21:08:40.000",
    "date_modified": "2023-07-18T21:08:41.000",
    "request_status": "Pending",
    "responsible_agency": "Department of Sanitation",
    "final_address": "1027 Dauphine St",
    "address_councildis": "C",
    "status": "Assigned to Contractor",
    "contractor": "Empire Services",
    "rowid": "1018443",
    "final_x": "3682756.98664",
    "final_y": "533981.421381",
    "longitude": "-90.06401511635292",
    "latitude": "29.9622255262279",
    "geocoded_column": {
      "latitude": "29.9622255262279",
      "longitude": "-90.06401511635292"
    }
  },
  {
    "service_request": "2023-1018442",
    "request_type": "Trash/Recycling",
    "request_reason": "Request a Large Item Pick Up",
    "date_created": "2023-07-18T20:56:46.000",
    "date_modified": "2023-07-18T20:56:46.000",
    "request_status": "Pending",
    "responsible_agency": "Department of Sanitation",
    "final_address": "11425 N Easterlyn Cir",
    "address_councildis": "E",
    "status": "Assigned to Contractor",
    "contractor": "Waste Pro",
    "rowid": "1018442",
    "final_x": "3718472.88761",
    "final_y": "561024.710494",
    "longitude": "-89.95020012046852",
    "latitude": "30.0354478312785",
    "geocoded_column": {
      "latitude": "30.0354478312785",
      "longitude": "-89.95020012046852"
    }
  },
  {
    "service_request": "2023-1018441",
    "request_type": "Roads/Drainage",
    "request_reason": "Man hole cover issue",
    "date_created": "2023-07-18T20:55:03.000",
    "date_modified": "2023-07-18T20:55:04.000",
    "request_status": "Pending",
    "responsible_agency": "Department of Public Works",
    "final_address": "821 Iberville St",
    "address_councildis": "C",
    "status": "Pending",
    "rowid": "1018441",
    "final_x": "3681039.67759",
    "final_y": "531362.724162",
    "longitude": "-90.06952933061679",
    "latitude": "29.955077195962936",
    "geocoded_column": {
      "latitude": "29.955077195962936",
      "longitude": "-90.06952933061679"
    }
  },
  {
    "service_request": "2023-1018440",
    "request_type": "Safety & Permits",
    "request_reason": "Licenses & Permits",
    "date_created": "2023-07-18T20:52:10.000",
    "date_modified": "2023-07-18T20:52:10.000",
    "request_status": "Pending",
    "responsible_agency": "Safety and Permits",
    "final_address": "4205 Burgundy St",
    "address_councildis": "C",
    "status": "Pending",
    "rowid": "1018440",
    "final_x": "3692277.94409",
    "final_y": "534438.079365",
    "longitude": "-90.03393310112727",
    "latitude": "29.963187735704754",
    "geocoded_column": {
      "latitude": "29.963187735704754",
      "longitude": "-90.03393310112727"
    }
  },
  {
    "service_request": "2023-1018439",
    "request_type": "Trash/Recycling",
    "request_reason": "Order Trash Cart",
    "date_created": "2023-07-18T20:35:37.000",
    "date_modified": "2023-07-18T20:35:37.000",
    "request_status": "Pending",
    "responsible_agency": "Department of Sanitation",
    "final_address": "3922 Delachaise St",
    "address_councildis": "B",
    "status": "Assigned to Contractor",
    "contractor": "Richards Disposal",
    "rowid": "1018439",
    "final_x": "3670914.35329",
    "final_y": "529140.909824",
    "longitude": "-90.10157682163316",
    "latitude": "29.94927112832691",
    "geocoded_column": {
      "latitude": "29.94927112832691",
      "longitude": "-90.10157682163316"
    }
  },
  {
    "service_request": "2023-1018438",
    "request_type": "Traffic Signals/Signs/Striping/Streetlights",
    "request_reason": "Street Light Outage/Malfunction",
    "date_created": "2023-07-18T20:29:41.000",
    "date_modified": "2023-07-18T20:29:41.000",
    "request_status": "Pending",
    "responsible_agency": "Department of Public Works",
    "final_address": "2606 Gordon St, New Orleans, Louisiana, 70117",
    "address_councildis": "E",
    "status": "Assigned to Contractor",
    "contractor": "Legacy Professional Services",
    "rowid": "1018438",
    "final_x": "3701309.80452",
    "final_y": "538869.135625",
    "longitude": "-90.00524955372448",
    "latitude": "29.975086821609285",
    "geocoded_column": {
      "latitude": "29.975086821609285",
      "longitude": "-90.00524955372448"
    }
  },
  {
    "service_request": "2023-1018437",
    "request_type": "Trash/Recycling",
    "request_reason": "Missed Trash Pick-Up",
    "date_created": "2023-07-18T20:16:54.000",
    "date_modified": "2023-07-18T20:16:55.000",
    "request_status": "Pending",
    "responsible_agency": "Department of Sanitation",
    "final_address": "808 N Robertson St",
    "address_councildis": "C",
    "status": "Assigned to Contractor",
    "contractor": "Richards Disposal",
    "rowid": "1018437",
    "final_x": "3680376.71797",
    "final_y": "534718.637702",
    "longitude": "-90.07150601516159",
    "latitude": "29.964324907144096",
    "geocoded_column": {
      "latitude": "29.964324907144096",
      "longitude": "-90.07150601516159"
    }
  },
  {
    "service_request": "2023-1018436",
    "request_type": "Traffic Signals/Signs/Striping/Streetlights",
    "request_reason": "Street Light Outage/Malfunction",
    "date_created": "2023-07-18T20:16:13.000",
    "date_modified": "2023-07-18T20:16:13.000",
    "request_status": "Pending",
    "responsible_agency": "Department of Public Works",
    "final_address": "BULLARD AVE & S OAKRIDGE CT",
    "address_councildis": "E",
    "status": "Assigned to Contractor",
    "contractor": "Legacy Professional Services",
    "rowid": "1018436",
    "final_x": "3713188.4",
    "final_y": "567377.08",
    "longitude": "-89.96666039533747",
    "latitude": "30.053088615904297",
    "geocoded_column": {
      "latitude": "30.053088615904297",
      "longitude": "-89.96666039533747"
    }
  },
  {
    "service_request": "2023-1018435",
    "request_type": "Trash/Recycling",
    "request_reason": "Missed Trash Pick-Up",
    "date_created": "2023-07-18T20:05:15.000",
    "date_modified": "2023-07-18T20:05:16.000",
    "request_status": "Pending",
    "responsible_agency": "Department of Sanitation",
    "final_address": "2640 Milan St",
    "address_councildis": "B",
    "status": "Assigned to Contractor",
    "contractor": "Richards Disposal",
    "rowid": "1018435",
    "final_x": "3671176.83963",
    "final_y": "524774.556604",
    "longitude": "-90.10089631832712",
    "latitude": "29.937257318835595",
    "geocoded_column": {
      "latitude": "29.937257318835595",
      "longitude": "-90.10089631832712"
    }
  },
  {
    "service_request": "2023-1018434",
    "request_type": "Trash/Recycling",
    "request_reason": "Request a Large Item Pick Up",
    "date_created": "2023-07-18T20:04:38.000",
    "date_modified": "2023-07-18T20:04:39.000",
    "request_status": "Pending",
    "responsible_agency": "Department of Sanitation",
    "final_address": "1562 N Rocheblave St",
    "address_councildis": "D",
    "status": "Assigned to Contractor",
    "contractor": "IV Waste",
    "rowid": "1018434",
    "final_x": "3679855.16469",
    "final_y": "539347.49889",
    "longitude": "-90.07299225536124",
    "latitude": "29.97706846703522",
    "geocoded_column": {
      "latitude": "29.97706846703522",
      "longitude": "-90.07299225536124"
    }
  },
  {
    "service_request": "2023-1018433",
    "request_type": "Trash/Recycling",
    "request_reason": "Order Trash Cart",
    "date_created": "2023-07-18T20:03:34.000",
    "date_modified": "2023-07-18T20:03:34.000",
    "request_status": "Pending",
    "responsible_agency": "Department of Sanitation",
    "final_address": "1820 Arts St",
    "address_councildis": "D",
    "status": "Assigned to Contractor",
    "contractor": "IV Waste",
    "rowid": "1018433",
    "final_x": "3686960.06198",
    "final_y": "539244.45185",
    "longitude": "-90.05055639394759",
    "latitude": "29.976568329215446",
    "geocoded_column": {
      "latitude": "29.976568329215446",
      "longitude": "-90.05055639394759"
    }
  },
  {
    "service_request": "2023-1018432",
    "request_type": "Trash/Recycling",
    "request_reason": "Repair Recycling Cart",
    "date_created": "2023-07-18T19:56:42.000",
    "date_modified": "2023-07-18T19:56:43.000",
    "request_status": "Pending",
    "responsible_agency": "Department of Sanitation",
    "final_address": "2346 Allen Toussaint Blvd",
    "address_councildis": "D",
    "status": "Pending",
    "rowid": "1018432",
    "final_x": "3684635.65705",
    "final_y": "555721.811417",
    "longitude": "-90.05731803863921",
    "latitude": "30.021946492771722",
    "geocoded_column": {
      "latitude": "30.021946492771722",
      "longitude": "-90.05731803863921"
    }
  },
  {
    "service_request": "2023-1018431",
    "request_type": "Trash/Recycling",
    "request_reason": "Repair Trash Cart",
    "date_created": "2023-07-18T19:56:04.000",
    "date_modified": "2023-07-18T19:56:05.000",
    "request_status": "Pending",
    "responsible_agency": "Department of Sanitation",
    "final_address": "2346 Allen Toussaint Blvd",
    "address_councildis": "D",
    "status": "Assigned to Contractor",
    "contractor": "IV Waste",
    "rowid": "1018431",
    "final_x": "3684635.65705",
    "final_y": "555721.811417",
    "longitude": "-90.05731803863921",
    "latitude": "30.021946492771722",
    "geocoded_column": {
      "latitude": "30.021946492771722",
      "longitude": "-90.05731803863921"
    }
  },
  {
    "service_request": "2023-1018430",
    "request_type": "Trash/Recycling",
    "request_reason": "Replace Recycling Cart",
    "date_created": "2023-07-18T19:45:32.000",
    "date_modified": "2023-07-18T19:45:32.000",
    "request_status": "Pending",
    "responsible_agency": "Department of Sanitation",
    "final_address": "2849 Carondelet St",
    "address_councildis": "B",
    "status": "Pending",
    "rowid": "1018430",
    "final_x": "3675355.83592",
    "final_y": "522660.253946",
    "longitude": "-90.08777550750061",
    "latitude": "29.93131942144872",
    "geocoded_column": {
      "latitude": "29.93131942144872",
      "longitude": "-90.08777550750061"
    }
  },
  {
    "service_request": "2023-1018428",
    "request_type": "Parks & Parkways",
    "request_reason": "Request Tree Service (Right of Way/Public Property)",
    "date_created": "2023-07-18T19:41:09.000",
    "date_modified": "2023-07-18T19:41:09.000",
    "request_status": "Pending",
    "responsible_agency": "Department of Parks & Parkway",
    "final_address": "5234 Pitt St",
    "address_councildis": "B",
    "status": "Pending",
    "rowid": "1018428",
    "final_x": "3667796.06471",
    "final_y": "520359.733624",
    "longitude": "-90.11171826999524",
    "latitude": "29.92521751575703",
    "geocoded_column": {
      "latitude": "29.92521751575703",
      "longitude": "-90.11171826999524"
    }
  },
  {
    "service_request": "2023-1018427",
    "request_type": "Trash/Recycling",
    "request_reason": "Request a Large Item Pick Up",
    "date_created": "2023-07-18T19:36:49.000",
    "date_modified": "2023-07-18T19:36:49.000",
    "request_status": "Pending",
    "responsible_agency": "Department of Sanitation",
    "final_address": "5520 Wingate Dr",
    "address_councildis": "D",
    "status": "Assigned to Contractor",
    "contractor": "IV Waste",
    "rowid": "1018427",
    "final_x": "3681271.35439",
    "final_y": "553379.970647",
    "longitude": "-90.06803007767462",
    "latitude": "30.01560987128206",
    "geocoded_column": {
      "latitude": "30.01560987128206",
      "longitude": "-90.06803007767462"
    }
  },
  {
    "service_request": "2023-1018424",
    "request_type": "Abandoned Vehicles",
    "request_reason": "Vehicle Blocking Your Driveway",
    "date_created": "2023-07-18T19:20:38.000",
    "date_modified": "2023-07-18T19:20:38.000",
    "request_status": "Pending",
    "responsible_agency": "Department of Public Works",
    "final_address": "2427 Napoleon Ave, New Orleans, Louisiana, 70115",
    "address_councildis": "B",
    "status": "Pending",
    "rowid": "1018424",
    "final_x": "3670643.28673",
    "final_y": "523928.028604",
    "longitude": "-90.1026094879799",
    "latitude": "29.934945409062212",
    "geocoded_column": {
      "latitude": "29.934945409062212",
      "longitude": "-90.1026094879799"
    }
  },
  {
    "service_request": "2023-1018423",
    "request_type": "Traffic Signals/Signs/Striping/Streetlights",
    "request_reason": "Traffic Signal Malfunctioning/Damaged",
    "date_created": "2023-07-18T18:50:51.000",
    "date_modified": "2023-07-18T18:50:52.000",
    "request_status": "Pending",
    "responsible_agency": "Department of Public Works",
    "final_address": "A P TUREAUD AVE & N BROAD ST",
    "address_councildis": "D",
    "status": "Pending",
    "rowid": "1018423",
    "final_x": "3681390.5",
    "final_y": "543203.48",
    "longitude": "-90.06800869084115",
    "latitude": "29.98762454281823",
    "geocoded_column": {
      "latitude": "29.98762454281823",
      "longitude": "-90.06800869084115"
    }
  },
  {
    "service_request": "2023-1018422",
    "request_type": "Abandoned Vehicles",
    "request_reason": "Abandoned/Junk Vehicles",
    "date_created": "2023-07-18T18:41:51.000",
    "date_modified": "2023-07-18T18:41:51.000",
    "request_status": "Pending",
    "responsible_agency": "Department of Public Works",
    "final_address": "1220 Philip St",
    "address_councildis": "B",
    "status": "Pending",
    "rowid": "1018422",
    "final_x": "3678178.96226",
    "final_y": "522215.659514",
    "longitude": "-90.07887861309868",
    "latitude": "29.930012248040878",
    "geocoded_column": {
      "latitude": "29.930012248040878",
      "longitude": "-90.07887861309868"
    }
  },
  {
    "service_request": "2023-1018421",
    "request_type": "Trash/Recycling",
    "request_reason": "MIssed Recycling Pick-Up",
    "date_created": "2023-07-18T18:41:19.000",
    "date_modified": "2023-07-18T18:41:19.000",
    "request_status": "Pending",
    "responsible_agency": "Department of Sanitation",
    "final_address": "507 Harrison Ave",
    "address_councildis": "A",
    "status": "Assigned to Contractor",
    "contractor": "IV Waste",
    "rowid": "1018421",
    "final_x": "3668008.75169",
    "final_y": "549437.193875",
    "longitude": "-90.11006697607102",
    "latitude": "30.005164642282004",
    "geocoded_column": {
      "latitude": "30.005164642282004",
      "longitude": "-90.11006697607102"
    }
  },
  {
    "service_request": "2023-1018420",
    "request_type": "Property Maintenance",
    "request_reason": "Property Maintenance",
    "date_created": "2023-07-18T18:39:16.000",
    "date_modified": "2023-07-18T18:39:16.000",
    "request_status": "Pending",
    "responsible_agency": "Department of Code Enforcement",
    "final_address": "5301 Dauphine St",
    "address_councildis": "E",
    "status": "Pending",
    "rowid": "1018420",
    "final_x": "3696531.32592",
    "final_y": "532953.406724",
    "longitude": "-90.02055520421199",
    "latitude": "29.958972099234682",
    "geocoded_column": {
      "latitude": "29.958972099234682",
      "longitude": "-90.02055520421199"
    }
  },
  {
    "service_request": "2023-1018419",
    "request_type": "Roads/Drainage",
    "request_reason": "Pothole",
    "date_created": "2023-07-18T18:38:41.000",
    "date_modified": "2023-07-18T18:38:41.000",
    "request_status": "Pending",
    "responsible_agency": "Department of Public Works",
    "final_address": "2000 Valence St",
    "address_councildis": "B",
    "status": "Pending",
    "rowid": "1018419",
    "final_x": "3669529.73377",
    "final_y": "522354.544634",
    "longitude": "-90.10617817345093",
    "latitude": "29.930651673171905",
    "geocoded_column": {
      "latitude": "29.930651673171905",
      "longitude": "-90.10617817345093"
    }
  },
  {
    "service_request": "2023-1018418",
    "request_type": "Trash/Recycling",
    "request_reason": "Missed Trash Pick-Up",
    "date_created": "2023-07-18T18:37:16.000",
    "date_modified": "2023-07-18T18:37:16.000",
    "request_status": "Pending",
    "responsible_agency": "Department of Sanitation",
    "final_address": "1716 Peniston St",
    "address_councildis": "B",
    "status": "Assigned to Contractor",
    "contractor": "Richards Disposal",
    "rowid": "1018418",
    "final_x": "3672703.25512",
    "final_y": "521676.042169",
    "longitude": "-90.09618293650352",
    "latitude": "29.928692174491566",
    "geocoded_column": {
      "latitude": "29.928692174491566",
      "longitude": "-90.09618293650352"
    }
  },
  {
    "service_request": "2023-1018417",
    "request_type": "Property Maintenance",
    "request_reason": "Property Maintenance",
    "date_created": "2023-07-18T18:18:38.000",
    "date_modified": "2023-07-18T18:18:38.000",
    "request_status": "Pending",
    "responsible_agency": "Department of Code Enforcement",
    "final_address": "5301 Dauphine St",
    "address_councildis": "E",
    "status": "Pending",
    "rowid": "1018417",
    "final_x": "3696531.32592",
    "final_y": "532953.406724",
    "longitude": "-90.02055520421199",
    "latitude": "29.958972099234682",
    "geocoded_column": {
      "latitude": "29.958972099234682",
      "longitude": "-90.02055520421199"
    }
  },
  {
    "service_request": "2023-1018416",
    "request_type": "Traffic Signals/Signs/Striping/Streetlights",
    "request_reason": "Road Surface Marking Maintenance-Parking Lane",
    "date_created": "2023-07-18T18:14:14.000",
    "date_modified": "2023-07-18T18:14:14.000",
    "request_status": "Pending",
    "responsible_agency": "Department of Public Works",
    "final_address": "1032 Constantinople St",
    "address_councildis": "B",
    "status": "Pending",
    "rowid": "1018416",
    "final_x": "3672412.47707",
    "final_y": "519564.554936",
    "longitude": "-90.0971727735757",
    "latitude": "29.92289489084646",
    "geocoded_column": {
      "latitude": "29.92289489084646",
      "longitude": "-90.0971727735757"
    }
  },
  {
    "service_request": "2023-1018415",
    "request_type": "Trash/Recycling",
    "request_reason": "MIssed Recycling Pick-Up",
    "date_created": "2023-07-18T18:11:45.000",
    "date_modified": "2023-07-18T18:11:46.000",
    "request_status": "Pending",
    "responsible_agency": "Department of Sanitation",
    "final_address": "2748 Palmyra St",
    "address_councildis": "B",
    "status": "Assigned to Contractor",
    "contractor": "Richards Disposal",
    "rowid": "1018415",
    "final_x": "3674482.83656",
    "final_y": "534668.327814",
    "longitude": "-90.09012016725505",
    "latitude": "29.964363721937996",
    "geocoded_column": {
      "latitude": "29.964363721937996",
      "longitude": "-90.09012016725505"
    }
  },
  {
    "service_request": "2023-1018414",
    "request_type": "Traffic Signals/Signs/Striping/Streetlights",
    "request_reason": "Street Light Outage/Malfunction",
    "date_created": "2023-07-18T18:08:34.000",
    "date_modified": "2023-07-18T18:08:35.000",
    "request_status": "Pending",
    "responsible_agency": "Department of Public Works",
    "final_address": "3457 Roger Williams St",
    "address_councildis": "D",
    "status": "Assigned to Contractor",
    "contractor": "Legacy Professional Services",
    "rowid": "1018414",
    "final_x": "3676354.40309",
    "final_y": "544061.560782",
    "longitude": "-90.0838864518436",
    "latitude": "29.990135919809916",
    "geocoded_column": {
      "latitude": "29.990135919809916",
      "longitude": "-90.0838864518436"
    }
  },
  {
    "service_request": "2023-1018412",
    "request_type": "Trash/Recycling",
    "request_reason": "Return Trash Cart",
    "date_created": "2023-07-18T18:02:32.000",
    "date_modified": "2023-07-18T18:02:33.000",
    "request_status": "Pending",
    "responsible_agency": "Department of Sanitation",
    "final_address": "1516 Governor Nicholls St",
    "address_councildis": "C",
    "status": "Assigned to Contractor",
    "contractor": "Richards Disposal",
    "rowid": "1018412",
    "final_x": "3681330.9956",
    "final_y": "535772.368455",
    "longitude": "-90.06845575250163",
    "latitude": "29.96719337543092",
    "geocoded_column": {
      "latitude": "29.96719337543092",
      "longitude": "-90.06845575250163"
    }
  },
  {
    "service_request": "2023-1018411",
    "request_type": "Property Maintenance",
    "request_reason": "Property Maintenance",
    "date_created": "2023-07-18T18:01:56.000",
    "date_modified": "2023-07-18T18:01:56.000",
    "request_status": "Pending",
    "responsible_agency": "Department of Code Enforcement",
    "final_address": "3320 Lamarque St",
    "address_councildis": "C",
    "status": "Pending",
    "rowid": "1018411",
    "final_x": "3696550.50896",
    "final_y": "526665.70931",
    "longitude": "-90.02072207647424",
    "latitude": "29.941682527405867",
    "geocoded_column": {
      "latitude": "29.941682527405867",
      "longitude": "-90.02072207647424"
    }
  },
  {
    "service_request": "2023-1018410",
    "request_type": "Property Maintenance",
    "request_reason": "Property Maintenance",
    "date_created": "2023-07-18T17:55:19.000",
    "date_modified": "2023-07-18T17:55:19.000",
    "request_status": "Pending",
    "responsible_agency": "Department of Code Enforcement",
    "final_address": "5570 Red Maple Dr",
    "address_councildis": "E",
    "status": "Pending",
    "rowid": "1018410",
    "final_x": "3723350.5431",
    "final_y": "563929.053857",
    "longitude": "-89.93467407672138",
    "latitude": "30.043270788388522",
    "geocoded_column": {
      "latitude": "30.043270788388522",
      "longitude": "-89.93467407672138"
    }
  },
  {
    "service_request": "2023-1018409",
    "request_type": "Trash/Recycling",
    "request_reason": "Replace Trash Cart",
    "date_created": "2023-07-18T17:55:08.000",
    "date_modified": "2023-07-18T19:44:06.000",
    "case_close_date": "2023-07-18T14:44:06.000",
    "request_status": "Closed",
    "responsible_agency": "Department of Sanitation",
    "final_address": "715 N Alexander St",
    "address_councildis": "A",
    "status": "Resolved",
    "contractor": "Richards Disposal",
    "contractor_action": "Completed",
    "rowid": "1018409",
    "final_x": "3671352.44295",
    "final_y": "541012.408843",
    "longitude": "-90.09979004920551",
    "latitude": "29.981900821444476",
    "geocoded_column": {
      "latitude": "29.981900821444476",
      "longitude": "-90.09979004920551"
    }
  },
  {
    "service_request": "2023-1018408",
    "request_type": "Property Maintenance",
    "request_reason": "Property Maintenance",
    "date_created": "2023-07-18T17:52:30.000",
    "date_modified": "2023-07-18T17:52:30.000",
    "request_status": "Pending",
    "responsible_agency": "Department of Code Enforcement",
    "final_address": "3319 Lamarque St",
    "address_councildis": "C",
    "status": "Pending",
    "rowid": "1018408",
    "final_x": "3696516.97635",
    "final_y": "526563.454782",
    "longitude": "-90.0208316431023",
    "latitude": "29.941402419084877",
    "geocoded_column": {
      "latitude": "29.941402419084877",
      "longitude": "-90.0208316431023"
    }
  },
  {
    "service_request": "2023-1018407",
    "request_type": "Trash/Recycling",
    "request_reason": "Replace Trash Cart",
    "date_created": "2023-07-18T17:51:28.000",
    "date_modified": "2023-07-18T17:51:28.000",
    "request_status": "Pending",
    "responsible_agency": "Department of Sanitation",
    "final_address": "715 N Alexander St",
    "address_councildis": "A",
    "status": "Assigned to Contractor",
    "contractor": "Richards Disposal",
    "rowid": "1018407",
    "final_x": "3671352.44295",
    "final_y": "541012.408843",
    "longitude": "-90.09979004920551",
    "latitude": "29.981900821444476",
    "geocoded_column": {
      "latitude": "29.981900821444476",
      "longitude": "-90.09979004920551"
    }
  },
  {
    "service_request": "2023-1018406",
    "request_type": "Trash/Recycling",
    "request_reason": "MIssed Recycling Pick-Up",
    "date_created": "2023-07-18T17:50:28.000",
    "date_modified": "2023-07-18T17:50:29.000",
    "request_status": "Pending",
    "responsible_agency": "Department of Sanitation",
    "final_address": "61 Morrison Ct",
    "address_councildis": "E",
    "status": "Assigned to Contractor",
    "contractor": "Waste Pro",
    "rowid": "1018406",
    "final_x": "3704144.45783",
    "final_y": "561478.294303",
    "longitude": "-89.99546333096717",
    "latitude": "30.037162790820343",
    "geocoded_column": {
      "latitude": "30.037162790820343",
      "longitude": "-89.99546333096717"
    }
  },
  {
    "service_request": "2023-1018405",
    "request_type": "Property Maintenance",
    "request_reason": "Property Maintenance",
    "date_created": "2023-07-18T17:44:30.000",
    "date_modified": "2023-07-18T17:44:30.000",
    "request_status": "Pending",
    "responsible_agency": "Department of Code Enforcement",
    "final_address": "3301 Lamarque St",
    "address_councildis": "C",
    "status": "Pending",
    "rowid": "1018405",
    "final_x": "3696399.45239",
    "final_y": "526569.251198",
    "longitude": "-90.0212024775144",
    "latitude": "29.941422058230504",
    "geocoded_column": {
      "latitude": "29.941422058230504",
      "longitude": "-90.0212024775144"
    }
  },
  {
    "service_request": "2023-1018404",
    "request_type": "Property Maintenance",
    "request_reason": "Property Maintenance",
    "date_created": "2023-07-18T17:42:09.000",
    "date_modified": "2023-07-18T17:42:09.000",
    "request_status": "Pending",
    "responsible_agency": "Department of Code Enforcement",
    "final_address": "3301 Lamarque St",
    "address_councildis": "C",
    "status": "Pending",
    "rowid": "1018404",
    "final_x": "3696399.45239",
    "final_y": "526569.251198",
    "longitude": "-90.0212024775144",
    "latitude": "29.941422058230504",
    "geocoded_column": {
      "latitude": "29.941422058230504",
      "longitude": "-90.0212024775144"
    }
  },
  {
    "service_request": "2023-1018403",
    "request_type": "Trash/Recycling",
    "request_reason": "Request a Large Item Pick Up",
    "date_created": "2023-07-18T17:38:24.000",
    "date_modified": "2023-07-18T17:38:25.000",
    "request_status": "Pending",
    "responsible_agency": "Department of Sanitation",
    "final_address": "5312 Wickfield Dr",
    "address_councildis": "D",
    "status": "Assigned to Contractor",
    "contractor": "IV Waste",
    "rowid": "1018403",
    "final_x": "3681095.41147",
    "final_y": "552401.477654",
    "longitude": "-90.06862009981054",
    "latitude": "30.012924711468724",
    "geocoded_column": {
      "latitude": "30.012924711468724",
      "longitude": "-90.06862009981054"
    }
  },
  {
    "service_request": "2023-1018402",
    "request_type": "Trash/Recycling",
    "request_reason": "Replace Trash Cart",
    "date_created": "2023-07-18T17:37:00.000",
    "date_modified": "2023-07-18T17:37:01.000",
    "request_status": "Pending",
    "responsible_agency": "Department of Sanitation",
    "final_address": "7309 Cohn St",
    "address_councildis": "A",
    "status": "Assigned to Contractor",
    "contractor": "Richards Disposal",
    "rowid": "1018402",
    "final_x": "3665238.39437",
    "final_y": "528813.814592",
    "longitude": "-90.11950935328315",
    "latitude": "29.94853827396418",
    "geocoded_column": {
      "latitude": "29.94853827396418",
      "longitude": "-90.11950935328315"
    }
  },
  {
    "service_request": "2023-1018401",
    "request_type": "Property Maintenance",
    "request_reason": "Property Maintenance",
    "date_created": "2023-07-18T17:33:05.000",
    "date_modified": "2023-07-18T17:33:06.000",
    "request_status": "Pending",
    "responsible_agency": "Department of Code Enforcement",
    "final_address": "2923 Bruxelles St",
    "address_councildis": "D",
    "status": "Pending",
    "rowid": "1018401",
    "final_x": "3680320.48584",
    "final_y": "543164.263309",
    "longitude": "-90.07138986146205",
    "latitude": "29.987549156910255",
    "geocoded_column": {
      "latitude": "29.987549156910255",
      "longitude": "-90.07138986146205"
    }
  },
  {
    "service_request": "2023-1018400",
    "request_type": "Property Maintenance",
    "request_reason": "Property Maintenance",
    "date_created": "2023-07-18T17:30:05.000",
    "date_modified": "2023-07-18T17:30:05.000",
    "request_status": "Pending",
    "responsible_agency": "Department of Code Enforcement",
    "final_address": "818 Fats Domino Ave",
    "address_councildis": "E",
    "status": "Pending",
    "rowid": "1018400",
    "final_x": "3697707.43696",
    "final_y": "532797.721732",
    "longitude": "-90.01684700923774",
    "latitude": "29.958506917747936",
    "geocoded_column": {
      "latitude": "29.958506917747936",
      "longitude": "-90.01684700923774"
    }
  },
  {
    "service_request": "2023-1018399",
    "request_type": "Trash/Recycling",
    "request_reason": "Dead Animal Pick Up",
    "date_created": "2023-07-18T17:27:04.000",
    "date_modified": "2023-07-18T17:27:04.000",
    "request_status": "Pending",
    "responsible_agency": "Department of Sanitation",
    "final_address": "300 BLK Chartres St",
    "address_councildis": "C",
    "status": "Assigned to Contractor",
    "contractor": "Empire Services",
    "rowid": "1018399",
    "final_x": "3682059.23263",
    "final_y": "531225.940289",
    "longitude": "-90.06631473511996",
    "latitude": "29.954670126904706",
    "geocoded_column": {
      "latitude": "29.954670126904706",
      "longitude": "-90.06631473511996"
    }
  },
  {
    "service_request": "2023-1018398",
    "request_type": "Traffic Signals/Signs/Striping/Streetlights",
    "request_reason": "Street Light Outage/Malfunction",
    "date_created": "2023-07-18T17:26:26.000",
    "date_modified": "2023-07-18T17:26:26.000",
    "request_status": "Pending",
    "responsible_agency": "Department of Public Works",
    "final_address": "1844 Moss St",
    "address_councildis": "A",
    "status": "Assigned to Contractor",
    "contractor": "Legacy Professional Services",
    "rowid": "1018398",
    "final_x": "3675353.45077",
    "final_y": "543481.011982",
    "longitude": "-90.0870681451968",
    "latitude": "29.98856958561825",
    "geocoded_column": {
      "latitude": "29.98856958561825",
      "longitude": "-90.0870681451968"
    }
  },
  {
    "service_request": "2023-1018397",
    "request_type": "Trash/Recycling",
    "request_reason": "Request a Large Item Pick Up",
    "date_created": "2023-07-18T17:25:47.000",
    "date_modified": "2023-07-18T17:25:48.000",
    "request_status": "Pending",
    "responsible_agency": "Department of Sanitation",
    "final_address": "5878 General Diaz St",
    "address_councildis": "A",
    "status": "Assigned to Contractor",
    "contractor": "IV Waste",
    "rowid": "1018397",
    "final_x": "3669344.32116",
    "final_y": "546484.251153",
    "longitude": "-90.10594754505031",
    "latitude": "29.997005803143573",
    "geocoded_column": {
      "latitude": "29.997005803143573",
      "longitude": "-90.10594754505031"
    }
  },
  {
    "service_request": "2023-1018396",
    "request_type": "Abandoned Vehicles",
    "request_reason": "Abandoned/Junk Vehicles",
    "date_created": "2023-07-18T17:16:07.000",
    "date_modified": "2023-07-18T17:17:18.000",
    "request_status": "Pending",
    "responsible_agency": "Department of Public Works",
    "final_address": "2518 Constance St",
    "address_councildis": "B",
    "status": "Pending",
    "rowid": "1018396",
    "final_x": "3677898.38907",
    "final_y": "520907.463417",
    "longitude": "-90.07980951500602",
    "latitude": "29.926423578325192",
    "geocoded_column": {
      "latitude": "29.926423578325192",
      "longitude": "-90.07980951500602"
    }
  },
  {
    "service_request": "2023-1018395",
    "request_type": "Trash/Recycling",
    "request_reason": "Repair Trash Cart",
    "date_created": "2023-07-18T17:13:31.000",
    "date_modified": "2023-07-18T17:13:32.000",
    "request_status": "Pending",
    "responsible_agency": "Department of Sanitation",
    "final_address": "1941 Alvar St",
    "address_councildis": "D",
    "status": "Assigned to Contractor",
    "contractor": "IV Waste",
    "rowid": "1018395",
    "final_x": "3692368.98473",
    "final_y": "538711.877001",
    "longitude": "-90.03349250648292",
    "latitude": "29.974936328962652",
    "geocoded_column": {
      "latitude": "29.974936328962652",
      "longitude": "-90.03349250648292"
    }
  },
  {
    "service_request": "2023-1018394",
    "request_type": "Trash/Recycling",
    "request_reason": "Order Trash Cart",
    "date_created": "2023-07-18T17:06:53.000",
    "date_modified": "2023-07-18T17:06:54.000",
    "request_status": "Pending",
    "responsible_agency": "Department of Sanitation",
    "final_address": "8521 Belfast St",
    "address_councildis": "A",
    "status": "Assigned to Contractor",
    "contractor": "Richards Disposal",
    "rowid": "1018394",
    "final_x": "3664426.51808",
    "final_y": "533483.329796",
    "longitude": "-90.12191692461873",
    "latitude": "29.96140154704749",
    "geocoded_column": {
      "latitude": "29.96140154704749",
      "longitude": "-90.12191692461873"
    }
  },
  {
    "service_request": "2023-1018393",
    "request_type": "Trash/Recycling",
    "request_reason": "Missed Trash Pick-Up",
    "date_created": "2023-07-18T17:05:39.000",
    "date_modified": "2023-07-18T17:05:40.000",
    "request_status": "Pending",
    "responsible_agency": "Department of Sanitation",
    "final_address": "5330 Camp St",
    "address_councildis": "B",
    "status": "Assigned to Contractor",
    "contractor": "Richards Disposal",
    "rowid": "1018393",
    "final_x": "3667254.12948",
    "final_y": "519003.313463",
    "longitude": "-90.11347457721239",
    "latitude": "29.921503664049855",
    "geocoded_column": {
      "latitude": "29.921503664049855",
      "longitude": "-90.11347457721239"
    }
  },
  {
    "service_request": "2023-1018392",
    "request_type": "Trash/Recycling",
    "request_reason": "Request a Large Item Pick Up",
    "date_created": "2023-07-18T17:05:29.000",
    "date_modified": "2023-07-18T17:05:30.000",
    "request_status": "Pending",
    "responsible_agency": "Department of Sanitation",
    "final_address": "12021 E Barrington Dr",
    "address_councildis": "E",
    "status": "Assigned to Contractor",
    "contractor": "Waste Pro",
    "rowid": "1018392",
    "final_x": "3714694.86821",
    "final_y": "566127.617571",
    "longitude": "-89.96194617379786",
    "latitude": "30.049603613661116",
    "geocoded_column": {
      "latitude": "30.049603613661116",
      "longitude": "-89.96194617379786"
    }
  },
  {
    "service_request": "2023-1018391",
    "request_type": "Trash/Recycling",
    "request_reason": "MIssed Recycling Pick-Up",
    "date_created": "2023-07-18T17:04:01.000",
    "date_modified": "2023-07-18T17:04:02.000",
    "request_status": "Pending",
    "responsible_agency": "Department of Sanitation",
    "final_address": "407 S Pierce St",
    "address_councildis": "A",
    "status": "Assigned to Contractor",
    "contractor": "Richards Disposal",
    "rowid": "1018391",
    "final_x": "3670648.27732",
    "final_y": "537030.489224",
    "longitude": "-90.10214928033112",
    "latitude": "29.970972715041356",
    "geocoded_column": {
      "latitude": "29.970972715041356",
      "longitude": "-90.10214928033112"
    }
  },
  {
    "service_request": "2023-1018390",
    "request_type": "Trash/Recycling",
    "request_reason": "Request a Large Item Pick Up",
    "date_created": "2023-07-18T16:59:51.000",
    "date_modified": "2023-07-18T16:59:52.000",
    "request_status": "Pending",
    "responsible_agency": "Department of Sanitation",
    "final_address": "14150 Peltier Dr",
    "address_councildis": "E",
    "status": "Assigned to Contractor",
    "contractor": "Waste Pro",
    "rowid": "1018390",
    "final_x": "3729238.40038",
    "final_y": "561899.345503",
    "longitude": "-89.91614561410792",
    "latitude": "30.037491008819913",
    "geocoded_column": {
      "latitude": "30.037491008819913",
      "longitude": "-89.91614561410792"
    }
  },
  {
    "service_request": "2023-1018389",
    "request_type": "Property Maintenance",
    "request_reason": "Property Maintenance",
    "date_created": "2023-07-18T16:56:18.000",
    "date_modified": "2023-07-18T16:56:18.000",
    "request_status": "Pending",
    "responsible_agency": "Department of Code Enforcement",
    "final_address": "1405 Port St",
    "address_councildis": "C",
    "status": "Pending",
    "rowid": "1018389",
    "final_x": "3687742.72675",
    "final_y": "537551.0594",
    "longitude": "-90.04814449153506",
    "latitude": "29.971887979853733",
    "geocoded_column": {
      "latitude": "29.971887979853733",
      "longitude": "-90.04814449153506"
    }
  },
  {
    "service_request": "2023-1018388",
    "request_type": "Trash/Recycling",
    "request_reason": "Missed Trash Pick-Up",
    "date_created": "2023-07-18T16:54:21.000",
    "date_modified": "2023-07-18T16:54:21.000",
    "request_status": "Pending",
    "responsible_agency": "Department of Sanitation",
    "final_address": "7250 Northgate Dr",
    "address_councildis": "E",
    "status": "Assigned to Contractor",
    "contractor": "Waste Pro",
    "rowid": "1018388",
    "final_x": "3713328.44088",
    "final_y": "565433.64157",
    "longitude": "-89.96629105348525",
    "latitude": "30.04774035776044",
    "geocoded_column": {
      "latitude": "30.04774035776044",
      "longitude": "-89.96629105348525"
    }
  },
  {
    "service_request": "2023-1018386",
    "request_type": "Property Maintenance",
    "request_reason": "Property Maintenance",
    "date_created": "2023-07-18T16:47:06.000",
    "date_modified": "2023-07-18T16:47:06.000",
    "request_status": "Pending",
    "responsible_agency": "Department of Code Enforcement",
    "final_address": "3515 Havana St",
    "address_councildis": "D",
    "status": "Pending",
    "rowid": "1018386",
    "final_x": "3680921.12379",
    "final_y": "545405.770704",
    "longitude": "-90.06941455721953",
    "latitude": "29.993694309395917",
    "geocoded_column": {
      "latitude": "29.993694309395917",
      "longitude": "-90.06941455721953"
    }
  },
  {
    "service_request": "2023-1018385",
    "request_type": "Trash/Recycling",
    "request_reason": "Return Trash Cart",
    "date_created": "2023-07-18T16:44:31.000",
    "date_modified": "2023-07-18T16:44:31.000",
    "request_status": "Pending",
    "responsible_agency": "Department of Sanitation",
    "final_address": "3910 Camp St",
    "address_councildis": "B",
    "status": "Assigned to Contractor",
    "contractor": "Richards Disposal",
    "rowid": "1018385",
    "final_x": "3672918.86452",
    "final_y": "519290.266423",
    "longitude": "-90.09558365622824",
    "latitude": "29.922125653871625",
    "geocoded_column": {
      "latitude": "29.922125653871625",
      "longitude": "-90.09558365622824"
    }
  },
  {
    "service_request": "2023-1018384",
    "request_type": "Abandoned Vehicles",
    "request_reason": "Abandoned/Junk Vehicles",
    "date_created": "2023-07-18T16:39:32.000",
    "date_modified": "2023-07-18T16:39:32.000",
    "request_status": "Pending",
    "responsible_agency": "Department of Public Works",
    "final_address": "5927 Dreux Ave",
    "address_councildis": "D",
    "status": "Pending",
    "rowid": "1018384",
    "final_x": "3696183.21597",
    "final_y": "553870.776727",
    "longitude": "-90.0208978921798",
    "latitude": "30.01649820386359",
    "geocoded_column": {
      "latitude": "30.01649820386359",
      "longitude": "-90.0208978921798"
    }
  },
  {
    "service_request": "2023-1018383",
    "request_type": "Property Maintenance",
    "request_reason": "Property Maintenance",
    "date_created": "2023-07-18T16:36:19.000",
    "date_modified": "2023-07-18T16:36:46.000",
    "request_status": "Pending",
    "responsible_agency": "Department of Code Enforcement",
    "final_address": "LITTLE WOODS EXIT & I 10 E",
    "address_councildis": "E",
    "status": "Pending",
    "rowid": "1018383",
    "final_x": "3721962.2",
    "final_y": "570048.78",
    "longitude": "-89.93882638257712",
    "latitude": "30.060144016221347",
    "geocoded_column": {
      "latitude": "30.060144016221347",
      "longitude": "-89.93882638257712"
    }
  },
  {
    "service_request": "2023-1018382",
    "request_type": "Trash/Recycling",
    "request_reason": "Order Recycling Cart",
    "date_created": "2023-07-18T16:33:32.000",
    "date_modified": "2023-07-18T16:33:33.000",
    "request_status": "Pending",
    "responsible_agency": "Department of Sanitation",
    "final_address": "2316 Annunciation St",
    "address_councildis": "B",
    "status": "Pending",
    "rowid": "1018382",
    "final_x": "3679091.95695",
    "final_y": "520843.546745",
    "longitude": "-90.07604396883954",
    "latitude": "29.92621187087652",
    "geocoded_column": {
      "latitude": "29.92621187087652",
      "longitude": "-90.07604396883954"
    }
  },
  {
    "service_request": "2023-1018381",
    "request_type": "Roads/Drainage",
    "request_reason": "Catch Basin - Clogged",
    "date_created": "2023-07-18T16:33:25.000",
    "date_modified": "2023-07-18T16:33:26.000",
    "request_status": "Pending",
    "responsible_agency": "Department of Public Works",
    "final_address": "1331 Eighth St",
    "address_councildis": "B",
    "status": "Pending",
    "rowid": "1018381",
    "final_x": "3675593.84264",
    "final_y": "521056.107833",
    "longitude": "-90.08707922791642",
    "latitude": "29.926901423874426",
    "geocoded_column": {
      "latitude": "29.926901423874426",
      "longitude": "-90.08707922791642"
    }
  },
  {
    "service_request": "2023-1018380",
    "request_type": "Trash/Recycling",
    "request_reason": "Repair Trash Cart",
    "date_created": "2023-07-18T16:31:53.000",
    "date_modified": "2023-07-18T16:31:54.000",
    "request_status": "Pending",
    "responsible_agency": "Department of Sanitation",
    "final_address": "1710 Valence St",
    "address_councildis": "B",
    "status": "Assigned to Contractor",
    "contractor": "Richards Disposal",
    "rowid": "1018380",
    "final_x": "3669643.87841",
    "final_y": "521226.114553",
    "longitude": "-90.10585599538028",
    "latitude": "29.927545489138605",
    "geocoded_column": {
      "latitude": "29.927545489138605",
      "longitude": "-90.10585599538028"
    }
  },
  {
    "service_request": "2023-1018379",
    "request_type": "Trash/Recycling",
    "request_reason": "MIssed Recycling Pick-Up",
    "date_created": "2023-07-18T16:31:26.000",
    "date_modified": "2023-07-18T16:31:26.000",
    "request_status": "Pending",
    "responsible_agency": "Department of Sanitation",
    "final_address": "3145 N Robertson St",
    "address_councildis": "D",
    "status": "Assigned to Contractor",
    "contractor": "IV Waste",
    "rowid": "1018379",
    "final_x": "3689794.18108",
    "final_y": "537442.603848",
    "longitude": "-90.04166955541221",
    "latitude": "29.971526338046548",
    "geocoded_column": {
      "latitude": "29.971526338046548",
      "longitude": "-90.04166955541221"
    }
  },
  {
    "service_request": "2023-1018378",
    "request_type": "Property Maintenance",
    "request_reason": "Property Maintenance",
    "date_created": "2023-07-18T16:28:45.000",
    "date_modified": "2023-07-18T16:28:45.000",
    "request_status": "Pending",
    "responsible_agency": "Department of Code Enforcement",
    "final_address": "2926 Metropolitan St",
    "address_councildis": "D",
    "status": "Pending",
    "rowid": "1018378",
    "final_x": "3691089.82377",
    "final_y": "543314.195534",
    "longitude": "-90.0373680118453",
    "latitude": "29.987630897769048",
    "geocoded_column": {
      "latitude": "29.987630897769048",
      "longitude": "-90.0373680118453"
    }
  },
  {
    "service_request": "2023-1018377",
    "request_type": "Trash/Recycling",
    "request_reason": "Request a Large Item Pick Up",
    "date_created": "2023-07-18T16:28:44.000",
    "date_modified": "2023-07-18T16:28:45.000",
    "request_status": "Pending",
    "responsible_agency": "Department of Sanitation",
    "final_address": "4532 Marais St",
    "address_councildis": "D",
    "status": "Assigned to Contractor",
    "contractor": "IV Waste",
    "rowid": "1018377",
    "final_x": "3693664.95325",
    "final_y": "535127.238086",
    "longitude": "-90.02952834458507",
    "latitude": "29.96503935715986",
    "geocoded_column": {
      "latitude": "29.96503935715986",
      "longitude": "-90.02952834458507"
    }
  },
  {
    "service_request": "2023-1018375",
    "request_type": "Parks & Parkways",
    "request_reason": "Request Tree Service (Right of Way/Public Property)",
    "date_created": "2023-07-18T16:25:23.000",
    "date_modified": "2023-07-18T16:25:23.000",
    "request_status": "Pending",
    "responsible_agency": "Department of Parks & Parkway",
    "final_address": "1674 Soniat St",
    "address_councildis": "B",
    "status": "Pending",
    "rowid": "1018375",
    "final_x": "3668346.30273",
    "final_y": "521608.524985",
    "longitude": "-90.10993924933832",
    "latitude": "29.928635153547454",
    "geocoded_column": {
      "latitude": "29.928635153547454",
      "longitude": "-90.10993924933832"
    }
  },
  {
    "service_request": "2023-1018374",
    "request_type": "Trash/Recycling",
    "request_reason": "Repair Trash Cart",
    "date_created": "2023-07-18T16:17:48.000",
    "date_modified": "2023-07-18T16:17:48.000",
    "request_status": "Pending",
    "responsible_agency": "Department of Sanitation",
    "final_address": "7621 Newcastle St",
    "address_councildis": "E",
    "status": "Assigned to Contractor",
    "contractor": "Waste Pro",
    "rowid": "1018374",
    "final_x": "3697244.5832",
    "final_y": "559478.005533",
    "longitude": "-90.01734097347916",
    "latitude": "30.03188247812552",
    "geocoded_column": {
      "latitude": "30.03188247812552",
      "longitude": "-90.01734097347916"
    }
  },
  {
    "service_request": "2023-1018373",
    "request_type": "Roads/Drainage",
    "request_reason": "Pothole",
    "date_created": "2023-07-18T16:13:39.000",
    "date_modified": "2023-07-18T16:13:57.000",
    "request_status": "Pending",
    "responsible_agency": "Department of Public Works",
    "final_address": "632 Tupelo St",
    "address_councildis": "E",
    "status": "Pending",
    "rowid": "1018373",
    "final_x": "3698849.24816",
    "final_y": "531819.655299",
    "longitude": "-90.01327707423815",
    "latitude": "29.955781460867378",
    "geocoded_column": {
      "latitude": "29.955781460867378",
      "longitude": "-90.01327707423815"
    }
  },
  {
    "service_request": "2023-1018372",
    "request_type": "Trash/Recycling",
    "request_reason": "Request a Large Item Pick Up",
    "date_created": "2023-07-18T16:04:05.000",
    "date_modified": "2023-07-18T16:04:05.000",
    "request_status": "Pending",
    "responsible_agency": "Department of Sanitation",
    "final_address": "1138 Chartres St",
    "address_councildis": "C",
    "status": "Assigned to Contractor",
    "contractor": "Empire Services",
    "rowid": "1018372",
    "final_x": "3683926.09199",
    "final_y": "533628.391749",
    "longitude": "-90.0603356442788",
    "latitude": "29.961219153658554",
    "geocoded_column": {
      "latitude": "29.961219153658554",
      "longitude": "-90.0603356442788"
    }
  },
  {
    "service_request": "2023-1018371",
    "request_type": "Parks & Parkways",
    "request_reason": "Request Tree Service (Right of Way/Public Property)",
    "date_created": "2023-07-18T16:03:17.000",
    "date_modified": "2023-07-18T16:03:18.000",
    "request_status": "Pending",
    "responsible_agency": "Department of Parks & Parkway",
    "final_address": "4739 Constance St",
    "address_councildis": "B",
    "status": "Pending",
    "rowid": "1018371",
    "final_x": "3669651.62612",
    "final_y": "518310.243382",
    "longitude": "-90.1059301367507",
    "latitude": "29.91952754100059",
    "geocoded_column": {
      "latitude": "29.91952754100059",
      "longitude": "-90.1059301367507"
    }
  },
  {
    "service_request": "2023-1018370",
    "request_type": "Trash/Recycling",
    "request_reason": "Request a Large Item Pick Up",
    "date_created": "2023-07-18T15:59:16.000",
    "date_modified": "2023-07-18T15:59:16.000",
    "request_status": "Pending",
    "responsible_agency": "Department of Sanitation",
    "final_address": "8820 Dinkins St",
    "address_councildis": "E",
    "status": "Assigned to Contractor",
    "contractor": "Waste Pro",
    "rowid": "1018370",
    "final_x": "3704551.26922",
    "final_y": "563277.84368",
    "longitude": "-89.99411125772059",
    "latitude": "30.042097775607125",
    "geocoded_column": {
      "latitude": "30.042097775607125",
      "longitude": "-89.99411125772059"
    }
  },
  {
    "service_request": "2023-1018369",
    "request_type": "Trash/Recycling",
    "request_reason": "Repair Trash Cart",
    "date_created": "2023-07-18T15:58:59.000",
    "date_modified": "2023-07-18T15:59:00.000",
    "request_status": "Pending",
    "responsible_agency": "Department of Sanitation",
    "final_address": "8857 Apricot St",
    "address_councildis": "A",
    "status": "Assigned to Contractor",
    "contractor": "Richards Disposal",
    "rowid": "1018369",
    "final_x": "3663819.87642",
    "final_y": "534495.983237",
    "longitude": "-90.12379884718932",
    "latitude": "29.964203633720786",
    "geocoded_column": {
      "latitude": "29.964203633720786",
      "longitude": "-90.12379884718932"
    }
  },
  {
    "service_request": "2023-1018368",
    "request_type": "Trash/Recycling",
    "request_reason": "Request a Large Item Pick Up",
    "date_created": "2023-07-18T15:57:52.000",
    "date_modified": "2023-07-18T15:57:52.000",
    "request_status": "Pending",
    "responsible_agency": "Department of Sanitation",
    "final_address": "4747 Babylon St",
    "address_councildis": "D",
    "status": "Assigned to Contractor",
    "contractor": "Waste Pro",
    "rowid": "1018368",
    "final_x": "3696684.67581",
    "final_y": "554257.284696",
    "longitude": "-90.01929949812799",
    "latitude": "30.01754515244721",
    "geocoded_column": {
      "latitude": "30.01754515244721",
      "longitude": "-90.01929949812799"
    }
  },
  {
    "service_request": "2023-1018367",
    "request_type": "Roads/Drainage",
    "request_reason": "Pothole",
    "date_created": "2023-07-18T15:53:24.000",
    "date_modified": "2023-07-18T15:53:24.000",
    "request_status": "Pending",
    "responsible_agency": "Department of Public Works",
    "final_address": "5324 Pitt St",
    "address_councildis": "B",
    "status": "Pending",
    "rowid": "1018367",
    "final_x": "3667498.25857",
    "final_y": "520439.124024",
    "longitude": "-90.1126556828187",
    "latitude": "29.92544454110643",
    "geocoded_column": {
      "latitude": "29.92544454110643",
      "longitude": "-90.1126556828187"
    }
  },
  {
    "service_request": "2023-1018366",
    "request_type": "Trash/Recycling",
    "request_reason": "Missed Trash Pick-Up",
    "date_created": "2023-07-18T15:52:36.000",
    "date_modified": "2023-07-18T15:52:37.000",
    "request_status": "Pending",
    "responsible_agency": "Department of Sanitation",
    "final_address": "1226 N Villere St",
    "address_councildis": "C",
    "status": "Assigned to Contractor",
    "contractor": "Richards Disposal",
    "rowid": "1018366",
    "final_x": "3681667.26357",
    "final_y": "535901.013895",
    "longitude": "-90.0673893271912",
    "latitude": "29.967536895101183",
    "geocoded_column": {
      "latitude": "29.967536895101183",
      "longitude": "-90.0673893271912"
    }
  },
  {
    "service_request": "2023-1018365",
    "request_type": "Trash/Recycling",
    "request_reason": "Order Trash Cart",
    "date_created": "2023-07-18T15:52:20.000",
    "date_modified": "2023-07-18T15:52:21.000",
    "request_status": "Pending",
    "responsible_agency": "Department of Sanitation",
    "final_address": "700 BLK Lizardi St",
    "address_councildis": "E",
    "status": "Assigned to Contractor",
    "contractor": "Waste Pro",
    "rowid": "1018365",
    "final_x": "3696157.36159",
    "final_y": "532822.391492",
    "longitude": "-90.0217408194367",
    "latitude": "29.95862362910418",
    "geocoded_column": {
      "latitude": "29.95862362910418",
      "longitude": "-90.0217408194367"
    }
  },
  {
    "service_request": "2023-1018364",
    "request_type": "Trash/Recycling",
    "request_reason": "Request a Large Item Pick Up",
    "date_created": "2023-07-18T15:47:16.000",
    "date_modified": "2023-07-18T15:47:17.000",
    "request_status": "Pending",
    "responsible_agency": "Department of Sanitation",
    "final_address": "5006 Burgundy St",
    "address_councildis": "E",
    "status": "Assigned to Contractor",
    "contractor": "Waste Pro",
    "rowid": "1018364",
    "final_x": "3695811.62262",
    "final_y": "533435.05114",
    "longitude": "-90.02281044059399",
    "latitude": "29.960319104280053",
    "geocoded_column": {
      "latitude": "29.960319104280053",
      "longitude": "-90.02281044059399"
    }
  },
  {
    "service_request": "2023-1018363",
    "request_type": "Abandoned Vehicles",
    "request_reason": "Abandoned/Junk Vehicles",
    "date_created": "2023-07-18T15:46:33.000",
    "date_modified": "2023-07-18T15:46:34.000",
    "request_status": "Pending",
    "responsible_agency": "Department of Public Works",
    "final_address": "1502 Conery St",
    "address_councildis": "B",
    "status": "Pending",
    "rowid": "1018363",
    "final_x": "3675938.78056",
    "final_y": "521977.203322",
    "longitude": "-90.08595869604144",
    "latitude": "29.92942381741005",
    "geocoded_column": {
      "latitude": "29.92942381741005",
      "longitude": "-90.08595869604144"
    }
  },
  {
    "service_request": "2023-1018362",
    "request_type": "Trash/Recycling",
    "request_reason": "Request a Large Item Pick Up",
    "date_created": "2023-07-18T15:45:52.000",
    "date_modified": "2023-07-18T15:45:52.000",
    "request_status": "Pending",
    "responsible_agency": "Department of Sanitation",
    "final_address": "4426 Macarthur Blvd",
    "address_councildis": "C",
    "status": "Assigned to Contractor",
    "contractor": "Richards Disposal",
    "rowid": "1018362",
    "final_x": "3700099.83012",
    "final_y": "520403.97484",
    "longitude": "-90.00974458449645",
    "latitude": "29.92435265195547",
    "geocoded_column": {
      "latitude": "29.92435265195547",
      "longitude": "-90.00974458449645"
    }
  },
  {
    "service_request": "2023-1018361",
    "request_type": "Trash/Recycling",
    "request_reason": "Repair Trash Cart",
    "date_created": "2023-07-18T15:44:31.000",
    "date_modified": "2023-07-18T16:19:23.000",
    "case_close_date": "2023-07-18T11:19:23.000",
    "request_status": "Closed",
    "responsible_agency": "Department of Sanitation",
    "final_address": "4426 Macarthur Blvd",
    "address_councildis": "C",
    "status": "Duplicate Request",
    "contractor": "Richards Disposal",
    "rowid": "1018361",
    "final_x": "3700099.83012",
    "final_y": "520403.97484",
    "longitude": "-90.00974458449645",
    "latitude": "29.92435265195547",
    "geocoded_column": {
      "latitude": "29.92435265195547",
      "longitude": "-90.00974458449645"
    }
  },
  {
    "service_request": "2023-1018360",
    "request_type": "Trash/Recycling",
    "request_reason": "Repair Trash Cart",
    "date_created": "2023-07-18T15:44:20.000",
    "date_modified": "2023-07-18T15:44:21.000",
    "request_status": "Pending",
    "responsible_agency": "Department of Sanitation",
    "final_address": "4426 Macarthur Blvd",
    "address_councildis": "C",
    "status": "Assigned to Contractor",
    "contractor": "Richards Disposal",
    "rowid": "1018360",
    "final_x": "3700099.83012",
    "final_y": "520403.97484",
    "longitude": "-90.00974458449645",
    "latitude": "29.92435265195547",
    "geocoded_column": {
      "latitude": "29.92435265195547",
      "longitude": "-90.00974458449645"
    }
  },
  {
    "service_request": "2023-1018359",
    "request_type": "Trash/Recycling",
    "request_reason": "Repair Recycling Cart",
    "date_created": "2023-07-18T15:43:57.000",
    "date_modified": "2023-07-18T15:43:57.000",
    "request_status": "Pending",
    "responsible_agency": "Department of Sanitation",
    "final_address": "6174 Fleur-De-Lis Dr",
    "address_councildis": "A",
    "status": "Pending",
    "rowid": "1018359",
    "final_x": "3665099.91405",
    "final_y": "548855.626387",
    "longitude": "-90.11927611702649",
    "latitude": "30.003650599111058",
    "geocoded_column": {
      "latitude": "30.003650599111058",
      "longitude": "-90.11927611702649"
    }
  },
  {
    "service_request": "2023-1018357",
    "request_type": "Trash/Recycling",
    "request_reason": "Request a Large Item Pick Up",
    "date_created": "2023-07-18T15:34:55.000",
    "date_modified": "2023-07-18T15:34:55.000",
    "request_status": "Pending",
    "responsible_agency": "Department of Sanitation",
    "final_address": "7733 Spruce St",
    "address_councildis": "A",
    "status": "Assigned to Contractor",
    "contractor": "Richards Disposal",
    "rowid": "1018357",
    "final_x": "3664737.89927",
    "final_y": "529693.962497",
    "longitude": "-90.12106023200629",
    "latitude": "29.95097296524506",
    "geocoded_column": {
      "latitude": "29.95097296524506",
      "longitude": "-90.12106023200629"
    }
  },
  {
    "service_request": "2023-1018355",
    "request_type": "Trash/Recycling",
    "request_reason": "Missed Trash Pick-Up",
    "date_created": "2023-07-18T15:29:47.000",
    "date_modified": "2023-07-18T16:47:22.000",
    "case_close_date": "2023-07-18T11:47:22.000",
    "request_status": "Closed",
    "responsible_agency": "Department of Sanitation",
    "final_address": "44 Marywood Ct",
    "address_councildis": "E",
    "status": "Invalid Request",
    "contractor": "Waste Pro",
    "contractor_action": "Invalid Pick-Up",
    "rowid": "1018355",
    "final_x": "3712233.94373",
    "final_y": "567025.747748",
    "longitude": "-89.96969035871096",
    "latitude": "30.052153862366005",
    "geocoded_column": {
      "latitude": "30.052153862366005",
      "longitude": "-89.96969035871096"
    }
  },
  {
    "service_request": "2023-1018354",
    "request_type": "Trash/Recycling",
    "request_reason": "Repair Trash Cart",
    "date_created": "2023-07-18T15:27:45.000",
    "date_modified": "2023-07-18T15:27:45.000",
    "request_status": "Pending",
    "responsible_agency": "Department of Sanitation",
    "final_address": "6831 Vicksburg St",
    "address_councildis": "A",
    "status": "Assigned to Contractor",
    "contractor": "IV Waste",
    "rowid": "1018354",
    "final_x": "3669473.59297",
    "final_y": "552889.007831",
    "longitude": "-90.10532234764895",
    "latitude": "30.014612837322172",
    "geocoded_column": {
      "latitude": "30.014612837322172",
      "longitude": "-90.10532234764895"
    }
  },
  {
    "service_request": "2023-1018352",
    "request_type": "Trash/Recycling",
    "request_reason": "Order Trash Cart",
    "date_created": "2023-07-18T15:23:55.000",
    "date_modified": "2023-07-18T15:23:55.000",
    "request_status": "Pending",
    "responsible_agency": "Department of Sanitation",
    "final_address": "1624 Elizardi Blvd",
    "address_councildis": "C",
    "status": "Assigned to Contractor",
    "contractor": "Richards Disposal",
    "rowid": "1018352",
    "final_x": "3694745.77546",
    "final_y": "525159.789181",
    "longitude": "-90.02647418513487",
    "latitude": "29.937598488895976",
    "geocoded_column": {
      "latitude": "29.937598488895976",
      "longitude": "-90.02647418513487"
    }
  },
  {
    "service_request": "2023-1018351",
    "request_type": "Trash/Recycling",
    "request_reason": "Order Trash Cart",
    "date_created": "2023-07-18T15:23:40.000",
    "date_modified": "2023-07-18T15:23:41.000",
    "request_status": "Pending",
    "responsible_agency": "Department of Sanitation",
    "final_address": "1803 N Dupre St",
    "address_councildis": "D",
    "status": "Assigned to Contractor",
    "contractor": "IV Waste",
    "rowid": "1018351",
    "final_x": "3679418.01115",
    "final_y": "541844.81486",
    "longitude": "-90.07428626137317",
    "latitude": "29.983948433008862",
    "geocoded_column": {
      "latitude": "29.983948433008862",
      "longitude": "-90.07428626137317"
    }
  },
  {
    "service_request": "2023-1018350",
    "request_type": "Trash/Recycling",
    "request_reason": "Request a Large Item Pick Up",
    "date_created": "2023-07-18T15:23:04.000",
    "date_modified": "2023-07-18T15:23:04.000",
    "request_status": "Pending",
    "responsible_agency": "Department of Sanitation",
    "final_address": "6101 Pratt Dr",
    "address_councildis": "D",
    "status": "Assigned to Contractor",
    "contractor": "IV Waste",
    "rowid": "1018350",
    "final_x": "3680251.03451",
    "final_y": "555024.941913",
    "longitude": "-90.07119657271211",
    "latitude": "30.02016388476344",
    "geocoded_column": {
      "latitude": "30.02016388476344",
      "longitude": "-90.07119657271211"
    }
  },
  {
    "service_request": "2023-1018349",
    "request_type": "Trash/Recycling",
    "request_reason": "Missed Trash Pick-Up",
    "date_created": "2023-07-18T15:22:44.000",
    "date_modified": "2023-07-18T15:22:45.000",
    "request_status": "Pending",
    "responsible_agency": "Department of Sanitation",
    "final_address": "1624 Elizardi Blvd",
    "address_councildis": "C",
    "status": "Assigned to Contractor",
    "contractor": "Richards Disposal",
    "rowid": "1018349",
    "final_x": "3694745.77546",
    "final_y": "525159.789181",
    "longitude": "-90.02647418513487",
    "latitude": "29.937598488895976",
    "geocoded_column": {
      "latitude": "29.937598488895976",
      "longitude": "-90.02647418513487"
    }
  },
  {
    "service_request": "2023-1018348",
    "request_type": "Traffic Signals/Signs/Striping/Streetlights",
    "request_reason": "Street Light Outage/Malfunction",
    "date_created": "2023-07-18T15:22:37.000",
    "date_modified": "2023-07-18T15:22:37.000",
    "request_status": "Pending",
    "responsible_agency": "Department of Public Works",
    "final_address": "6043 Charlotte Dr",
    "address_councildis": "D",
    "status": "Assigned to Contractor",
    "contractor": "Legacy Professional Services",
    "rowid": "1018348",
    "final_x": "3679954.38683",
    "final_y": "554823.875608",
    "longitude": "-90.07214087907103",
    "latitude": "30.01962000691379",
    "geocoded_column": {
      "latitude": "30.01962000691379",
      "longitude": "-90.07214087907103"
    }
  },
  {
    "service_request": "2023-1018347",
    "request_type": "Traffic Signals/Signs/Striping/Streetlights",
    "request_reason": "Street Light Outage/Malfunction",
    "date_created": "2023-07-18T15:17:56.000",
    "date_modified": "2023-07-18T15:17:57.000",
    "request_status": "Pending",
    "responsible_agency": "Department of Public Works",
    "final_address": "N MURAT ST & ST PETER ST",
    "address_councildis": "A",
    "status": "Assigned to Contractor",
    "contractor": "Legacy Professional Services",
    "rowid": "1018347",
    "final_x": "3670999.9",
    "final_y": "541109.38",
    "longitude": "-90.1009002559789",
    "latitude": "29.982177890033103",
    "geocoded_column": {
      "latitude": "29.982177890033103",
      "longitude": "-90.1009002559789"
    }
  },
  {
    "service_request": "2023-1018346",
    "request_type": "Traffic Signals/Signs/Striping/Streetlights",
    "request_reason": "Street Light Outage/Malfunction",
    "date_created": "2023-07-18T15:17:48.000",
    "date_modified": "2023-07-18T15:17:48.000",
    "request_status": "Pending",
    "responsible_agency": "Department of Public Works",
    "final_address": "7341 Beauvoir Ct",
    "address_councildis": "E",
    "status": "Assigned to Contractor",
    "contractor": "Legacy Professional Services",
    "rowid": "1018346",
    "final_x": "3716018.36242",
    "final_y": "568014.423205",
    "longitude": "-89.95769156545336",
    "latitude": "30.054747934532376",
    "geocoded_column": {
      "latitude": "30.054747934532376",
      "longitude": "-89.95769156545336"
    }
  },
  {
    "service_request": "2023-1018345",
    "request_type": "Traffic Signals/Signs/Striping/Streetlights",
    "request_reason": "Traffic Signal Malfunctioning/Damaged",
    "date_created": "2023-07-18T15:17:02.000",
    "date_modified": "2023-07-18T15:17:02.000",
    "request_status": "Pending",
    "responsible_agency": "Department of Public Works",
    "final_address": "A P TUREAUD AVE & N BROAD ST",
    "address_councildis": "D",
    "status": "Pending",
    "rowid": "1018345",
    "final_x": "3681399.4",
    "final_y": "543108.88",
    "longitude": "-90.06798387855488",
    "latitude": "29.987364155847995",
    "geocoded_column": {
      "latitude": "29.987364155847995",
      "longitude": "-90.06798387855488"
    }
  },
  {
    "service_request": "2023-1018344",
    "request_type": "Trash/Recycling",
    "request_reason": "Replace Trash Cart",
    "date_created": "2023-07-18T15:15:35.000",
    "date_modified": "2023-07-18T15:15:35.000",
    "request_status": "Pending",
    "responsible_agency": "Department of Sanitation",
    "final_address": "4667 Cerise Ave",
    "address_councildis": "E",
    "status": "Assigned to Contractor",
    "contractor": "Waste Pro",
    "rowid": "1018344",
    "final_x": "3708723.06212",
    "final_y": "555250.493849",
    "longitude": "-89.98122628093684",
    "latitude": "30.01989099878745",
    "geocoded_column": {
      "latitude": "30.01989099878745",
      "longitude": "-89.98122628093684"
    }
  },
  {
    "service_request": "2023-1018343",
    "request_type": "Roads/Drainage",
    "request_reason": "Debris in Roadway",
    "date_created": "2023-07-18T15:15:11.000",
    "date_modified": "2023-07-18T15:15:11.000",
    "request_status": "Pending",
    "responsible_agency": "Department of Public Works",
    "final_address": "7601 Vincent Rd",
    "address_councildis": "E",
    "status": "Pending",
    "rowid": "1018343",
    "final_x": "3718582.42725",
    "final_y": "571543.422248",
    "longitude": "-89.94945249732278",
    "latitude": "30.06436632329173",
    "geocoded_column": {
      "latitude": "30.06436632329173",
      "longitude": "-89.94945249732278"
    }
  },
  {
    "service_request": "2023-1018342",
    "request_type": "Property Maintenance",
    "request_reason": "Property Maintenance",
    "date_created": "2023-07-18T15:14:55.000",
    "date_modified": "2023-07-18T15:14:55.000",
    "request_status": "Pending",
    "responsible_agency": "Department of Code Enforcement",
    "final_address": "8931 Dwyer Rd",
    "address_councildis": "E",
    "status": "Pending",
    "rowid": "1018342",
    "final_x": "3708037.12024",
    "final_y": "557096.71433",
    "longitude": "-89.98332488869127",
    "latitude": "30.024989624039723",
    "geocoded_column": {
      "latitude": "30.024989624039723",
      "longitude": "-89.98332488869127"
    }
  },
  {
    "service_request": "2023-1018341",
    "request_type": "Parks & Parkways",
    "request_reason": "Request Tree Service (Right of Way/Public Property)",
    "date_created": "2023-07-18T15:14:10.000",
    "date_modified": "2023-07-18T15:26:53.000",
    "request_status": "Pending",
    "responsible_agency": "Department of Parks & Parkway",
    "final_address": "1300 BLK Jackson Ave",
    "address_councildis": "B",
    "status": "Pending",
    "rowid": "1018341",
    "final_x": "3678326.78701",
    "final_y": "522788.419762",
    "longitude": "-90.07839215213728",
    "latitude": "29.931582700482505",
    "geocoded_column": {
      "latitude": "29.931582700482505",
      "longitude": "-90.07839215213728"
    }
  },
  {
    "service_request": "2023-1018340",
    "request_type": "Property Maintenance",
    "request_reason": "Property Maintenance",
    "date_created": "2023-07-18T15:11:42.000",
    "date_modified": "2023-07-18T15:11:42.000",
    "request_status": "Pending",
    "responsible_agency": "Department of Code Enforcement",
    "final_address": "4758 Bundy Rd",
    "address_councildis": "E",
    "status": "Pending",
    "rowid": "1018340",
    "final_x": "3709251.28817",
    "final_y": "555931.779801",
    "longitude": "-89.97953183882387",
    "latitude": "30.021747120089312",
    "geocoded_column": {
      "latitude": "30.021747120089312",
      "longitude": "-89.97953183882387"
    }
  },
  {
    "service_request": "2023-1018339",
    "request_type": "Tax and Revenue",
    "request_reason": "Sales Tax Question",
    "date_created": "2023-07-18T15:10:52.000",
    "date_modified": "2023-07-18T15:10:52.000",
    "request_status": "Pending",
    "responsible_agency": "Bureau of Revenue",
    "final_address": "5525 Magazine St",
    "address_councildis": "A",
    "status": "Pending",
    "rowid": "1018339",
    "final_x": "3666234.77479",
    "final_y": "518912.720311",
    "longitude": "-90.11669528500585",
    "latitude": "29.921284361549333",
    "geocoded_column": {
      "latitude": "29.921284361549333",
      "longitude": "-90.11669528500585"
    }
  },
  {
    "service_request": "2023-1018338",
    "request_type": "Trash/Recycling",
    "request_reason": "MIssed Recycling Pick-Up",
    "date_created": "2023-07-18T15:10:18.000",
    "date_modified": "2023-07-18T21:04:28.000",
    "case_close_date": "2023-07-18T16:04:28.000",
    "request_status": "Closed",
    "responsible_agency": "Department of Sanitation",
    "final_address": "104 Constitution St, New Orleans, Louisiana, 70114",
    "address_councildis": "C",
    "status": "Resolved",
    "contractor": "Richards Disposal",
    "contractor_action": "Completed",
    "rowid": "1018338",
    "final_x": "3693206.05846",
    "final_y": "528247.77728",
    "longitude": "-90.03122437871811",
    "latitude": "29.946137590915686",
    "geocoded_column": {
      "latitude": "29.946137590915686",
      "longitude": "-90.03122437871811"
    }
  },
  {
    "service_request": "2023-1018337",
    "request_type": "Property Maintenance",
    "request_reason": "Property Maintenance",
    "date_created": "2023-07-18T15:10:09.000",
    "date_modified": "2023-07-18T15:10:10.000",
    "request_status": "Pending",
    "responsible_agency": "Department of Code Enforcement",
    "final_address": "3327 Hollygrove St",
    "address_councildis": "A",
    "status": "Pending",
    "rowid": "1018337",
    "final_x": "3664838.3369",
    "final_y": "536200.850183",
    "longitude": "-90.12052563653606",
    "latitude": "29.968861855509346",
    "geocoded_column": {
      "latitude": "29.968861855509346",
      "longitude": "-90.12052563653606"
    }
  },
  {
    "service_request": "2023-1018336",
    "request_type": "Property Maintenance",
    "request_reason": "Property Maintenance",
    "date_created": "2023-07-18T15:09:26.000",
    "date_modified": "2023-07-18T15:09:26.000",
    "request_status": "Pending",
    "responsible_agency": "Department of Code Enforcement",
    "final_address": "5530 Crowder Blvd",
    "address_councildis": "E",
    "status": "Pending",
    "rowid": "1018336",
    "final_x": "3705664.9219",
    "final_y": "557390.092187",
    "longitude": "-89.9908097330538",
    "latitude": "30.025872934516062",
    "geocoded_column": {
      "latitude": "30.025872934516062",
      "longitude": "-89.9908097330538"
    }
  },
  {
    "service_request": "2023-1018335",
    "request_type": "Roads/Drainage",
    "request_reason": "Pothole",
    "date_created": "2023-07-18T15:07:44.000",
    "date_modified": "2023-07-18T15:07:44.000",
    "request_status": "Pending",
    "responsible_agency": "Department of Public Works",
    "final_address": "8931 Dwyer Rd",
    "address_councildis": "E",
    "status": "Pending",
    "rowid": "1018335",
    "final_x": "3708037.12024",
    "final_y": "557096.71433",
    "longitude": "-89.98332488869127",
    "latitude": "30.024989624039723",
    "geocoded_column": {
      "latitude": "30.024989624039723",
      "longitude": "-89.98332488869127"
    }
  },
  {
    "service_request": "2023-1018334",
    "request_type": "Trash/Recycling",
    "request_reason": "MIssed Recycling Pick-Up",
    "date_created": "2023-07-18T15:06:30.000",
    "date_modified": "2023-07-18T15:06:30.000",
    "request_status": "Pending",
    "responsible_agency": "Department of Sanitation",
    "final_address": "2714 Dryades St",
    "address_councildis": "B",
    "status": "Assigned to Contractor",
    "contractor": "Richards Disposal",
    "rowid": "1018334",
    "final_x": "3675496.28347",
    "final_y": "523516.312315",
    "longitude": "-90.087302743938",
    "latitude": "29.933669104638085",
    "geocoded_column": {
      "latitude": "29.933669104638085",
      "longitude": "-90.087302743938"
    }
  },
  {
    "service_request": "2023-1018333",
    "request_type": "Roads/Drainage",
    "request_reason": "Catch Basin - Clogged",
    "date_created": "2023-07-18T15:05:35.000",
    "date_modified": "2023-07-18T15:05:35.000",
    "request_status": "Pending",
    "responsible_agency": "Department of Public Works",
    "final_address": "1006 N Carrollton Ave",
    "address_councildis": "A",
    "status": "Pending",
    "rowid": "1018333",
    "final_x": "3673758.4322",
    "final_y": "541072.358668",
    "longitude": "-90.09218872739498",
    "latitude": "29.98199422351146",
    "geocoded_column": {
      "latitude": "29.98199422351146",
      "longitude": "-90.09218872739498"
    }
  },
  {
    "service_request": "2023-1018332",
    "request_type": "Property Maintenance",
    "request_reason": "Property Maintenance",
    "date_created": "2023-07-18T15:05:29.000",
    "date_modified": "2023-07-18T15:05:30.000",
    "request_status": "Pending",
    "responsible_agency": "Department of Code Enforcement",
    "final_address": "5901 Dorothea St",
    "address_councildis": "D",
    "status": "Pending",
    "rowid": "1018332",
    "final_x": "3695160.1135",
    "final_y": "557153.489563",
    "longitude": "-90.02401192388692",
    "latitude": "30.025556606398702",
    "geocoded_column": {
      "latitude": "30.025556606398702",
      "longitude": "-90.02401192388692"
    }
  },
  {
    "service_request": "2023-1018331",
    "request_type": "Property Maintenance",
    "request_reason": "Property Maintenance",
    "date_created": "2023-07-18T15:05:10.000",
    "date_modified": "2023-07-18T15:05:10.000",
    "request_status": "Pending",
    "responsible_agency": "Department of Code Enforcement",
    "final_address": "8370 Lake Forest Blvd",
    "address_councildis": "E",
    "status": "Pending",
    "rowid": "1018331",
    "final_x": "3705126.33047",
    "final_y": "557578.049883",
    "longitude": "-89.99250464736014",
    "latitude": "30.026407085389657",
    "geocoded_column": {
      "latitude": "30.026407085389657",
      "longitude": "-89.99250464736014"
    }
  },
  {
    "service_request": "2023-1018330",
    "request_type": "Property Maintenance",
    "request_reason": "Property Maintenance",
    "date_created": "2023-07-18T15:03:09.000",
    "date_modified": "2023-07-18T15:03:09.000",
    "request_status": "Pending",
    "responsible_agency": "Department of Code Enforcement",
    "final_address": "8370 Lake Forest Blvd",
    "address_councildis": "E",
    "status": "Pending",
    "rowid": "1018330",
    "final_x": "3705126.33047",
    "final_y": "557578.049883",
    "longitude": "-89.99250464736014",
    "latitude": "30.026407085389657",
    "geocoded_column": {
      "latitude": "30.026407085389657",
      "longitude": "-89.99250464736014"
    }
  },
  {
    "service_request": "2023-1018329",
    "request_type": "Trash/Recycling",
    "request_reason": "Request a Large Item Pick Up",
    "date_created": "2023-07-18T15:02:35.000",
    "date_modified": "2023-07-18T15:02:36.000",
    "request_status": "Pending",
    "responsible_agency": "Department of Sanitation",
    "final_address": "3115 Cambronne St",
    "address_councildis": "A",
    "status": "Assigned to Contractor",
    "contractor": "Richards Disposal",
    "rowid": "1018329",
    "final_x": "3665862.62208",
    "final_y": "534192.005765",
    "longitude": "-90.11735819040102",
    "latitude": "29.963308346819495",
    "geocoded_column": {
      "latitude": "29.963308346819495",
      "longitude": "-90.11735819040102"
    }
  },
  {
    "service_request": "2023-1018327",
    "request_type": "Trash/Recycling",
    "request_reason": "Replace Trash Cart",
    "date_created": "2023-07-18T14:56:38.000",
    "date_modified": "2023-07-18T14:56:39.000",
    "request_status": "Pending",
    "responsible_agency": "Department of Sanitation",
    "final_address": "5486 Tullis Dr",
    "address_councildis": "C",
    "status": "Assigned to Contractor",
    "contractor": "Richards Disposal",
    "rowid": "1018327",
    "final_x": "3704391.10308",
    "final_y": "512141.146033",
    "longitude": "-89.99650292647974",
    "latitude": "29.901495711326582",
    "geocoded_column": {
      "latitude": "29.901495711326582",
      "longitude": "-89.99650292647974"
    }
  },
  {
    "service_request": "2023-1018326",
    "request_type": "Roads/Drainage",
    "request_reason": "WaterMain Break",
    "date_created": "2023-07-18T14:55:05.000",
    "date_modified": "2023-07-18T14:55:05.000",
    "request_status": "Pending",
    "responsible_agency": "Department of Public Works",
    "final_address": "4942 Bundy Rd",
    "address_councildis": "E",
    "status": "Pending",
    "rowid": "1018326",
    "final_x": "3709047.57796",
    "final_y": "556892.072794",
    "longitude": "-89.98013967008764",
    "latitude": "30.024394166843155",
    "geocoded_column": {
      "latitude": "30.024394166843155",
      "longitude": "-89.98013967008764"
    }
  },
  {
    "service_request": "2023-1018325",
    "request_type": "Property Maintenance",
    "request_reason": "Property Maintenance",
    "date_created": "2023-07-18T14:54:57.000",
    "date_modified": "2023-07-18T14:54:57.000",
    "request_status": "Pending",
    "responsible_agency": "Department of Code Enforcement",
    "final_address": "700 Webster St",
    "address_councildis": "A",
    "status": "Pending",
    "rowid": "1018325",
    "final_x": "3663975.43123",
    "final_y": "519165.772599",
    "longitude": "-90.1238186341016",
    "latitude": "29.92204594615883",
    "geocoded_column": {
      "latitude": "29.92204594615883",
      "longitude": "-90.1238186341016"
    }
  },
  {
    "service_request": "2023-1018324",
    "request_type": "Trash/Recycling",
    "request_reason": "Repair Trash Cart",
    "date_created": "2023-07-18T14:49:33.000",
    "date_modified": "2023-07-18T14:49:34.000",
    "request_status": "Pending",
    "responsible_agency": "Department of Sanitation",
    "final_address": "2717 General Taylor St",
    "address_councildis": "B",
    "status": "Assigned to Contractor",
    "contractor": "Richards Disposal",
    "rowid": "1018324",
    "final_x": "3671736.48743",
    "final_y": "525016.074365",
    "longitude": "-90.09912125812116",
    "latitude": "29.93790485103756",
    "geocoded_column": {
      "latitude": "29.93790485103756",
      "longitude": "-90.09912125812116"
    }
  },
  {
    "service_request": "2023-1018323",
    "request_type": "Trash/Recycling",
    "request_reason": "Replace Trash Cart",
    "date_created": "2023-07-18T14:45:25.000",
    "date_modified": "2023-07-18T14:45:25.000",
    "request_status": "Pending",
    "responsible_agency": "Department of Sanitation",
    "final_address": "2710 St Claude Ave",
    "address_councildis": "C",
    "status": "Assigned to Contractor",
    "contractor": "IV Waste",
    "rowid": "1018323",
    "final_x": "3687512.74287",
    "final_y": "536331.566727",
    "longitude": "-90.04891398660754",
    "latitude": "29.96854189249078",
    "geocoded_column": {
      "latitude": "29.96854189249078",
      "longitude": "-90.04891398660754"
    }
  },
  {
    "service_request": "2023-1018322",
    "request_type": "Trash/Recycling",
    "request_reason": "Request a Large Item Pick Up",
    "date_created": "2023-07-18T14:45:11.000",
    "date_modified": "2023-07-18T14:45:12.000",
    "request_status": "Pending",
    "responsible_agency": "Department of Sanitation",
    "final_address": "4910 Galahad Dr",
    "address_councildis": "E",
    "status": "Assigned to Contractor",
    "contractor": "Waste Pro",
    "rowid": "1018322",
    "final_x": "3707044.93636",
    "final_y": "556498.597082",
    "longitude": "-89.98648221891386",
    "latitude": "30.023377139632036",
    "geocoded_column": {
      "latitude": "30.023377139632036",
      "longitude": "-89.98648221891386"
    }
  },
  {
    "service_request": "2023-1018321",
    "request_type": "Abandoned Vehicles",
    "request_reason": "Vehicle Blocking Your Driveway",
    "date_created": "2023-07-18T14:44:11.000",
    "date_modified": "2023-07-18T14:44:11.000",
    "request_status": "Pending",
    "responsible_agency": "Department of Public Works",
    "final_address": "2005 N Broad St",
    "address_councildis": "D",
    "status": "Pending",
    "rowid": "1018321",
    "final_x": "3680424.96789",
    "final_y": "542012.568844",
    "longitude": "-90.07109991217023",
    "latitude": "29.984379236110264",
    "geocoded_column": {
      "latitude": "29.984379236110264",
      "longitude": "-90.07109991217023"
    }
  },
  {
    "service_request": "2023-1018320",
    "request_type": "Roads/Drainage",
    "request_reason": "Damaged Sidewalk",
    "date_created": "2023-07-18T14:43:03.000",
    "date_modified": "2023-07-18T14:43:04.000",
    "request_status": "Pending",
    "responsible_agency": "Department of Public Works",
    "final_address": "6327 Pandora St",
    "address_councildis": "D",
    "status": "Pending",
    "rowid": "1018320",
    "final_x": "3696895.12029",
    "final_y": "557458.501275",
    "longitude": "-90.01851851916332",
    "latitude": "30.02634064550857",
    "geocoded_column": {
      "latitude": "30.02634064550857",
      "longitude": "-90.01851851916332"
    }
  },
  {
    "service_request": "2023-1018319",
    "request_type": "Traffic Signals/Signs/Striping/Streetlights",
    "request_reason": "Street Light Outage/Malfunction",
    "date_created": "2023-07-18T14:40:59.000",
    "date_modified": "2023-07-18T14:40:59.000",
    "request_status": "Pending",
    "responsible_agency": "Department of Public Works",
    "final_address": "2729 Danbury Dr",
    "address_councildis": "C",
    "status": "Assigned to Contractor",
    "contractor": "Legacy Professional Services",
    "rowid": "1018319",
    "final_x": "3703595.20081",
    "final_y": "520715.602297",
    "longitude": "-89.99869953189645",
    "latitude": "29.925098036398424",
    "geocoded_column": {
      "latitude": "29.925098036398424",
      "longitude": "-89.99869953189645"
    }
  },
  {
    "service_request": "2023-1018317",
    "request_type": "Trash/Recycling",
    "request_reason": "Order Trash Cart",
    "date_created": "2023-07-18T14:30:02.000",
    "date_modified": "2023-07-18T14:30:03.000",
    "request_status": "Pending",
    "responsible_agency": "Department of Sanitation",
    "final_address": "2607 S Galvez St",
    "address_councildis": "B",
    "status": "Assigned to Contractor",
    "contractor": "Richards Disposal",
    "rowid": "1018317",
    "final_x": "3672610.87137",
    "final_y": "528486.747712",
    "longitude": "-90.0962424516302",
    "latitude": "29.947422142347587",
    "geocoded_column": {
      "latitude": "29.947422142347587",
      "longitude": "-90.0962424516302"
    }
  },
  {
    "service_request": "2023-1018316",
    "request_type": "Trash/Recycling",
    "request_reason": "Order Trash Cart",
    "date_created": "2023-07-18T14:25:43.000",
    "date_modified": "2023-07-18T14:25:43.000",
    "request_status": "Pending",
    "responsible_agency": "Department of Sanitation",
    "final_address": "1827 Pine St",
    "address_councildis": "A",
    "status": "Assigned to Contractor",
    "contractor": "Richards Disposal",
    "rowid": "1018316",
    "final_x": "3665310.56116",
    "final_y": "528590.139968",
    "longitude": "-90.1192889742212",
    "latitude": "29.94792113872757",
    "geocoded_column": {
      "latitude": "29.94792113872757",
      "longitude": "-90.1192889742212"
    }
  },
  {
    "service_request": "2023-1018315",
    "request_type": "Parks & Parkways",
    "request_reason": "Request Tree Service (Right of Way/Public Property)",
    "date_created": "2023-07-18T14:20:02.000",
    "date_modified": "2023-07-18T14:20:03.000",
    "request_status": "Pending",
    "responsible_agency": "Department of Parks & Parkway",
    "final_address": "4225 Palmyra St",
    "address_councildis": "A",
    "status": "Pending",
    "rowid": "1018315",
    "final_x": "3669963.42222",
    "final_y": "538262.730697",
    "longitude": "-90.10427040524782",
    "latitude": "29.97438118069623",
    "geocoded_column": {
      "latitude": "29.97438118069623",
      "longitude": "-90.10427040524782"
    }
  },
  {
    "service_request": "2023-1018314",
    "request_type": "Property Maintenance",
    "request_reason": "Property Maintenance",
    "date_created": "2023-07-18T14:19:13.000",
    "date_modified": "2023-07-18T14:19:14.000",
    "request_status": "Pending",
    "responsible_agency": "Department of Code Enforcement",
    "final_address": "2567 N Tonti St",
    "address_councildis": "D",
    "status": "Pending",
    "rowid": "1018314",
    "final_x": "3687066.02703",
    "final_y": "540953.892875",
    "longitude": "-90.05016126451855",
    "latitude": "29.98126542633378",
    "geocoded_column": {
      "latitude": "29.98126542633378",
      "longitude": "-90.05016126451855"
    }
  },
  {
    "service_request": "2023-1018313",
    "request_type": "Trash/Recycling",
    "request_reason": "Repair Trash Cart",
    "date_created": "2023-07-18T14:18:07.000",
    "date_modified": "2023-07-18T14:18:08.000",
    "request_status": "Pending",
    "responsible_agency": "Department of Sanitation",
    "final_address": "4615 Dryades St",
    "address_councildis": "B",
    "status": "Assigned to Contractor",
    "contractor": "Richards Disposal",
    "rowid": "1018313",
    "final_x": "3669850.70791",
    "final_y": "521909.729658",
    "longitude": "-90.10517995302638",
    "latitude": "29.929419118359128",
    "geocoded_column": {
      "latitude": "29.929419118359128",
      "longitude": "-90.10517995302638"
    }
  },
  {
    "service_request": "2023-1018312",
    "request_type": "Trash/Recycling",
    "request_reason": "Repair Trash Cart",
    "date_created": "2023-07-18T14:14:52.000",
    "date_modified": "2023-07-18T14:14:53.000",
    "request_status": "Pending",
    "responsible_agency": "Department of Sanitation",
    "final_address": "1835 Upperline St",
    "address_councildis": "B",
    "status": "Assigned to Contractor",
    "contractor": "Richards Disposal",
    "rowid": "1018312",
    "final_x": "3669134.25511",
    "final_y": "521738.56121",
    "longitude": "-90.10744744974323",
    "latitude": "29.928969555614906",
    "geocoded_column": {
      "latitude": "29.928969555614906",
      "longitude": "-90.10744744974323"
    }
  },
  {
    "service_request": "2023-1018311",
    "request_type": "Trash/Recycling",
    "request_reason": "Request a Large Item Pick Up",
    "date_created": "2023-07-18T14:14:31.000",
    "date_modified": "2023-07-18T14:14:31.000",
    "request_status": "Pending",
    "responsible_agency": "Department of Sanitation",
    "final_address": "2725 Pine St",
    "address_councildis": "B",
    "status": "Assigned to Contractor",
    "contractor": "Richards Disposal",
    "rowid": "1018311",
    "final_x": "3667073.34305",
    "final_y": "531373.706371",
    "longitude": "-90.11362959225532",
    "latitude": "29.955523565992237",
    "geocoded_column": {
      "latitude": "29.955523565992237",
      "longitude": "-90.11362959225532"
    }
  },
  {
    "service_request": "2023-1018310",
    "request_type": "Trash/Recycling",
    "request_reason": "Missed Trash Pick-Up",
    "date_created": "2023-07-18T14:09:56.000",
    "date_modified": "2023-07-18T14:09:56.000",
    "request_status": "Pending",
    "responsible_agency": "Department of Sanitation",
    "final_address": "5230 Chestnut St",
    "address_councildis": "B",
    "status": "Assigned to Contractor",
    "contractor": "Richards Disposal",
    "rowid": "1018310",
    "final_x": "3667816.88525",
    "final_y": "519316.857463",
    "longitude": "-90.11168764417242",
    "latitude": "29.922349325598304",
    "geocoded_column": {
      "latitude": "29.922349325598304",
      "longitude": "-90.11168764417242"
    }
  },
  {
    "service_request": "2023-1018309",
    "request_type": "Trash/Recycling",
    "request_reason": "Illegal Dumping",
    "date_created": "2023-07-18T14:08:32.000",
    "date_modified": "2023-07-18T14:08:33.000",
    "request_status": "Pending",
    "responsible_agency": "Department of Sanitation",
    "final_address": "1800 First St",
    "address_councildis": "B",
    "status": "Pending",
    "rowid": "1018309",
    "final_x": "3676517.09025",
    "final_y": "523839.066107",
    "longitude": "-90.08406899708689",
    "latitude": "29.93452600945578",
    "geocoded_column": {
      "latitude": "29.93452600945578",
      "longitude": "-90.08406899708689"
    }
  },
  {
    "service_request": "2023-1018308",
    "request_type": "Trash/Recycling",
    "request_reason": "MIssed Recycling Pick-Up",
    "date_created": "2023-07-18T14:06:13.000",
    "date_modified": "2023-07-18T14:06:14.000",
    "request_status": "Pending",
    "responsible_agency": "Department of Sanitation",
    "final_address": "907 S Carrollton Ave",
    "address_councildis": "A",
    "status": "Assigned to Contractor",
    "contractor": "Richards Disposal",
    "rowid": "1018308",
    "final_x": "3661433.98016",
    "final_y": "527546.282559",
    "longitude": "-90.13156352400713",
    "latitude": "29.945163232808884",
    "geocoded_column": {
      "latitude": "29.945163232808884",
      "longitude": "-90.13156352400713"
    }
  },
  {
    "service_request": "2023-1018307",
    "request_type": "Trash/Recycling",
    "request_reason": "Request a Large Item Pick Up",
    "date_created": "2023-07-18T14:06:01.000",
    "date_modified": "2023-07-18T14:06:01.000",
    "request_status": "Pending",
    "responsible_agency": "Department of Sanitation",
    "final_address": "855 Wilson Dr",
    "address_councildis": "A",
    "status": "Assigned to Contractor",
    "contractor": "Richards Disposal",
    "rowid": "1018307",
    "final_x": "3674029.82881",
    "final_y": "539676.240522",
    "longitude": "-90.09137932059602",
    "latitude": "29.978147290917736",
    "geocoded_column": {
      "latitude": "29.978147290917736",
      "longitude": "-90.09137932059602"
    }
  },
  {
    "service_request": "2023-1018306",
    "request_type": "Trash/Recycling",
    "request_reason": "Request a Large Item Pick Up",
    "date_created": "2023-07-18T14:05:35.000",
    "date_modified": "2023-07-18T14:05:36.000",
    "request_status": "Pending",
    "responsible_agency": "Department of Sanitation",
    "final_address": "4441 Eastview Dr",
    "address_councildis": "E",
    "status": "Assigned to Contractor",
    "contractor": "Waste Pro",
    "rowid": "1018306",
    "final_x": "3705353.39076",
    "final_y": "553663.253783",
    "longitude": "-89.99193198387559",
    "latitude": "30.01563560182086",
    "geocoded_column": {
      "latitude": "30.01563560182086",
      "longitude": "-89.99193198387559"
    }
  },