[
  {
    "service_request": "2024-1119195",
    "request_type": "Roads/Drainage",
    "request_reason": "Pothole",
    "date_created": "2024-08-05T23:42:32.000",
    "date_modified": "2024-08-05T23:42:32.000",
    "request_status": "Pending",
    "responsible_agency": "Department of Public Works",
    "final_address": "1100 BLK Constantinople St",
    "address_councildis": "B",
    "status": "Pending",
    "rowid": "1119195",
    "final_x": "3672431.76698",
    "final_y": "519818.358445",
    "longitude": "-90.09710323917102",
    "latitude": "29.92359219713162",
    "geocoded_column": {
      "latitude": "29.92359219713162",
      "longitude": "-90.09710323917102"
    }
  },
  {
    "service_request": "2024-1119193",
    "request_type": "Abandoned Vehicles",
    "request_reason": "Vehicle Blocking Your Driveway",
    "date_created": "2024-08-05T23:37:37.000",
    "date_modified": "2024-08-05T23:37:37.000",
    "request_status": "Pending",
    "responsible_agency": "Department of Public Works",
    "final_address": "4001 Behrman Hwy",
    "address_councildis": "C",
    "status": "Pending",
    "rowid": "1119193",
    "final_x": "3696937.88842",
    "final_y": "515592.1365",
    "longitude": "-90.01989979746514",
    "latitude": "29.91122177614972",
    "geocoded_column": {
      "latitude": "29.91122177614972",
      "longitude": "-90.01989979746514"
    }
  },
  {
    "service_request": "2024-1119192",
    "request_type": "Property Maintenance",
    "request_reason": "Property Maintenance",
    "date_created": "2024-08-05T22:57:23.000",
    "date_modified": "2024-08-05T22:57:23.000",
    "request_status": "Pending",
    "responsible_agency": "Department of Code Enforcement",
    "final_address": "5206 Chestnut St",
    "address_councildis": "B",
    "status": "Pending",
    "rowid": "1119192",
    "final_x": "3667988.47021",
    "final_y": "519315.867575",
    "longitude": "-90.11114605206987",
    "latitude": "29.92234157243934",
    "geocoded_column": {
      "latitude": "29.92234157243934",
      "longitude": "-90.11114605206987"
    }
  },
  {
    "service_request": "2024-1119191",
    "request_type": "Roads/Drainage",
    "request_reason": "Pothole",
    "date_created": "2024-08-05T22:19:54.000",
    "date_modified": "2024-08-05T22:19:54.000",
    "request_status": "Pending",
    "responsible_agency": "Department of Public Works",
    "final_address": "3400 BLK Camp St",
    "address_councildis": "B",
    "status": "Pending",
    "rowid": "1119191",
    "final_x": "3674690.01672",
    "final_y": "519889.441964",
    "longitude": "-90.08997233407257",
    "latitude": "29.92372046791189",
    "geocoded_column": {
      "latitude": "29.92372046791189",
      "longitude": "-90.08997233407257"
    }
  },
  {
    "service_request": "2024-1119190",
    "request_type": "Healthy Homes",
    "request_reason": "Healthy Homes",
    "date_created": "2024-08-05T21:41:04.000",
    "date_modified": "2024-08-05T21:41:04.000",
    "request_status": "Pending",
    "responsible_agency": "Department of Code Enforcement",
    "final_address": "4200 Maple Leaf Dr",
    "address_councildis": "C",
    "status": "Pending",
    "rowid": "1119190",
    "final_x": "3706129.98116",
    "final_y": "515323.654004",
    "longitude": "-89.99089752148956",
    "latitude": "29.910190621266345",
    "geocoded_column": {
      "latitude": "29.910190621266345",
      "longitude": "-89.99089752148956"
    }
  },
  {
    "service_request": "2024-1119189",
    "request_type": "Trash/Recycling",
    "request_reason": "Request a Large Item Pick Up",
    "date_created": "2024-08-05T21:37:17.000",
    "date_modified": "2024-08-05T21:37:17.000",
    "request_status": "Pending",
    "responsible_agency": "Department of Sanitation",
    "final_address": "6043 Boeing St",
    "address_councildis": "D",
    "status": "Assigned to Contractor",
    "contractor": "Waste Pro",
    "rowid": "1119189",
    "final_x": "3696693.97079",
    "final_y": "552976.018775",
    "longitude": "-90.01931655440673",
    "latitude": "30.014021860703934",
    "geocoded_column": {
      "latitude": "30.014021860703934",
      "longitude": "-90.01931655440673"
    }
  },
  {
    "service_request": "2024-1119188",
    "request_type": "Traffic Signals/Signs/Striping/Streetlights",
    "request_reason": "Street Light Outage/Malfunction",
    "date_created": "2024-08-05T21:02:15.000",
    "date_modified": "2024-08-05T21:02:16.000",
    "request_status": "Pending",
    "responsible_agency": "Department of Public Works",
    "final_address": "211 W Brooks St",
    "address_councildis": "A",
    "status": "Assigned to Contractor",
    "contractor": "Legacy Professional Services",
    "rowid": "1119188",
    "final_x": "3665502.09261",
    "final_y": "546650.909265",
    "longitude": "-90.11807943375858",
    "latitude": "29.997576662679382",
    "geocoded_column": {
      "latitude": "29.997576662679382",
      "longitude": "-90.11807943375858"
    }
  },
  {
    "service_request": "2024-1119187",
    "request_type": "Parks & Parkways",
    "request_reason": "Request Grass Cutting Service (City Owned Property)",
    "date_created": "2024-08-05T20:54:32.000",
    "date_modified": "2024-08-05T20:54:32.000",
    "request_status": "Pending",
    "responsible_agency": "Department of Parks & Parkway",
    "final_address": "W BROOKS ST & VETERANS HWY",
    "address_councildis": "A",
    "status": "Pending",
    "rowid": "1119187",
    "final_x": "3665991.8",
    "final_y": "546595.58",
    "longitude": "-90.11653431183589",
    "latitude": "29.997410236155517",
    "geocoded_column": {
      "latitude": "29.997410236155517",
      "longitude": "-90.11653431183589"
    }
  },
  {
    "service_request": "2024-1119186",
    "request_type": "Traffic Signals/Signs/Striping/Streetlights",
    "request_reason": "Street Light Outage/Malfunction",
    "date_created": "2024-08-05T20:51:50.000",
    "date_modified": "2024-08-05T20:51:51.000",
    "request_status": "Pending",
    "responsible_agency": "Department of Public Works",
    "final_address": "4921 Corinne St",
    "address_councildis": "E",
    "status": "Assigned to Contractor",
    "contractor": "Legacy Professional Services",
    "rowid": "1119186",
    "final_x": "3715043.23115",
    "final_y": "557555.991643",
    "longitude": "-89.96116956930265",
    "latitude": "30.026023626227733",
    "geocoded_column": {
      "latitude": "30.026023626227733",
      "longitude": "-89.96116956930265"
    }
  },
  {
    "service_request": "2024-1119185",
    "request_type": "Traffic Signals/Signs/Striping/Streetlights",
    "request_reason": "Street Light Outage/Malfunction",
    "date_created": "2024-08-05T20:48:00.000",
    "date_modified": "2024-08-05T20:48:01.000",
    "request_status": "Pending",
    "responsible_agency": "Department of Public Works",
    "final_address": "1909 Bordeaux St",
    "address_councildis": "B",
    "status": "Assigned to Contractor",
    "contractor": "Legacy Professional Services",
    "rowid": "1119185",
    "final_x": "3669296.73089",
    "final_y": "521923.098234",
    "longitude": "-90.10692830948848",
    "latitude": "29.92947219286915",
    "geocoded_column": {
      "latitude": "29.92947219286915",
      "longitude": "-90.10692830948848"
    }
  },
  {
    "service_request": "2024-1119184",
    "request_type": "Roads/Drainage",
    "request_reason": "Debris in Roadway",
    "date_created": "2024-08-05T20:46:02.000",
    "date_modified": "2024-08-05T20:46:02.000",
    "request_status": "Pending",
    "responsible_agency": "Department of Public Works",
    "final_address": "6320 Pritchard Pl",
    "address_councildis": "B",
    "status": "Pending",
    "rowid": "1119184",
    "final_x": "3668268.98785",
    "final_y": "530963.734722",
    "longitude": "-90.10986798557931",
    "latitude": "29.954361228746343",
    "geocoded_column": {
      "latitude": "29.954361228746343",
      "longitude": "-90.10986798557931"
    }
  },
  {
    "service_request": "2024-1119183",
    "request_type": "Property Maintenance",
    "request_reason": "Property Maintenance",
    "date_created": "2024-08-05T20:39:58.000",
    "date_modified": "2024-08-05T20:39:58.000",
    "request_status": "Pending",
    "responsible_agency": "Department of Code Enforcement",
    "final_address": "8600 Chef Menteur Hwy",
    "address_councildis": "E",
    "status": "Pending",
    "rowid": "1119183",
    "final_x": "3707213.55396",
    "final_y": "553184.172567",
    "longitude": "-89.98607256562912",
    "latitude": "30.01425830503141",
    "geocoded_column": {
      "latitude": "30.01425830503141",
      "longitude": "-89.98607256562912"
    }
  },
  {
    "service_request": "2024-1119182",
    "request_type": "Trash/Recycling",
    "request_reason": "Request a Large Item Pick Up",
    "date_created": "2024-08-05T20:13:45.000",
    "date_modified": "2024-08-05T20:13:46.000",
    "request_status": "Pending",
    "responsible_agency": "Department of Sanitation",
    "final_address": "5800 Durbridge Dr",
    "address_councildis": "C",
    "status": "Assigned to Contractor",
    "contractor": "Richards Disposal",
    "rowid": "1119182",
    "final_x": "3705083.3827",
    "final_y": "521611.282105",
    "longitude": "-89.9939688094006",
    "latitude": "29.927513097605328",
    "geocoded_column": {
      "latitude": "29.927513097605328",
      "longitude": "-89.9939688094006"
    }
  },
  {
    "service_request": "2024-1119181",
    "request_type": "Roads/Drainage",
    "request_reason": "Debris in Roadway",
    "date_created": "2024-08-05T20:05:19.000",
    "date_modified": "2024-08-05T20:05:19.000",
    "request_status": "Pending",
    "responsible_agency": "Department of Public Works",
    "final_address": "9203 S Claiborne Ave",
    "address_councildis": "A",
    "status": "Pending",
    "rowid": "1119181",
    "final_x": "3661984.47949",
    "final_y": "534268.529925",
    "longitude": "-90.12960245076584",
    "latitude": "29.963631356294044",
    "geocoded_column": {
      "latitude": "29.963631356294044",
      "longitude": "-90.12960245076584"
    }
  },
  {
    "service_request": "2024-1119180",
    "request_type": "Roads/Drainage",
    "request_reason": "Pothole",
    "date_created": "2024-08-05T20:01:02.000",
    "date_modified": "2024-08-05T20:01:02.000",
    "request_status": "Pending",
    "responsible_agency": "Department of Public Works",
    "final_address": "5215 Conti St",
    "address_councildis": "A",
    "status": "Pending",
    "rowid": "1119180",
    "final_x": "3668533.31066",
    "final_y": "541810.125708",
    "longitude": "-90.10866730915467",
    "latitude": "29.984177420508914",
    "geocoded_column": {
      "latitude": "29.984177420508914",
      "longitude": "-90.10866730915467"
    }
  },
  {
    "service_request": "2024-1119179",
    "request_type": "Parks & Parkways",
    "request_reason": "Request Tree Service (Right of Way/Public Property)",
    "date_created": "2024-08-05T19:31:01.000",
    "date_modified": "2024-08-05T19:31:01.000",
    "request_status": "Pending",
    "responsible_agency": "Department of Parks & Parkway",
    "final_address": "7001 Bundy Rd Bldg Z",
    "address_councildis": "E",
    "status": "Pending",
    "rowid": "1119179",
    "final_x": "3708036.15057",
    "final_y": "561637.765215",
    "longitude": "-89.98315887511602",
    "latitude": "30.037475758477097",
    "geocoded_column": {
      "latitude": "30.037475758477097",
      "longitude": "-89.98315887511602"
    }
  },
  {
    "service_request": "2024-1119178",
    "request_type": "Trash/Recycling",
    "request_reason": "Replace Trash Cart",
    "date_created": "2024-08-05T19:29:18.000",
    "date_modified": "2024-08-05T19:29:19.000",
    "request_status": "Pending",
    "responsible_agency": "Department of Sanitation",
    "final_address": "614 Verret St",
    "address_councildis": "C",
    "status": "Assigned to Contractor",
    "contractor": "Richards Disposal",
    "rowid": "1119178",
    "final_x": "3687091.40508",
    "final_y": "529358.703873",
    "longitude": "-90.05049112577544",
    "latitude": "29.94938190602061",
    "geocoded_column": {
      "latitude": "29.94938190602061",
      "longitude": "-90.05049112577544"
    }
  },
  {
    "service_request": "2024-1119177",
    "request_type": "Roads/Drainage",
    "request_reason": "Pothole",
    "date_created": "2024-08-05T19:25:33.000",
    "date_modified": "2024-08-05T19:25:33.000",
    "request_status": "Pending",
    "responsible_agency": "Department of Public Works",
    "final_address": "1312 Milan St",
    "address_councildis": "B",
    "status": "Pending",
    "rowid": "1119177",
    "final_x": "3671625.82823",
    "final_y": "520286.919608",
    "longitude": "-90.09963137110304",
    "latitude": "29.92490447494246",
    "geocoded_column": {
      "latitude": "29.92490447494246",
      "longitude": "-90.09963137110304"
    }
  },
  {
    "service_request": "2024-1119176",
    "request_type": "Roads/Drainage",
    "request_reason": "Pothole",
    "date_created": "2024-08-05T19:25:06.000",
    "date_modified": "2024-08-05T19:25:06.000",
    "request_status": "Pending",
    "responsible_agency": "Department of Public Works",
    "final_address": "1112 Constantinople St",
    "address_councildis": "B",
    "status": "Pending",
    "rowid": "1119176",
    "final_x": "3672348.95259",
    "final_y": "519796.384952",
    "longitude": "-90.09736540233975",
    "latitude": "29.923534233550217",
    "geocoded_column": {
      "latitude": "29.923534233550217",
      "longitude": "-90.09736540233975"
    }
  },
  {
    "service_request": "2024-1119175",
    "request_type": "Trash/Recycling",
    "request_reason": "Request a Large Item Pick Up",
    "date_created": "2024-08-05T19:22:56.000",
    "date_modified": "2024-08-05T19:22:57.000",
    "request_status": "Pending",
    "responsible_agency": "Department of Sanitation",
    "final_address": "1326 Frankfort St",
    "address_councildis": "D",
    "status": "Assigned to Contractor",
    "contractor": "IV Waste",
    "rowid": "1119175",
    "final_x": "3677442.3147",
    "final_y": "555754.167001",
    "longitude": "-90.08004605221223",
    "latitude": "30.022253758124553",
    "geocoded_column": {
      "latitude": "30.022253758124553",
      "longitude": "-90.08004605221223"
    }
  },
  {
    "service_request": "2024-1119174",
    "request_type": "Traffic Signals/Signs/Striping/Streetlights",
    "request_reason": "Street Light Outage/Malfunction",
    "date_created": "2024-08-05T19:14:42.000",
    "date_modified": "2024-08-05T19:14:43.000",
    "request_status": "Pending",
    "responsible_agency": "Department of Public Works",
    "final_address": "6948 Vicksburg St",
    "address_councildis": "A",
    "status": "Assigned to Contractor",
    "contractor": "Legacy Professional Services",
    "rowid": "1119174",
    "final_x": "3669395.89255",
    "final_y": "553706.658775",
    "longitude": "-90.1055401622579",
    "latitude": "30.01686337767306",
    "geocoded_column": {
      "latitude": "30.01686337767306",
      "longitude": "-90.1055401622579"
    }
  },
  {
    "service_request": "2024-1119173",
    "request_type": "Traffic Signals/Signs/Striping/Streetlights",
    "request_reason": "Street Light Outage/Malfunction",
    "date_created": "2024-08-05T19:12:41.000",
    "date_modified": "2024-08-05T19:12:42.000",
    "request_status": "Pending",
    "responsible_agency": "Department of Public Works",
    "final_address": "6948 Vicksburg St",
    "address_councildis": "A",
    "status": "Assigned to Contractor",
    "contractor": "Legacy Professional Services",
    "rowid": "1119173",
    "final_x": "3669395.89255",
    "final_y": "553706.658775",
    "longitude": "-90.1055401622579",
    "latitude": "30.01686337767306",
    "geocoded_column": {
      "latitude": "30.01686337767306",
      "longitude": "-90.1055401622579"
    }
  },
  {
    "service_request": "2024-1119172",
    "request_type": "Traffic Signals/Signs/Striping/Streetlights",
    "request_reason": "Traffic Sign Missing/Damaged",
    "date_created": "2024-08-05T19:09:15.000",
    "date_modified": "2024-08-05T19:09:15.000",
    "request_status": "Pending",
    "responsible_agency": "Department of Public Works",
    "final_address": "2701 Joseph St",
    "address_councildis": "A",
    "status": "Pending",
    "rowid": "1119172",
    "final_x": "3667728.61159",
    "final_y": "525792.444157",
    "longitude": "-90.11174836879499",
    "latitude": "29.9401577125713",
    "geocoded_column": {
      "latitude": "29.9401577125713",
      "longitude": "-90.11174836879499"
    }
  },
  {
    "service_request": "2024-1119171",
    "request_type": "Traffic Signals/Signs/Striping/Streetlights",
    "request_reason": "Traffic Sign Missing/Damaged",
    "date_created": "2024-08-05T19:07:20.000",
    "date_modified": "2024-08-05T19:07:20.000",
    "request_status": "Pending",
    "responsible_agency": "Department of Public Works",
    "final_address": "2701 Joseph St",
    "address_councildis": "A",
    "status": "Pending",
    "rowid": "1119171",
    "final_x": "3667728.61159",
    "final_y": "525792.444157",
    "longitude": "-90.11174836879499",
    "latitude": "29.9401577125713",
    "geocoded_column": {
      "latitude": "29.9401577125713",
      "longitude": "-90.11174836879499"
    }
  },
  {
    "service_request": "2024-1119170",
    "request_type": "Abandoned Vehicles",
    "request_reason": "Abandoned/Junk Vehicles",
    "date_created": "2024-08-05T19:03:55.000",
    "date_modified": "2024-08-05T19:03:55.000",
    "request_status": "Pending",
    "responsible_agency": "Department of Public Works",
    "final_address": "7833 Burke Ave",
    "address_councildis": "E",
    "status": "Pending",
    "rowid": "1119170",
    "final_x": "3705112.77118",
    "final_y": "563611.843297",
    "longitude": "-89.99232435759461",
    "latitude": "30.042998085524072",
    "geocoded_column": {
      "latitude": "30.042998085524072",
      "longitude": "-89.99232435759461"
    }
  },
  {
    "service_request": "2024-1119169",
    "request_type": "Trash/Recycling",
    "request_reason": "Request a Large Item Pick Up",
    "date_created": "2024-08-05T19:01:56.000",
    "date_modified": "2024-08-05T19:01:57.000",
    "request_status": "Pending",
    "responsible_agency": "Department of Sanitation",
    "final_address": "5812 Durbridge Dr",
    "address_councildis": "C",
    "status": "Assigned to Contractor",
    "contractor": "Richards Disposal",
    "rowid": "1119169",
    "final_x": "3705148.34404",
    "final_y": "521582.027705",
    "longitude": "-89.99376482366488",
    "latitude": "29.927430570157096",
    "geocoded_column": {
      "latitude": "29.927430570157096",
      "longitude": "-89.99376482366488"
    }
  },
  {
    "service_request": "2024-1119168",
    "request_type": "Abandoned Vehicles",
    "request_reason": "Abandoned/Junk Vehicles",
    "date_created": "2024-08-05T18:56:00.000",
    "date_modified": "2024-08-05T18:56:00.000",
    "request_status": "Pending",
    "responsible_agency": "Department of Public Works",
    "final_address": "1855 Law St",
    "address_councildis": "D",
    "status": "Pending",
    "rowid": "1119168",
    "final_x": "3680899.40507",
    "final_y": "541563.252108",
    "longitude": "-90.06961702932134",
    "latitude": "29.983129393202713",
    "geocoded_column": {
      "latitude": "29.983129393202713",
      "longitude": "-90.06961702932134"
    }
  },
  {
    "service_request": "2024-1119167",
    "request_type": "Mosquito, Termite & Rodent Control",
    "request_reason": "Rodent Complaint (Rats)",
    "date_created": "2024-08-05T18:54:41.000",
    "date_modified": "2024-08-05T18:54:41.000",
    "request_status": "Pending",
    "responsible_agency": "Mosquito, Termite & Rodent Control Board",
    "final_address": "4300 St Claude Ave",
    "address_councildis": "C",
    "status": "Pending",
    "rowid": "1119167",
    "final_x": "3692811.37366",
    "final_y": "534997.198534",
    "longitude": "-90.03222855107038",
    "latitude": "29.96470847271701",
    "geocoded_column": {
      "latitude": "29.96470847271701",
      "longitude": "-90.03222855107038"
    }
  },
  {
    "service_request": "2024-1119166",
    "request_type": "Abandoned Vehicles",
    "request_reason": "Abandoned/Junk Vehicles",
    "date_created": "2024-08-05T18:54:28.000",
    "date_modified": "2024-08-05T18:54:28.000",
    "request_status": "Pending",
    "responsible_agency": "Department of Public Works",
    "final_address": "1855 Law St",
    "address_councildis": "D",
    "status": "Pending",
    "rowid": "1119166",
    "final_x": "3680899.40507",
    "final_y": "541563.252108",
    "longitude": "-90.06961702932134",
    "latitude": "29.983129393202713",
    "geocoded_column": {
      "latitude": "29.983129393202713",
      "longitude": "-90.06961702932134"
    }
  },
  {
    "service_request": "2024-1119165",
    "request_type": "Roads/Drainage",
    "request_reason": "Street Subsidence (Sinking)",
    "date_created": "2024-08-05T18:53:15.000",
    "date_modified": "2024-08-05T18:53:15.000",
    "request_status": "Pending",
    "responsible_agency": "Department of Public Works",
    "final_address": "1019 Opelousas Ave",
    "address_councildis": "C",
    "status": "Pending",
    "rowid": "1119165",
    "final_x": "3688631.01641",
    "final_y": "529013.955136",
    "longitude": "-90.04564213223962",
    "latitude": "29.94838647952265",
    "geocoded_column": {
      "latitude": "29.94838647952265",
      "longitude": "-90.04564213223962"
    }
  },
  {
    "service_request": "2024-1119164",
    "request_type": "Trash/Recycling",
    "request_reason": "Return Trash Cart",
    "date_created": "2024-08-05T18:50:37.000",
    "date_modified": "2024-08-05T18:50:38.000",
    "request_status": "Pending",
    "responsible_agency": "Department of Sanitation",
    "final_address": "5812 Durbridge Dr",
    "address_councildis": "C",
    "status": "Assigned to Contractor",
    "contractor": "Richards Disposal",
    "rowid": "1119164",
    "final_x": "3705148.34404",
    "final_y": "521582.027705",
    "longitude": "-89.99376482366488",
    "latitude": "29.927430570157096",
    "geocoded_column": {
      "latitude": "29.927430570157096",
      "longitude": "-89.99376482366488"
    }
  },
  {
    "service_request": "2024-1119163",
    "request_type": "Trash/Recycling",
    "request_reason": "Request a Large Item Pick Up",
    "date_created": "2024-08-05T18:47:16.000",
    "date_modified": "2024-08-05T18:47:17.000",
    "request_status": "Pending",
    "responsible_agency": "Department of Sanitation",
    "final_address": "5812 Durbridge Dr",
    "address_councildis": "C",
    "status": "Assigned to Contractor",
    "contractor": "Richards Disposal",
    "rowid": "1119163",
    "final_x": "3705148.34404",
    "final_y": "521582.027705",
    "longitude": "-89.99376482366488",
    "latitude": "29.927430570157096",
    "geocoded_column": {
      "latitude": "29.927430570157096",
      "longitude": "-89.99376482366488"
    }
  },
  {
    "service_request": "2024-1119162",
    "request_type": "Abandoned Vehicles",
    "request_reason": "Abandoned/Junk Vehicles",
    "date_created": "2024-08-05T18:45:17.000",
    "date_modified": "2024-08-05T18:45:17.000",
    "request_status": "Pending",
    "responsible_agency": "Department of Public Works",
    "final_address": "122 N Murat St",
    "address_councildis": "A",
    "status": "Pending",
    "rowid": "1119162",
    "final_x": "3669903.16801",
    "final_y": "539603.870794",
    "longitude": "-90.1044152754615",
    "latitude": "29.978070640119675",
    "geocoded_column": {
      "latitude": "29.978070640119675",
      "longitude": "-90.1044152754615"
    }
  },
  {
    "service_request": "2024-1119161",
    "request_type": "Trash/Recycling",
    "request_reason": "Request a Large Item Pick Up",
    "date_created": "2024-08-05T18:43:17.000",
    "date_modified": "2024-08-05T18:43:18.000",
    "request_status": "Pending",
    "responsible_agency": "Department of Sanitation",
    "final_address": "5812 Durbridge Dr",
    "address_councildis": "C",
    "status": "Assigned to Contractor",
    "contractor": "Richards Disposal",
    "rowid": "1119161",
    "final_x": "3705148.34404",
    "final_y": "521582.027705",
    "longitude": "-89.99376482366488",
    "latitude": "29.927430570157096",
    "geocoded_column": {
      "latitude": "29.927430570157096",
      "longitude": "-89.99376482366488"
    }
  },
  {
    "service_request": "2024-1119160",
    "request_type": "Abandoned Vehicles",
    "request_reason": "Abandoned/Junk Vehicles",
    "date_created": "2024-08-05T18:39:08.000",
    "date_modified": "2024-08-05T18:39:08.000",
    "request_status": "Pending",
    "responsible_agency": "Department of Public Works",
    "final_address": "4902 Canal St",
    "address_councildis": "A",
    "status": "Pending",
    "rowid": "1119160",
    "final_x": "3668414.05934",
    "final_y": "540275.657483",
    "longitude": "-90.10909575436996",
    "latitude": "29.979961656780066",
    "geocoded_column": {
      "latitude": "29.979961656780066",
      "longitude": "-90.10909575436996"
    }
  },
  {
    "service_request": "2024-1119159",
    "request_type": "Trash/Recycling",
    "request_reason": "Order Recycling Cart",
    "date_created": "2024-08-05T18:21:46.000",
    "date_modified": "2024-08-05T18:21:46.000",
    "request_status": "Pending",
    "responsible_agency": "Department of Sanitation",
    "final_address": "548 Verret St",
    "address_councildis": "C",
    "status": "Pending",
    "rowid": "1119159",
    "final_x": "3687055.26262",
    "final_y": "529518.008001",
    "longitude": "-90.05059961252039",
    "latitude": "29.949821050536443",
    "geocoded_column": {
      "latitude": "29.949821050536443",
      "longitude": "-90.05059961252039"
    }
  },
  {
    "service_request": "2024-1119158",
    "request_type": "Trash/Recycling",
    "request_reason": "Replace Trash Cart",
    "date_created": "2024-08-05T18:19:14.000",
    "date_modified": "2024-08-05T18:19:15.000",
    "request_status": "Pending",
    "responsible_agency": "Department of Sanitation",
    "final_address": "3801 Nashville Ave",
    "address_councildis": "A",
    "status": "Assigned to Contractor",
    "contractor": "IV Waste",
    "rowid": "1119158",
    "final_x": "3668519.13806",
    "final_y": "529442.092609",
    "longitude": "-90.10912944117594",
    "latitude": "29.95016986412222",
    "geocoded_column": {
      "latitude": "29.95016986412222",
      "longitude": "-90.10912944117594"
    }
  },
  {
    "service_request": "2024-1119157",
    "request_type": "Trash/Recycling",
    "request_reason": "Request a Large Item Pick Up",
    "date_created": "2024-08-05T18:08:10.000",
    "date_modified": "2024-08-05T18:08:11.000",
    "request_status": "Pending",
    "responsible_agency": "Department of Sanitation",
    "final_address": "4801 E Adams Ct",
    "address_councildis": "E",
    "status": "Assigned to Contractor",
    "contractor": "Waste Pro",
    "rowid": "1119157",
    "final_x": "3718805.76095",
    "final_y": "557440.573147",
    "longitude": "-89.94928500766814",
    "latitude": "30.025581845300838",
    "geocoded_column": {
      "latitude": "30.025581845300838",
      "longitude": "-89.94928500766814"
    }
  },
  {
    "service_request": "2024-1119156",
    "request_type": "Parks & Parkways",
    "request_reason": "Request Tree Service (Right of Way/Public Property)",
    "date_created": "2024-08-05T18:07:25.000",
    "date_modified": "2024-08-05T18:07:25.000",
    "request_status": "Pending",
    "responsible_agency": "Department of Parks & Parkway",
    "final_address": "4435 Lafaye St",
    "address_councildis": "D",
    "status": "Pending",
    "rowid": "1119156",
    "final_x": "3687584.19804",
    "final_y": "549222.768467",
    "longitude": "-90.04823173871263",
    "latitude": "30.003985899648974",
    "geocoded_column": {
      "latitude": "30.003985899648974",
      "longitude": "-90.04823173871263"
    }
  },
  {
    "service_request": "2024-1119155",
    "request_type": "Traffic Signals/Signs/Striping/Streetlights",
    "request_reason": "Street Light Outage/Malfunction",
    "date_created": "2024-08-05T18:04:34.000",
    "date_modified": "2024-08-05T18:04:35.000",
    "request_status": "Pending",
    "responsible_agency": "Department of Public Works",
    "final_address": "ROBERT ST & CONSTANCE ST",
    "address_councildis": "B",
    "status": "Assigned to Contractor",
    "contractor": "Legacy Professional Services",
    "rowid": "1119155",
    "final_x": "3668638.2",
    "final_y": "518214.88",
    "longitude": "-90.10913224466226",
    "latitude": "29.919295132369108",
    "geocoded_column": {
      "latitude": "29.919295132369108",
      "longitude": "-90.10913224466226"
    }
  },
  {
    "service_request": "2024-1119154",
    "request_type": "Trash/Recycling",
    "request_reason": "Replace Trash Cart",
    "date_created": "2024-08-05T18:03:38.000",
    "date_modified": "2024-08-05T18:03:39.000",
    "request_status": "Pending",
    "responsible_agency": "Department of Sanitation",
    "final_address": "3100 Robert St",
    "address_councildis": "B",
    "status": "Assigned to Contractor",
    "contractor": "IV Waste",
    "rowid": "1119154",
    "final_x": "3668862.80014",
    "final_y": "526632.226238",
    "longitude": "-90.10813919968851",
    "latitude": "29.942433545045635",
    "geocoded_column": {
      "latitude": "29.942433545045635",
      "longitude": "-90.10813919968851"
    }
  },
  {
    "service_request": "2024-1119153",
    "request_type": "Trash/Recycling",
    "request_reason": "Repair Trash Cart",
    "date_created": "2024-08-05T17:59:23.000",
    "date_modified": "2024-08-05T17:59:24.000",
    "request_status": "Pending",
    "responsible_agency": "Department of Sanitation",
    "final_address": "1 Jay St",
    "address_councildis": "D",
    "status": "Assigned to Contractor",
    "contractor": "IV Waste",
    "rowid": "1119153",
    "final_x": "3676060.95265",
    "final_y": "555656.431385",
    "longitude": "-90.08441418611949",
    "latitude": "30.022026492304622",
    "geocoded_column": {
      "latitude": "30.022026492304622",
      "longitude": "-90.08441418611949"
    }
  },
  {
    "service_request": "2024-1119152",
    "request_type": "Trash/Recycling",
    "request_reason": "Request a Large Item Pick Up",
    "date_created": "2024-08-05T17:48:43.000",
    "date_modified": "2024-08-05T17:48:44.000",
    "request_status": "Pending",
    "responsible_agency": "Department of Sanitation",
    "final_address": "12340 Carmel Pl",
    "address_councildis": "E",
    "status": "Assigned to Contractor",
    "contractor": "Waste Pro",
    "rowid": "1119152",
    "final_x": "3716000.09029",
    "final_y": "566578.109027",
    "longitude": "-89.9578038179974",
    "latitude": "30.05079926333272",
    "geocoded_column": {
      "latitude": "30.05079926333272",
      "longitude": "-89.9578038179974"
    }
  },
  {
    "service_request": "2024-1119151",
    "request_type": "Roads/Drainage",
    "request_reason": "Pothole",
    "date_created": "2024-08-05T17:27:31.000",
    "date_modified": "2024-08-05T17:28:09.000",
    "case_close_date": "2024-08-05T12:28:09.000",
    "request_status": "Closed",
    "responsible_agency": "Department of Public Works",
    "final_address": "5200 BLK Camp St",
    "address_councildis": "B",
    "status": "Resolved",
    "rowid": "1119151",
    "final_x": "3667879.13337",
    "final_y": "518978.661634",
    "longitude": "-90.11150253507743",
    "latitude": "29.921417568756727",
    "geocoded_column": {
      "latitude": "29.921417568756727",
      "longitude": "-90.11150253507743"
    }
  },
  {
    "service_request": "2024-1119150",
    "request_type": "Roads/Drainage",
    "request_reason": "Pothole",
    "date_created": "2024-08-05T17:25:41.000",
    "date_modified": "2024-08-05T17:26:02.000",
    "case_close_date": "2024-08-05T12:26:02.000",
    "request_status": "Closed",
    "responsible_agency": "Department of Public Works",
    "final_address": "900 BLK Jena St",
    "address_councildis": "B",
    "status": "Resolved",
    "rowid": "1119150",
    "final_x": "3670639.55501",
    "final_y": "518927.587917",
    "longitude": "-90.10279080203163",
    "latitude": "29.921195907196395",
    "geocoded_column": {
      "latitude": "29.921195907196395",
      "longitude": "-90.10279080203163"
    }
  },
  {
    "service_request": "2024-1119149",
    "request_type": "Roads/Drainage",
    "request_reason": "Pothole",
    "date_created": "2024-08-05T17:23:50.000",
    "date_modified": "2024-08-05T17:24:11.000",
    "case_close_date": "2024-08-05T12:24:11.000",
    "request_status": "Closed",
    "responsible_agency": "Department of Public Works",
    "final_address": "900 BLK Cadiz St",
    "address_councildis": "B",
    "status": "Resolved",
    "rowid": "1119149",
    "final_x": "3670290.18989",
    "final_y": "518892.9538",
    "longitude": "-90.10389476819209",
    "latitude": "29.921110986271188",
    "geocoded_column": {
      "latitude": "29.921110986271188",
      "longitude": "-90.10389476819209"
    }
  },
  {
    "service_request": "2024-1119148",
    "request_type": "Roads/Drainage",
    "request_reason": "Pothole",
    "date_created": "2024-08-05T17:22:05.000",
    "date_modified": "2024-08-05T17:22:37.000",
    "case_close_date": "2024-08-05T12:22:37.000",
    "request_status": "Closed",
    "responsible_agency": "Department of Public Works",
    "final_address": "800 Bordeaux St",
    "address_councildis": "B",
    "status": "Resolved",
    "rowid": "1119148",
    "final_x": "3669506.63073",
    "final_y": "518327.974582",
    "longitude": "-90.10638721704771",
    "latitude": "29.91958056610333",
    "geocoded_column": {
      "latitude": "29.91958056610333",
      "longitude": "-90.10638721704771"
    }
  },
  {
    "service_request": "2024-1119147",
    "request_type": "Abandoned Vehicles",
    "request_reason": "Abandoned/Junk Vehicles",
    "date_created": "2024-08-05T17:11:16.000",
    "date_modified": "2024-08-05T17:11:16.000",
    "request_status": "Pending",
    "responsible_agency": "Department of Public Works",
    "final_address": "2356 N Robertson St",
    "address_councildis": "C",
    "status": "Pending",
    "rowid": "1119147",
    "final_x": "3686154.94038",
    "final_y": "537841.769737",
    "longitude": "-90.05314870463762",
    "latitude": "29.972736204191648",
    "geocoded_column": {
      "latitude": "29.972736204191648",
      "longitude": "-90.05314870463762"
    }
  },
  {
    "service_request": "2024-1119146",
    "request_type": "Parks & Parkways",
    "request_reason": "Request Tree Service (Right of Way/Public Property)",
    "date_created": "2024-08-05T17:01:39.000",
    "date_modified": "2024-08-05T17:01:40.000",
    "request_status": "Pending",
    "responsible_agency": "Department of Parks & Parkway",
    "final_address": "1466 Murl St",
    "address_councildis": "C",
    "status": "Pending",
    "rowid": "1119146",
    "final_x": "3695451.78371",
    "final_y": "525933.020541",
    "longitude": "-90.02421738629891",
    "latitude": "29.939702448942903",
    "geocoded_column": {
      "latitude": "29.939702448942903",
      "longitude": "-90.02421738629891"
    }
  },
  {
    "service_request": "2024-1119145",
    "request_type": "Trash/Recycling",
    "request_reason": "MIssed Recycling Pick-Up",
    "date_created": "2024-08-05T16:54:53.000",
    "date_modified": "2024-08-05T16:54:54.000",
    "request_status": "Pending",
    "responsible_agency": "Department of Sanitation",
    "final_address": "3614 Touro St",
    "address_councildis": "D",
    "status": "Assigned to Contractor",
    "contractor": "IV Waste",
    "rowid": "1119145",
    "final_x": "3683410.00873",
    "final_y": "545939.136848",
    "longitude": "-90.06153385524763",
    "latitude": "29.995085153724578",
    "geocoded_column": {
      "latitude": "29.995085153724578",
      "longitude": "-90.06153385524763"
    }
  },
  {
    "service_request": "2024-1119144",
    "request_type": "Healthy Homes",
    "request_reason": "Healthy Homes",
    "date_created": "2024-08-05T16:53:32.000",
    "date_modified": "2024-08-05T16:56:11.000",
    "request_status": "Pending",
    "responsible_agency": "Department of Code Enforcement",
    "final_address": "1815 Henriette Delille St Apt 217",
    "address_councildis": "C",
    "status": "Pending",
    "rowid": "1119144",
    "final_x": "3683725.44258",
    "final_y": "536320.229895",
    "longitude": "-90.06087486186223",
    "latitude": "29.968626908852602",
    "geocoded_column": {
      "latitude": "29.968626908852602",
      "longitude": "-90.06087486186223"
    }
  },
  {
    "service_request": "2024-1119143",
    "request_type": "Trash/Recycling",
    "request_reason": "Repair Recycling Cart",
    "date_created": "2024-08-05T16:44:50.000",
    "date_modified": "2024-08-05T16:45:06.000",
    "request_status": "Pending",
    "responsible_agency": "Department of Sanitation",
    "final_address": "4051 Ulloa St",
    "address_councildis": "A",
    "status": "Pending",
    "rowid": "1119143",
    "final_x": "3669728.7483",
    "final_y": "536466.891271",
    "longitude": "-90.10507235993298",
    "latitude": "29.969450144589867",
    "geocoded_column": {
      "latitude": "29.969450144589867",
      "longitude": "-90.10507235993298"
    }
  },
  {
    "service_request": "2024-1119142",
    "request_type": "Roads/Drainage",
    "request_reason": "Pothole",
    "date_created": "2024-08-05T16:44:45.000",
    "date_modified": "2024-08-05T16:44:49.000",
    "request_status": "Pending",
    "responsible_agency": "Department of Public Works",
    "final_address": "4100 BLK Old Gentilly Rd",
    "address_councildis": "D",
    "status": "Pending",
    "rowid": "1119142",
    "final_x": "3690105.16765",
    "final_y": "548769.655201",
    "longitude": "-90.0402837349983",
    "latitude": "30.00266202074299",
    "geocoded_column": {
      "latitude": "30.00266202074299",
      "longitude": "-90.0402837349983"
    }
  },
  {
    "service_request": "2024-1119141",
    "request_type": "Trash/Recycling",
    "request_reason": "Request a Large Item Pick Up",
    "date_created": "2024-08-05T16:42:54.000",
    "date_modified": "2024-08-05T16:42:55.000",
    "request_status": "Pending",
    "responsible_agency": "Department of Sanitation",
    "final_address": "5433 N Villere St",
    "address_councildis": "E",
    "status": "Assigned to Contractor",
    "contractor": "Waste Pro",
    "rowid": "1119141",
    "final_x": "3697788.42147",
    "final_y": "535025.871686",
    "longitude": "-90.01651042516626",
    "latitude": "29.964630979711785",
    "geocoded_column": {
      "latitude": "29.964630979711785",
      "longitude": "-90.01651042516626"
    }
  },
  {
    "service_request": "2024-1119140",
    "request_type": "Trash/Recycling",
    "request_reason": "Illegal Dumping",
    "date_created": "2024-08-05T16:41:54.000",
    "date_modified": "2024-08-05T16:41:55.000",
    "request_status": "Pending",
    "responsible_agency": "Department of Sanitation",
    "final_address": "PELICAN AVE & WHITNEY AVE",
    "address_councildis": "C",
    "status": "Pending",
    "rowid": "1119140",
    "final_x": "3690251.8",
    "final_y": "530664.08",
    "longitude": "-90.04046587669966",
    "latitude": "29.95287357151926",
    "geocoded_column": {
      "latitude": "29.95287357151926",
      "longitude": "-90.04046587669966"
    }
  },
  {
    "service_request": "2024-1119139",
    "request_type": "Trash/Recycling",
    "request_reason": "Replace Trash Cart",
    "date_created": "2024-08-05T16:41:00.000",
    "date_modified": "2024-08-05T16:41:01.000",
    "request_status": "Pending",
    "responsible_agency": "Department of Sanitation",
    "final_address": "3007 Bienville Ave",
    "address_councildis": "B",
    "status": "Assigned to Contractor",
    "contractor": "IV Waste",
    "rowid": "1119139",
    "final_x": "3674793.51432",
    "final_y": "536593.718087",
    "longitude": "-90.08907304546172",
    "latitude": "29.969648622258642",
    "geocoded_column": {
      "latitude": "29.969648622258642",
      "longitude": "-90.08907304546172"
    }
  },
  {
    "service_request": "2024-1119138",
    "request_type": "Trash/Recycling",
    "request_reason": "Replace Trash Cart",
    "date_created": "2024-08-05T16:39:46.000",
    "date_modified": "2024-08-05T16:39:46.000",
    "request_status": "Pending",
    "responsible_agency": "Department of Sanitation",
    "final_address": "3005 Bienville Ave",
    "address_councildis": "B",
    "status": "Assigned to Contractor",
    "contractor": "IV Waste",
    "rowid": "1119138",
    "final_x": "3674804.92097",
    "final_y": "536588.056583",
    "longitude": "-90.08903721637026",
    "latitude": "29.969632714453354",
    "geocoded_column": {
      "latitude": "29.969632714453354",
      "longitude": "-90.08903721637026"
    }
  },
  {
    "service_request": "2024-1119136",
    "request_type": "Traffic Signals/Signs/Striping/Streetlights",
    "request_reason": "Street Light Outage/Malfunction",
    "date_created": "2024-08-05T16:37:55.000",
    "date_modified": "2024-08-05T16:38:01.000",
    "request_status": "Pending",
    "responsible_agency": "Department of Public Works",
    "final_address": "GANNON RD & WALES ST",
    "address_councildis": "E",
    "status": "Assigned to Contractor",
    "contractor": "Legacy Professional Services",
    "rowid": "1119136",
    "final_x": "3715846.0",
    "final_y": "570610.68",
    "longitude": "-89.9581378719321",
    "latitude": "30.061892257176982",
    "geocoded_column": {
      "latitude": "30.061892257176982",
      "longitude": "-89.9581378719321"
    }
  },
  {
    "service_request": "2024-1119135",
    "request_type": "Trash/Recycling",
    "request_reason": "Request a Large Item Pick Up",
    "date_created": "2024-08-05T16:37:51.000",
    "date_modified": "2024-08-05T16:37:52.000",
    "request_status": "Pending",
    "responsible_agency": "Department of Sanitation",
    "final_address": "3717 State Street Dr",
    "address_councildis": "A",
    "status": "Assigned to Contractor",
    "contractor": "IV Waste",
    "rowid": "1119135",
    "final_x": "3668062.37901",
    "final_y": "529462.083713",
    "longitude": "-90.11057097601645",
    "latitude": "29.950238243521365",
    "geocoded_column": {
      "latitude": "29.950238243521365",
      "longitude": "-90.11057097601645"
    }
  },
  {
    "service_request": "2024-1119134",
    "request_type": "Trash/Recycling",
    "request_reason": "Request a Large Item Pick Up",
    "date_created": "2024-08-05T16:34:17.000",
    "date_modified": "2024-08-05T16:34:18.000",
    "request_status": "Pending",
    "responsible_agency": "Department of Sanitation",
    "final_address": "3 Acadiana Pl",
    "address_councildis": "E",
    "status": "Assigned to Contractor",
    "contractor": "Waste Pro",
    "rowid": "1119134",
    "final_x": "3725205.41881",
    "final_y": "564362.045921",
    "longitude": "-89.92879520369355",
    "latitude": "30.044398951492727",
    "geocoded_column": {
      "latitude": "30.044398951492727",
      "longitude": "-89.92879520369355"
    }
  },
  {
    "service_request": "2024-1119133",
    "request_type": "Parks & Parkways",
    "request_reason": "Request Tree Service (Right of Way/Public Property)",
    "date_created": "2024-08-05T16:29:31.000",
    "date_modified": "2024-08-05T16:29:32.000",
    "request_status": "Pending",
    "responsible_agency": "Department of Parks & Parkway",
    "final_address": "820 Delachaise St",
    "address_councildis": "B",
    "status": "Pending",
    "rowid": "1119133",
    "final_x": "3675012.97665",
    "final_y": "518599.318711",
    "longitude": "-90.0889970913718",
    "latitude": "29.920163403407898",
    "geocoded_column": {
      "latitude": "29.920163403407898",
      "longitude": "-90.0889970913718"
    }
  },
  {
    "service_request": "2024-1119132",
    "request_type": "Trash/Recycling",
    "request_reason": "Replace Trash Cart",
    "date_created": "2024-08-05T16:27:43.000",
    "date_modified": "2024-08-05T16:27:44.000",
    "request_status": "Pending",
    "responsible_agency": "Department of Sanitation",
    "final_address": "8607 Hickory St",
    "address_councildis": "A",
    "status": "Assigned to Contractor",
    "contractor": "IV Waste",
    "rowid": "1119132",
    "final_x": "3662039.89472",
    "final_y": "531199.314114",
    "longitude": "-90.12952928006426",
    "latitude": "29.955190408559368",
    "geocoded_column": {
      "latitude": "29.955190408559368",
      "longitude": "-90.12952928006426"
    }
  },
  {
    "service_request": "2024-1119131",
    "request_type": "Abandoned Vehicles",
    "request_reason": "Abandoned/Junk Vehicles",
    "date_created": "2024-08-05T16:25:39.000",
    "date_modified": "2024-08-05T16:25:39.000",
    "request_status": "Pending",
    "responsible_agency": "Department of Public Works",
    "final_address": "LEONIDAS ST & PALMETTO ST",
    "address_councildis": "A",
    "status": "Pending",
    "rowid": "1119131",
    "final_x": "3666801.4",
    "final_y": "536328.08",
    "longitude": "-90.1143218623348",
    "latitude": "29.969154416972902",
    "geocoded_column": {
      "latitude": "29.969154416972902",
      "longitude": "-90.1143218623348"
    }
  },
  {
    "service_request": "2024-1119130",
    "request_type": "Parks & Parkways",
    "request_reason": "Request Grass Cutting Service (City Owned Property)",
    "date_created": "2024-08-05T16:23:47.000",
    "date_modified": "2024-08-05T16:23:48.000",
    "request_status": "Pending",
    "responsible_agency": "Department of Parks & Parkway",
    "final_address": "MONTEGUT ST & N GALVEZ ST",
    "address_councildis": "D",
    "status": "Pending",
    "rowid": "1119130",
    "final_x": "3689373.04",
    "final_y": "539861.79",
    "longitude": "-90.04291353526341",
    "latitude": "29.978191292117792",
    "geocoded_column": {
      "latitude": "29.978191292117792",
      "longitude": "-90.04291353526341"
    }
  },
  {
    "service_request": "2024-1119129",
    "request_type": "Trash/Recycling",
    "request_reason": "Illegal Dumping",
    "date_created": "2024-08-05T16:23:15.000",
    "date_modified": "2024-08-05T16:23:15.000",
    "request_status": "Pending",
    "responsible_agency": "Department of Sanitation",
    "final_address": "1900 BLK Benefit St",
    "address_councildis": "D",
    "status": "Pending",
    "rowid": "1119129",
    "final_x": "3682269.38903",
    "final_y": "544106.677322",
    "longitude": "-90.06520101090996",
    "latitude": "29.990081301024595",
    "geocoded_column": {
      "latitude": "29.990081301024595",
      "longitude": "-90.06520101090996"
    }
  },
  {
    "service_request": "2024-1119128",
    "request_type": "Traffic Signals/Signs/Striping/Streetlights",
    "request_reason": "Street Light Outage/Malfunction",
    "date_created": "2024-08-05T16:22:13.000",
    "date_modified": "2024-08-05T16:22:14.000",
    "request_status": "Pending",
    "responsible_agency": "Department of Public Works",
    "final_address": "8722 Palmetto St",
    "address_councildis": "A",
    "status": "Assigned to Contractor",
    "contractor": "Legacy Professional Services",
    "rowid": "1119128",
    "final_x": "3666363.99124",
    "final_y": "536658.297607",
    "longitude": "-90.11569215403738",
    "latitude": "29.970075193754784",
    "geocoded_column": {
      "latitude": "29.970075193754784",
      "longitude": "-90.11569215403738"
    }
  },
  {
    "service_request": "2024-1119127",
    "request_type": "Abandoned Vehicles",
    "request_reason": "Abandoned/Junk Vehicles",
    "date_created": "2024-08-05T16:18:57.000",
    "date_modified": "2024-08-05T16:18:57.000",
    "request_status": "Pending",
    "responsible_agency": "Department of Public Works",
    "final_address": "LEONIDAS ST & PALMETTO ST",
    "address_councildis": "A",
    "status": "Pending",
    "rowid": "1119127",
    "final_x": "3666801.4",
    "final_y": "536328.08",
    "longitude": "-90.1143218623348",
    "latitude": "29.969154416972902",
    "geocoded_column": {
      "latitude": "29.969154416972902",
      "longitude": "-90.1143218623348"
    }
  },
  {
    "service_request": "2024-1119126",
    "request_type": "Trash/Recycling",
    "request_reason": "Request a Large Item Pick Up",
    "date_created": "2024-08-05T16:18:10.000",
    "date_modified": "2024-08-05T16:18:11.000",
    "request_status": "Pending",
    "responsible_agency": "Department of Sanitation",
    "final_address": "927 Milan St",
    "address_councildis": "B",
    "status": "Assigned to Contractor",
    "contractor": "IV Waste",
    "rowid": "1119126",
    "final_x": "3671817.38779",
    "final_y": "519097.054455",
    "longitude": "-90.09906713774141",
    "latitude": "29.921627052992818",
    "geocoded_column": {
      "latitude": "29.921627052992818",
      "longitude": "-90.09906713774141"
    }
  },
  {
    "service_request": "2024-1119125",
    "request_type": "Traffic Signals/Signs/Striping/Streetlights",
    "request_reason": "Street Light Outage/Malfunction",
    "date_created": "2024-08-05T16:12:05.000",
    "date_modified": "2024-08-05T16:12:06.000",
    "request_status": "Pending",
    "responsible_agency": "Department of Public Works",
    "final_address": "1224 N Rendon St",
    "address_councildis": "A",
    "status": "Assigned to Contractor",
    "contractor": "Legacy Professional Services",
    "rowid": "1119125",
    "final_x": "3676043.88859",
    "final_y": "539716.941962",
    "longitude": "-90.0850167946905",
    "latitude": "29.978199027210213",
    "geocoded_column": {
      "latitude": "29.978199027210213",
      "longitude": "-90.0850167946905"
    }
  },
  {
    "service_request": "2024-1119124",
    "request_type": "Roads/Drainage",
    "request_reason": "Street Subsidence (Sinking)",
    "date_created": "2024-08-05T16:11:41.000",
    "date_modified": "2024-08-05T16:11:42.000",
    "request_status": "Pending",
    "responsible_agency": "Department of Public Works",
    "final_address": "2115 N Prieur St",
    "address_councildis": "D",
    "status": "Pending",
    "rowid": "1119124",
    "final_x": "3684506.77769",
    "final_y": "539262.256458",
    "longitude": "-90.05830398017966",
    "latitude": "29.976692575974347",
    "geocoded_column": {
      "latitude": "29.976692575974347",
      "longitude": "-90.05830398017966"
    }
  },
  {
    "service_request": "2024-1119123",
    "request_type": "Trash/Recycling",
    "request_reason": "Request a Large Item Pick Up",
    "date_created": "2024-08-05T16:09:21.000",
    "date_modified": "2024-08-05T16:09:24.000",
    "request_status": "Pending",
    "responsible_agency": "Department of Sanitation",
    "final_address": "1420 Charbonnet St",
    "address_councildis": "E",
    "status": "Assigned to Contractor",
    "contractor": "Waste Pro",
    "rowid": "1119123",
    "final_x": "3698889.86039",
    "final_y": "534910.40167",
    "longitude": "-90.01303638214634",
    "latitude": "29.96427862746914",
    "geocoded_column": {
      "latitude": "29.96427862746914",
      "longitude": "-90.01303638214634"
    }
  },
  {
    "service_request": "2024-1119122",
    "request_type": "Trash/Recycling",
    "request_reason": "Illegal Dumping",
    "date_created": "2024-08-05T16:08:05.000",
    "date_modified": "2024-08-05T16:08:06.000",
    "request_status": "Pending",
    "responsible_agency": "Department of Sanitation",
    "final_address": "BANKS ST & S DUPRE ST",
    "address_councildis": "B",
    "status": "Pending",
    "rowid": "1119122",
    "final_x": "3673896.4",
    "final_y": "534718.08",
    "longitude": "-90.09197038814509",
    "latitude": "29.964518005998357",
    "geocoded_column": {
      "latitude": "29.964518005998357",
      "longitude": "-90.09197038814509"
    }
  },
  {
    "service_request": "2024-1119121",
    "request_type": "Trash/Recycling",
    "request_reason": "Repair Trash Cart",
    "date_created": "2024-08-05T16:05:26.000",
    "date_modified": "2024-08-05T16:05:26.000",
    "request_status": "Pending",
    "responsible_agency": "Department of Sanitation",
    "final_address": "6201 Wadsworth Dr",
    "address_councildis": "D",
    "status": "Assigned to Contractor",
    "contractor": "IV Waste",
    "rowid": "1119121",
    "final_x": "3681675.46824",
    "final_y": "555682.103833",
    "longitude": "-90.06667285708541",
    "latitude": "30.021927620559083",
    "geocoded_column": {
      "latitude": "30.021927620559083",
      "longitude": "-90.06667285708541"
    }
  },
  {
    "service_request": "2024-1119120",
    "request_type": "Roads/Drainage",
    "request_reason": "Pothole",
    "date_created": "2024-08-05T16:02:03.000",
    "date_modified": "2024-08-05T16:02:03.000",
    "request_status": "Pending",
    "responsible_agency": "Department of Public Works",
    "final_address": "3113 Milan St",
    "address_councildis": "B",
    "status": "Pending",
    "rowid": "1119120",
    "final_x": "3671084.80225",
    "final_y": "526450.264382",
    "longitude": "-90.10112999628744",
    "latitude": "29.9418676931487",
    "geocoded_column": {
      "latitude": "29.9418676931487",
      "longitude": "-90.10112999628744"
    }
  },
  {
    "service_request": "2024-1119119",
    "request_type": "Trash/Recycling",
    "request_reason": "Missed Trash Pick-Up",
    "date_created": "2024-08-05T16:01:29.000",
    "date_modified": "2024-08-05T16:01:30.000",
    "request_status": "Pending",
    "responsible_agency": "Department of Sanitation",
    "final_address": "8741 Aberdeen Rd",
    "address_councildis": "E",
    "status": "Assigned to Contractor",
    "contractor": "Waste Pro",
    "rowid": "1119119",
    "final_x": "3704782.37035",
    "final_y": "562416.635615",
    "longitude": "-89.99341272302453",
    "latitude": "30.039722364728703",
    "geocoded_column": {
      "latitude": "30.039722364728703",
      "longitude": "-89.99341272302453"
    }
  },
  {
    "service_request": "2024-1119118",
    "request_type": "Trash/Recycling",
    "request_reason": "Request a Large Item Pick Up",
    "date_created": "2024-08-05T16:00:23.000",
    "date_modified": "2024-08-05T16:00:39.000",
    "request_status": "Pending",
    "responsible_agency": "Department of Sanitation",
    "final_address": "2719 Pine St",
    "address_councildis": "B",
    "status": "Assigned to Contractor",
    "contractor": "IV Waste",
    "rowid": "1119118",
    "final_x": "3667064.95809",
    "final_y": "531326.021954",
    "longitude": "-90.11365767177112",
    "latitude": "29.95539269486613",
    "geocoded_column": {
      "latitude": "29.95539269486613",
      "longitude": "-90.11365767177112"
    }
  },
  {
    "service_request": "2024-1119117",
    "request_type": "Roads/Drainage",
    "request_reason": "Catch Basin - Broken/Damage",
    "date_created": "2024-08-05T15:59:43.000",
    "date_modified": "2024-08-05T15:59:46.000",
    "request_status": "Pending",
    "responsible_agency": "Department of Public Works",
    "final_address": "1924 Rosary Dr",
    "address_councildis": "D",
    "status": "Pending",
    "rowid": "1119117",
    "final_x": "3681659.94562",
    "final_y": "555063.645913",
    "longitude": "-90.06674350553604",
    "latitude": "30.020227559543827",
    "geocoded_column": {
      "latitude": "30.020227559543827",
      "longitude": "-90.06674350553604"
    }
  },
  {
    "service_request": "2024-1119116",
    "request_type": "Trash/Recycling",
    "request_reason": "Repair Trash Cart",
    "date_created": "2024-08-05T15:54:38.000",
    "date_modified": "2024-08-05T15:54:39.000",
    "request_status": "Pending",
    "responsible_agency": "Department of Sanitation",
    "final_address": "14070 Partridge Ln",
    "address_councildis": "E",
    "status": "Assigned to Contractor",
    "contractor": "Waste Pro",
    "rowid": "1119116",
    "final_x": "3719693.30265",
    "final_y": "571837.282344",
    "longitude": "-89.94592971975052",
    "latitude": "30.065137378343742",
    "geocoded_column": {
      "latitude": "30.065137378343742",
      "longitude": "-89.94592971975052"
    }
  },
  {
    "service_request": "2024-1119115",
    "request_type": "Trash/Recycling",
    "request_reason": "Repair Trash Cart",
    "date_created": "2024-08-05T15:52:00.000",
    "date_modified": "2024-08-05T15:52:01.000",
    "request_status": "Pending",
    "responsible_agency": "Department of Sanitation",
    "final_address": "1222 Third St",
    "address_councildis": "B",
    "status": "Assigned to Contractor",
    "contractor": "IV Waste",
    "rowid": "1119115",
    "final_x": "3677220.42536",
    "final_y": "521597.864313",
    "longitude": "-90.08192585615993",
    "latitude": "29.928342332644906",
    "geocoded_column": {
      "latitude": "29.928342332644906",
      "longitude": "-90.08192585615993"
    }
  },
  {
    "service_request": "2024-1119114",
    "request_type": "Trash/Recycling",
    "request_reason": "Request a Large Item Pick Up",
    "date_created": "2024-08-05T15:44:17.000",
    "date_modified": "2024-08-05T15:44:18.000",
    "request_status": "Pending",
    "responsible_agency": "Department of Sanitation",
    "final_address": "7817 Means Ave",
    "address_councildis": "E",
    "status": "Assigned to Contractor",
    "contractor": "Waste Pro",
    "rowid": "1119114",
    "final_x": "3707788.1978",
    "final_y": "565332.152738",
    "longitude": "-89.9838049523202",
    "latitude": "30.047641883533153",
    "geocoded_column": {
      "latitude": "30.047641883533153",
      "longitude": "-89.9838049523202"
    }
  },
  {
    "service_request": "2024-1119113",
    "request_type": "Property Maintenance",
    "request_reason": "Property Maintenance",
    "date_created": "2024-08-05T15:43:28.000",
    "date_modified": "2024-08-05T15:43:29.000",
    "request_status": "Pending",
    "responsible_agency": "Department of Code Enforcement",
    "final_address": "8445 Panola St",
    "address_councildis": "A",
    "status": "Pending",
    "rowid": "1119113",
    "final_x": "3663092.84083",
    "final_y": "531676.448195",
    "longitude": "-90.1261885774898",
    "latitude": "29.956471913500415",
    "geocoded_column": {
      "latitude": "29.956471913500415",
      "longitude": "-90.1261885774898"
    }
  },
  {
    "service_request": "2024-1119112",
    "request_type": "Trash/Recycling",
    "request_reason": "Missed Trash Pick-Up",
    "date_created": "2024-08-05T15:42:47.000",
    "date_modified": "2024-08-05T16:56:55.000",
    "case_close_date": "2024-08-05T11:56:55.000",
    "request_status": "Closed",
    "responsible_agency": "Department of Sanitation",
    "final_address": "1933 Orleans Ave",
    "address_councildis": "D",
    "status": "Invalid Request",
    "contractor": "IV Waste",
    "contractor_action": "Additional information required from resident",
    "rowid": "1119112",
    "final_x": "3679089.29435",
    "final_y": "535363.601926",
    "longitude": "-90.07554923792242",
    "latitude": "29.966137259201478",
    "geocoded_column": {
      "latitude": "29.966137259201478",
      "longitude": "-90.07554923792242"
    }
  },
  {
    "service_request": "2024-1119111",
    "request_type": "Trash/Recycling",
    "request_reason": "Request a Large Item Pick Up",
    "date_created": "2024-08-05T15:41:49.000",
    "date_modified": "2024-08-05T15:41:49.000",
    "request_status": "Pending",
    "responsible_agency": "Department of Sanitation",
    "final_address": "11218 Pressburg St",
    "address_councildis": "E",
    "status": "Assigned to Contractor",
    "contractor": "Waste Pro",
    "rowid": "1119111",
    "final_x": "3716841.46572",
    "final_y": "557484.206171",
    "longitude": "-89.95549017175755",
    "latitude": "30.02576691137722",
    "geocoded_column": {
      "latitude": "30.02576691137722",
      "longitude": "-89.95549017175755"
    }
  },
  {
    "service_request": "2024-1119110",
    "request_type": "Roads/Drainage",
    "request_reason": "Catch Basin - Clogged",
    "date_created": "2024-08-05T15:41:24.000",
    "date_modified": "2024-08-05T15:41:25.000",
    "request_status": "Pending",
    "responsible_agency": "Department of Public Works",
    "final_address": "728 Florida Blvd",
    "address_councildis": "A",
    "status": "Pending",
    "rowid": "1119110",
    "final_x": "3668607.32788",
    "final_y": "545227.780175",
    "longitude": "-90.10831811417061",
    "latitude": "29.993572626966923",
    "geocoded_column": {
      "latitude": "29.993572626966923",
      "longitude": "-90.10831811417061"
    }
  },
  {
    "service_request": "2024-1119109",
    "request_type": "Roads/Drainage",
    "request_reason": "Pothole",
    "date_created": "2024-08-05T15:41:14.000",
    "date_modified": "2024-08-05T15:41:43.000",
    "case_close_date": "2024-08-05T10:41:43.000",
    "request_status": "Closed",
    "responsible_agency": "Department of Public Works",
    "final_address": "9500 BLK Stroelitz St",
    "address_councildis": "A",
    "status": "Resolved",
    "rowid": "1119109",
    "final_x": "3664076.05534",
    "final_y": "538481.695134",
    "longitude": "-90.12285688661281",
    "latitude": "29.975155586702364",
    "geocoded_column": {
      "latitude": "29.975155586702364",
      "longitude": "-90.12285688661281"
    }
  },
  {
    "service_request": "2024-1119108",
    "request_type": "Roads/Drainage",
    "request_reason": "Street Subsidence (Sinking)",
    "date_created": "2024-08-05T15:40:00.000",
    "date_modified": "2024-08-05T15:42:33.000",
    "request_status": "Pending",
    "responsible_agency": "Department of Public Works",
    "final_address": "6343 West End Blvd",
    "address_councildis": "A",
    "status": "Pending",
    "rowid": "1119108",
    "final_x": "3666643.33601",
    "final_y": "549869.398484",
    "longitude": "-90.11436610450497",
    "latitude": "30.006393065222227",
    "geocoded_column": {
      "latitude": "30.006393065222227",
      "longitude": "-90.11436610450497"
    }
  },
  {
    "service_request": "2024-1119107",
    "request_type": "Trash/Recycling",
    "request_reason": "Request a Large Item Pick Up",
    "date_created": "2024-08-05T15:39:43.000",
    "date_modified": "2024-08-05T15:39:44.000",
    "request_status": "Pending",
    "responsible_agency": "Department of Sanitation",
    "final_address": "1214 Calhoun St",
    "address_councildis": "A",
    "status": "Assigned to Contractor",
    "contractor": "IV Waste",
    "rowid": "1119107",
    "final_x": "3663989.21869",
    "final_y": "521117.699385",
    "longitude": "-90.12371006866589",
    "latitude": "29.927412732967646",
    "geocoded_column": {
      "latitude": "29.927412732967646",
      "longitude": "-90.12371006866589"
    }
  },
  {
    "service_request": "2024-1119105",
    "request_type": "Trash/Recycling",
    "request_reason": "Request a Large Item Pick Up",
    "date_created": "2024-08-05T15:36:47.000",
    "date_modified": "2024-08-05T15:36:48.000",
    "request_status": "Pending",
    "responsible_agency": "Department of Sanitation",
    "final_address": "22 N Oak Ridge Ct",
    "address_councildis": "E",
    "status": "Assigned to Contractor",
    "contractor": "Waste Pro",
    "rowid": "1119105",
    "final_x": "3713475.72619",
    "final_y": "567995.008805",
    "longitude": "-89.96572893342308",
    "latitude": "30.054778241448464",
    "geocoded_column": {
      "latitude": "30.054778241448464",
      "longitude": "-89.96572893342308"
    }
  },
  {
    "service_request": "2024-1119104",
    "request_type": "Roads/Drainage",
    "request_reason": "Street Subsidence (Sinking)",
    "date_created": "2024-08-05T15:34:26.000",
    "date_modified": "2024-08-05T15:34:27.000",
    "request_status": "Pending",
    "responsible_agency": "Department of Public Works",
    "final_address": "3817 Octavia St",
    "address_councildis": "A",
    "status": "Pending",
    "rowid": "1119104",
    "final_x": "3668845.60481",
    "final_y": "529468.915841",
    "longitude": "-90.10809772294161",
    "latitude": "29.950234024544727",
    "geocoded_column": {
      "latitude": "29.950234024544727",
      "longitude": "-90.10809772294161"
    }
  },
  {
    "service_request": "2024-1119103",
    "request_type": "Trash/Recycling",
    "request_reason": "Request a Large Item Pick Up",
    "date_created": "2024-08-05T15:32:21.000",
    "date_modified": "2024-08-05T15:32:22.000",
    "request_status": "Pending",
    "responsible_agency": "Department of Sanitation",
    "final_address": "818 Opelousas Ave",
    "address_councildis": "C",
    "status": "Assigned to Contractor",
    "contractor": "Richards Disposal",
    "rowid": "1119103",
    "final_x": "3688001.69814",
    "final_y": "529190.373312",
    "longitude": "-90.04762289562579",
    "latitude": "29.94889100049254",
    "geocoded_column": {
      "latitude": "29.94889100049254",
      "longitude": "-90.04762289562579"
    }
  },
  {
    "service_request": "2024-1119102",
    "request_type": "Roads/Drainage",
    "request_reason": "Pothole",
    "date_created": "2024-08-05T15:31:25.000",
    "date_modified": "2024-08-05T15:32:02.000",
    "case_close_date": "2024-08-05T10:32:02.000",
    "request_status": "Closed",
    "responsible_agency": "Department of Public Works",
    "final_address": "1800 BLK Henriette Delille St",
    "address_councildis": "C",
    "status": "Resolved",
    "rowid": "1119102",
    "final_x": "3683587.99335",
    "final_y": "536187.484827",
    "longitude": "-90.06131358737173",
    "latitude": "29.96826610212408",
    "geocoded_column": {
      "latitude": "29.96826610212408",
      "longitude": "-90.06131358737173"
    }
  },
  {
    "service_request": "2024-1119101",
    "request_type": "Abandoned Vehicles",
    "request_reason": "Abandoned/Junk Vehicles",
    "date_created": "2024-08-05T15:30:29.000",
    "date_modified": "2024-08-05T15:30:29.000",
    "request_status": "Pending",
    "responsible_agency": "Department of Public Works",
    "final_address": "3959 S Front St",
    "address_councildis": "B",
    "status": "Pending",
    "rowid": "1119101",
    "final_x": "3672920.90683",
    "final_y": "517448.505398",
    "longitude": "-90.09564000662816",
    "latitude": "29.9170613374867",
    "geocoded_column": {
      "latitude": "29.9170613374867",
      "longitude": "-90.09564000662816"
    }
  },
  {
    "service_request": "2024-1119100",
    "request_type": "Trash/Recycling",
    "request_reason": "Order Trash Cart",
    "date_created": "2024-08-05T15:30:18.000",
    "date_modified": "2024-08-05T15:30:19.000",
    "request_status": "Pending",
    "responsible_agency": "Department of Sanitation",
    "final_address": "923 Hagan St",
    "address_councildis": "A",
    "status": "Assigned to Contractor",
    "contractor": "IV Waste",
    "rowid": "1119100",
    "final_x": "3675219.40001",
    "final_y": "539253.474122",
    "longitude": "-90.0876367419061",
    "latitude": "29.976949321736544",
    "geocoded_column": {
      "latitude": "29.976949321736544",
      "longitude": "-90.0876367419061"
    }
  },
  {
    "service_request": "2024-1119099",
    "request_type": "Mosquito, Termite & Rodent Control",
    "request_reason": "Rodent Complaint (Rats)",
    "date_created": "2024-08-05T15:30:15.000",
    "date_modified": "2024-08-05T15:30:16.000",
    "request_status": "Pending",
    "responsible_agency": "Mosquito, Termite & Rodent Control Board",
    "final_address": "1819 S Liberty St",
    "address_councildis": "B",
    "status": "Pending",
    "rowid": "1119099",
    "final_x": "3676525.49979",
    "final_y": "526286.049662",
    "longitude": "-90.08395821749045",
    "latitude": "29.941254158703206",
    "geocoded_column": {
      "latitude": "29.941254158703206",
      "longitude": "-90.08395821749045"
    }
  },
  {
    "service_request": "2024-1119098",
    "request_type": "Trash/Recycling",
    "request_reason": "Request a Large Item Pick Up",
    "date_created": "2024-08-05T15:29:43.000",
    "date_modified": "2024-08-05T15:29:44.000",
    "request_status": "Pending",
    "responsible_agency": "Department of Sanitation",
    "final_address": "1708 Robert St",
    "address_councildis": "B",
    "status": "Assigned to Contractor",
    "contractor": "IV Waste",
    "rowid": "1119098",
    "final_x": "3668665.82145",
    "final_y": "521915.428474",
    "longitude": "-90.1089202399355",
    "latitude": "29.929469656101226",
    "geocoded_column": {
      "latitude": "29.929469656101226",
      "longitude": "-90.1089202399355"
    }
  },
  {
    "service_request": "2024-1119097",
    "request_type": "Trash/Recycling",
    "request_reason": "Request a Large Item Pick Up",
    "date_created": "2024-08-05T15:29:20.000",
    "date_modified": "2024-08-05T15:29:22.000",
    "request_status": "Pending",
    "responsible_agency": "Department of Sanitation",
    "final_address": "7026 S Claiborne Ave",
    "address_councildis": "A",
    "status": "Assigned to Contractor",
    "contractor": "IV Waste",
    "rowid": "1119097",
    "final_x": "3666411.97549",
    "final_y": "529160.377088",
    "longitude": "-90.1157922237702",
    "latitude": "29.949456972113836",
    "geocoded_column": {
      "latitude": "29.949456972113836",
      "longitude": "-90.1157922237702"
    }
  },
  {
    "service_request": "2024-1119096",
    "request_type": "Trash/Recycling",
    "request_reason": "Repair Trash Cart",
    "date_created": "2024-08-05T15:26:04.000",
    "date_modified": "2024-08-05T15:55:29.000",
    "case_close_date": "2024-08-05T10:55:29.000",
    "request_status": "Closed",
    "responsible_agency": "Department of Sanitation",
    "final_address": "1819 S Liberty St",
    "address_councildis": "B",
    "status": "Duplicate Request",
    "contractor": "IV Waste",
    "contractor_action": "Duplicate",
    "rowid": "1119096",
    "final_x": "3676525.49979",
    "final_y": "526286.049662",
    "longitude": "-90.08395821749045",
    "latitude": "29.941254158703206",
    "geocoded_column": {
      "latitude": "29.941254158703206",
      "longitude": "-90.08395821749045"
    }
  },
  {
    "service_request": "2024-1119095",
    "request_type": "Trash/Recycling",
    "request_reason": "Repair Trash Cart",
    "date_created": "2024-08-05T15:25:50.000",
    "date_modified": "2024-08-05T15:25:51.000",
    "request_status": "Pending",
    "responsible_agency": "Department of Sanitation",
    "final_address": "1819 S Liberty St",
    "address_councildis": "B",
    "status": "Assigned to Contractor",
    "contractor": "IV Waste",
    "rowid": "1119095",
    "final_x": "3676525.49979",
    "final_y": "526286.049662",
    "longitude": "-90.08395821749045",
    "latitude": "29.941254158703206",
    "geocoded_column": {
      "latitude": "29.941254158703206",
      "longitude": "-90.08395821749045"
    }
  },
  {
    "service_request": "2024-1119093",
    "request_type": "Roads/Drainage",
    "request_reason": "Pothole",
    "date_created": "2024-08-05T15:24:07.000",
    "date_modified": "2024-08-05T15:24:30.000",
    "case_close_date": "2024-08-05T10:24:30.000",
    "request_status": "Closed",
    "responsible_agency": "Department of Public Works",
    "final_address": "700 BLK Nashville Ave",
    "address_councildis": "A",
    "status": "Resolved",
    "rowid": "1119093",
    "final_x": "3665490.83499",
    "final_y": "518836.149451",
    "longitude": "-90.11904614493442",
    "latitude": "29.921095514574017",
    "geocoded_column": {
      "latitude": "29.921095514574017",
      "longitude": "-90.11904614493442"
    }
  },
  {
    "service_request": "2024-1119092",
    "request_type": "Trash/Recycling",
    "request_reason": "Request a Large Item Pick Up",
    "date_created": "2024-08-05T15:23:01.000",
    "date_modified": "2024-08-05T15:23:03.000",
    "request_status": "Pending",
    "responsible_agency": "Department of Sanitation",
    "final_address": "8049 Wales St",
    "address_councildis": "E",
    "status": "Assigned to Contractor",
    "contractor": "Waste Pro",
    "rowid": "1119092",
    "final_x": "3702096.27665",
    "final_y": "562343.023967",
    "longitude": "-90.00190424683329",
    "latitude": "30.039606055180712",
    "geocoded_column": {
      "latitude": "30.039606055180712",
      "longitude": "-90.00190424683329"
    }
  },
  {
    "service_request": "2024-1119091",
    "request_type": "Roads/Drainage",
    "request_reason": "Pothole",
    "date_created": "2024-08-05T15:22:59.000",
    "date_modified": "2024-08-05T15:23:24.000",
    "case_close_date": "2024-08-05T10:23:24.000",
    "request_status": "Closed",
    "responsible_agency": "Department of Public Works",
    "final_address": "2419 Nashville Ave",
    "address_councildis": "A",
    "status": "Resolved",
    "rowid": "1119091",
    "final_x": "3667179.05511",
    "final_y": "525031.122237",
    "longitude": "-90.1135089979088",
    "latitude": "29.93808042024862",
    "geocoded_column": {
      "latitude": "29.93808042024862",
      "longitude": "-90.1135089979088"
    }
  },
  {
    "service_request": "2024-1119090",
    "request_type": "Traffic Signals/Signs/Striping/Streetlights",
    "request_reason": "Street Light Outage/Malfunction",
    "date_created": "2024-08-05T15:22:14.000",
    "date_modified": "2024-08-05T15:22:15.000",
    "request_status": "Pending",
    "responsible_agency": "Department of Public Works",
    "final_address": "8601 Castle Ct",
    "address_councildis": "E",
    "status": "Assigned to Contractor",
    "contractor": "Legacy Professional Services",
    "rowid": "1119090",
    "final_x": "3707167.85316",
    "final_y": "554192.948824",
    "longitude": "-89.98617948421246",
    "latitude": "30.01703352791718",
    "geocoded_column": {
      "latitude": "30.01703352791718",
      "longitude": "-89.98617948421246"
    }
  },
  {
    "service_request": "2024-1119089",
    "request_type": "Trash/Recycling",
    "request_reason": "Request a Large Item Pick Up",
    "date_created": "2024-08-05T15:20:31.000",
    "date_modified": "2024-08-05T15:20:32.000",
    "request_status": "Pending",
    "responsible_agency": "Department of Sanitation",
    "final_address": "4701 W Adams Ct",
    "address_councildis": "E",
    "status": "Assigned to Contractor",
    "contractor": "Waste Pro",
    "rowid": "1119089",
    "final_x": "3718631.79557",
    "final_y": "556719.973786",
    "longitude": "-89.94986219882499",
    "latitude": "30.023606262050237",
    "geocoded_column": {
      "latitude": "30.023606262050237",
      "longitude": "-89.94986219882499"
    }
  },
  {
    "service_request": "2024-1119088",
    "request_type": "Roads/Drainage",
    "request_reason": "Pothole",
    "date_created": "2024-08-05T15:18:44.000",
    "date_modified": "2024-08-05T15:19:13.000",
    "case_close_date": "2024-08-05T10:19:13.000",
    "request_status": "Closed",
    "responsible_agency": "Department of Public Works",
    "final_address": "2419 Nashville Ave",
    "address_councildis": "A",
    "status": "Resolved",
    "rowid": "1119088",
    "final_x": "3667179.05511",
    "final_y": "525031.122237",
    "longitude": "-90.1135089979088",
    "latitude": "29.93808042024862",
    "geocoded_column": {
      "latitude": "29.93808042024862",
      "longitude": "-90.1135089979088"
    }
  },
  {
    "service_request": "2024-1119087",
    "request_type": "Trash/Recycling",
    "request_reason": "Illegal Dumping",
    "date_created": "2024-08-05T15:17:56.000",
    "date_modified": "2024-08-05T15:17:56.000",
    "request_status": "Pending",
    "responsible_agency": "Department of Sanitation",
    "final_address": "100 BLK S Norman C Francis Pkwy",
    "address_councildis": "B",
    "status": "Pending",
    "rowid": "1119087",
    "final_x": "3673148.61036",
    "final_y": "536494.37529",
    "longitude": "-90.09427119858796",
    "latitude": "29.96942447471111",
    "geocoded_column": {
      "latitude": "29.96942447471111",
      "longitude": "-90.09427119858796"
    }
  },
  {
    "service_request": "2024-1119086",
    "request_type": "Parks & Parkways",
    "request_reason": "Request Grass Cutting Service (City Owned Property)",
    "date_created": "2024-08-05T15:15:57.000",
    "date_modified": "2024-08-05T15:15:58.000",
    "request_status": "Pending",
    "responsible_agency": "Department of Parks & Parkway",
    "final_address": "1301 Lyons St",
    "address_councildis": "B",
    "status": "Pending",
    "rowid": "1119086",
    "final_x": "3669141.95194",
    "final_y": "519923.812152",
    "longitude": "-90.10748444052511",
    "latitude": "29.923979346622986",
    "geocoded_column": {
      "latitude": "29.923979346622986",
      "longitude": "-90.10748444052511"
    }
  },
  {
    "service_request": "2024-1119085",
    "request_type": "Property Maintenance",
    "request_reason": "Property Maintenance",
    "date_created": "2024-08-05T15:14:06.000",
    "date_modified": "2024-08-05T15:14:06.000",
    "request_status": "Pending",
    "responsible_agency": "Department of Code Enforcement",
    "final_address": "5353 Baccich St",
    "address_councildis": "D",
    "status": "Pending",
    "rowid": "1119085",
    "final_x": "3687734.94639",
    "final_y": "552720.707606",
    "longitude": "-90.04763150526868",
    "latitude": "30.013599302475377",
    "geocoded_column": {
      "latitude": "30.013599302475377",
      "longitude": "-90.04763150526868"
    }
  },
  {
    "service_request": "2024-1119084",
    "request_type": "Trash/Recycling",
    "request_reason": "Request a Large Item Pick Up",
    "date_created": "2024-08-05T15:10:32.000",
    "date_modified": "2024-08-05T15:10:32.000",
    "request_status": "Pending",
    "responsible_agency": "Department of Sanitation",
    "final_address": "2910 Hudson St",
    "address_councildis": "C",
    "status": "Assigned to Contractor",
    "contractor": "Richards Disposal",
    "rowid": "1119084",
    "final_x": "3693910.87965",
    "final_y": "520437.200248",
    "longitude": "-90.02927968275317",
    "latitude": "29.92463913399825",
    "geocoded_column": {
      "latitude": "29.92463913399825",
      "longitude": "-90.02927968275317"
    }
  },
  {
    "service_request": "2024-1119083",
    "request_type": "Trash/Recycling",
    "request_reason": "Request a Large Item Pick Up",
    "date_created": "2024-08-05T15:09:10.000",
    "date_modified": "2024-08-05T15:09:11.000",
    "request_status": "Pending",
    "responsible_agency": "Department of Sanitation",
    "final_address": "3618 Urquhart St",
    "address_councildis": "D",
    "status": "Assigned to Contractor",
    "contractor": "IV Waste",
    "rowid": "1119083",
    "final_x": "3691055.85142",
    "final_y": "536214.182151",
    "longitude": "-90.03772889518882",
    "latitude": "29.96810944485801",
    "geocoded_column": {
      "latitude": "29.96810944485801",
      "longitude": "-90.03772889518882"
    }
  },
  {
    "service_request": "2024-1119082",
    "request_type": "Trash/Recycling",
    "request_reason": "Illegal Dumping",
    "date_created": "2024-08-05T15:08:13.000",
    "date_modified": "2024-08-05T15:08:13.000",
    "request_status": "Pending",
    "responsible_agency": "Department of Sanitation",
    "final_address": "1300 Gallier St",
    "address_councildis": "C",
    "status": "Pending",
    "rowid": "1119082",
    "final_x": "3690623.19715",
    "final_y": "536420.740167",
    "longitude": "-90.03908786145239",
    "latitude": "29.968690851035294",
    "geocoded_column": {
      "latitude": "29.968690851035294",
      "longitude": "-90.03908786145239"
    }
  },
  {
    "service_request": "2024-1119081",
    "request_type": "Traffic Signals/Signs/Striping/Streetlights",
    "request_reason": "Street Light Outage/Malfunction",
    "date_created": "2024-08-05T15:05:43.000",
    "date_modified": "2024-08-05T15:05:44.000",
    "request_status": "Pending",
    "responsible_agency": "Department of Public Works",
    "final_address": "PRENTISS AVE & WILDAIR DR",
    "address_councildis": "D",
    "status": "Assigned to Contractor",
    "contractor": "Legacy Professional Services",
    "rowid": "1119081",
    "final_x": "3681561.8",
    "final_y": "553679.08",
    "longitude": "-90.06710195947029",
    "latitude": "30.016423491142888",
    "geocoded_column": {
      "latitude": "30.016423491142888",
      "longitude": "-90.06710195947029"
    }
  },
  {
    "service_request": "2024-1119080",
    "request_type": "Trash/Recycling",
    "request_reason": "Request a Large Item Pick Up",
    "date_created": "2024-08-05T15:05:16.000",
    "date_modified": "2024-08-05T15:05:17.000",
    "request_status": "Pending",
    "responsible_agency": "Department of Sanitation",
    "final_address": "2413 Aubry St",
    "address_councildis": "D",
    "status": "Assigned to Contractor",
    "contractor": "IV Waste",
    "rowid": "1119080",
    "final_x": "3680524.13563",
    "final_y": "540488.626827",
    "longitude": "-90.07083972052342",
    "latitude": "29.98018592304399",
    "geocoded_column": {
      "latitude": "29.98018592304399",
      "longitude": "-90.07083972052342"
    }
  },
  {
    "service_request": "2024-1119078",
    "request_type": "Trash/Recycling",
    "request_reason": "Illegal Dumping",
    "date_created": "2024-08-05T15:03:06.000",
    "date_modified": "2024-08-05T15:03:07.000",
    "request_status": "Pending",
    "responsible_agency": "Department of Sanitation",
    "final_address": "750 S Norman C Francis Prkwy",
    "address_councildis": "B",
    "status": "Pending",
    "rowid": "1119078",
    "final_x": "3671561.74759",
    "final_y": "534316.472453",
    "longitude": "-90.09935672119532",
    "latitude": "29.963483059544206",
    "geocoded_column": {
      "latitude": "29.963483059544206",
      "longitude": "-90.09935672119532"
    }
  },
  {
    "service_request": "2024-1119077",
    "request_type": "Trash/Recycling",
    "request_reason": "Replace Trash Cart",
    "date_created": "2024-08-05T15:02:50.000",
    "date_modified": "2024-08-05T15:02:51.000",
    "request_status": "Pending",
    "responsible_agency": "Department of Sanitation",
    "final_address": "2637 General Collins Ave",
    "address_councildis": "C",
    "status": "Assigned to Contractor",
    "contractor": "Richards Disposal",
    "rowid": "1119077",
    "final_x": "3698342.4472",
    "final_y": "521411.660601",
    "longitude": "-90.0152554123585",
    "latitude": "29.927179143921943",
    "geocoded_column": {
      "latitude": "29.927179143921943",
      "longitude": "-90.0152554123585"
    }
  },
  {
    "service_request": "2024-1119076",
    "request_type": "Roads/Drainage",
    "request_reason": "Pothole",
    "date_created": "2024-08-05T15:02:12.000",
    "date_modified": "2024-08-05T15:03:05.000",
    "case_close_date": "2024-08-05T10:03:05.000",
    "request_status": "Closed",
    "responsible_agency": "Department of Public Works",
    "final_address": "BEHRMAN HWY & NEVADA ST",
    "address_councildis": "C",
    "status": "Resolved",
    "rowid": "1119076",
    "final_x": "3694518.1",
    "final_y": "519149.98",
    "longitude": "-90.027409211199",
    "latitude": "29.92108069758656",
    "geocoded_column": {
      "latitude": "29.92108069758656",
      "longitude": "-90.027409211199"
    }
  },
  {
    "service_request": "2024-1119075",
    "request_type": "Trash/Recycling",
    "request_reason": "Repair Trash Cart",
    "date_created": "2024-08-05T15:00:40.000",
    "date_modified": "2024-08-05T15:00:41.000",
    "request_status": "Pending",
    "responsible_agency": "Department of Sanitation",
    "final_address": "9327 Morrison Rd",
    "address_councildis": "E",
    "status": "Assigned to Contractor",
    "contractor": "Waste Pro",
    "rowid": "1119075",
    "final_x": "3706795.53982",
    "final_y": "562572.916832",
    "longitude": "-89.98704474115846",
    "latitude": "30.04008719211917",
    "geocoded_column": {
      "latitude": "30.04008719211917",
      "longitude": "-89.98704474115846"
    }
  },
  {
    "service_request": "2024-1119074",
    "request_type": "Abandoned Vehicles",
    "request_reason": "Abandoned/Junk Vehicles",
    "date_created": "2024-08-05T15:00:05.000",
    "date_modified": "2024-08-05T15:00:05.000",
    "request_status": "Pending",
    "responsible_agency": "Department of Public Works",
    "final_address": "3340 Bienville Ave",
    "address_councildis": "B",
    "status": "Pending",
    "rowid": "1119074",
    "final_x": "3673768.51758",
    "final_y": "537220.091592",
    "longitude": "-90.09228865541266",
    "latitude": "29.971401502255205",
    "geocoded_column": {
      "latitude": "29.971401502255205",
      "longitude": "-90.09228865541266"
    }
  },
  {
    "service_request": "2024-1119073",
    "request_type": "Roads/Drainage",
    "request_reason": "Pothole",
    "date_created": "2024-08-05T14:56:22.000",
    "date_modified": "2024-08-05T14:57:40.000",
    "case_close_date": "2024-08-05T09:57:40.000",
    "request_status": "Closed",
    "responsible_agency": "Department of Public Works",
    "final_address": "733 Lang St",
    "address_councildis": "C",
    "status": "Resolved",
    "rowid": "1119073",
    "final_x": "3701967.94231",
    "final_y": "519659.90764",
    "longitude": "-90.00387489229628",
    "latitude": "29.92224725631187",
    "geocoded_column": {
      "latitude": "29.92224725631187",
      "longitude": "-90.00387489229628"
    }
  },
  {
    "service_request": "2024-1119072",
    "request_type": "Parks & Parkways",
    "request_reason": "Request Tree Service (Right of Way/Public Property)",
    "date_created": "2024-08-05T14:55:52.000",
    "date_modified": "2024-08-05T14:55:53.000",
    "request_status": "Pending",
    "responsible_agency": "Department of Parks & Parkway",
    "final_address": "2176 Esplanade Ave",
    "address_councildis": "D",
    "status": "Pending",
    "rowid": "1119072",
    "final_x": "3679577.67669",
    "final_y": "537800.535304",
    "longitude": "-90.07392235259225",
    "latitude": "29.972823240501075",
    "geocoded_column": {
      "latitude": "29.972823240501075",
      "longitude": "-90.07392235259225"
    }
  },
  {
    "service_request": "2024-1119070",
    "request_type": "Trash/Recycling",
    "request_reason": "Illegal Dumping",
    "date_created": "2024-08-05T14:53:36.000",
    "date_modified": "2024-08-05T14:53:37.000",
    "request_status": "Pending",
    "responsible_agency": "Department of Sanitation",
    "final_address": "ROYAL ST & LIZARDI ST",
    "address_councildis": "E",
    "status": "Pending",
    "rowid": "1119070",
    "final_x": "3696109.3",
    "final_y": "532648.78",
    "longitude": "-90.02189885905538",
    "latitude": "29.958147771331298",
    "geocoded_column": {
      "latitude": "29.958147771331298",
      "longitude": "-90.02189885905538"
    }
  },
  {
    "service_request": "2024-1119069",
    "request_type": "Trash/Recycling",
    "request_reason": "Request a Large Item Pick Up",
    "date_created": "2024-08-05T14:52:52.000",
    "date_modified": "2024-08-05T14:52:53.000",
    "request_status": "Pending",
    "responsible_agency": "Department of Sanitation",
    "final_address": "8028 Haney Dr",
    "address_councildis": "E",
    "status": "Assigned to Contractor",
    "contractor": "Waste Pro",
    "rowid": "1119069",
    "final_x": "3711763.97278",
    "final_y": "568370.862117",
    "longitude": "-89.97112523827519",
    "latitude": "30.055867749376056",
    "geocoded_column": {
      "latitude": "30.055867749376056",
      "longitude": "-89.97112523827519"
    }
  },
  {
    "service_request": "2024-1119068",
    "request_type": "Roads/Drainage",
    "request_reason": "Pothole",
    "date_created": "2024-08-05T14:51:21.000",
    "date_modified": "2024-08-05T14:51:21.000",
    "request_status": "Pending",
    "responsible_agency": "Department of Public Works",
    "final_address": "1312 Milan St",
    "address_councildis": "B",
    "status": "Pending",
    "rowid": "1119068",
    "final_x": "3671625.82823",
    "final_y": "520286.919608",
    "longitude": "-90.09963137110304",
    "latitude": "29.92490447494246",
    "geocoded_column": {
      "latitude": "29.92490447494246",
      "longitude": "-90.09963137110304"
    }
  },
  {
    "service_request": "2024-1119067",
    "request_type": "Property Maintenance",
    "request_reason": "Property Maintenance",
    "date_created": "2024-08-05T14:50:10.000",
    "date_modified": "2024-08-05T14:50:10.000",
    "request_status": "Pending",
    "responsible_agency": "Department of Code Enforcement",
    "final_address": "3817 Octavia St",
    "address_councildis": "A",
    "status": "Pending",
    "rowid": "1119067",
    "final_x": "3668845.60481",
    "final_y": "529468.915841",
    "longitude": "-90.10809772294161",
    "latitude": "29.950234024544727",
    "geocoded_column": {
      "latitude": "29.950234024544727",
      "longitude": "-90.10809772294161"
    }
  },
  {
    "service_request": "2024-1119066",
    "request_type": "Traffic Signals/Signs/Striping/Streetlights",
    "request_reason": "Traffic Signal Malfunctioning/Damaged",
    "date_created": "2024-08-05T14:49:49.000",
    "date_modified": "2024-08-05T14:49:50.000",
    "request_status": "Pending",
    "responsible_agency": "Department of Public Works",
    "final_address": "ST CHARLES AVE & MELPOMENE AVE & MARTIN LUTHER KING JR BLVD",
    "address_councildis": "B",
    "status": "Pending",
    "rowid": "1119066",
    "final_x": "3679200.25",
    "final_y": "525571.04",
    "longitude": "-90.07553830440287",
    "latitude": "29.9392076558425",
    "geocoded_column": {
      "latitude": "29.9392076558425",
      "longitude": "-90.07553830440287"
    }
  },
  {
    "service_request": "2024-1119065",
    "request_type": "Trash/Recycling",
    "request_reason": "Request a Large Item Pick Up",
    "date_created": "2024-08-05T14:46:31.000",
    "date_modified": "2024-08-05T14:46:32.000",
    "request_status": "Pending",
    "responsible_agency": "Department of Sanitation",
    "final_address": "2770 Orchid St",
    "address_councildis": "A",
    "status": "Assigned to Contractor",
    "contractor": "IV Waste",
    "rowid": "1119065",
    "final_x": "3677288.15739",
    "final_y": "538723.256969",
    "longitude": "-90.08112124317319",
    "latitude": "29.97542940368747",
    "geocoded_column": {
      "latitude": "29.97542940368747",
      "longitude": "-90.08112124317319"
    }
  },
  {
    "service_request": "2024-1119064",
    "request_type": "Trash/Recycling",
    "request_reason": "Request a Large Item Pick Up",
    "date_created": "2024-08-05T14:45:53.000",
    "date_modified": "2024-08-05T14:45:54.000",
    "request_status": "Pending",
    "responsible_agency": "Department of Sanitation",
    "final_address": "4706 W Adams Ct",
    "address_councildis": "E",
    "status": "Assigned to Contractor",
    "contractor": "Waste Pro",
    "rowid": "1119064",
    "final_x": "3718486.30373",
    "final_y": "556767.886682",
    "longitude": "-89.95032009037851",
    "latitude": "30.02374283268497",
    "geocoded_column": {
      "latitude": "30.02374283268497",
      "longitude": "-89.95032009037851"
    }
  },
  {
    "service_request": "2024-1119063",
    "request_type": "Trash/Recycling",
    "request_reason": "Request a Large Item Pick Up",
    "date_created": "2024-08-05T14:45:37.000",
    "date_modified": "2024-08-05T14:45:38.000",
    "request_status": "Pending",
    "responsible_agency": "Department of Sanitation",
    "final_address": "121 S Hennessey St",
    "address_councildis": "A",
    "status": "Assigned to Contractor",
    "contractor": "IV Waste",
    "rowid": "1119063",
    "final_x": "3670078.97921",
    "final_y": "538745.778761",
    "longitude": "-90.10388907889646",
    "latitude": "29.9757059912315",
    "geocoded_column": {
      "latitude": "29.9757059912315",
      "longitude": "-90.10388907889646"
    }
  },
  {
    "service_request": "2024-1119062",
    "request_type": "Trash/Recycling",
    "request_reason": "Order Recycling Cart",
    "date_created": "2024-08-05T14:42:18.000",
    "date_modified": "2024-08-05T14:42:18.000",
    "request_status": "Pending",
    "responsible_agency": "Department of Sanitation",
    "final_address": "2935 Dante St",
    "address_councildis": "A",
    "status": "Pending",
    "rowid": "1119062",
    "final_x": "3665741.25421",
    "final_y": "533551.321413",
    "longitude": "-90.11776292130875",
    "latitude": "29.961550216442028",
    "geocoded_column": {
      "latitude": "29.961550216442028",
      "longitude": "-90.11776292130875"
    }
  },
  {
    "service_request": "2024-1119061",
    "request_type": "Roads/Drainage",
    "request_reason": "Pothole",
    "date_created": "2024-08-05T14:42:11.000",
    "date_modified": "2024-08-05T14:49:57.000",
    "case_close_date": "2024-08-05T09:49:57.000",
    "request_status": "Closed",
    "responsible_agency": "Department of Public Works",
    "final_address": "6100 Annunciation St",
    "address_councildis": "A",
    "status": "Resolved",
    "rowid": "1119061",
    "final_x": "3663580.87117",
    "final_y": "518069.256566",
    "longitude": "-90.12510059817308",
    "latitude": "29.919042314817382",
    "geocoded_column": {
      "latitude": "29.919042314817382",
      "longitude": "-90.12510059817308"
    }
  },
  {
    "service_request": "2024-1119060",
    "request_type": "Trash/Recycling",
    "request_reason": "Order Trash Cart",
    "date_created": "2024-08-05T14:40:42.000",
    "date_modified": "2024-08-05T14:40:43.000",
    "request_status": "Pending",
    "responsible_agency": "Department of Sanitation",
    "final_address": "2935 Dante St",
    "address_councildis": "A",
    "status": "Assigned to Contractor",
    "contractor": "IV Waste",
    "rowid": "1119060",
    "final_x": "3665741.25421",
    "final_y": "533551.321413",
    "longitude": "-90.11776292130875",
    "latitude": "29.961550216442028",
    "geocoded_column": {
      "latitude": "29.961550216442028",
      "longitude": "-90.11776292130875"
    }
  },
  {
    "service_request": "2024-1119059",
    "request_type": "Parks & Parkways",
    "request_reason": "Tree Stump (removal, grind)",
    "date_created": "2024-08-05T14:38:35.000",
    "date_modified": "2024-08-05T14:40:03.000",
    "request_status": "Pending",
    "responsible_agency": "Department of Parks & Parkway",
    "final_address": "10921 Kinneil Rd",
    "address_councildis": "E",
    "status": "Pending",
    "rowid": "1119059",
    "final_x": "3711338.14629",
    "final_y": "564312.724769",
    "longitude": "-89.97262350840509",
    "latitude": "30.04472342843068",
    "geocoded_column": {
      "latitude": "30.04472342843068",
      "longitude": "-89.97262350840509"
    }
  },
  {
    "service_request": "2024-1119058",
    "request_type": "Traffic Signals/Signs/Striping/Streetlights",
    "request_reason": "Street Light Outage/Malfunction",
    "date_created": "2024-08-05T14:37:00.000",
    "date_modified": "2024-08-05T14:37:01.000",
    "request_status": "Pending",
    "responsible_agency": "Department of Public Works",
    "final_address": "5055 St Ferdinand Dr",
    "address_councildis": "D",
    "status": "Assigned to Contractor",
    "contractor": "Legacy Professional Services",
    "rowid": "1119058",
    "final_x": "3689223.64534",
    "final_y": "551752.377109",
    "longitude": "-90.04296245913963",
    "latitude": "30.010890736430554",
    "geocoded_column": {
      "latitude": "30.010890736430554",
      "longitude": "-90.04296245913963"
    }
  },
  {
    "service_request": "2024-1119057",
    "request_type": "Trash/Recycling",
    "request_reason": "Request a Large Item Pick Up",
    "date_created": "2024-08-05T14:35:16.000",
    "date_modified": "2024-08-05T14:35:17.000",
    "request_status": "Pending",
    "responsible_agency": "Department of Sanitation",
    "final_address": "100 Eastpoint Ct",
    "address_councildis": "E",
    "status": "Assigned to Contractor",
    "contractor": "Waste Pro",
    "rowid": "1119057",
    "final_x": "3720442.87583",
    "final_y": "563177.534688",
    "longitude": "-89.94389220519953",
    "latitude": "30.04130168776992",
    "geocoded_column": {
      "latitude": "30.04130168776992",
      "longitude": "-89.94389220519953"
    }
  },
  {
    "service_request": "2024-1119056",
    "request_type": "Trash/Recycling",
    "request_reason": "Request a Large Item Pick Up",
    "date_created": "2024-08-05T14:34:39.000",
    "date_modified": "2024-08-05T14:34:40.000",
    "request_status": "Pending",
    "responsible_agency": "Department of Sanitation",
    "final_address": "4831 Lynhuber Dr",
    "address_councildis": "D",
    "status": "Assigned to Contractor",
    "contractor": "Waste Pro",
    "rowid": "1119056",
    "final_x": "3698026.87747",
    "final_y": "554797.532504",
    "longitude": "-90.01503905783846",
    "latitude": "30.018988238074375",
    "geocoded_column": {
      "latitude": "30.018988238074375",
      "longitude": "-90.01503905783846"
    }
  },
  {
    "service_request": "2024-1119055",
    "request_type": "Trash/Recycling",
    "request_reason": "Request a Large Item Pick Up",
    "date_created": "2024-08-05T14:34:17.000",
    "date_modified": "2024-08-05T14:34:17.000",
    "request_status": "Pending",
    "responsible_agency": "Department of Sanitation",
    "final_address": "12021 E Barrington Dr",
    "address_councildis": "E",
    "status": "Assigned to Contractor",
    "contractor": "Waste Pro",
    "rowid": "1119055",
    "final_x": "3714694.86821",
    "final_y": "566127.617571",
    "longitude": "-89.96194617379786",
    "latitude": "30.049603613661116",
    "geocoded_column": {
      "latitude": "30.049603613661116",
      "longitude": "-89.96194617379786"
    }
  },
  {
    "service_request": "2024-1119054",
    "request_type": "Healthy Homes",
    "request_reason": "Healthy Homes",
    "date_created": "2024-08-05T14:33:29.000",
    "date_modified": "2024-08-05T14:33:29.000",
    "request_status": "Pending",
    "responsible_agency": "Department of Code Enforcement",
    "final_address": "4134 Maple Leaf Dr",
    "address_councildis": "C",
    "status": "Pending",
    "rowid": "1119054",
    "final_x": "3705857.06263",
    "final_y": "515345.104308",
    "longitude": "-89.99175810904356",
    "latitude": "29.91025839132149",
    "geocoded_column": {
      "latitude": "29.91025839132149",
      "longitude": "-89.99175810904356"
    }
  },
  {
    "service_request": "2024-1119053",
    "request_type": "Trash/Recycling",
    "request_reason": "Replace Trash Cart",
    "date_created": "2024-08-05T14:32:41.000",
    "date_modified": "2024-08-05T14:32:42.000",
    "request_status": "Pending",
    "responsible_agency": "Department of Sanitation",
    "final_address": "2712 Aubry St",
    "address_councildis": "D",
    "status": "Assigned to Contractor",
    "contractor": "IV Waste",
    "rowid": "1119053",
    "final_x": "3679352.97192",
    "final_y": "541318.184012",
    "longitude": "-90.07450996439209",
    "latitude": "29.982502346447962",
    "geocoded_column": {
      "latitude": "29.982502346447962",
      "longitude": "-90.07450996439209"
    }
  },