[
  {
    "service_request": "2023-1057858",
    "request_type": "Trash/Recycling",
    "request_reason": "Replace Trash Cart",
    "date_created": "2023-12-28T01:45:21.000",
    "date_modified": "2023-12-28T01:45:22.000",
    "request_status": "Pending",
    "responsible_agency": "Department of Sanitation",
    "final_address": "2165 Sere St",
    "address_councildis": "D",
    "status": "Assigned to Contractor",
    "contractor": "IV Waste",
    "rowid": "1057858",
    "final_x": "3684033.73973",
    "final_y": "545948.402448",
    "longitude": "-90.05956323325232",
    "latitude": "29.995091580383377",
    "geocoded_column": {
      "latitude": "29.995091580383377",
      "longitude": "-90.05956323325232"
    }
  },
  {
    "service_request": "2023-1057857",
    "request_type": "Mosquito, Termite & Rodent Control",
    "request_reason": "Mosquito Complaint",
    "date_created": "2023-12-28T01:45:14.000",
    "date_modified": "2023-12-28T01:45:14.000",
    "request_status": "Pending",
    "responsible_agency": "Mosquito, Termite & Rodent Control Board",
    "final_address": "7149 Parkside Ct",
    "address_councildis": "E",
    "status": "Pending",
    "rowid": "1057857",
    "final_x": "3704520.2945",
    "final_y": "560319.504413",
    "longitude": "-89.99431840553196",
    "latitude": "30.033964501912777",
    "geocoded_column": {
      "latitude": "30.033964501912777",
      "longitude": "-89.99431840553196"
    }
  },
  {
    "service_request": "2023-1057856",
    "request_type": "Roads/Drainage",
    "request_reason": "Pothole",
    "date_created": "2023-12-28T01:10:43.000",
    "date_modified": "2023-12-28T01:10:43.000",
    "request_status": "Pending",
    "responsible_agency": "Department of Public Works",
    "final_address": "1523 Antonine St",
    "address_councildis": "B",
    "status": "Pending",
    "rowid": "1057856",
    "final_x": "3673374.72936",
    "final_y": "520875.962873",
    "longitude": "-90.09409054390046",
    "latitude": "29.926472262294165",
    "geocoded_column": {
      "latitude": "29.926472262294165",
      "longitude": "-90.09409054390046"
    }
  },
  {
    "service_request": "2023-1057855",
    "request_type": "Traffic Signals/Signs/Striping/Streetlights",
    "request_reason": "Request for Stop Sign",
    "date_created": "2023-12-28T01:02:40.000",
    "date_modified": "2023-12-28T01:02:40.000",
    "request_status": "Pending",
    "responsible_agency": "Department of Public Works",
    "final_address": "1020 Aurora Dr",
    "address_councildis": "C",
    "status": "Pending",
    "rowid": "1057855",
    "final_x": "3706836.70308",
    "final_y": "517910.234294",
    "longitude": "-89.98857116993406",
    "latitude": "29.917280037438264",
    "geocoded_column": {
      "latitude": "29.917280037438264",
      "longitude": "-89.98857116993406"
    }
  },
  {
    "service_request": "2023-1057854",
    "request_type": "Trash/Recycling",
    "request_reason": "Missed Trash Pick-Up",
    "date_created": "2023-12-28T00:50:23.000",
    "date_modified": "2023-12-28T00:50:24.000",
    "request_status": "Pending",
    "responsible_agency": "Department of Sanitation",
    "final_address": "200 Cypress Grove Ct",
    "address_councildis": "C",
    "status": "Assigned to Contractor",
    "contractor": "Richards Disposal",
    "rowid": "1057854",
    "final_x": "3704810.49201",
    "final_y": "511960.429936",
    "longitude": "-89.99518603446042",
    "latitude": "29.90098534279596",
    "geocoded_column": {
      "latitude": "29.90098534279596",
      "longitude": "-89.99518603446042"
    }
  },
  {
    "service_request": "2023-1057853",
    "request_type": "Property Maintenance",
    "request_reason": "Property Maintenance",
    "date_created": "2023-12-28T00:27:57.000",
    "date_modified": "2023-12-28T00:27:57.000",
    "request_status": "Pending",
    "responsible_agency": "Department of Code Enforcement",
    "final_address": "1320 Foucher St",
    "address_councildis": "B",
    "status": "Pending",
    "rowid": "1057853",
    "final_x": "3673706.26081",
    "final_y": "520191.603384",
    "longitude": "-90.09306737320914",
    "latitude": "29.924580630445455",
    "geocoded_column": {
      "latitude": "29.924580630445455",
      "longitude": "-90.09306737320914"
    }
  },
  {
    "service_request": "2023-1057852",
    "request_type": "Property Maintenance",
    "request_reason": "Property Maintenance",
    "date_created": "2023-12-28T00:08:55.000",
    "date_modified": "2023-12-28T00:08:55.000",
    "request_status": "Pending",
    "responsible_agency": "Department of Code Enforcement",
    "final_address": "1009 Webster St",
    "address_councildis": "A",
    "status": "Pending",
    "rowid": "1057852",
    "final_x": "3664431.62541",
    "final_y": "520120.444344",
    "longitude": "-90.12234676516532",
    "latitude": "29.92465774560929",
    "geocoded_column": {
      "latitude": "29.92465774560929",
      "longitude": "-90.12234676516532"
    }
  },
  {
    "service_request": "2023-1057851",
    "request_type": "Trash/Recycling",
    "request_reason": "Request a Large Item Pick Up",
    "date_created": "2023-12-27T23:54:42.000",
    "date_modified": "2023-12-27T23:54:43.000",
    "request_status": "Pending",
    "responsible_agency": "Department of Sanitation",
    "final_address": "5855 W Louis Prima Dr",
    "address_councildis": "E",
    "status": "Assigned to Contractor",
    "contractor": "Waste Pro",
    "rowid": "1057851",
    "final_x": "3715371.92594",
    "final_y": "562939.381024",
    "longitude": "-89.95992705612096",
    "latitude": "30.040814960685704",
    "geocoded_column": {
      "latitude": "30.040814960685704",
      "longitude": "-89.95992705612096"
    }
  },
  {
    "service_request": "2023-1057850",
    "request_type": "Trash/Recycling",
    "request_reason": "Missed Trash Pick-Up",
    "date_created": "2023-12-27T22:49:06.000",
    "date_modified": "2023-12-27T22:49:07.000",
    "request_status": "Pending",
    "responsible_agency": "Department of Sanitation",
    "final_address": "4951 Coronado Dr",
    "address_councildis": "E",
    "status": "Assigned to Contractor",
    "contractor": "Waste Pro",
    "rowid": "1057850",
    "final_x": "3714068.02514",
    "final_y": "557707.023579",
    "longitude": "-89.96424536031573",
    "latitude": "30.026470978900676",
    "geocoded_column": {
      "latitude": "30.026470978900676",
      "longitude": "-89.96424536031573"
    }
  },
  {
    "service_request": "2023-1057849",
    "request_type": "Property Maintenance",
    "request_reason": "Property Maintenance",
    "date_created": "2023-12-27T22:47:43.000",
    "date_modified": "2023-12-27T22:47:43.000",
    "request_status": "Pending",
    "responsible_agency": "Department of Code Enforcement",
    "final_address": "3727 Laurel St",
    "address_councildis": "B",
    "status": "Pending",
    "rowid": "1057849",
    "final_x": "3673602.56398",
    "final_y": "518387.069366",
    "longitude": "-90.09345634750645",
    "latitude": "29.91962182562369",
    "geocoded_column": {
      "latitude": "29.91962182562369",
      "longitude": "-90.09345634750645"
    }
  },
  {
    "service_request": "2023-1057848",
    "request_type": "Roads/Drainage",
    "request_reason": "Pothole",
    "date_created": "2023-12-27T22:34:49.000",
    "date_modified": "2023-12-27T22:34:49.000",
    "request_status": "Pending",
    "responsible_agency": "Department of Public Works",
    "final_address": "1312 Milan St",
    "address_councildis": "B",
    "status": "Pending",
    "rowid": "1057848",
    "final_x": "3671625.82823",
    "final_y": "520286.919608",
    "longitude": "-90.09963137110304",
    "latitude": "29.92490447494246",
    "geocoded_column": {
      "latitude": "29.92490447494246",
      "longitude": "-90.09963137110304"
    }
  },
  {
    "service_request": "2023-1057847",
    "request_type": "Trash/Recycling",
    "request_reason": "Missed Trash Pick-Up",
    "date_created": "2023-12-27T22:21:38.000",
    "date_modified": "2023-12-27T22:21:39.000",
    "request_status": "Pending",
    "responsible_agency": "Department of Sanitation",
    "final_address": "2029 S Carrollton Ave",
    "address_councildis": "A",
    "status": "Assigned to Contractor",
    "contractor": "Richards Disposal",
    "rowid": "1057847",
    "final_x": "3664137.28352",
    "final_y": "530511.98893",
    "longitude": "-90.1229293982272",
    "latitude": "29.953239732006622",
    "geocoded_column": {
      "latitude": "29.953239732006622",
      "longitude": "-90.1229293982272"
    }
  },
  {
    "service_request": "2023-1057846",
    "request_type": "Trash/Recycling",
    "request_reason": "MIssed Recycling Pick-Up",
    "date_created": "2023-12-27T22:07:18.000",
    "date_modified": "2023-12-27T22:07:18.000",
    "request_status": "Pending",
    "responsible_agency": "Department of Sanitation",
    "final_address": "1528 St Philip St",
    "address_councildis": "C",
    "status": "Assigned to Contractor",
    "contractor": "Richards Disposal",
    "rowid": "1057846",
    "final_x": "3680772.24552",
    "final_y": "535182.214022",
    "longitude": "-90.07024083428946",
    "latitude": "29.96558760095176",
    "geocoded_column": {
      "latitude": "29.96558760095176",
      "longitude": "-90.07024083428946"
    }
  },
  {
    "service_request": "2023-1057845",
    "request_type": "Trash/Recycling",
    "request_reason": "Order Recycling Cart",
    "date_created": "2023-12-27T21:58:06.000",
    "date_modified": "2023-12-27T21:58:06.000",
    "request_status": "Pending",
    "responsible_agency": "Department of Sanitation",
    "final_address": "729 Ninth St",
    "address_councildis": "B",
    "status": "Pending",
    "rowid": "1057845",
    "final_x": "3676595.10632",
    "final_y": "519021.726071",
    "longitude": "-90.08398852199231",
    "latitude": "29.921277549772597",
    "geocoded_column": {
      "latitude": "29.921277549772597",
      "longitude": "-90.08398852199231"
    }
  },
  {
    "service_request": "2023-1057844",
    "request_type": "Trash/Recycling",
    "request_reason": "Missed Trash Pick-Up",
    "date_created": "2023-12-27T21:35:29.000",
    "date_modified": "2023-12-27T21:35:30.000",
    "request_status": "Pending",
    "responsible_agency": "Department of Sanitation",
    "final_address": "5519 Charlotte Dr",
    "address_councildis": "D",
    "status": "Assigned to Contractor",
    "contractor": "IV Waste",
    "rowid": "1057844",
    "final_x": "3680130.96949",
    "final_y": "552772.898774",
    "longitude": "-90.07165429172042",
    "latitude": "30.013975219792353",
    "geocoded_column": {
      "latitude": "30.013975219792353",
      "longitude": "-90.07165429172042"
    }
  },
  {
    "service_request": "2023-1057843",
    "request_type": "Trash/Recycling",
    "request_reason": "MIssed Recycling Pick-Up",
    "date_created": "2023-12-27T21:31:49.000",
    "date_modified": "2023-12-27T21:31:50.000",
    "request_status": "Pending",
    "responsible_agency": "Department of Sanitation",
    "final_address": "1301 General Taylor St",
    "address_councildis": "B",
    "status": "Assigned to Contractor",
    "contractor": "Richards Disposal",
    "rowid": "1057843",
    "final_x": "3672844.37032",
    "final_y": "520291.135864",
    "longitude": "-90.09578468200387",
    "latitude": "29.924879936904606",
    "geocoded_column": {
      "latitude": "29.924879936904606",
      "longitude": "-90.09578468200387"
    }
  },
  {
    "service_request": "2023-1057842",
    "request_type": "Traffic Signals/Signs/Striping/Streetlights",
    "request_reason": "Street Light Outage/Malfunction",
    "date_created": "2023-12-27T21:18:38.000",
    "date_modified": "2023-12-27T21:18:39.000",
    "request_status": "Pending",
    "responsible_agency": "Department of Public Works",
    "final_address": "MONROE ST & PONTCHARTRAIN BLVD",
    "address_councildis": "A",
    "status": "Assigned to Contractor",
    "contractor": "Legacy Professional Services",
    "rowid": "1057842",
    "final_x": "3667758.1",
    "final_y": "537907.58",
    "longitude": "-90.11124732341791",
    "latitude": "29.973469493984307",
    "geocoded_column": {
      "latitude": "29.973469493984307",
      "longitude": "-90.11124732341791"
    }
  },
  {
    "service_request": "2023-1057841",
    "request_type": "Trash/Recycling",
    "request_reason": "Order Recycling Cart",
    "date_created": "2023-12-27T21:14:03.000",
    "date_modified": "2023-12-27T21:14:03.000",
    "request_status": "Pending",
    "responsible_agency": "Department of Sanitation",
    "final_address": "5419 Press Dr",
    "address_councildis": "D",
    "status": "Pending",
    "rowid": "1057841",
    "final_x": "3689407.23171",
    "final_y": "553273.450967",
    "longitude": "-90.04232829446875",
    "latitude": "30.015067442012434",
    "geocoded_column": {
      "latitude": "30.015067442012434",
      "longitude": "-90.04232829446875"
    }
  },
  {
    "service_request": "2023-1057840",
    "request_type": "Trash/Recycling",
    "request_reason": "Missed Trash Pick-Up",
    "date_created": "2023-12-27T21:12:23.000",
    "date_modified": "2023-12-27T21:12:24.000",
    "request_status": "Pending",
    "responsible_agency": "Department of Sanitation",
    "final_address": "5419 Press Dr",
    "address_councildis": "D",
    "status": "Assigned to Contractor",
    "contractor": "IV Waste",
    "rowid": "1057840",
    "final_x": "3689407.23171",
    "final_y": "553273.450967",
    "longitude": "-90.04232829446875",
    "latitude": "30.015067442012434",
    "geocoded_column": {
      "latitude": "30.015067442012434",
      "longitude": "-90.04232829446875"
    }
  },
  {
    "service_request": "2023-1057839",
    "request_type": "Trash/Recycling",
    "request_reason": "Request a Large Item Pick Up",
    "date_created": "2023-12-27T21:10:16.000",
    "date_modified": "2023-12-27T21:10:17.000",
    "request_status": "Pending",
    "responsible_agency": "Department of Sanitation",
    "final_address": "724 Toledano St",
    "address_councildis": "B",
    "status": "Assigned to Contractor",
    "contractor": "Richards Disposal",
    "rowid": "1057839",
    "final_x": "3675914.51278",
    "final_y": "518521.981111",
    "longitude": "-90.08615402668889",
    "latitude": "29.91992379887424",
    "geocoded_column": {
      "latitude": "29.91992379887424",
      "longitude": "-90.08615402668889"
    }
  },
  {
    "service_request": "2023-1057838",
    "request_type": "Mosquito, Termite & Rodent Control",
    "request_reason": "Mosquito Complaint",
    "date_created": "2023-12-27T21:07:05.000",
    "date_modified": "2023-12-27T21:07:05.000",
    "request_status": "Pending",
    "responsible_agency": "Mosquito, Termite & Rodent Control Board",
    "final_address": "11308 Will Stutley Dr",
    "address_councildis": "E",
    "status": "Pending",
    "rowid": "1057838",
    "final_x": "3716958.09196",
    "final_y": "558156.190171",
    "longitude": "-89.95509611273272",
    "latitude": "30.02761074231564",
    "geocoded_column": {
      "latitude": "30.02761074231564",
      "longitude": "-89.95509611273272"
    }
  },
  {
    "service_request": "2023-1057837",
    "request_type": "Trash/Recycling",
    "request_reason": "MIssed Recycling Pick-Up",
    "date_created": "2023-12-27T21:05:55.000",
    "date_modified": "2023-12-27T21:05:56.000",
    "request_status": "Pending",
    "responsible_agency": "Department of Sanitation",
    "final_address": "829 Pleasant St",
    "address_councildis": "B",
    "status": "Assigned to Contractor",
    "contractor": "Richards Disposal",
    "rowid": "1057837",
    "final_x": "3675973.1444",
    "final_y": "519111.475319",
    "longitude": "-90.08594869846623",
    "latitude": "29.92154296342679",
    "geocoded_column": {
      "latitude": "29.92154296342679",
      "longitude": "-90.08594869846623"
    }
  },
  {
    "service_request": "2023-1057836",
    "request_type": "Trash/Recycling",
    "request_reason": "MIssed Recycling Pick-Up",
    "date_created": "2023-12-27T21:04:09.000",
    "date_modified": "2023-12-27T21:04:10.000",
    "request_status": "Pending",
    "responsible_agency": "Department of Sanitation",
    "final_address": "829 Pleasant St",
    "address_councildis": "B",
    "status": "Assigned to Contractor",
    "contractor": "Richards Disposal",
    "rowid": "1057836",
    "final_x": "3675973.1444",
    "final_y": "519111.475319",
    "longitude": "-90.08594869846623",
    "latitude": "29.92154296342679",
    "geocoded_column": {
      "latitude": "29.92154296342679",
      "longitude": "-90.08594869846623"
    }
  },
  {
    "service_request": "2023-1057835",
    "request_type": "Trash/Recycling",
    "request_reason": "Missed Trash Pick-Up",
    "date_created": "2023-12-27T21:03:35.000",
    "date_modified": "2023-12-27T21:03:36.000",
    "request_status": "Pending",
    "responsible_agency": "Department of Sanitation",
    "final_address": "11308 Will Stutley Dr",
    "address_councildis": "E",
    "status": "Assigned to Contractor",
    "contractor": "Waste Pro",
    "rowid": "1057835",
    "final_x": "3716958.09196",
    "final_y": "558156.190171",
    "longitude": "-89.95509611273272",
    "latitude": "30.02761074231564",
    "geocoded_column": {
      "latitude": "30.02761074231564",
      "longitude": "-89.95509611273272"
    }
  },
  {
    "service_request": "2023-1057833",
    "request_type": "Trash/Recycling",
    "request_reason": "Illegal Dumping",
    "date_created": "2023-12-27T20:55:06.000",
    "date_modified": "2023-12-27T20:55:06.000",
    "request_status": "Pending",
    "responsible_agency": "Department of Sanitation",
    "final_address": "601 Whitney Ave",
    "address_councildis": "C",
    "status": "Pending",
    "rowid": "1057833",
    "final_x": "3690146.8911",
    "final_y": "529333.586241",
    "longitude": "-90.04084451917464",
    "latitude": "29.949218426661496",
    "geocoded_column": {
      "latitude": "29.949218426661496",
      "longitude": "-90.04084451917464"
    }
  },
  {
    "service_request": "2023-1057832",
    "request_type": "Trash/Recycling",
    "request_reason": "MIssed Recycling Pick-Up",
    "date_created": "2023-12-27T20:47:41.000",
    "date_modified": "2023-12-27T20:47:42.000",
    "request_status": "Pending",
    "responsible_agency": "Department of Sanitation",
    "final_address": "833 Ninth St",
    "address_councildis": "B",
    "status": "Assigned to Contractor",
    "contractor": "Richards Disposal",
    "rowid": "1057832",
    "final_x": "3676346.57256",
    "final_y": "519374.250807",
    "longitude": "-90.08476090847552",
    "latitude": "29.922254328000392",
    "geocoded_column": {
      "latitude": "29.922254328000392",
      "longitude": "-90.08476090847552"
    }
  },
  {
    "service_request": "2023-1057831",
    "request_type": "Trash/Recycling",
    "request_reason": "MIssed Recycling Pick-Up",
    "date_created": "2023-12-27T20:34:48.000",
    "date_modified": "2023-12-27T20:35:03.000",
    "request_status": "Pending",
    "responsible_agency": "Department of Sanitation",
    "final_address": "724 Washington Ave",
    "address_councildis": "B",
    "status": "Assigned to Contractor",
    "contractor": "Richards Disposal",
    "rowid": "1057831",
    "final_x": "3677715.11278",
    "final_y": "519716.385592",
    "longitude": "-90.08042917938418",
    "latitude": "29.923154012712182",
    "geocoded_column": {
      "latitude": "29.923154012712182",
      "longitude": "-90.08042917938418"
    }
  },
  {
    "service_request": "2023-1057830",
    "request_type": "Mosquito, Termite & Rodent Control",
    "request_reason": "Mosquito Complaint",
    "date_created": "2023-12-27T20:23:23.000",
    "date_modified": "2023-12-27T20:23:23.000",
    "request_status": "Pending",
    "responsible_agency": "Mosquito, Termite & Rodent Control Board",
    "final_address": "3837 Fairmont Dr",
    "address_councildis": "D",
    "status": "Pending",
    "rowid": "1057830",
    "final_x": "3685035.54434",
    "final_y": "546690.356049",
    "longitude": "-90.05637252555664",
    "latitude": "29.99710102739117",
    "geocoded_column": {
      "latitude": "29.99710102739117",
      "longitude": "-90.05637252555664"
    }
  },
  {
    "service_request": "2023-1057829",
    "request_type": "Property Maintenance",
    "request_reason": "Property Maintenance",
    "date_created": "2023-12-27T20:19:07.000",
    "date_modified": "2023-12-27T20:19:07.000",
    "request_status": "Pending",
    "responsible_agency": "Department of Code Enforcement",
    "final_address": "1545 State St",
    "address_councildis": "A",
    "status": "Pending",
    "rowid": "1057829",
    "final_x": "3665712.68276",
    "final_y": "522152.368058",
    "longitude": "-90.11823486278873",
    "latitude": "29.930207604521147",
    "geocoded_column": {
      "latitude": "29.930207604521147",
      "longitude": "-90.11823486278873"
    }
  },
  {
    "service_request": "2023-1057828",
    "request_type": "Trash/Recycling",
    "request_reason": "Missed Trash Pick-Up",
    "date_created": "2023-12-27T20:18:10.000",
    "date_modified": "2023-12-27T20:18:11.000",
    "request_status": "Pending",
    "responsible_agency": "Department of Sanitation",
    "final_address": "4701 Marigny St",
    "address_councildis": "D",
    "status": "Assigned to Contractor",
    "contractor": "IV Waste",
    "rowid": "1057828",
    "final_x": "3684512.56917",
    "final_y": "550159.0125",
    "longitude": "-90.05790261324752",
    "latitude": "30.006654597983687",
    "geocoded_column": {
      "latitude": "30.006654597983687",
      "longitude": "-90.05790261324752"
    }
  },
  {
    "service_request": "2023-1057827",
    "request_type": "Property Maintenance",
    "request_reason": "Property Maintenance",
    "date_created": "2023-12-27T20:15:55.000",
    "date_modified": "2023-12-27T20:15:55.000",
    "request_status": "Pending",
    "responsible_agency": "Department of Code Enforcement",
    "final_address": "1545 State St",
    "address_councildis": "A",
    "status": "Pending",
    "rowid": "1057827",
    "final_x": "3665712.68276",
    "final_y": "522152.368058",
    "longitude": "-90.11823486278873",
    "latitude": "29.930207604521147",
    "geocoded_column": {
      "latitude": "29.930207604521147",
      "longitude": "-90.11823486278873"
    }
  },
  {
    "service_request": "2023-1057826",
    "request_type": "Trash/Recycling",
    "request_reason": "Missed Trash Pick-Up",
    "date_created": "2023-12-27T20:01:31.000",
    "date_modified": "2023-12-27T20:01:32.000",
    "request_status": "Pending",
    "responsible_agency": "Department of Sanitation",
    "final_address": "9321 Hammond St",
    "address_councildis": "E",
    "status": "Assigned to Contractor",
    "contractor": "Waste Pro",
    "rowid": "1057826",
    "final_x": "3709779.42635",
    "final_y": "556183.10057",
    "longitude": "-89.9778536829056",
    "latitude": "30.02242098593665",
    "geocoded_column": {
      "latitude": "30.02242098593665",
      "longitude": "-89.9778536829056"
    }
  },
  {
    "service_request": "2023-1057825",
    "request_type": "Trash/Recycling",
    "request_reason": "Missed Trash Pick-Up",
    "date_created": "2023-12-27T19:53:30.000",
    "date_modified": "2023-12-27T19:53:31.000",
    "request_status": "Pending",
    "responsible_agency": "Department of Sanitation",
    "final_address": "4627 Longfellow Dr",
    "address_councildis": "E",
    "status": "Assigned to Contractor",
    "contractor": "Waste Pro",
    "rowid": "1057825",
    "final_x": "3709764.7123",
    "final_y": "555068.427737",
    "longitude": "-89.97794183735589",
    "latitude": "30.0193565494754",
    "geocoded_column": {
      "latitude": "30.0193565494754",
      "longitude": "-89.97794183735589"
    }
  },
  {
    "service_request": "2023-1057824",
    "request_type": "Mosquito, Termite & Rodent Control",
    "request_reason": "Mosquito Complaint",
    "date_created": "2023-12-27T19:47:29.000",
    "date_modified": "2023-12-27T19:47:29.000",
    "request_status": "Pending",
    "responsible_agency": "Mosquito, Termite & Rodent Control Board",
    "final_address": "7637 Jonlee Dr",
    "address_councildis": "E",
    "status": "Pending",
    "rowid": "1057824",
    "final_x": "3717114.08824",
    "final_y": "570632.495591",
    "longitude": "-89.9541286505246",
    "latitude": "30.061910333380087",
    "geocoded_column": {
      "latitude": "30.061910333380087",
      "longitude": "-89.9541286505246"
    }
  },
  {
    "service_request": "2023-1057823",
    "request_type": "Property Maintenance",
    "request_reason": "Property Maintenance",
    "date_created": "2023-12-27T19:46:33.000",
    "date_modified": "2023-12-27T19:46:33.000",
    "request_status": "Pending",
    "responsible_agency": "Department of Code Enforcement",
    "final_address": "1125 Tennessee St",
    "address_councildis": "E",
    "status": "Pending",
    "rowid": "1057823",
    "final_x": "3695816.29373",
    "final_y": "534584.537541",
    "longitude": "-90.02275417329021",
    "latitude": "29.96347963835423",
    "geocoded_column": {
      "latitude": "29.96347963835423",
      "longitude": "-90.02275417329021"
    }
  },
  {
    "service_request": "2023-1057822",
    "request_type": "Trash/Recycling",
    "request_reason": "MIssed Recycling Pick-Up",
    "date_created": "2023-12-27T19:29:54.000",
    "date_modified": "2023-12-27T19:29:55.000",
    "request_status": "Pending",
    "responsible_agency": "Department of Sanitation",
    "final_address": "1719 Toledano St",
    "address_councildis": "B",
    "status": "Assigned to Contractor",
    "contractor": "Richards Disposal",
    "rowid": "1057822",
    "final_x": "3674403.64788",
    "final_y": "522246.697082",
    "longitude": "-90.09079560780958",
    "latitude": "29.930210700280217",
    "geocoded_column": {
      "latitude": "29.930210700280217",
      "longitude": "-90.09079560780958"
    }
  },
  {
    "service_request": "2023-1057821",
    "request_type": "Trash/Recycling",
    "request_reason": "Missed Trash Pick-Up",
    "date_created": "2023-12-27T19:10:54.000",
    "date_modified": "2023-12-27T19:10:55.000",
    "request_status": "Pending",
    "responsible_agency": "Department of Sanitation",
    "final_address": "4867 Redwood St",
    "address_councildis": "E",
    "status": "Assigned to Contractor",
    "contractor": "Waste Pro",
    "rowid": "1057821",
    "final_x": "3712485.48197",
    "final_y": "556928.656538",
    "longitude": "-89.96927524525323",
    "latitude": "30.024382673922148",
    "geocoded_column": {
      "latitude": "30.024382673922148",
      "longitude": "-89.96927524525323"
    }
  },
  {
    "service_request": "2023-1057820",
    "request_type": "Mosquito, Termite & Rodent Control",
    "request_reason": "Mosquito Complaint",
    "date_created": "2023-12-27T19:09:58.000",
    "date_modified": "2023-12-27T19:09:58.000",
    "request_status": "Pending",
    "responsible_agency": "Mosquito, Termite & Rodent Control Board",
    "final_address": "4500 BLK Marque Dr",
    "address_councildis": "E",
    "status": "Pending",
    "rowid": "1057820",
    "final_x": "3710212.67928",
    "final_y": "554454.98635",
    "longitude": "-89.9765493778502",
    "latitude": "30.017655247149715",
    "geocoded_column": {
      "latitude": "30.017655247149715",
      "longitude": "-89.9765493778502"
    }
  },
  {
    "service_request": "2023-1057819",
    "request_type": "Traffic Signals/Signs/Striping/Streetlights",
    "request_reason": "Street Light Outage/Malfunction",
    "date_created": "2023-12-27T19:08:50.000",
    "date_modified": "2023-12-27T19:08:51.000",
    "request_status": "Pending",
    "responsible_agency": "Department of Public Works",
    "final_address": "DECATUR ST & ESPLANADE AVE",
    "address_councildis": "C",
    "status": "Assigned to Contractor",
    "contractor": "Legacy Professional Services",
    "rowid": "1057819",
    "final_x": "3684676.2",
    "final_y": "533964.28",
    "longitude": "-90.05795513555637",
    "latitude": "29.962119795166075",
    "geocoded_column": {
      "latitude": "29.962119795166075",
      "longitude": "-90.05795513555637"
    }
  },
  {
    "service_request": "2023-1057818",
    "request_type": "Trash/Recycling",
    "request_reason": "Missed Trash Pick-Up",
    "date_created": "2023-12-27T19:04:56.000",
    "date_modified": "2023-12-27T19:04:57.000",
    "request_status": "Pending",
    "responsible_agency": "Department of Sanitation",
    "final_address": "2731 Clover St",
    "address_councildis": "D",
    "status": "Assigned to Contractor",
    "contractor": "IV Waste",
    "rowid": "1057818",
    "final_x": "3688144.39388",
    "final_y": "546809.386641",
    "longitude": "-90.04654760810544",
    "latitude": "29.997332688002984",
    "geocoded_column": {
      "latitude": "29.997332688002984",
      "longitude": "-90.04654760810544"
    }
  },
  {
    "service_request": "2023-1057817",
    "request_type": "Trash/Recycling",
    "request_reason": "Missed Trash Pick-Up",
    "date_created": "2023-12-27T18:55:36.000",
    "date_modified": "2023-12-27T18:55:38.000",
    "request_status": "Pending",
    "responsible_agency": "Department of Sanitation",
    "final_address": "4606 Spain St",
    "address_councildis": "D",
    "status": "Assigned to Contractor",
    "contractor": "IV Waste",
    "rowid": "1057817",
    "final_x": "3684968.20885",
    "final_y": "549601.581715",
    "longitude": "-90.05648275600348",
    "latitude": "30.005107912078817",
    "geocoded_column": {
      "latitude": "30.005107912078817",
      "longitude": "-90.05648275600348"
    }
  },
  {
    "service_request": "2023-1057816",
    "request_type": "Trash/Recycling",
    "request_reason": "Missed Trash Pick-Up",
    "date_created": "2023-12-27T18:55:19.000",
    "date_modified": "2023-12-27T18:55:20.000",
    "request_status": "Pending",
    "responsible_agency": "Department of Sanitation",
    "final_address": "1615 Mirabeau Ave",
    "address_councildis": "D",
    "status": "Assigned to Contractor",
    "contractor": "IV Waste",
    "rowid": "1057816",
    "final_x": "3679898.88463",
    "final_y": "550529.754452",
    "longitude": "-90.07246554824083",
    "latitude": "30.007814405630842",
    "geocoded_column": {
      "latitude": "30.007814405630842",
      "longitude": "-90.07246554824083"
    }
  },
  {
    "service_request": "2023-1057815",
    "request_type": "Trash/Recycling",
    "request_reason": "Order Trash Cart",
    "date_created": "2023-12-27T18:54:29.000",
    "date_modified": "2023-12-27T18:54:30.000",
    "request_status": "Pending",
    "responsible_agency": "Department of Sanitation",
    "final_address": "635 Reynes St",
    "address_councildis": "E",
    "status": "Assigned to Contractor",
    "contractor": "Waste Pro",
    "rowid": "1057815",
    "final_x": "3695554.8232",
    "final_y": "532710.277316",
    "longitude": "-90.02364751522448",
    "latitude": "29.958334305203376",
    "geocoded_column": {
      "latitude": "29.958334305203376",
      "longitude": "-90.02364751522448"
    }
  },
  {
    "service_request": "2023-1057813",
    "request_type": "Roads/Drainage",
    "request_reason": "Man hole cover issue",
    "date_created": "2023-12-27T18:38:48.000",
    "date_modified": "2023-12-27T18:38:48.000",
    "request_status": "Pending",
    "responsible_agency": "Department of Public Works",
    "final_address": "2754 Mithra St",
    "address_councildis": "D",
    "status": "Pending",
    "rowid": "1057813",
    "final_x": "3687811.16963",
    "final_y": "552951.621847",
    "longitude": "-90.04738249236485",
    "latitude": "30.01423187970382",
    "geocoded_column": {
      "latitude": "30.01423187970382",
      "longitude": "-90.04738249236485"
    }
  },
  {
    "service_request": "2023-1057812",
    "request_type": "Trash/Recycling",
    "request_reason": "Missed Trash Pick-Up",
    "date_created": "2023-12-27T18:34:35.000",
    "date_modified": "2023-12-27T18:34:36.000",
    "request_status": "Pending",
    "responsible_agency": "Department of Sanitation",
    "final_address": "7523 Zimple St",
    "address_councildis": "A",
    "status": "Assigned to Contractor",
    "contractor": "Richards Disposal",
    "rowid": "1057812",
    "final_x": "3663182.41831",
    "final_y": "526841.03091",
    "longitude": "-90.12606659199297",
    "latitude": "29.94317347756813",
    "geocoded_column": {
      "latitude": "29.94317347756813",
      "longitude": "-90.12606659199297"
    }
  },
  {
    "service_request": "2023-1057811",
    "request_type": "Trash/Recycling",
    "request_reason": "Request a Large Item Pick Up",
    "date_created": "2023-12-27T18:32:42.000",
    "date_modified": "2023-12-27T18:32:43.000",
    "request_status": "Pending",
    "responsible_agency": "Department of Sanitation",
    "final_address": "1205 Tennessee St",
    "address_councildis": "E",
    "status": "Assigned to Contractor",
    "contractor": "Waste Pro",
    "rowid": "1057811",
    "final_x": "3695827.03638",
    "final_y": "534622.938438",
    "longitude": "-90.02271886229076",
    "latitude": "29.96358488935383",
    "geocoded_column": {
      "latitude": "29.96358488935383",
      "longitude": "-90.02271886229076"
    }
  },
  {
    "service_request": "2023-1057810",
    "request_type": "Trash/Recycling",
    "request_reason": "Replace Trash Cart",
    "date_created": "2023-12-27T18:25:58.000",
    "date_modified": "2023-12-27T18:25:59.000",
    "request_status": "Pending",
    "responsible_agency": "Department of Sanitation",
    "final_address": "8222 Spruce St",
    "address_councildis": "A",
    "status": "Assigned to Contractor",
    "contractor": "Richards Disposal",
    "rowid": "1057810",
    "final_x": "3663413.35616",
    "final_y": "530797.116738",
    "longitude": "-90.12520576665158",
    "latitude": "29.9540447485586",
    "geocoded_column": {
      "latitude": "29.9540447485586",
      "longitude": "-90.12520576665158"
    }
  },
  {
    "service_request": "2023-1057808",
    "request_type": "Mosquito, Termite & Rodent Control",
    "request_reason": "Mosquito Complaint",
    "date_created": "2023-12-27T18:23:16.000",
    "date_modified": "2023-12-27T18:23:16.000",
    "request_status": "Pending",
    "responsible_agency": "Mosquito, Termite & Rodent Control Board",
    "final_address": "2 Assumption Pl",
    "address_councildis": "E",
    "status": "Pending",
    "rowid": "1057808",
    "final_x": "3726079.76953",
    "final_y": "564202.302561",
    "longitude": "-89.92603809935369",
    "latitude": "30.043930225615185",
    "geocoded_column": {
      "latitude": "30.043930225615185",
      "longitude": "-89.92603809935369"
    }
  },
  {
    "service_request": "2023-1057807",
    "request_type": "Mosquito, Termite & Rodent Control",
    "request_reason": "Mosquito Complaint",
    "date_created": "2023-12-27T18:22:33.000",
    "date_modified": "2023-12-27T18:22:33.000",
    "request_status": "Pending",
    "responsible_agency": "Mosquito, Termite & Rodent Control Board",
    "final_address": "14121 Knightway Dr",
    "address_councildis": "E",
    "status": "Pending",
    "rowid": "1057807",
    "final_x": "3718609.47071",
    "final_y": "570525.455911",
    "longitude": "-89.94940587651615",
    "latitude": "30.06156644296811",
    "geocoded_column": {
      "latitude": "30.06156644296811",
      "longitude": "-89.94940587651615"
    }
  },
  {
    "service_request": "2023-1057806",
    "request_type": "Trash/Recycling",
    "request_reason": "Missed Trash Pick-Up",
    "date_created": "2023-12-27T18:20:43.000",
    "date_modified": "2023-12-27T18:20:44.000",
    "request_status": "Pending",
    "responsible_agency": "Department of Sanitation",
    "final_address": "3834 S Inwood Ave",
    "address_councildis": "C",
    "status": "Assigned to Contractor",
    "contractor": "Richards Disposal",
    "rowid": "1057806",
    "final_x": "3705105.55089",
    "final_y": "514343.170419",
    "longitude": "-89.99416697661597",
    "latitude": "29.90752758884572",
    "geocoded_column": {
      "latitude": "29.90752758884572",
      "longitude": "-89.99416697661597"
    }
  },
  {
    "service_request": "2023-1057805",
    "request_type": "Mosquito, Termite & Rodent Control",
    "request_reason": "Mosquito Complaint",
    "date_created": "2023-12-27T18:20:16.000",
    "date_modified": "2023-12-27T18:20:16.000",
    "request_status": "Pending",
    "responsible_agency": "Mosquito, Termite & Rodent Control Board",
    "final_address": "5485 Grand Bayou Dr",
    "address_councildis": "E",
    "status": "Pending",
    "rowid": "1057805",
    "final_x": "3725474.67884",
    "final_y": "563594.640993",
    "longitude": "-89.92797397846157",
    "latitude": "30.042279828443522",
    "geocoded_column": {
      "latitude": "30.042279828443522",
      "longitude": "-89.92797397846157"
    }
  },
  {
    "service_request": "2023-1057804",
    "request_type": "Trash/Recycling",
    "request_reason": "Missed Trash Pick-Up",
    "date_created": "2023-12-27T18:16:56.000",
    "date_modified": "2023-12-27T18:16:57.000",
    "request_status": "Pending",
    "responsible_agency": "Department of Sanitation",
    "final_address": "3834 S Inwood Ave",
    "address_councildis": "C",
    "status": "Assigned to Contractor",
    "contractor": "Richards Disposal",
    "rowid": "1057804",
    "final_x": "3705105.55089",
    "final_y": "514343.170419",
    "longitude": "-89.99416697661597",
    "latitude": "29.90752758884572",
    "geocoded_column": {
      "latitude": "29.90752758884572",
      "longitude": "-89.99416697661597"
    }
  },
  {
    "service_request": "2023-1057803",
    "request_type": "Trash/Recycling",
    "request_reason": "MIssed Recycling Pick-Up",
    "date_created": "2023-12-27T18:12:30.000",
    "date_modified": "2023-12-27T18:12:30.000",
    "request_status": "Pending",
    "responsible_agency": "Department of Sanitation",
    "final_address": "1930 Josephine St",
    "address_councildis": "B",
    "status": "Assigned to Contractor",
    "contractor": "Richards Disposal",
    "rowid": "1057803",
    "final_x": "3676934.0829",
    "final_y": "525159.730941",
    "longitude": "-90.08270705430522",
    "latitude": "29.938144897016212",
    "geocoded_column": {
      "latitude": "29.938144897016212",
      "longitude": "-90.08270705430522"
    }
  },
  {
    "service_request": "2023-1057802",
    "request_type": "Trash/Recycling",
    "request_reason": "MIssed Recycling Pick-Up",
    "date_created": "2023-12-27T18:10:24.000",
    "date_modified": "2023-12-27T18:10:25.000",
    "request_status": "Pending",
    "responsible_agency": "Department of Sanitation",
    "final_address": "4750 Arts St",
    "address_councildis": "D",
    "status": "Assigned to Contractor",
    "contractor": "IV Waste",
    "rowid": "1057802",
    "final_x": "3685830.08297",
    "final_y": "550629.312596",
    "longitude": "-90.05372366117312",
    "latitude": "30.007907362384064",
    "geocoded_column": {
      "latitude": "30.007907362384064",
      "longitude": "-90.05372366117312"
    }
  },
  {
    "service_request": "2023-1057801",
    "request_type": "Trash/Recycling",
    "request_reason": "Missed Trash Pick-Up",
    "date_created": "2023-12-27T18:09:13.000",
    "date_modified": "2023-12-27T18:09:14.000",
    "request_status": "Pending",
    "responsible_agency": "Department of Sanitation",
    "final_address": "4750 Arts St",
    "address_councildis": "D",
    "status": "Assigned to Contractor",
    "contractor": "IV Waste",
    "rowid": "1057801",
    "final_x": "3685830.08297",
    "final_y": "550629.312596",
    "longitude": "-90.05372366117312",
    "latitude": "30.007907362384064",
    "geocoded_column": {
      "latitude": "30.007907362384064",
      "longitude": "-90.05372366117312"
    }
  },
  {
    "service_request": "2023-1057800",
    "request_type": "Mosquito, Termite & Rodent Control",
    "request_reason": "Mosquito Complaint",
    "date_created": "2023-12-27T18:02:03.000",
    "date_modified": "2023-12-27T18:02:03.000",
    "request_status": "Pending",
    "responsible_agency": "Mosquito, Termite & Rodent Control Board",
    "final_address": "4800 Gabriel Dr",
    "address_councildis": "E",
    "status": "Pending",
    "rowid": "1057800",
    "final_x": "3708777.7811",
    "final_y": "556062.839706",
    "longitude": "-89.98102309566983",
    "latitude": "30.022122857857845",
    "geocoded_column": {
      "latitude": "30.022122857857845",
      "longitude": "-89.98102309566983"
    }
  },
  {
    "service_request": "2023-1057799",
    "request_type": "Traffic Signals/Signs/Striping/Streetlights",
    "request_reason": "Street Light Outage/Malfunction",
    "date_created": "2023-12-27T18:00:36.000",
    "date_modified": "2023-12-27T18:00:37.000",
    "request_status": "Pending",
    "responsible_agency": "Department of Public Works",
    "final_address": "5339 Cameron Blvd",
    "address_councildis": "D",
    "status": "Assigned to Contractor",
    "contractor": "Legacy Professional Services",
    "rowid": "1057799",
    "final_x": "3682689.89896",
    "final_y": "552659.32655",
    "longitude": "-90.06357336112005",
    "latitude": "30.013585214790485",
    "geocoded_column": {
      "latitude": "30.013585214790485",
      "longitude": "-90.06357336112005"
    }
  },
  {
    "service_request": "2023-1057798",
    "request_type": "Mosquito, Termite & Rodent Control",
    "request_reason": "Mosquito Complaint",
    "date_created": "2023-12-27T17:57:12.000",
    "date_modified": "2023-12-27T17:57:12.000",
    "request_status": "Pending",
    "responsible_agency": "Mosquito, Termite & Rodent Control Board",
    "final_address": "11001 Harrow Rd",
    "address_councildis": "E",
    "status": "Pending",
    "rowid": "1057798",
    "final_x": "3711735.60491",
    "final_y": "563970.914401",
    "longitude": "-89.971380207187",
    "latitude": "30.043770603650497",
    "geocoded_column": {
      "latitude": "30.043770603650497",
      "longitude": "-89.971380207187"
    }
  },
  {
    "service_request": "2023-1057797",
    "request_type": "Mosquito, Termite & Rodent Control",
    "request_reason": "Mosquito Complaint",
    "date_created": "2023-12-27T17:56:25.000",
    "date_modified": "2023-12-27T17:56:25.000",
    "request_status": "Pending",
    "responsible_agency": "Mosquito, Termite & Rodent Control Board",
    "final_address": "35 Honeysuckle Ln",
    "address_councildis": "E",
    "status": "Pending",
    "rowid": "1057797",
    "final_x": "3713024.20478",
    "final_y": "568411.211237",
    "longitude": "-89.96714039497594",
    "latitude": "30.05593743804322",
    "geocoded_column": {
      "latitude": "30.05593743804322",
      "longitude": "-89.96714039497594"
    }
  },
  {
    "service_request": "2023-1057796",
    "request_type": "Mosquito, Termite & Rodent Control",
    "request_reason": "Mosquito Complaint",
    "date_created": "2023-12-27T17:55:52.000",
    "date_modified": "2023-12-27T17:55:52.000",
    "request_status": "Pending",
    "responsible_agency": "Mosquito, Termite & Rodent Control Board",
    "final_address": "3700 BLK Inwood Ave",
    "address_councildis": "C",
    "status": "Pending",
    "rowid": "1057796",
    "final_x": "3704750.35654",
    "final_y": "514677.001274",
    "longitude": "-89.99527570115832",
    "latitude": "29.908456919320805",
    "geocoded_column": {
      "latitude": "29.908456919320805",
      "longitude": "-89.99527570115832"
    }
  },
  {
    "service_request": "2023-1057795",
    "request_type": "Trash/Recycling",
    "request_reason": "Missed Trash Pick-Up",
    "date_created": "2023-12-27T17:52:12.000",
    "date_modified": "2023-12-27T17:52:13.000",
    "request_status": "Pending",
    "responsible_agency": "Department of Sanitation",
    "final_address": "5822 Franklin Ave",
    "address_councildis": "D",
    "status": "Assigned to Contractor",
    "contractor": "IV Waste",
    "rowid": "1057795",
    "final_x": "3686372.12476",
    "final_y": "554632.945944",
    "longitude": "-90.05186973499667",
    "latitude": "30.01889923029072",
    "geocoded_column": {
      "latitude": "30.01889923029072",
      "longitude": "-90.05186973499667"
    }
  },
  {
    "service_request": "2023-1057794",
    "request_type": "Trash/Recycling",
    "request_reason": "Missed Trash Pick-Up",
    "date_created": "2023-12-27T17:49:00.000",
    "date_modified": "2023-12-27T17:49:01.000",
    "request_status": "Pending",
    "responsible_agency": "Department of Sanitation",
    "final_address": "5925 Marigny St",
    "address_councildis": "D",
    "status": "Assigned to Contractor",
    "contractor": "IV Waste",
    "rowid": "1057794",
    "final_x": "3683988.12233",
    "final_y": "554860.909976",
    "longitude": "-90.05939432286777",
    "latitude": "30.019599142293153",
    "geocoded_column": {
      "latitude": "30.019599142293153",
      "longitude": "-90.05939432286777"
    }
  },
  {
    "service_request": "2023-1057793",
    "request_type": "Trash/Recycling",
    "request_reason": "Missed Trash Pick-Up",
    "date_created": "2023-12-27T17:47:24.000",
    "date_modified": "2023-12-27T17:47:25.000",
    "request_status": "Pending",
    "responsible_agency": "Department of Sanitation",
    "final_address": "7800 BLK Saint Charles Ave",
    "address_councildis": "A",
    "status": "Assigned to Contractor",
    "contractor": "Richards Disposal",
    "rowid": "1057793",
    "final_x": "3661282.77287",
    "final_y": "526213.529054",
    "longitude": "-90.13208504932508",
    "latitude": "29.941502944260343",
    "geocoded_column": {
      "latitude": "29.941502944260343",
      "longitude": "-90.13208504932508"
    }
  },
  {
    "service_request": "2023-1057792",
    "request_type": "Trash/Recycling",
    "request_reason": "Missed Trash Pick-Up",
    "date_created": "2023-12-27T17:28:34.000",
    "date_modified": "2023-12-27T17:28:35.000",
    "request_status": "Pending",
    "responsible_agency": "Department of Sanitation",
    "final_address": "3719 Fairmont Dr",
    "address_councildis": "D",
    "status": "Assigned to Contractor",
    "contractor": "IV Waste",
    "rowid": "1057792",
    "final_x": "3685296.57941",
    "final_y": "546237.386384",
    "longitude": "-90.05556388517431",
    "latitude": "29.995847521829912",
    "geocoded_column": {
      "latitude": "29.995847521829912",
      "longitude": "-90.05556388517431"
    }
  },
  {
    "service_request": "2023-1057791",
    "request_type": "Trash/Recycling",
    "request_reason": "Missed Trash Pick-Up",
    "date_created": "2023-12-27T17:28:22.000",
    "date_modified": "2023-12-27T17:28:23.000",
    "request_status": "Pending",
    "responsible_agency": "Department of Sanitation",
    "final_address": "1924 Audubon St",
    "address_councildis": "A",
    "status": "Assigned to Contractor",
    "contractor": "Richards Disposal",
    "rowid": "1057791",
    "final_x": "3665880.39514",
    "final_y": "528578.84352",
    "longitude": "-90.11749015160194",
    "latitude": "29.947873463657057",
    "geocoded_column": {
      "latitude": "29.947873463657057",
      "longitude": "-90.11749015160194"
    }
  },
  {
    "service_request": "2023-1057790",
    "request_type": "Trash/Recycling",
    "request_reason": "MIssed Recycling Pick-Up",
    "date_created": "2023-12-27T17:26:14.000",
    "date_modified": "2023-12-27T17:26:15.000",
    "request_status": "Pending",
    "responsible_agency": "Department of Sanitation",
    "final_address": "2914 Annunciation St",
    "address_councildis": "B",
    "status": "Assigned to Contractor",
    "contractor": "Richards Disposal",
    "rowid": "1057790",
    "final_x": "3677134.08942",
    "final_y": "519513.446711",
    "longitude": "-90.08227024296154",
    "latitude": "29.922613452660002",
    "geocoded_column": {
      "latitude": "29.922613452660002",
      "longitude": "-90.08227024296154"
    }
  },
  {
    "service_request": "2023-1057789",
    "request_type": "Trash/Recycling",
    "request_reason": "MIssed Recycling Pick-Up",
    "date_created": "2023-12-27T17:24:19.000",
    "date_modified": "2023-12-27T17:24:20.000",
    "request_status": "Pending",
    "responsible_agency": "Department of Sanitation",
    "final_address": "2912 Annunciation St",
    "address_councildis": "B",
    "status": "Assigned to Contractor",
    "contractor": "Richards Disposal",
    "rowid": "1057789",
    "final_x": "3677146.62389",
    "final_y": "519523.474615",
    "longitude": "-90.08223033101143",
    "latitude": "29.922640649840694",
    "geocoded_column": {
      "latitude": "29.922640649840694",
      "longitude": "-90.08223033101143"
    }
  },
  {
    "service_request": "2023-1057788",
    "request_type": "Trash/Recycling",
    "request_reason": "MIssed Recycling Pick-Up",
    "date_created": "2023-12-27T17:20:16.000",
    "date_modified": "2023-12-27T17:20:17.000",
    "request_status": "Pending",
    "responsible_agency": "Department of Sanitation",
    "final_address": "715 Antonine St",
    "address_councildis": "B",
    "status": "Assigned to Contractor",
    "contractor": "Richards Disposal",
    "rowid": "1057788",
    "final_x": "3674355.43291",
    "final_y": "517941.82655",
    "longitude": "-90.09109514579909",
    "latitude": "29.918375128380973",
    "geocoded_column": {
      "latitude": "29.918375128380973",
      "longitude": "-90.09109514579909"
    }
  },
  {
    "service_request": "2023-1057787",
    "request_type": "Roads/Drainage",
    "request_reason": "Pothole",
    "date_created": "2023-12-27T17:15:53.000",
    "date_modified": "2023-12-27T17:15:53.000",
    "request_status": "Pending",
    "responsible_agency": "Department of Public Works",
    "final_address": "1301 Constantinople St",
    "address_councildis": "B",
    "status": "Pending",
    "rowid": "1057787",
    "final_x": "3672430.66305",
    "final_y": "520250.7726",
    "longitude": "-90.09709199725775",
    "latitude": "29.924781230435865",
    "geocoded_column": {
      "latitude": "29.924781230435865",
      "longitude": "-90.09709199725775"
    }
  },
  {
    "service_request": "2023-1057786",
    "request_type": "Trash/Recycling",
    "request_reason": "Missed Trash Pick-Up",
    "date_created": "2023-12-27T17:13:51.000",
    "date_modified": "2023-12-27T17:13:53.000",
    "request_status": "Pending",
    "responsible_agency": "Department of Sanitation",
    "final_address": "4228 Fontainebleau Dr",
    "address_councildis": "A",
    "status": "Assigned to Contractor",
    "contractor": "Richards Disposal",
    "rowid": "1057786",
    "final_x": "3669526.60762",
    "final_y": "529250.469313",
    "longitude": "-90.10595485666136",
    "latitude": "29.949613327686013",
    "geocoded_column": {
      "latitude": "29.949613327686013",
      "longitude": "-90.10595485666136"
    }
  },
  {
    "service_request": "2023-1057785",
    "request_type": "Trash/Recycling",
    "request_reason": "Missed Trash Pick-Up",
    "date_created": "2023-12-27T17:04:28.000",
    "date_modified": "2023-12-27T17:04:29.000",
    "request_status": "Pending",
    "responsible_agency": "Department of Sanitation",
    "final_address": "2831 Audubon St",
    "address_councildis": "B",
    "status": "Assigned to Contractor",
    "contractor": "Richards Disposal",
    "rowid": "1057785",
    "final_x": "3667694.17434",
    "final_y": "531295.870018",
    "longitude": "-90.11167184375363",
    "latitude": "29.955291355719048",
    "geocoded_column": {
      "latitude": "29.955291355719048",
      "longitude": "-90.11167184375363"
    }
  },
  {
    "service_request": "2023-1057784",
    "request_type": "Traffic Signals/Signs/Striping/Streetlights",
    "request_reason": "Street Light Outage/Malfunction",
    "date_created": "2023-12-27T17:00:50.000",
    "date_modified": "2023-12-27T17:00:51.000",
    "request_status": "Pending",
    "responsible_agency": "Department of Public Works",
    "final_address": "0 BLK English Turn Pkwy",
    "address_councildis": "C",
    "status": "Assigned to Contractor",
    "contractor": "Legacy Professional Services",
    "rowid": "1057784",
    "final_x": "3714478.8315",
    "final_y": "516189.451005",
    "longitude": "-89.96451447055301",
    "latitude": "29.912299665809115",
    "geocoded_column": {
      "latitude": "29.912299665809115",
      "longitude": "-89.96451447055301"
    }
  },
  {
    "service_request": "2023-1057783",
    "request_type": "Trash/Recycling",
    "request_reason": "MIssed Recycling Pick-Up",
    "date_created": "2023-12-27T16:56:34.000",
    "date_modified": "2023-12-27T16:56:35.000",
    "request_status": "Pending",
    "responsible_agency": "Department of Sanitation",
    "final_address": "7040 Pinebrook Dr",
    "address_councildis": "E",
    "status": "Assigned to Contractor",
    "contractor": "Waste Pro",
    "rowid": "1057783",
    "final_x": "3719515.24729",
    "final_y": "569711.089126",
    "longitude": "-89.94657390819788",
    "latitude": "30.05929716283975",
    "geocoded_column": {
      "latitude": "30.05929716283975",
      "longitude": "-89.94657390819788"
    }
  },
  {
    "service_request": "2023-1057782",
    "request_type": "Trash/Recycling",
    "request_reason": "Request a Large Item Pick Up",
    "date_created": "2023-12-27T16:54:45.000",
    "date_modified": "2023-12-27T16:54:46.000",
    "request_status": "Pending",
    "responsible_agency": "Department of Sanitation",
    "final_address": "2618 Short St",
    "address_councildis": "A",
    "status": "Assigned to Contractor",
    "contractor": "Richards Disposal",
    "rowid": "1057782",
    "final_x": "3665750.02304",
    "final_y": "531967.032003",
    "longitude": "-90.1177883033815",
    "latitude": "29.957193683871928",
    "geocoded_column": {
      "latitude": "29.957193683871928",
      "longitude": "-90.1177883033815"
    }
  },
  {
    "service_request": "2023-1057781",
    "request_type": "Trash/Recycling",
    "request_reason": "Order Trash Cart",
    "date_created": "2023-12-27T16:53:46.000",
    "date_modified": "2023-12-27T16:53:47.000",
    "request_status": "Pending",
    "responsible_agency": "Department of Sanitation",
    "final_address": "4958 Maid Marion Dr",
    "address_councildis": "E",
    "status": "Assigned to Contractor",
    "contractor": "Waste Pro",
    "rowid": "1057781",
    "final_x": "3716788.32607",
    "final_y": "558018.759323",
    "longitude": "-89.95563777495244",
    "latitude": "30.02723847597956",
    "geocoded_column": {
      "latitude": "30.02723847597956",
      "longitude": "-89.95563777495244"
    }
  },
  {
    "service_request": "2023-1057780",
    "request_type": "Abandoned Vehicles",
    "request_reason": "Abandoned/Junk Vehicles",
    "date_created": "2023-12-27T16:50:09.000",
    "date_modified": "2023-12-27T16:50:09.000",
    "request_status": "Pending",
    "responsible_agency": "Department of Public Works",
    "final_address": "615 Valence St",
    "address_councildis": "B",
    "status": "Pending",
    "rowid": "1057780",
    "final_x": "3670079.23386",
    "final_y": "517800.545846",
    "longitude": "-90.10459764082842",
    "latitude": "29.91811343222591",
    "geocoded_column": {
      "latitude": "29.91811343222591",
      "longitude": "-90.10459764082842"
    }
  },
  {
    "service_request": "2023-1057779",
    "request_type": "Trash/Recycling",
    "request_reason": "Request a Large Item Pick Up",
    "date_created": "2023-12-27T16:41:09.000",
    "date_modified": "2023-12-27T16:41:09.000",
    "request_status": "Pending",
    "responsible_agency": "Department of Sanitation",
    "final_address": "317 Homer St",
    "address_councildis": "C",
    "status": "Assigned to Contractor",
    "contractor": "Richards Disposal",
    "rowid": "1057779",
    "final_x": "3686314.83881",
    "final_y": "528240.193152",
    "longitude": "-90.05298254903028",
    "latitude": "29.9463302652577",
    "geocoded_column": {
      "latitude": "29.9463302652577",
      "longitude": "-90.05298254903028"
    }
  },
  {
    "service_request": "2023-1057778",
    "request_type": "Traffic Signals/Signs/Striping/Streetlights",
    "request_reason": "Street Name Sign Damaged or Missing",
    "date_created": "2023-12-27T16:39:10.000",
    "date_modified": "2023-12-27T16:39:11.000",
    "request_status": "Pending",
    "responsible_agency": "Department of Public Works",
    "final_address": "PINE ST & EDINBURGH ST",
    "address_councildis": "B",
    "status": "Pending",
    "rowid": "1057778",
    "final_x": "3668530.3",
    "final_y": "533479.98",
    "longitude": "-90.10895796387015",
    "latitude": "29.961272400111334",
    "geocoded_column": {
      "latitude": "29.961272400111334",
      "longitude": "-90.10895796387015"
    }
  },
  {
    "service_request": "2023-1057777",
    "request_type": "Roads/Drainage",
    "request_reason": "Catch Basin - Clogged",
    "date_created": "2023-12-27T16:38:46.000",
    "date_modified": "2023-12-27T16:38:47.000",
    "request_status": "Pending",
    "responsible_agency": "Department of Public Works",
    "final_address": "3342 Trafalgar St",
    "address_councildis": "A",
    "status": "Pending",
    "rowid": "1057777",
    "final_x": "3677786.6349",
    "final_y": "543145.536141",
    "longitude": "-90.07939407174584",
    "latitude": "29.98757415200389",
    "geocoded_column": {
      "latitude": "29.98757415200389",
      "longitude": "-90.07939407174584"
    }
  },
  {
    "service_request": "2023-1057776",
    "request_type": "Safety & Permits",
    "request_reason": "Licenses & Permits",
    "date_created": "2023-12-27T16:36:38.000",
    "date_modified": "2023-12-27T16:36:38.000",
    "request_status": "Pending",
    "responsible_agency": "Safety and Permits",
    "final_address": "719 Verret St",
    "address_councildis": "C",
    "status": "Pending",
    "rowid": "1057776",
    "final_x": "3687065.36591",
    "final_y": "528915.47392",
    "longitude": "-90.0505890096776",
    "latitude": "29.94816397645616",
    "geocoded_column": {
      "latitude": "29.94816397645616",
      "longitude": "-90.0505890096776"
    }
  },
  {
    "service_request": "2023-1057775",
    "request_type": "Trash/Recycling",
    "request_reason": "Replace Trash Cart",
    "date_created": "2023-12-27T16:36:05.000",
    "date_modified": "2023-12-27T16:36:06.000",
    "request_status": "Pending",
    "responsible_agency": "Department of Sanitation",
    "final_address": "2764 Ramsey Dr",
    "address_councildis": "C",
    "status": "Assigned to Contractor",
    "contractor": "Richards Disposal",
    "rowid": "1057775",
    "final_x": "3703125.16158",
    "final_y": "520463.96076",
    "longitude": "-90.00019252546494",
    "latitude": "29.924421154950398",
    "geocoded_column": {
      "latitude": "29.924421154950398",
      "longitude": "-90.00019252546494"
    }
  },
  {
    "service_request": "2023-1057774",
    "request_type": "Traffic Signals/Signs/Striping/Streetlights",
    "request_reason": "Traffic Sign Missing/Damaged",
    "date_created": "2023-12-27T16:23:33.000",
    "date_modified": "2023-12-27T16:23:33.000",
    "request_status": "Pending",
    "responsible_agency": "Department of Public Works",
    "final_address": "1900 BLK Humanity St",
    "address_councildis": "D",
    "status": "Pending",
    "rowid": "1057774",
    "final_x": "3682216.1562",
    "final_y": "544601.581844",
    "longitude": "-90.06535186005102",
    "latitude": "29.99144373322781",
    "geocoded_column": {
      "latitude": "29.99144373322781",
      "longitude": "-90.06535186005102"
    }
  },
  {
    "service_request": "2023-1057773",
    "request_type": "Roads/Drainage",
    "request_reason": "Pothole",
    "date_created": "2023-12-27T16:21:14.000",
    "date_modified": "2023-12-27T16:21:14.000",
    "request_status": "Pending",
    "responsible_agency": "Department of Public Works",
    "final_address": "4216 Chestnut St",
    "address_councildis": "B",
    "status": "Pending",
    "rowid": "1057773",
    "final_x": "3671574.31393",
    "final_y": "519539.203703",
    "longitude": "-90.09981939416457",
    "latitude": "29.922850019854593",
    "geocoded_column": {
      "latitude": "29.922850019854593",
      "longitude": "-90.09981939416457"
    }
  },
  {
    "service_request": "2023-1057772",
    "request_type": "Trash/Recycling",
    "request_reason": "Missed Trash Pick-Up",
    "date_created": "2023-12-27T16:14:08.000",
    "date_modified": "2023-12-27T16:14:09.000",
    "request_status": "Pending",
    "responsible_agency": "Department of Sanitation",
    "final_address": "2901 Banks St",
    "address_councildis": "B",
    "status": "Assigned to Contractor",
    "contractor": "Richards Disposal",
    "rowid": "1057772",
    "final_x": "3673893.7316",
    "final_y": "534779.933254",
    "longitude": "-90.0919766986624",
    "latitude": "29.96468816113384",
    "geocoded_column": {
      "latitude": "29.96468816113384",
      "longitude": "-90.0919766986624"
    }
  },
  {
    "service_request": "2023-1057771",
    "request_type": "Trash/Recycling",
    "request_reason": "MIssed Recycling Pick-Up",
    "date_created": "2023-12-27T16:10:34.000",
    "date_modified": "2023-12-27T16:10:35.000",
    "request_status": "Pending",
    "responsible_agency": "Department of Sanitation",
    "final_address": "5670 New England Dr",
    "address_councildis": "E",
    "status": "Assigned to Contractor",
    "contractor": "Waste Pro",
    "rowid": "1057771",
    "final_x": "3723553.15507",
    "final_y": "564478.714849",
    "longitude": "-89.9340125325536",
    "latitude": "30.04477532708266",
    "geocoded_column": {
      "latitude": "30.04477532708266",
      "longitude": "-89.9340125325536"
    }
  },
  {
    "service_request": "2023-1057769",
    "request_type": "Trash/Recycling",
    "request_reason": "Order Recycling Cart",
    "date_created": "2023-12-27T16:09:34.000",
    "date_modified": "2023-12-27T16:09:34.000",
    "request_status": "Pending",
    "responsible_agency": "Department of Sanitation",
    "final_address": "2521 N Tonti St",
    "address_councildis": "D",
    "status": "Pending",
    "rowid": "1057769",
    "final_x": "3686681.5933",
    "final_y": "540922.282443",
    "longitude": "-90.05137659557474",
    "latitude": "29.981190340715244",
    "geocoded_column": {
      "latitude": "29.981190340715244",
      "longitude": "-90.05137659557474"
    }
  },
  {
    "service_request": "2023-1057768",
    "request_type": "Roads/Drainage",
    "request_reason": "Street Subsidence (Sinking)",
    "date_created": "2023-12-27T16:04:57.000",
    "date_modified": "2023-12-27T16:04:59.000",
    "request_status": "Pending",
    "responsible_agency": "Department of Public Works",
    "final_address": "7011 Read Blvd",
    "address_councildis": "E",
    "status": "Pending",
    "rowid": "1057768",
    "final_x": "3709982.40702",
    "final_y": "562188.511007",
    "longitude": "-89.97698770274143",
    "latitude": "30.038926888626793",
    "geocoded_column": {
      "latitude": "30.038926888626793",
      "longitude": "-89.97698770274143"
    }
  },
  {
    "service_request": "2023-1057767",
    "request_type": "Trash/Recycling",
    "request_reason": "Return Trash Cart",
    "date_created": "2023-12-27T16:04:00.000",
    "date_modified": "2023-12-27T16:04:02.000",
    "request_status": "Pending",
    "responsible_agency": "Department of Sanitation",
    "final_address": "1212 Joseph St",
    "address_councildis": "A",
    "status": "Assigned to Contractor",
    "contractor": "Richards Disposal",
    "rowid": "1057767",
    "final_x": "3666402.38599",
    "final_y": "520329.90636",
    "longitude": "-90.11611868770781",
    "latitude": "29.92517628250779",
    "geocoded_column": {
      "latitude": "29.92517628250779",
      "longitude": "-90.11611868770781"
    }
  },
  {
    "service_request": "2023-1057766",
    "request_type": "Roads/Drainage",
    "request_reason": "Pothole",
    "date_created": "2023-12-27T16:03:29.000",
    "date_modified": "2023-12-27T16:03:29.000",
    "request_status": "Pending",
    "responsible_agency": "Department of Public Works",
    "final_address": "1312 Milan St",
    "address_councildis": "B",
    "status": "Pending",
    "rowid": "1057766",
    "final_x": "3671625.82823",
    "final_y": "520286.919608",
    "longitude": "-90.09963137110304",
    "latitude": "29.92490447494246",
    "geocoded_column": {
      "latitude": "29.92490447494246",
      "longitude": "-90.09963137110304"
    }
  },
  {
    "service_request": "2023-1057765",
    "request_type": "Trash/Recycling",
    "request_reason": "Request a Large Item Pick Up",
    "date_created": "2023-12-27T15:58:57.000",
    "date_modified": "2023-12-27T15:58:58.000",
    "request_status": "Pending",
    "responsible_agency": "Department of Sanitation",
    "final_address": "5421 Providence Pl",
    "address_councildis": "D",
    "status": "Assigned to Contractor",
    "contractor": "IV Waste",
    "rowid": "1057765",
    "final_x": "3688446.18543",
    "final_y": "553179.559703",
    "longitude": "-90.04536807100315",
    "latitude": "30.014839013737262",
    "geocoded_column": {
      "latitude": "30.014839013737262",
      "longitude": "-90.04536807100315"
    }
  },
  {
    "service_request": "2023-1057764",
    "request_type": "Trash/Recycling",
    "request_reason": "Repair Trash Cart",
    "date_created": "2023-12-27T15:58:29.000",
    "date_modified": "2023-12-27T15:58:30.000",
    "request_status": "Pending",
    "responsible_agency": "Department of Sanitation",
    "final_address": "2764 Ramsey Dr",
    "address_councildis": "C",
    "status": "Assigned to Contractor",
    "contractor": "Richards Disposal",
    "rowid": "1057764",
    "final_x": "3703125.16158",
    "final_y": "520463.96076",
    "longitude": "-90.00019252546494",
    "latitude": "29.924421154950398",
    "geocoded_column": {
      "latitude": "29.924421154950398",
      "longitude": "-90.00019252546494"
    }
  },
  {
    "service_request": "2023-1057763",
    "request_type": "Trash/Recycling",
    "request_reason": "Missed Trash Pick-Up",
    "date_created": "2023-12-27T15:57:57.000",
    "date_modified": "2023-12-27T16:11:16.000",
    "case_close_date": "2023-12-27T10:11:16.000",
    "request_status": "Closed",
    "responsible_agency": "Department of Sanitation",
    "final_address": "4956 Venus St",
    "address_councildis": "D",
    "status": "Invalid Request",
    "contractor": "IV Waste",
    "contractor_action": "Invalid Request",
    "rowid": "1057763",
    "final_x": "3686336.67478",
    "final_y": "551460.660949",
    "longitude": "-90.05209382123702",
    "latitude": "30.010177701662567",
    "geocoded_column": {
      "latitude": "30.010177701662567",
      "longitude": "-90.05209382123702"
    }
  },
  {
    "service_request": "2023-1057762",
    "request_type": "Trash/Recycling",
    "request_reason": "Request a Large Item Pick Up",
    "date_created": "2023-12-27T15:53:16.000",
    "date_modified": "2023-12-27T15:53:17.000",
    "request_status": "Pending",
    "responsible_agency": "Department of Sanitation",
    "final_address": "2604 Constance St",
    "address_councildis": "B",
    "status": "Assigned to Contractor",
    "contractor": "Richards Disposal",
    "rowid": "1057762",
    "final_x": "3677744.38882",
    "final_y": "520793.550777",
    "longitude": "-90.08029958323586",
    "latitude": "29.92611498715494",
    "geocoded_column": {
      "latitude": "29.92611498715494",
      "longitude": "-90.08029958323586"
    }
  },
  {
    "service_request": "2023-1057761",
    "request_type": "Property Maintenance",
    "request_reason": "Property Maintenance",
    "date_created": "2023-12-27T15:51:06.000",
    "date_modified": "2023-12-27T15:51:06.000",
    "request_status": "Pending",
    "responsible_agency": "Department of Code Enforcement",
    "final_address": "4101 Michoud Blvd",
    "address_councildis": "E",
    "status": "Pending",
    "rowid": "1057761",
    "final_x": "3726071.36403",
    "final_y": "556085.358362",
    "longitude": "-89.9263796518066",
    "latitude": "30.021612246215025",
    "geocoded_column": {
      "latitude": "30.021612246215025",
      "longitude": "-89.9263796518066"
    }
  },
  {
    "service_request": "2023-1057760",
    "request_type": "Trash/Recycling",
    "request_reason": "Replace Trash Cart",
    "date_created": "2023-12-27T15:46:22.000",
    "date_modified": "2023-12-27T15:46:23.000",
    "request_status": "Pending",
    "responsible_agency": "Department of Sanitation",
    "final_address": "1907 Aubry St",
    "address_councildis": "D",
    "status": "Assigned to Contractor",
    "contractor": "IV Waste",
    "rowid": "1057760",
    "final_x": "3681940.98396",
    "final_y": "539423.470922",
    "longitude": "-90.066401917605",
    "latitude": "29.97721411490636",
    "geocoded_column": {
      "latitude": "29.97721411490636",
      "longitude": "-90.066401917605"
    }
  },
  {
    "service_request": "2023-1057759",
    "request_type": "Mosquito, Termite & Rodent Control",
    "request_reason": "Mosquito Complaint",
    "date_created": "2023-12-27T15:43:17.000",
    "date_modified": "2023-12-27T15:43:17.000",
    "request_status": "Pending",
    "responsible_agency": "Mosquito, Termite & Rodent Control Board",
    "final_address": "4432 W Poche Ct",
    "address_councildis": "E",
    "status": "Pending",
    "rowid": "1057759",
    "final_x": "3726680.016",
    "final_y": "558794.173596",
    "longitude": "-89.92435125643269",
    "latitude": "30.02903981984754",
    "geocoded_column": {
      "latitude": "30.02903981984754",
      "longitude": "-89.92435125643269"
    }
  },
  {
    "service_request": "2023-1057758",
    "request_type": "Trash/Recycling",
    "request_reason": "Request a Large Item Pick Up",
    "date_created": "2023-12-27T15:42:32.000",
    "date_modified": "2023-12-27T15:42:33.000",
    "request_status": "Pending",
    "responsible_agency": "Department of Sanitation",
    "final_address": "2318 S Johnson St",
    "address_councildis": "B",
    "status": "Assigned to Contractor",
    "contractor": "Richards Disposal",
    "rowid": "1057758",
    "final_x": "3673605.8571",
    "final_y": "528626.48544",
    "longitude": "-90.09309611832428",
    "latitude": "29.947776799994553",
    "geocoded_column": {
      "latitude": "29.947776799994553",
      "longitude": "-90.09309611832428"
    }
  },
  {
    "service_request": "2023-1057757",
    "request_type": "Trash/Recycling",
    "request_reason": "Order Trash Cart",
    "date_created": "2023-12-27T15:42:03.000",
    "date_modified": "2023-12-27T15:42:04.000",
    "request_status": "Pending",
    "responsible_agency": "Department of Sanitation",
    "final_address": "3337 First St",
    "address_councildis": "B",
    "status": "Assigned to Contractor",
    "contractor": "Richards Disposal",
    "rowid": "1057757",
    "final_x": "3673470.63099",
    "final_y": "528536.306816",
    "longitude": "-90.09352616219152",
    "latitude": "29.94753286238227",
    "geocoded_column": {
      "latitude": "29.94753286238227",
      "longitude": "-90.09352616219152"
    }
  },
  {
    "service_request": "2023-1057756",
    "request_type": "Trash/Recycling",
    "request_reason": "Request a Large Item Pick Up",
    "date_created": "2023-12-27T15:41:18.000",
    "date_modified": "2023-12-27T15:41:19.000",
    "request_status": "Pending",
    "responsible_agency": "Department of Sanitation",
    "final_address": "2320 S Johnson St",
    "address_councildis": "B",
    "status": "Assigned to Contractor",
    "contractor": "Richards Disposal",
    "rowid": "1057756",
    "final_x": "3673586.13806",
    "final_y": "528613.568",
    "longitude": "-90.09315882067376",
    "latitude": "29.94774186815346",
    "geocoded_column": {
      "latitude": "29.94774186815346",
      "longitude": "-90.09315882067376"
    }
  },
  {
    "service_request": "2023-1057755",
    "request_type": "Mosquito, Termite & Rodent Control",
    "request_reason": "Mosquito Complaint",
    "date_created": "2023-12-27T15:40:19.000",
    "date_modified": "2023-12-27T15:40:19.000",
    "request_status": "Pending",
    "responsible_agency": "Mosquito, Termite & Rodent Control Board",
    "final_address": "MICHOUD BLVD & CARRERE CT",
    "address_councildis": "E",
    "status": "Pending",
    "rowid": "1057755",
    "final_x": "3725765.2",
    "final_y": "558097.58",
    "longitude": "-89.92726901418118",
    "latitude": "30.027155370672364",
    "geocoded_column": {
      "latitude": "30.027155370672364",
      "longitude": "-89.92726901418118"
    }
  },
  {
    "service_request": "2023-1057754",
    "request_type": "Trash/Recycling",
    "request_reason": "Request a Large Item Pick Up",
    "date_created": "2023-12-27T15:39:58.000",
    "date_modified": "2023-12-27T15:39:59.000",
    "request_status": "Pending",
    "responsible_agency": "Department of Sanitation",
    "final_address": "2321 S Johnson St",
    "address_councildis": "B",
    "status": "Assigned to Contractor",
    "contractor": "Richards Disposal",
    "rowid": "1057754",
    "final_x": "3673542.41684",
    "final_y": "528664.517696",
    "longitude": "-90.09329512512046",
    "latitude": "29.94788326411463",
    "geocoded_column": {
      "latitude": "29.94788326411463",
      "longitude": "-90.09329512512046"
    }
  },
  {
    "service_request": "2023-1057753",
    "request_type": "Mosquito, Termite & Rodent Control",
    "request_reason": "Mosquito Complaint",
    "date_created": "2023-12-27T15:39:47.000",
    "date_modified": "2023-12-27T15:39:47.000",
    "request_status": "Pending",
    "responsible_agency": "Mosquito, Termite & Rodent Control Board",
    "final_address": "2400 BLK Filmore Ave",
    "address_councildis": "D",
    "status": "Pending",
    "rowid": "1057753",
    "final_x": "3685320.75334",
    "final_y": "552520.718893",
    "longitude": "-90.05526613210046",
    "latitude": "30.01312366983395",
    "geocoded_column": {
      "latitude": "30.01312366983395",
      "longitude": "-90.05526613210046"
    }
  },
  {
    "service_request": "2023-1057752",
    "request_type": "Property Maintenance",
    "request_reason": "Property Maintenance",
    "date_created": "2023-12-27T15:37:36.000",
    "date_modified": "2023-12-27T16:26:48.000",
    "request_status": "Pending",
    "responsible_agency": "Department of Code Enforcement",
    "final_address": "4858 Redwood St",
    "address_councildis": "E",
    "status": "Pending",
    "rowid": "1057752",
    "final_x": "3712344.51646",
    "final_y": "556850.575578",
    "longitude": "-89.96972360249306",
    "latitude": "30.02417259549946",
    "geocoded_column": {
      "latitude": "30.02417259549946",
      "longitude": "-89.96972360249306"
    }
  },
  {
    "service_request": "2023-1057751",
    "request_type": "Trash/Recycling",
    "request_reason": "Request a Large Item Pick Up",
    "date_created": "2023-12-27T15:35:13.000",
    "date_modified": "2023-12-27T15:35:14.000",
    "request_status": "Pending",
    "responsible_agency": "Department of Sanitation",
    "final_address": "2830 N Rampart St",
    "address_councildis": "C",
    "status": "Assigned to Contractor",
    "contractor": "IV Waste",
    "rowid": "1057751",
    "final_x": "3687855.04284",
    "final_y": "535778.886663",
    "longitude": "-90.04785256907486",
    "latitude": "29.96701166050381",
    "geocoded_column": {
      "latitude": "29.96701166050381",
      "longitude": "-90.04785256907486"
    }
  },
  {
    "service_request": "2023-1057750",
    "request_type": "Mosquito, Termite & Rodent Control",
    "request_reason": "Mosquito Complaint",
    "date_created": "2023-12-27T15:34:32.000",
    "date_modified": "2023-12-27T15:34:32.000",
    "request_status": "Pending",
    "responsible_agency": "Mosquito, Termite & Rodent Control Board",
    "final_address": "4867 Redwood St",
    "address_councildis": "E",
    "status": "Pending",
    "rowid": "1057750",
    "final_x": "3712485.48197",
    "final_y": "556928.656538",
    "longitude": "-89.96927524525323",
    "latitude": "30.024382673922148",
    "geocoded_column": {
      "latitude": "30.024382673922148",
      "longitude": "-89.96927524525323"
    }
  },
  {
    "service_request": "2023-1057749",
    "request_type": "Trash/Recycling",
    "request_reason": "Order Recycling Cart",
    "date_created": "2023-12-27T15:34:05.000",
    "date_modified": "2023-12-27T15:34:05.000",
    "request_status": "Pending",
    "responsible_agency": "Department of Sanitation",
    "final_address": "3610 Rue Nadine",
    "address_councildis": "C",
    "status": "Pending",
    "rowid": "1057749",
    "final_x": "3704815.52894",
    "final_y": "517074.760245",
    "longitude": "-89.99498161771577",
    "latitude": "29.91504784081513",
    "geocoded_column": {
      "latitude": "29.91504784081513",
      "longitude": "-89.99498161771577"
    }
  },
  {
    "service_request": "2023-1057748",
    "request_type": "Trash/Recycling",
    "request_reason": "Order Trash Cart",
    "date_created": "2023-12-27T15:31:17.000",
    "date_modified": "2023-12-27T15:31:18.000",
    "request_status": "Pending",
    "responsible_agency": "Department of Sanitation",
    "final_address": "1020 Deslonde St",
    "address_councildis": "E",
    "status": "Assigned to Contractor",
    "contractor": "Waste Pro",
    "rowid": "1057748",
    "final_x": "3695256.42851",
    "final_y": "534165.382661",
    "longitude": "-90.02453727759284",
    "latitude": "29.9623447064229",
    "geocoded_column": {
      "latitude": "29.9623447064229",
      "longitude": "-90.02453727759284"
    }
  },
  {
    "service_request": "2023-1057747",
    "request_type": "Abandoned Vehicles",
    "request_reason": "Abandoned/Junk Vehicles",
    "date_created": "2023-12-27T15:22:55.000",
    "date_modified": "2023-12-27T15:24:46.000",
    "request_status": "Pending",
    "responsible_agency": "Department of Public Works",
    "final_address": "1622 Dumaine St",
    "address_councildis": "C",
    "status": "Pending",
    "rowid": "1057747",
    "final_x": "3680333.57653",
    "final_y": "535036.454598",
    "longitude": "-90.07163120106993",
    "latitude": "29.965200101260383",
    "geocoded_column": {
      "latitude": "29.965200101260383",
      "longitude": "-90.07163120106993"
    }
  },
  {
    "service_request": "2023-1057746",
    "request_type": "Property Maintenance",
    "request_reason": "Property Maintenance",
    "date_created": "2023-12-27T15:09:42.000",
    "date_modified": "2023-12-27T15:49:20.000",
    "request_status": "Pending",
    "responsible_agency": "Department of Code Enforcement",
    "final_address": "61 Eugenie Ct",
    "address_councildis": "C",
    "status": "Pending",
    "rowid": "1057746",
    "final_x": "3700543.59517",
    "final_y": "511645.89112",
    "longitude": "-90.00866338946454",
    "latitude": "29.900256793877304",
    "geocoded_column": {
      "latitude": "29.900256793877304",
      "longitude": "-90.00866338946454"
    }
  },
  {
    "service_request": "2023-1057745",
    "request_type": "Trash/Recycling",
    "request_reason": "Order Trash Cart",
    "date_created": "2023-12-27T15:08:44.000",
    "date_modified": "2023-12-27T15:08:45.000",
    "request_status": "Pending",
    "responsible_agency": "Department of Sanitation",
    "final_address": "1620 France St",
    "address_councildis": "D",
    "status": "Assigned to Contractor",
    "contractor": "IV Waste",
    "rowid": "1057745",
    "final_x": "3692859.44464",
    "final_y": "537225.54292",
    "longitude": "-90.031996827885",
    "latitude": "29.970834131095742",
    "geocoded_column": {
      "latitude": "29.970834131095742",
      "longitude": "-90.031996827885"
    }
  },
  {
    "service_request": "2023-1057744",
    "request_type": "Abandoned Vehicles",
    "request_reason": "Abandoned/Junk Vehicles",
    "date_created": "2023-12-27T15:07:17.000",
    "date_modified": "2023-12-27T15:07:18.000",
    "request_status": "Pending",
    "responsible_agency": "Department of Public Works",
    "final_address": "15 Eugenie Ct",
    "address_councildis": "C",
    "status": "Pending",
    "rowid": "1057744",
    "final_x": "3700234.61904",
    "final_y": "511930.899184",
    "longitude": "-90.00962808800604",
    "latitude": "29.901050288636103",
    "geocoded_column": {
      "latitude": "29.901050288636103",
      "longitude": "-90.00962808800604"
    }
  },
  {
    "service_request": "2023-1057743",
    "request_type": "Trash/Recycling",
    "request_reason": "Missed Trash Pick-Up",
    "date_created": "2023-12-27T15:06:49.000",
    "date_modified": "2023-12-27T15:06:50.000",
    "request_status": "Pending",
    "responsible_agency": "Department of Sanitation",
    "final_address": "4901 Little John Dr",
    "address_councildis": "E",
    "status": "Assigned to Contractor",
    "contractor": "Waste Pro",
    "rowid": "1057743",
    "final_x": "3717244.09208",
    "final_y": "557647.205339",
    "longitude": "-89.95421174307589",
    "latitude": "30.0262017755946",
    "geocoded_column": {
      "latitude": "30.0262017755946",
      "longitude": "-89.95421174307589"
    }
  },
  {
    "service_request": "2023-1057742",
    "request_type": "Mosquito, Termite & Rodent Control",
    "request_reason": "Mosquito Complaint",
    "date_created": "2023-12-27T14:59:34.000",
    "date_modified": "2023-12-27T14:59:34.000",
    "request_status": "Pending",
    "responsible_agency": "Mosquito, Termite & Rodent Control Board",
    "final_address": "7131 Queensway Dr",
    "address_councildis": "E",
    "status": "Pending",
    "rowid": "1057742",
    "final_x": "3718943.30821",
    "final_y": "569910.122534",
    "longitude": "-89.94837413926567",
    "latitude": "30.059863441996015",
    "geocoded_column": {
      "latitude": "30.059863441996015",
      "longitude": "-89.94837413926567"
    }
  },
  {
    "service_request": "2023-1057741",
    "request_type": "Trash/Recycling",
    "request_reason": "Request a Large Item Pick Up",
    "date_created": "2023-12-27T14:57:30.000",
    "date_modified": "2023-12-27T14:57:31.000",
    "request_status": "Pending",
    "responsible_agency": "Department of Sanitation",
    "final_address": "1707 Gallier St",
    "address_councildis": "D",
    "status": "Assigned to Contractor",
    "contractor": "IV Waste",
    "rowid": "1057741",
    "final_x": "3691098.21219",
    "final_y": "537965.063369",
    "longitude": "-90.03753258881325",
    "latitude": "29.97292243295384",
    "geocoded_column": {
      "latitude": "29.97292243295384",
      "longitude": "-90.03753258881325"
    }
  },
  {
    "service_request": "2023-1057740",
    "request_type": "Trash/Recycling",
    "request_reason": "Missed Trash Pick-Up",
    "date_created": "2023-12-27T14:55:33.000",
    "date_modified": "2023-12-27T15:31:28.000",
    "case_close_date": "2023-12-27T09:31:28.000",
    "request_status": "Closed",
    "responsible_agency": "Department of Sanitation",
    "final_address": "ELYSIAN FIELDS AVE & MONTEREY ST",
    "address_councildis": "D",
    "status": "Invalid Request",
    "contractor": "IV Waste",
    "contractor_action": "Additional information required from resident",
    "rowid": "1057740",
    "final_x": "3684207.8",
    "final_y": "546982.28",
    "longitude": "-90.05897707421212",
    "latitude": "29.99792905221234",
    "geocoded_column": {
      "latitude": "29.99792905221234",
      "longitude": "-90.05897707421212"
    }
  },
  {
    "service_request": "2023-1057739",
    "request_type": "Trash/Recycling",
    "request_reason": "Request a Large Item Pick Up",
    "date_created": "2023-12-27T14:51:42.000",
    "date_modified": "2023-12-27T14:51:43.000",
    "request_status": "Pending",
    "responsible_agency": "Department of Sanitation",
    "final_address": "7210 Wayside Dr",
    "address_councildis": "E",
    "status": "Assigned to Contractor",
    "contractor": "Waste Pro",
    "rowid": "1057739",
    "final_x": "3717133.78309",
    "final_y": "568365.502885",
    "longitude": "-89.95415264808226",
    "latitude": "30.055676390975957",
    "geocoded_column": {
      "latitude": "30.055676390975957",
      "longitude": "-89.95415264808226"
    }
  },
  {
    "service_request": "2023-1057738",
    "request_type": "Trash/Recycling",
    "request_reason": "Request a Large Item Pick Up",
    "date_created": "2023-12-27T14:49:40.000",
    "date_modified": "2023-12-27T14:49:42.000",
    "request_status": "Pending",
    "responsible_agency": "Department of Sanitation",
    "final_address": "2304 Abundance St",
    "address_councildis": "D",
    "status": "Assigned to Contractor",
    "contractor": "IV Waste",
    "rowid": "1057738",
    "final_x": "3685249.23644",
    "final_y": "543676.233102",
    "longitude": "-90.05580364030277",
    "latitude": "29.988806716001207",
    "geocoded_column": {
      "latitude": "29.988806716001207",
      "longitude": "-90.05580364030277"
    }
  },
  {
    "service_request": "2023-1057737",
    "request_type": "Trash/Recycling",
    "request_reason": "Replace Trash Cart",
    "date_created": "2023-12-27T14:47:16.000",
    "date_modified": "2023-12-27T14:47:17.000",
    "request_status": "Pending",
    "responsible_agency": "Department of Sanitation",
    "final_address": "2531 Palmyra St",
    "address_councildis": "B",
    "status": "Assigned to Contractor",
    "contractor": "Richards Disposal",
    "rowid": "1057737",
    "final_x": "3675494.80097",
    "final_y": "534089.912389",
    "longitude": "-90.08694432925597",
    "latitude": "29.9627430455754",
    "geocoded_column": {
      "latitude": "29.9627430455754",
      "longitude": "-90.08694432925597"
    }
  },
  {
    "service_request": "2023-1057736",
    "request_type": "Abandoned Vehicles",
    "request_reason": "Abandoned/Junk Vehicles",
    "date_created": "2023-12-27T14:38:17.000",
    "date_modified": "2023-12-27T14:38:18.000",
    "request_status": "Pending",
    "responsible_agency": "Department of Public Works",
    "final_address": "1433 N Villere St",
    "address_councildis": "C",
    "status": "Pending",
    "rowid": "1057736",
    "final_x": "3681960.37615",
    "final_y": "536403.697095",
    "longitude": "-90.06644612044406",
    "latitude": "29.96891019314207",
    "geocoded_column": {
      "latitude": "29.96891019314207",
      "longitude": "-90.06644612044406"
    }
  },
  {
    "service_request": "2023-1057735",
    "request_type": "Abandoned Vehicles",
    "request_reason": "Abandoned/Junk Vehicles",
    "date_created": "2023-12-27T14:37:37.000",
    "date_modified": "2023-12-27T14:39:55.000",
    "request_status": "Pending",
    "responsible_agency": "Department of Public Works",
    "final_address": "1034 St Ann St",
    "address_councildis": "C",
    "status": "Pending",
    "rowid": "1057735",
    "final_x": "3681683.52917",
    "final_y": "533564.203973",
    "longitude": "-90.0674194902816",
    "latitude": "29.961110974391776",
    "geocoded_column": {
      "latitude": "29.961110974391776",
      "longitude": "-90.0674194902816"
    }
  },
  {
    "service_request": "2023-1057734",
    "request_type": "Trash/Recycling",
    "request_reason": "Illegal Dumping",
    "date_created": "2023-12-27T14:25:30.000",
    "date_modified": "2023-12-27T14:25:31.000",
    "request_status": "Pending",
    "responsible_agency": "Department of Sanitation",
    "final_address": "5400 Tullis Dr",
    "address_councildis": "C",
    "status": "Pending",
    "rowid": "1057734",
    "final_x": "3703969.56151",
    "final_y": "511975.875248",
    "longitude": "-89.99783935194829",
    "latitude": "29.901054788968743",
    "geocoded_column": {
      "latitude": "29.901054788968743",
      "longitude": "-89.99783935194829"
    }
  },
  {
    "service_request": "2023-1057733",
    "request_type": "Trash/Recycling",
    "request_reason": "Request a Large Item Pick Up",
    "date_created": "2023-12-27T14:24:20.000",
    "date_modified": "2023-12-27T14:24:21.000",
    "request_status": "Pending",
    "responsible_agency": "Department of Sanitation",
    "final_address": "70 Versailles Blvd",
    "address_councildis": "B",
    "status": "Assigned to Contractor",
    "contractor": "Richards Disposal",
    "rowid": "1057733",
    "final_x": "3667798.61965",
    "final_y": "530545.575234",
    "longitude": "-90.1113673081981",
    "latitude": "29.953225228317656",
    "geocoded_column": {
      "latitude": "29.953225228317656",
      "longitude": "-90.1113673081981"
    }
  },
  {
    "service_request": "2023-1057732",
    "request_type": "Trash/Recycling",
    "request_reason": "Missed Trash Pick-Up",
    "date_created": "2023-12-27T14:23:06.000",
    "date_modified": "2023-12-27T14:23:07.000",
    "request_status": "Pending",
    "responsible_agency": "Department of Sanitation",
    "final_address": "918 Adams St",
    "address_councildis": "A",
    "status": "Assigned to Contractor",
    "contractor": "Richards Disposal",
    "rowid": "1057732",
    "final_x": "3662423.56602",
    "final_y": "526745.989694",
    "longitude": "-90.12846564561201",
    "latitude": "29.942934107239786",
    "geocoded_column": {
      "latitude": "29.942934107239786",
      "longitude": "-90.12846564561201"
    }
  },
  {
    "service_request": "2023-1057731",
    "request_type": "Trash/Recycling",
    "request_reason": "Missed Trash Pick-Up",
    "date_created": "2023-12-27T14:21:48.000",
    "date_modified": "2023-12-27T14:21:49.000",
    "request_status": "Pending",
    "responsible_agency": "Department of Sanitation",
    "final_address": "70 Versailles Blvd",
    "address_councildis": "B",
    "status": "Assigned to Contractor",
    "contractor": "Richards Disposal",
    "rowid": "1057731",
    "final_x": "3667798.61965",
    "final_y": "530545.575234",
    "longitude": "-90.1113673081981",
    "latitude": "29.953225228317656",
    "geocoded_column": {
      "latitude": "29.953225228317656",
      "longitude": "-90.1113673081981"
    }
  },
  {
    "service_request": "2023-1057730",
    "request_type": "Trash/Recycling",
    "request_reason": "Request a Large Item Pick Up",
    "date_created": "2023-12-27T14:20:55.000",
    "date_modified": "2023-12-27T14:21:06.000",
    "request_status": "Pending",
    "responsible_agency": "Department of Sanitation",
    "final_address": "1200 Kentucky St",
    "address_councildis": "D",
    "status": "Assigned to Contractor",
    "contractor": "IV Waste",
    "rowid": "1057730",
    "final_x": "3693354.92355",
    "final_y": "535341.745158",
    "longitude": "-90.03049969398435",
    "latitude": "29.9656388722138",
    "geocoded_column": {
      "latitude": "29.9656388722138",
      "longitude": "-90.03049969398435"
    }
  },
  {
    "service_request": "2023-1057729",
    "request_type": "Abandoned Vehicles",
    "request_reason": "Abandoned/Junk Vehicles",
    "date_created": "2023-12-27T14:14:11.000",
    "date_modified": "2023-12-27T14:14:11.000",
    "request_status": "Pending",
    "responsible_agency": "Department of Public Works",
    "final_address": "5400 Tullis Dr",
    "address_councildis": "C",
    "status": "Pending",
    "rowid": "1057729",
    "final_x": "3703969.56151",
    "final_y": "511975.875248",
    "longitude": "-89.99783935194829",
    "latitude": "29.901054788968743",
    "geocoded_column": {
      "latitude": "29.901054788968743",
      "longitude": "-89.99783935194829"
    }
  },
  {
    "service_request": "2023-1057728",
    "request_type": "Trash/Recycling",
    "request_reason": "Replace Recycling Cart",
    "date_created": "2023-12-27T14:10:43.000",
    "date_modified": "2023-12-27T14:10:43.000",
    "request_status": "Pending",
    "responsible_agency": "Department of Sanitation",
    "final_address": "3365 Esplanade Ave",
    "address_councildis": "A",
    "status": "Pending",
    "rowid": "1057728",
    "final_x": "3675653.80981",
    "final_y": "540985.697867",
    "longitude": "-90.08620519053935",
    "latitude": "29.981699348986343",
    "geocoded_column": {
      "latitude": "29.981699348986343",
      "longitude": "-90.08620519053935"
    }
  },
  {
    "service_request": "2023-1057727",
    "request_type": "Trash/Recycling",
    "request_reason": "Repair Recycling Cart",
    "date_created": "2023-12-27T14:09:57.000",
    "date_modified": "2023-12-27T14:09:58.000",
    "request_status": "Pending",
    "responsible_agency": "Department of Sanitation",
    "final_address": "818 Port St",
    "address_councildis": "C",
    "status": "Pending",
    "rowid": "1057727",
    "final_x": "3687141.95586",
    "final_y": "535427.247238",
    "longitude": "-90.0501169315216",
    "latitude": "29.96606675217393",
    "geocoded_column": {
      "latitude": "29.96606675217393",
      "longitude": "-90.0501169315216"
    }
  },
  {
    "service_request": "2023-1057725",
    "request_type": "Trash/Recycling",
    "request_reason": "Replace Trash Cart",
    "date_created": "2023-12-27T14:09:12.000",
    "date_modified": "2023-12-27T14:09:13.000",
    "request_status": "Pending",
    "responsible_agency": "Department of Sanitation",
    "final_address": "7928 Berg Rd",
    "address_councildis": "E",
    "status": "Assigned to Contractor",
    "contractor": "Waste Pro",
    "rowid": "1057725",
    "final_x": "3711268.54462",
    "final_y": "567677.127908",
    "longitude": "-89.97271721889696",
    "latitude": "30.053976448144912",
    "geocoded_column": {
      "latitude": "30.053976448144912",
      "longitude": "-89.97271721889696"
    }
  },
  {
    "service_request": "2023-1057724",
    "request_type": "Trash/Recycling",
    "request_reason": "Request a Large Item Pick Up",
    "date_created": "2023-12-27T14:08:52.000",
    "date_modified": "2023-12-27T14:31:24.000",
    "case_close_date": "2023-12-27T08:31:24.000",
    "request_status": "Closed",
    "responsible_agency": "Department of Sanitation",
    "final_address": "2667 Gladiolus St",
    "address_councildis": "D",
    "status": "Assigned to Contractor",
    "contractor": "IV Waste",
    "contractor_action": "Completed",
    "rowid": "1057724",
    "final_x": "3687577.14678",
    "final_y": "547599.925586",
    "longitude": "-90.04831151062238",
    "latitude": "29.999523888004187",
    "geocoded_column": {
      "latitude": "29.999523888004187",
      "longitude": "-90.04831151062238"
    }
  },
  {
    "service_request": "2023-1057723",
    "request_type": "Trash/Recycling",
    "request_reason": "Replace Trash Cart",
    "date_created": "2023-12-27T14:06:15.000",
    "date_modified": "2023-12-27T14:06:16.000",
    "request_status": "Pending",
    "responsible_agency": "Department of Sanitation",
    "final_address": "3025 Bienville Ave",
    "address_councildis": "B",
    "status": "Assigned to Contractor",
    "contractor": "Richards Disposal",
    "rowid": "1057723",
    "final_x": "3674674.54068",
    "final_y": "536679.064967",
    "longitude": "-90.08944584920847",
    "latitude": "29.96988684906901",
    "geocoded_column": {
      "latitude": "29.96988684906901",
      "longitude": "-90.08944584920847"
    }
  },
  {
    "service_request": "2023-1057722",
    "request_type": "Trash/Recycling",
    "request_reason": "Request a Large Item Pick Up",
    "date_created": "2023-12-27T13:48:55.000",
    "date_modified": "2023-12-27T14:25:57.000",
    "request_status": "Pending",
    "responsible_agency": "Department of Sanitation",
    "final_address": "5001 Columbia St",
    "address_councildis": "D",
    "contractor": "IV Waste",
    "rowid": "1057722",
    "final_x": "3690504.35728",
    "final_y": "558628.457244",
    "longitude": "-90.03867074244016",
    "latitude": "30.029757670826903",
    "geocoded_column": {
      "latitude": "30.029757670826903",
      "longitude": "-90.03867074244016"
    }
  },
  {
    "service_request": "2023-1057721",
    "request_type": "Trash/Recycling",
    "request_reason": "MIssed Recycling Pick-Up",
    "date_created": "2023-12-27T13:47:19.000",
    "date_modified": "2023-12-27T14:13:53.000",
    "case_close_date": "2023-12-27T08:13:53.000",
    "request_status": "Closed",
    "responsible_agency": "Department of Sanitation",
    "final_address": "4624 Wright Rd",
    "address_councildis": "E",
    "status": "Invalid Request",
    "contractor": "Waste Pro",
    "contractor_action": "Invalid Request",
    "rowid": "1057721",
    "final_x": "3716643.38911",
    "final_y": "556273.527834",
    "longitude": "-89.95616203864942",
    "latitude": "30.022444575536394",
    "geocoded_column": {
      "latitude": "30.022444575536394",
      "longitude": "-89.95616203864942"
    }
  },
  {
    "service_request": "2023-1057719",
    "request_type": "Trash/Recycling",
    "request_reason": "Request a Large Item Pick Up",
    "date_created": "2023-12-27T13:40:24.000",
    "date_modified": "2023-12-27T13:40:25.000",
    "request_status": "Pending",
    "responsible_agency": "Department of Sanitation",
    "final_address": "4900 Louisa Dr",
    "address_councildis": "D",
    "status": "Assigned to Contractor",
    "contractor": "IV Waste",
    "rowid": "1057719",
    "final_x": "3690714.22588",
    "final_y": "551553.397397",
    "longitude": "-90.03826025040301",
    "latitude": "30.01029737620921",
    "geocoded_column": {
      "latitude": "30.01029737620921",
      "longitude": "-90.03826025040301"
    }
  },
  {
    "service_request": "2023-1057717",
    "request_type": "Trash/Recycling",
    "request_reason": "Request a Large Item Pick Up",
    "date_created": "2023-12-27T13:34:02.000",
    "date_modified": "2023-12-27T13:34:03.000",
    "request_status": "Pending",
    "responsible_agency": "Department of Sanitation",
    "final_address": "1508 Reynes St",
    "address_councildis": "E",
    "status": "Assigned to Contractor",
    "contractor": "Waste Pro",
    "rowid": "1057717",
    "final_x": "3696337.62224",
    "final_y": "535881.494279",
    "longitude": "-90.02106097730523",
    "latitude": "29.96702940235373",
    "geocoded_column": {
      "latitude": "29.96702940235373",
      "longitude": "-90.02106097730523"
    }
  },
  {
    "service_request": "2023-1057716",
    "request_type": "Trash/Recycling",
    "request_reason": "Missed Trash Pick-Up",
    "date_created": "2023-12-27T13:29:34.000",
    "date_modified": "2023-12-27T13:29:35.000",
    "request_status": "Pending",
    "responsible_agency": "Department of Sanitation",
    "final_address": "7736 Benjamin St",
    "address_councildis": "A",
    "status": "Assigned to Contractor",
    "contractor": "Richards Disposal",
    "rowid": "1057716",
    "final_x": "3660677.7735",
    "final_y": "525231.652157",
    "longitude": "-90.13402760842291",
    "latitude": "29.938820519460734",
    "geocoded_column": {
      "latitude": "29.938820519460734",
      "longitude": "-90.13402760842291"
    }
  },
  {
    "service_request": "2023-1057715",
    "request_type": "Trash/Recycling",
    "request_reason": "Dead Animal Pick Up",
    "date_created": "2023-12-27T13:28:05.000",
    "date_modified": "2023-12-27T13:29:15.000",
    "request_status": "Pending",
    "responsible_agency": "Department of Sanitation",
    "final_address": "4900 BLK Elysian Fields Ave",
    "address_councildis": "D",
    "status": "Assigned to Contractor",
    "contractor": "IV Waste",
    "rowid": "1057715",
    "final_x": "3683869.71326",
    "final_y": "551235.903549",
    "longitude": "-90.05989574864839",
    "latitude": "30.00963531775951",
    "geocoded_column": {
      "latitude": "30.00963531775951",
      "longitude": "-90.05989574864839"
    }
  },