[
  {
    "service_request": "2022-938414",
    "request_type": "Trash/Recycling",
    "request_reason": "Missed Trash Pick-Up",
    "date_created": "2022-11-05T01:29:05.000",
    "date_modified": "2022-11-05T01:29:06.000",
    "request_status": "Pending",
    "responsible_agency": "Department of Sanitation",
    "final_address": "206 Alonzo St",
    "address_councildis": "A",
    "status": "Assigned to Contractor",
    "contractor": "Richards Disposal",
    "rowid": "938414",
    "final_x": "3664465.55668",
    "final_y": "517139.068661",
    "longitude": "-90.12233911854405",
    "latitude": "29.916458907374718",
    "geocoded_column": {
      "latitude": "29.916458907374718",
      "longitude": "-90.12233911854405"
    }
  },
  {
    "service_request": "2022-938413",
    "request_type": "Trash/Recycling",
    "request_reason": "Order Recycling Cart",
    "date_created": "2022-11-05T00:37:35.000",
    "date_modified": "2022-11-05T00:37:35.000",
    "request_status": "Pending",
    "responsible_agency": "Department of Sanitation",
    "final_address": "2711 Aubry St",
    "address_councildis": "D",
    "status": "Pending",
    "rowid": "938413",
    "final_x": "3679406.73743",
    "final_y": "541356.64622",
    "longitude": "-90.07433881153312",
    "latitude": "29.98260647988997",
    "geocoded_column": {
      "latitude": "29.98260647988997",
      "longitude": "-90.07433881153312"
    }
  },
  {
    "service_request": "2022-938412",
    "request_type": "Trash/Recycling",
    "request_reason": "Replace Trash Cart",
    "date_created": "2022-11-05T00:28:11.000",
    "date_modified": "2022-11-05T00:28:12.000",
    "request_status": "Pending",
    "responsible_agency": "Department of Sanitation",
    "final_address": "4822 Nottingham Dr",
    "address_councildis": "E",
    "status": "Assigned to Contractor",
    "contractor": "Metro Disposal",
    "rowid": "938412",
    "final_x": "3716281.04607",
    "final_y": "557266.235803",
    "longitude": "-89.95726927273842",
    "latitude": "30.025186097226108",
    "geocoded_column": {
      "latitude": "30.025186097226108",
      "longitude": "-89.95726927273842"
    }
  },
  {
    "service_request": "2022-938411",
    "request_type": "Trash/Recycling",
    "request_reason": "Order Recycling Cart",
    "date_created": "2022-11-05T00:26:15.000",
    "date_modified": "2022-11-05T00:26:15.000",
    "request_status": "Pending",
    "responsible_agency": "Department of Sanitation",
    "final_address": "6820 Rugby Ct",
    "address_councildis": "E",
    "status": "Pending",
    "rowid": "938411",
    "final_x": "3701320.24637",
    "final_y": "557287.826587",
    "longitude": "-90.00454198841871",
    "latitude": "30.025730995899913",
    "geocoded_column": {
      "latitude": "30.025730995899913",
      "longitude": "-90.00454198841871"
    }
  },
  {
    "service_request": "2022-938410",
    "request_type": "Trash/Recycling",
    "request_reason": "Replace Trash Cart",
    "date_created": "2022-11-04T23:52:35.000",
    "date_modified": "2022-11-04T23:52:36.000",
    "request_status": "Pending",
    "responsible_agency": "Department of Sanitation",
    "final_address": "2324 N Robertson St",
    "address_councildis": "C",
    "status": "Assigned to Contractor",
    "contractor": "Metro Disposal",
    "rowid": "938410",
    "final_x": "3685855.4102",
    "final_y": "537817.851657",
    "longitude": "-90.0540955179075",
    "latitude": "29.97267963611057",
    "geocoded_column": {
      "latitude": "29.97267963611057",
      "longitude": "-90.0540955179075"
    }
  },
  {
    "service_request": "2022-938409",
    "request_type": "Abandoned Vehicles",
    "request_reason": "Vehicle Blocking Your Driveway",
    "date_created": "2022-11-04T23:34:32.000",
    "date_modified": "2022-11-04T23:34:32.000",
    "request_status": "Pending",
    "responsible_agency": "Department of Public Works",
    "final_address": "826 Frenchmen St",
    "address_councildis": "C",
    "status": "Pending",
    "rowid": "938409",
    "final_x": "3684631.30095",
    "final_y": "535406.803654",
    "longitude": "-90.05804622093298",
    "latitude": "29.96608761154468",
    "geocoded_column": {
      "latitude": "29.96608761154468",
      "longitude": "-90.05804622093298"
    }
  },
  {
    "service_request": "2022-938408",
    "request_type": "Property Maintenance",
    "request_reason": "Property Maintenance",
    "date_created": "2022-11-04T22:51:12.000",
    "date_modified": "2022-11-04T22:51:12.000",
    "request_status": "Pending",
    "responsible_agency": "Department of Code Enforcement",
    "final_address": "6929 Virgilian St",
    "address_councildis": "D",
    "status": "Pending",
    "rowid": "938408",
    "final_x": "3696992.31946",
    "final_y": "556647.003546",
    "longitude": "-90.01824081280056",
    "latitude": "30.02410626890233",
    "geocoded_column": {
      "latitude": "30.02410626890233",
      "longitude": "-90.01824081280056"
    }
  },
  {
    "service_request": "2022-938407",
    "request_type": "Trash/Recycling",
    "request_reason": "Order Recycling Cart",
    "date_created": "2022-11-04T22:48:24.000",
    "date_modified": "2022-11-04T22:48:24.000",
    "request_status": "Pending",
    "responsible_agency": "Department of Sanitation",
    "final_address": "2521 Elder St",
    "address_councildis": "D",
    "status": "Pending",
    "rowid": "938407",
    "final_x": "3686751.39714",
    "final_y": "545790.117456",
    "longitude": "-90.05098405909224",
    "latitude": "29.994573004719264",
    "geocoded_column": {
      "latitude": "29.994573004719264",
      "longitude": "-90.05098405909224"
    }
  },
  {
    "service_request": "2022-938406",
    "request_type": "Traffic Signals/Signs/Striping/Streetlights",
    "request_reason": "Street Light Knocked Down/Leaning",
    "date_created": "2022-11-04T22:48:08.000",
    "date_modified": "2022-11-04T22:48:09.000",
    "request_status": "Pending",
    "responsible_agency": "Department of Public Works",
    "final_address": "1504 France St",
    "address_councildis": "D",
    "status": "Pending",
    "contractor": "Legacy Professional Services",
    "rowid": "938406",
    "final_x": "3692739.28323",
    "final_y": "536723.264519",
    "longitude": "-90.03239432077595",
    "latitude": "29.969456795309764",
    "geocoded_column": {
      "latitude": "29.969456795309764",
      "longitude": "-90.03239432077595"
    }
  },
  {
    "service_request": "2022-938405",
    "request_type": "Trash/Recycling",
    "request_reason": "Order Recycling Cart",
    "date_created": "2022-11-04T22:39:44.000",
    "date_modified": "2022-11-04T22:39:44.000",
    "request_status": "Pending",
    "responsible_agency": "Department of Sanitation",
    "final_address": "4532 Perlita St",
    "address_councildis": "D",
    "status": "Pending",
    "rowid": "938405",
    "final_x": "3678649.75406",
    "final_y": "549384.999123",
    "longitude": "-90.07645159339715",
    "latitude": "30.004704472857355",
    "geocoded_column": {
      "latitude": "30.004704472857355",
      "longitude": "-90.07645159339715"
    }
  },
  {
    "service_request": "2022-938404",
    "request_type": "Trash/Recycling",
    "request_reason": "Order Recycling Cart",
    "date_created": "2022-11-04T22:37:15.000",
    "date_modified": "2022-11-04T22:37:15.000",
    "request_status": "Pending",
    "responsible_agency": "Department of Sanitation",
    "final_address": "5453 Royal St.",
    "address_councildis": "E",
    "status": "Pending",
    "rowid": "938404",
    "final_x": "3697087.44317",
    "final_y": "532448.069379",
    "longitude": "-90.01881744100828",
    "latitude": "29.957565069317845",
    "geocoded_column": {
      "latitude": "29.957565069317845",
      "longitude": "-90.01881744100828"
    }
  },
  {
    "service_request": "2022-938403",
    "request_type": "Trash/Recycling",
    "request_reason": "Replace Trash Cart",
    "date_created": "2022-11-04T22:37:07.000",
    "date_modified": "2022-11-04T22:37:07.000",
    "request_status": "Pending",
    "responsible_agency": "Department of Sanitation",
    "final_address": "2219 Lizardi St",
    "address_councildis": "E",
    "status": "Assigned to Contractor",
    "contractor": "Metro Disposal",
    "rowid": "938403",
    "final_x": "3697800.89232",
    "final_y": "538357.231625",
    "longitude": "-90.01635012861777",
    "latitude": "29.97379063170156",
    "geocoded_column": {
      "latitude": "29.97379063170156",
      "longitude": "-90.01635012861777"
    }
  },
  {
    "service_request": "2022-938402",
    "request_type": "Trash/Recycling",
    "request_reason": "Replace Recycling Cart",
    "date_created": "2022-11-04T22:35:30.000",
    "date_modified": "2022-11-04T22:35:30.000",
    "request_status": "Pending",
    "responsible_agency": "Department of Sanitation",
    "final_address": "2219 Lizardi St",
    "address_councildis": "E",
    "status": "Pending",
    "rowid": "938402",
    "final_x": "3697800.89232",
    "final_y": "538357.231625",
    "longitude": "-90.01635012861777",
    "latitude": "29.97379063170156",
    "geocoded_column": {
      "latitude": "29.97379063170156",
      "longitude": "-90.01635012861777"
    }
  },
  {
    "service_request": "2022-938401",
    "request_type": "Traffic Signals/Signs/Striping/Streetlights",
    "request_reason": "Street Light Outage/Malfunction",
    "date_created": "2022-11-04T22:21:49.000",
    "date_modified": "2022-11-04T22:21:50.000",
    "request_status": "Pending",
    "responsible_agency": "Department of Public Works",
    "final_address": "812 Greenwood St",
    "address_councildis": "A",
    "status": "Pending",
    "contractor": "Legacy Professional Services",
    "rowid": "938401",
    "final_x": "3668635.37671",
    "final_y": "542811.499021",
    "longitude": "-90.10831111309277",
    "latitude": "29.986927856347407",
    "geocoded_column": {
      "latitude": "29.986927856347407",
      "longitude": "-90.10831111309277"
    }
  },
  {
    "service_request": "2022-938400",
    "request_type": "Trash/Recycling",
    "request_reason": "Repair Trash Cart",
    "date_created": "2022-11-04T22:17:07.000",
    "date_modified": "2022-11-04T22:17:07.000",
    "request_status": "Pending",
    "responsible_agency": "Department of Sanitation",
    "final_address": "4308 Perlita St",
    "address_councildis": "D",
    "status": "Assigned to Contractor",
    "contractor": "Metro Disposal",
    "rowid": "938400",
    "final_x": "3678747.16443",
    "final_y": "548177.430162",
    "longitude": "-90.07618571007973",
    "latitude": "30.001381149697163",
    "geocoded_column": {
      "latitude": "30.001381149697163",
      "longitude": "-90.07618571007973"
    }
  },
  {
    "service_request": "2022-938399",
    "request_type": "Trash/Recycling",
    "request_reason": "Order Recycling Cart",
    "date_created": "2022-11-04T22:15:04.000",
    "date_modified": "2022-11-04T22:15:04.000",
    "request_status": "Pending",
    "responsible_agency": "Department of Sanitation",
    "final_address": "936 Kerlerec St",
    "address_councildis": "C",
    "status": "Pending",
    "rowid": "938399",
    "final_x": "3683419.21922",
    "final_y": "535309.31943",
    "longitude": "-90.06187735593969",
    "latitude": "29.965856601070723",
    "geocoded_column": {
      "latitude": "29.965856601070723",
      "longitude": "-90.06187735593969"
    }
  },
  {
    "service_request": "2022-938398",
    "request_type": "Roads/Drainage",
    "request_reason": "Street Subsidence (Sinking)",
    "date_created": "2022-11-04T22:09:42.000",
    "date_modified": "2022-11-04T22:09:42.000",
    "request_status": "Pending",
    "responsible_agency": "Department of Public Works",
    "final_address": "2000 Timoleon St",
    "address_councildis": "D",
    "status": "Pending",
    "rowid": "938398",
    "final_x": "3682408.96207",
    "final_y": "550955.809493",
    "longitude": "-90.06452057294865",
    "latitude": "30.008909717610756",
    "geocoded_column": {
      "latitude": "30.008909717610756",
      "longitude": "-90.06452057294865"
    }
  },
  {
    "service_request": "2022-938397",
    "request_type": "Trash/Recycling",
    "request_reason": "Repair Trash Cart",
    "date_created": "2022-11-04T22:06:31.000",
    "date_modified": "2022-11-04T22:06:31.000",
    "request_status": "Pending",
    "responsible_agency": "Department of Sanitation",
    "final_address": "5003 St Anthony Ave",
    "address_councildis": "D",
    "status": "Assigned to Contractor",
    "contractor": "Metro Disposal",
    "rowid": "938397",
    "final_x": "3682410.82677",
    "final_y": "551051.849685",
    "longitude": "-90.06451132186396",
    "latitude": "30.009173736637944",
    "geocoded_column": {
      "latitude": "30.009173736637944",
      "longitude": "-90.06451132186396"
    }
  },
  {
    "service_request": "2022-938396",
    "request_type": "Trash/Recycling",
    "request_reason": "Order Recycling Cart",
    "date_created": "2022-11-04T22:06:09.000",
    "date_modified": "2022-11-04T22:06:09.000",
    "request_status": "Pending",
    "responsible_agency": "Department of Sanitation",
    "final_address": "7324 Maple St",
    "address_councildis": "A",
    "status": "Pending",
    "rowid": "938396",
    "final_x": "3662928.07002",
    "final_y": "525585.735677",
    "longitude": "-90.12691136531795",
    "latitude": "29.939729181837507",
    "geocoded_column": {
      "latitude": "29.939729181837507",
      "longitude": "-90.12691136531795"
    }
  },
  {
    "service_request": "2022-938395",
    "request_type": "Trash/Recycling",
    "request_reason": "Request a Large Item Pick Up",
    "date_created": "2022-11-04T21:39:56.000",
    "date_modified": "2022-11-04T21:39:56.000",
    "request_status": "Pending",
    "responsible_agency": "Department of Sanitation",
    "final_address": "1527 Crete Street New Orleans LA 70119",
    "address_councildis": "A",
    "status": "Assigned to Contractor",
    "contractor": "Metro Disposal",
    "rowid": "938395",
    "final_x": "3677978.402",
    "final_y": "539908.676682",
    "longitude": "-90.07890027612537",
    "latitude": "29.978668140095067",
    "geocoded_column": {
      "latitude": "29.978668140095067",
      "longitude": "-90.07890027612537"
    }
  },
  {
    "service_request": "2022-938394",
    "request_type": "Trash/Recycling",
    "request_reason": "Order Recycling Cart",
    "date_created": "2022-11-04T21:39:16.000",
    "date_modified": "2022-11-04T21:39:16.000",
    "request_status": "Pending",
    "responsible_agency": "Department of Sanitation",
    "final_address": "4547 Paris Ave",
    "address_councildis": "D",
    "status": "Pending",
    "rowid": "938394",
    "final_x": "3679474.95663",
    "final_y": "549643.643604",
    "longitude": "-90.07383563396391",
    "latitude": "30.005390737943145",
    "geocoded_column": {
      "latitude": "30.005390737943145",
      "longitude": "-90.07383563396391"
    }
  },
  {
    "service_request": "2022-938393",
    "request_type": "Trash/Recycling",
    "request_reason": "Return Trash Cart",
    "date_created": "2022-11-04T21:36:59.000",
    "date_modified": "2022-11-04T21:36:59.000",
    "request_status": "Pending",
    "responsible_agency": "Department of Sanitation",
    "final_address": "3346 Trafalgar St",
    "address_councildis": "A",
    "status": "Assigned to Contractor",
    "contractor": "Metro Disposal",
    "rowid": "938393",
    "final_x": "3677751.58779",
    "final_y": "543145.697741",
    "longitude": "-90.07950476794628",
    "latitude": "29.987575650887152",
    "geocoded_column": {
      "latitude": "29.987575650887152",
      "longitude": "-90.07950476794628"
    }
  },
  {
    "service_request": "2022-938392",
    "request_type": "Trash/Recycling",
    "request_reason": "Order Recycling Cart",
    "date_created": "2022-11-04T21:28:41.000",
    "date_modified": "2022-11-04T21:28:41.000",
    "request_status": "Pending",
    "responsible_agency": "Department of Sanitation",
    "final_address": "2735 Lavender St",
    "address_councildis": "D",
    "status": "Pending",
    "rowid": "938392",
    "final_x": "3688087.78953",
    "final_y": "547049.425233",
    "longitude": "-90.04671790441529",
    "latitude": "29.997994455089565",
    "geocoded_column": {
      "latitude": "29.997994455089565",
      "longitude": "-90.04671790441529"
    }
  },
  {
    "service_request": "2022-938391",
    "request_type": "Health Related Questions",
    "request_reason": "Noise Ordinance Complaint",
    "date_created": "2022-11-04T21:27:03.000",
    "date_modified": "2022-11-04T21:27:04.000",
    "request_status": "Pending",
    "responsible_agency": "Health Department",
    "final_address": "1440 Moss St",
    "address_councildis": "A",
    "status": "Pending",
    "rowid": "938391",
    "final_x": "3674723.94702",
    "final_y": "541059.144716",
    "longitude": "-90.08913961859766",
    "latitude": "29.98192909791481",
    "geocoded_column": {
      "latitude": "29.98192909791481",
      "longitude": "-90.08913961859766"
    }
  },
  {
    "service_request": "2022-938390",
    "request_type": "Traffic Signals/Signs/Striping/Streetlights",
    "request_reason": "Street Light Outage/Malfunction",
    "date_created": "2022-11-04T21:24:16.000",
    "date_modified": "2022-11-04T21:24:17.000",
    "request_status": "Pending",
    "responsible_agency": "Department of Public Works",
    "final_address": "7548 Avalon Way",
    "address_councildis": "E",
    "status": "Pending",
    "contractor": "Legacy Professional Services",
    "rowid": "938390",
    "final_x": "3709167.65073",
    "final_y": "564259.161889",
    "longitude": "-89.9794852206957",
    "latitude": "30.044646844952634",
    "geocoded_column": {
      "latitude": "30.044646844952634",
      "longitude": "-89.9794852206957"
    }
  },
  {
    "service_request": "2022-938389",
    "request_type": "Trash/Recycling",
    "request_reason": "Order Recycling Cart",
    "date_created": "2022-11-04T21:24:07.000",
    "date_modified": "2022-11-04T21:24:07.000",
    "request_status": "Pending",
    "responsible_agency": "Department of Sanitation",
    "final_address": "7324 Edward St",
    "address_councildis": "E",
    "status": "Pending",
    "rowid": "938389",
    "final_x": "3701270.23498",
    "final_y": "560049.100957",
    "longitude": "-90.00459883736681",
    "latitude": "30.03332502711697",
    "geocoded_column": {
      "latitude": "30.03332502711697",
      "longitude": "-90.00459883736681"
    }
  },
  {
    "service_request": "2022-938388",
    "request_type": "Trash/Recycling",
    "request_reason": "Order Recycling Cart",
    "date_created": "2022-11-04T21:02:43.000",
    "date_modified": "2022-11-04T21:02:43.000",
    "request_status": "Pending",
    "responsible_agency": "Department of Sanitation",
    "final_address": "6865 Memphis St",
    "address_councildis": "A",
    "status": "Pending",
    "rowid": "938388",
    "final_x": "3669854.65569",
    "final_y": "553113.132631",
    "longitude": "-90.10411077565962",
    "latitude": "30.015217866492694",
    "geocoded_column": {
      "latitude": "30.015217866492694",
      "longitude": "-90.10411077565962"
    }
  },
  {
    "service_request": "2022-938387",
    "request_type": "Traffic Signals/Signs/Striping/Streetlights",
    "request_reason": "Street Name Sign Damaged or Missing",
    "date_created": "2022-11-04T20:46:32.000",
    "date_modified": "2022-11-04T20:46:32.000",
    "request_status": "Pending",
    "responsible_agency": "Department of Public Works",
    "final_address": "FRANCISCO VERRETT DR & BENTLEY DR & DWYER RD",
    "address_councildis": "E",
    "status": "Pending",
    "rowid": "938387",
    "final_x": "3704067.6",
    "final_y": "556360.08",
    "longitude": "-89.99589500987352",
    "latitude": "30.023092162167938",
    "geocoded_column": {
      "latitude": "30.023092162167938",
      "longitude": "-89.99589500987352"
    }
  },
  {
    "service_request": "2022-938386",
    "request_type": "Traffic Signals/Signs/Striping/Streetlights",
    "request_reason": "Additional signage",
    "date_created": "2022-11-04T20:43:04.000",
    "date_modified": "2022-11-04T20:43:04.000",
    "request_status": "Pending",
    "responsible_agency": "Department of Public Works",
    "final_address": "1900 Foucher St",
    "address_councildis": "B",
    "status": "Pending",
    "rowid": "938386",
    "final_x": "3673083.75105",
    "final_y": "522328.571898",
    "longitude": "-90.0949595252671",
    "latitude": "29.9304751192148",
    "geocoded_column": {
      "latitude": "29.9304751192148",
      "longitude": "-90.0949595252671"
    }
  },
  {
    "service_request": "2022-938385",
    "request_type": "Trash/Recycling",
    "request_reason": "Order Recycling Cart",
    "date_created": "2022-11-04T20:42:53.000",
    "date_modified": "2022-11-04T20:42:53.000",
    "request_status": "Pending",
    "responsible_agency": "Department of Sanitation",
    "final_address": "2121 Audubon St",
    "address_councildis": "A",
    "status": "Pending",
    "rowid": "938385",
    "final_x": "3666344.63802",
    "final_y": "529124.119232",
    "longitude": "-90.11600605544889",
    "latitude": "29.949359242015294",
    "geocoded_column": {
      "latitude": "29.949359242015294",
      "longitude": "-90.11600605544889"
    }
  },
  {
    "service_request": "2022-938384",
    "request_type": "Roads/Drainage",
    "request_reason": "Alley Way",
    "date_created": "2022-11-04T20:39:39.000",
    "date_modified": "2022-11-04T20:39:39.000",
    "request_status": "Pending",
    "responsible_agency": "Department of Public Works",
    "final_address": "5905 Colbert St",
    "address_councildis": "A",
    "status": "Pending",
    "rowid": "938384",
    "final_x": "3667429.39476",
    "final_y": "546803.156881",
    "longitude": "-90.11198599253267",
    "latitude": "29.99793894603237",
    "geocoded_column": {
      "latitude": "29.99793894603237",
      "longitude": "-90.11198599253267"
    }
  },
  {
    "service_request": "2022-938383",
    "request_type": "Roads/Drainage",
    "request_reason": "Street Subsidence (Sinking)",
    "date_created": "2022-11-04T20:35:25.000",
    "date_modified": "2022-11-04T20:35:25.000",
    "request_status": "Pending",
    "responsible_agency": "Department of Public Works",
    "final_address": "2649 Verbena St",
    "address_councildis": "D",
    "status": "Pending",
    "rowid": "938383",
    "final_x": "3687404.17596",
    "final_y": "547859.623698",
    "longitude": "-90.04884873328423",
    "latitude": "30.00024329647712",
    "geocoded_column": {
      "latitude": "30.00024329647712",
      "longitude": "-90.04884873328423"
    }
  },
  {
    "service_request": "2022-938382",
    "request_type": "Trash/Recycling",
    "request_reason": "Order Recycling Cart",
    "date_created": "2022-11-04T20:27:52.000",
    "date_modified": "2022-11-04T20:27:52.000",
    "request_status": "Pending",
    "responsible_agency": "Department of Sanitation",
    "final_address": "4331 Alba Rd",
    "address_councildis": "E",
    "status": "Pending",
    "rowid": "938382",
    "final_x": "3761683.41193",
    "final_y": "572677.352809",
    "longitude": "-89.81316264578797",
    "latitude": "30.065982354177578",
    "geocoded_column": {
      "latitude": "30.065982354177578",
      "longitude": "-89.81316264578797"
    }
  },
  {
    "service_request": "2022-938381",
    "request_type": "Traffic Signals/Signs/Striping/Streetlights",
    "request_reason": "Street Light Outage/Malfunction",
    "date_created": "2022-11-04T20:25:25.000",
    "date_modified": "2022-11-04T20:25:26.000",
    "request_status": "Pending",
    "responsible_agency": "Department of Public Works",
    "final_address": "2633 N Rocheblave St",
    "address_councildis": "D",
    "status": "Pending",
    "contractor": "Legacy Professional Services",
    "rowid": "938381",
    "final_x": "3686718.43228",
    "final_y": "541295.186636",
    "longitude": "-90.05124706319656",
    "latitude": "29.982214561984502",
    "geocoded_column": {
      "latitude": "29.982214561984502",
      "longitude": "-90.05124706319656"
    }
  },
  {
    "service_request": "2022-938380",
    "request_type": "Trash/Recycling",
    "request_reason": "Missed Trash Pick-Up",
    "date_created": "2022-11-04T20:24:27.000",
    "date_modified": "2022-11-04T20:24:27.000",
    "request_status": "Pending",
    "responsible_agency": "Department of Sanitation",
    "final_address": "1223 Philip St",
    "address_councildis": "B",
    "status": "Assigned to Contractor",
    "contractor": "Richards Disposal",
    "rowid": "938380",
    "final_x": "3678211.73205",
    "final_y": "522329.680826",
    "longitude": "-90.07877122329332",
    "latitude": "29.93032478286037",
    "geocoded_column": {
      "latitude": "29.93032478286037",
      "longitude": "-90.07877122329332"
    }
  },
  {
    "service_request": "2022-938379",
    "request_type": "Traffic Signals/Signs/Striping/Streetlights",
    "request_reason": "Street Light Outage/Malfunction",
    "date_created": "2022-11-04T20:16:35.000",
    "date_modified": "2022-11-04T20:16:36.000",
    "request_status": "Pending",
    "responsible_agency": "Department of Public Works",
    "final_address": "4920 Tynecastle Dr",
    "address_councildis": "E",
    "status": "Pending",
    "contractor": "Legacy Professional Services",
    "rowid": "938379",
    "final_x": "3718349.73945",
    "final_y": "557963.992347",
    "longitude": "-89.95070599634936",
    "latitude": "30.02703617608389",
    "geocoded_column": {
      "latitude": "30.02703617608389",
      "longitude": "-89.95070599634936"
    }
  },
  {
    "service_request": "2022-938378",
    "request_type": "Trash/Recycling",
    "request_reason": "Order Recycling Cart",
    "date_created": "2022-11-04T20:12:13.000",
    "date_modified": "2022-11-04T20:12:13.000",
    "request_status": "Pending",
    "responsible_agency": "Department of Sanitation",
    "final_address": "6623 Foch Rd",
    "address_councildis": "D",
    "status": "Pending",
    "rowid": "938378",
    "final_x": "3696980.26282",
    "final_y": "555705.460121",
    "longitude": "-90.01831305289907",
    "latitude": "30.021517762753394",
    "geocoded_column": {
      "latitude": "30.021517762753394",
      "longitude": "-90.01831305289907"
    }
  },
  {
    "service_request": "2022-938377",
    "request_type": "Roads/Drainage",
    "request_reason": "Pothole",
    "date_created": "2022-11-04T20:07:01.000",
    "date_modified": "2022-11-04T20:07:01.000",
    "request_status": "Pending",
    "responsible_agency": "Department of Public Works",
    "final_address": "2911 Calhoun St",
    "address_councildis": "A",
    "status": "Pending",
    "rowid": "938377",
    "final_x": "3666810.93345",
    "final_y": "527336.082495",
    "longitude": "-90.1145937956294",
    "latitude": "29.944429090135536",
    "geocoded_column": {
      "latitude": "29.944429090135536",
      "longitude": "-90.1145937956294"
    }
  },
  {
    "service_request": "2022-938376",
    "request_type": "Trash/Recycling",
    "request_reason": "Request a Large Item Pick Up",
    "date_created": "2022-11-04T20:01:48.000",
    "date_modified": "2022-11-04T20:01:49.000",
    "request_status": "Pending",
    "responsible_agency": "Department of Sanitation",
    "final_address": "6971 Vicksburg St",
    "address_councildis": "A",
    "status": "Assigned to Contractor",
    "contractor": "Metro Disposal",
    "rowid": "938376",
    "final_x": "3669531.7801",
    "final_y": "553844.255319",
    "longitude": "-90.10510615297497",
    "latitude": "30.01723771505147",
    "geocoded_column": {
      "latitude": "30.01723771505147",
      "longitude": "-90.10510615297497"
    }
  },
  {
    "service_request": "2022-938375",
    "request_type": "Roads/Drainage",
    "request_reason": "Catch Basin - Clogged",
    "date_created": "2022-11-04T20:01:07.000",
    "date_modified": "2022-11-04T20:01:07.000",
    "request_status": "Pending",
    "responsible_agency": "Department of Public Works",
    "final_address": "2432 Calhoun St",
    "address_councildis": "A",
    "status": "Pending",
    "rowid": "938375",
    "final_x": "3666097.5872",
    "final_y": "525961.728061",
    "longitude": "-90.11689211127167",
    "latitude": "29.940670900667335",
    "geocoded_column": {
      "latitude": "29.940670900667335",
      "longitude": "-90.11689211127167"
    }
  },
  {
    "service_request": "2022-938374",
    "request_type": "Trash/Recycling",
    "request_reason": "Replace Trash Cart",
    "date_created": "2022-11-04T19:54:19.000",
    "date_modified": "2022-11-04T19:54:20.000",
    "request_status": "Pending",
    "responsible_agency": "Department of Sanitation",
    "final_address": "2513 Lavender St",
    "address_councildis": "D",
    "status": "Assigned to Contractor",
    "contractor": "Metro Disposal",
    "rowid": "938374",
    "final_x": "3686470.01154",
    "final_y": "546929.145681",
    "longitude": "-90.05183267923907",
    "latitude": "29.997713578665405",
    "geocoded_column": {
      "latitude": "29.997713578665405",
      "longitude": "-90.05183267923907"
    }
  },
  {
    "service_request": "2022-938373",
    "request_type": "Abandoned Vehicles",
    "request_reason": "Abandoned/Junk Vehicles",
    "date_created": "2022-11-04T19:51:27.000",
    "date_modified": "2022-11-04T19:51:28.000",
    "request_status": "Pending",
    "responsible_agency": "Department of Public Works",
    "final_address": "4316 Baronne St",
    "address_councildis": "B",
    "status": "Pending",
    "rowid": "938373",
    "final_x": "3671020.40827",
    "final_y": "521587.044281",
    "longitude": "-90.10149836738734",
    "latitude": "29.92849731176201",
    "geocoded_column": {
      "latitude": "29.92849731176201",
      "longitude": "-90.10149836738734"
    }
  },
  {
    "service_request": "2022-938372",
    "request_type": "Roads/Drainage",
    "request_reason": "Pothole",
    "date_created": "2022-11-04T19:48:12.000",
    "date_modified": "2022-11-04T19:48:12.000",
    "request_status": "Pending",
    "responsible_agency": "Department of Public Works",
    "final_address": "6216 Clara St",
    "address_councildis": "A",
    "status": "Pending",
    "rowid": "938372",
    "final_x": "3666168.56801",
    "final_y": "525597.401021",
    "longitude": "-90.11668022514435",
    "latitude": "29.939667045970275",
    "geocoded_column": {
      "latitude": "29.939667045970275",
      "longitude": "-90.11668022514435"
    }
  },
  {
    "service_request": "2022-938371",
    "request_type": "Traffic Signals/Signs/Striping/Streetlights",
    "request_reason": "Request for Stop Sign",
    "date_created": "2022-11-04T19:35:11.000",
    "date_modified": "2022-11-04T19:35:11.000",
    "request_status": "Pending",
    "responsible_agency": "Department of Public Works",
    "final_address": "11101 N Forest Park Ct",
    "address_councildis": "E",
    "status": "Pending",
    "rowid": "938371",
    "final_x": "3716548.27679",
    "final_y": "558606.18518",
    "longitude": "-89.95637399438196",
    "latitude": "30.02886159608946",
    "geocoded_column": {
      "latitude": "30.02886159608946",
      "longitude": "-89.95637399438196"
    }
  },
  {
    "service_request": "2022-938370",
    "request_type": "Abandoned Vehicles",
    "request_reason": "Vehicle Blocking Your Driveway",
    "date_created": "2022-11-04T19:34:52.000",
    "date_modified": "2022-11-04T19:34:52.000",
    "request_status": "Pending",
    "responsible_agency": "Department of Public Works",
    "final_address": "6944 Canal Blvd",
    "address_councildis": "A",
    "status": "Pending",
    "rowid": "938370",
    "final_x": "3668928.68999",
    "final_y": "553708.224151",
    "longitude": "-90.10701627905587",
    "latitude": "30.016881438818114",
    "geocoded_column": {
      "latitude": "30.016881438818114",
      "longitude": "-90.10701627905587"
    }
  },
  {
    "service_request": "2022-938369",
    "request_type": "Trash/Recycling",
    "request_reason": "Order Recycling Cart",
    "date_created": "2022-11-04T19:33:58.000",
    "date_modified": "2022-11-04T19:33:58.000",
    "request_status": "Pending",
    "responsible_agency": "Department of Sanitation",
    "final_address": "1531 Mazant St",
    "address_councildis": "D",
    "status": "Pending",
    "rowid": "938369",
    "final_x": "3692585.38544",
    "final_y": "536963.400264",
    "longitude": "-90.03287173354697",
    "latitude": "29.970121887134447",
    "geocoded_column": {
      "latitude": "29.970121887134447",
      "longitude": "-90.03287173354697"
    }
  },
  {
    "service_request": "2022-938368",
    "request_type": "Trash/Recycling",
    "request_reason": "Order Recycling Cart",
    "date_created": "2022-11-04T19:26:17.000",
    "date_modified": "2022-11-04T19:26:17.000",
    "request_status": "Pending",
    "responsible_agency": "Department of Sanitation",
    "final_address": "2617 Republic St",
    "address_councildis": "D",
    "status": "Pending",
    "rowid": "938368",
    "final_x": "3680798.07394",
    "final_y": "541750.905484",
    "longitude": "-90.06993054984088",
    "latitude": "29.983648446893113",
    "geocoded_column": {
      "latitude": "29.983648446893113",
      "longitude": "-90.06993054984088"
    }
  },
  {
    "service_request": "2022-938367",
    "request_type": "Trash/Recycling",
    "request_reason": "Order Recycling Cart",
    "date_created": "2022-11-04T19:22:33.000",
    "date_modified": "2022-11-04T19:22:33.000",
    "request_status": "Pending",
    "responsible_agency": "Department of Sanitation",
    "final_address": "11121 N Forest Park Ct",
    "address_councildis": "E",
    "status": "Pending",
    "rowid": "938367",
    "final_x": "3716643.64709",
    "final_y": "558685.647324",
    "longitude": "-89.95606961324289",
    "latitude": "30.029076933584196",
    "geocoded_column": {
      "latitude": "30.029076933584196",
      "longitude": "-89.95606961324289"
    }
  },
  {
    "service_request": "2022-938366",
    "request_type": "Trash/Recycling",
    "request_reason": "Repair Trash Cart",
    "date_created": "2022-11-04T19:22:17.000",
    "date_modified": "2022-11-04T19:22:18.000",
    "request_status": "Pending",
    "responsible_agency": "Department of Sanitation",
    "final_address": "2821 Dumaine St",
    "address_councildis": "A",
    "status": "Assigned to Contractor",
    "contractor": "Richards Disposal",
    "rowid": "938366",
    "final_x": "3676575.04277",
    "final_y": "538005.616009",
    "longitude": "-90.08339817808734",
    "latitude": "29.97347754598216",
    "geocoded_column": {
      "latitude": "29.97347754598216",
      "longitude": "-90.08339817808734"
    }
  },
  {
    "service_request": "2022-938365",
    "request_type": "Trash/Recycling",
    "request_reason": "Repair Recycling Cart",
    "date_created": "2022-11-04T19:21:19.000",
    "date_modified": "2022-11-04T19:21:19.000",
    "request_status": "Pending",
    "responsible_agency": "Department of Sanitation",
    "final_address": "2821 Dumaine St",
    "address_councildis": "A",
    "status": "Pending",
    "rowid": "938365",
    "final_x": "3676575.04277",
    "final_y": "538005.616009",
    "longitude": "-90.08339817808734",
    "latitude": "29.97347754598216",
    "geocoded_column": {
      "latitude": "29.97347754598216",
      "longitude": "-90.08339817808734"
    }
  },
  {
    "service_request": "2022-938364",
    "request_type": "Trash/Recycling",
    "request_reason": "Order Recycling Cart",
    "date_created": "2022-11-04T19:21:14.000",
    "date_modified": "2022-11-04T19:21:14.000",
    "request_status": "Pending",
    "responsible_agency": "Department of Sanitation",
    "final_address": "11101 N Forest Park Ct",
    "address_councildis": "E",
    "status": "Pending",
    "rowid": "938364",
    "final_x": "3716548.27679",
    "final_y": "558606.18518",
    "longitude": "-89.95637399438196",
    "latitude": "30.02886159608946",
    "geocoded_column": {
      "latitude": "30.02886159608946",
      "longitude": "-89.95637399438196"
    }
  },
  {
    "service_request": "2022-938363",
    "request_type": "Trash/Recycling",
    "request_reason": "Request a Large Item Pick Up",
    "date_created": "2022-11-04T19:19:46.000",
    "date_modified": "2022-11-04T19:19:47.000",
    "request_status": "Pending",
    "responsible_agency": "Department of Sanitation",
    "final_address": "2821 Dumaine St",
    "address_councildis": "A",
    "status": "Assigned to Contractor",
    "contractor": "Richards Disposal",
    "rowid": "938363",
    "final_x": "3676575.04277",
    "final_y": "538005.616009",
    "longitude": "-90.08339817808734",
    "latitude": "29.97347754598216",
    "geocoded_column": {
      "latitude": "29.97347754598216",
      "longitude": "-90.08339817808734"
    }
  },
  {
    "service_request": "2022-938362",
    "request_type": "Trash/Recycling",
    "request_reason": "Repair Trash Cart",
    "date_created": "2022-11-04T19:16:59.000",
    "date_modified": "2022-11-04T19:17:00.000",
    "request_status": "Pending",
    "responsible_agency": "Department of Sanitation",
    "final_address": "819 Spain St",
    "address_councildis": "C",
    "status": "Assigned to Contractor",
    "contractor": "Metro Disposal",
    "rowid": "938362",
    "final_x": "3686240.42646",
    "final_y": "535479.953542",
    "longitude": "-90.05296207231767",
    "latitude": "29.966239406350052",
    "geocoded_column": {
      "latitude": "29.966239406350052",
      "longitude": "-90.05296207231767"
    }
  },
  {
    "service_request": "2022-938361",
    "request_type": "Trash/Recycling",
    "request_reason": "Replace Trash Cart",
    "date_created": "2022-11-04T19:14:28.000",
    "date_modified": "2022-11-04T19:14:28.000",
    "request_status": "Pending",
    "responsible_agency": "Department of Sanitation",
    "final_address": "6047 General Diaz St",
    "address_councildis": "A",
    "status": "Assigned to Contractor",
    "contractor": "Metro Disposal",
    "rowid": "938361",
    "final_x": "3669631.45761",
    "final_y": "547555.54165",
    "longitude": "-90.10500421380162",
    "latitude": "29.999943020524483",
    "geocoded_column": {
      "latitude": "29.999943020524483",
      "longitude": "-90.10500421380162"
    }
  },
  {
    "service_request": "2022-938360",
    "request_type": "Trash/Recycling",
    "request_reason": "Illegal Dumping",
    "date_created": "2022-11-04T19:12:40.000",
    "date_modified": "2022-11-04T19:12:40.000",
    "request_status": "Pending",
    "responsible_agency": "Department of Sanitation",
    "final_address": "8230 Fig St",
    "address_councildis": "A",
    "status": "Pending",
    "rowid": "938360",
    "final_x": "3665828.50426",
    "final_y": "533517.787588",
    "longitude": "-90.11748852289567",
    "latitude": "29.96145546407282",
    "geocoded_column": {
      "latitude": "29.96145546407282",
      "longitude": "-90.11748852289567"
    }
  },
  {
    "service_request": "2022-938359",
    "request_type": "Trash/Recycling",
    "request_reason": "Order Recycling Cart",
    "date_created": "2022-11-04T19:10:46.000",
    "date_modified": "2022-11-04T19:10:46.000",
    "request_status": "Pending",
    "responsible_agency": "Department of Sanitation",
    "final_address": "5510 Lafaye St",
    "address_councildis": "D",
    "status": "Pending",
    "rowid": "938359",
    "final_x": "3687228.51503",
    "final_y": "553434.480279",
    "longitude": "-90.04920628768272",
    "latitude": "30.015577529623684",
    "geocoded_column": {
      "latitude": "30.015577529623684",
      "longitude": "-90.04920628768272"
    }
  },
  {
    "service_request": "2022-938358",
    "request_type": "Trash/Recycling",
    "request_reason": "Replace Trash Cart",
    "date_created": "2022-11-04T19:09:37.000",
    "date_modified": "2022-11-04T19:09:37.000",
    "request_status": "Pending",
    "responsible_agency": "Department of Sanitation",
    "final_address": "58 Flamingo St",
    "address_councildis": "D",
    "status": "Assigned to Contractor",
    "contractor": "Metro Disposal",
    "rowid": "938358",
    "final_x": "3674603.10203",
    "final_y": "555707.048089",
    "longitude": "-90.08901889398014",
    "latitude": "30.022209281061098",
    "geocoded_column": {
      "latitude": "30.022209281061098",
      "longitude": "-90.08901889398014"
    }
  },
  {
    "service_request": "2022-938357",
    "request_type": "Trash/Recycling",
    "request_reason": "Order Recycling Cart",
    "date_created": "2022-11-04T19:08:09.000",
    "date_modified": "2022-11-04T19:08:09.000",
    "request_status": "Pending",
    "responsible_agency": "Department of Sanitation",
    "final_address": "58 Flamingo St",
    "address_councildis": "D",
    "status": "Pending",
    "rowid": "938357",
    "final_x": "3674603.10203",
    "final_y": "555707.048089",
    "longitude": "-90.08901889398014",
    "latitude": "30.022209281061098",
    "geocoded_column": {
      "latitude": "30.022209281061098",
      "longitude": "-90.08901889398014"
    }
  },
  {
    "service_request": "2022-938356",
    "request_type": "Trash/Recycling",
    "request_reason": "Order Recycling Cart",
    "date_created": "2022-11-04T19:06:20.000",
    "date_modified": "2022-11-04T19:06:20.000",
    "request_status": "Pending",
    "responsible_agency": "Department of Sanitation",
    "final_address": "4656 Kendall Dr",
    "address_councildis": "D",
    "status": "Pending",
    "rowid": "938356",
    "final_x": "3690359.23932",
    "final_y": "550666.349076",
    "longitude": "-90.0394134290745",
    "latitude": "30.00786934736012",
    "geocoded_column": {
      "latitude": "30.00786934736012",
      "longitude": "-90.0394134290745"
    }
  },
  {
    "service_request": "2022-938355",
    "request_type": "Trash/Recycling",
    "request_reason": "Repair Trash Cart",
    "date_created": "2022-11-04T19:02:41.000",
    "date_modified": "2022-11-04T19:02:42.000",
    "request_status": "Pending",
    "responsible_agency": "Department of Sanitation",
    "final_address": "6356 Pauline Dr",
    "address_councildis": "D",
    "status": "Assigned to Contractor",
    "contractor": "Metro Disposal",
    "rowid": "938355",
    "final_x": "3691124.76476",
    "final_y": "557124.052314",
    "longitude": "-90.0367640598159",
    "latitude": "30.025601835462595",
    "geocoded_column": {
      "latitude": "30.025601835462595",
      "longitude": "-90.0367640598159"
    }
  },
  {
    "service_request": "2022-938354",
    "request_type": "Trash/Recycling",
    "request_reason": "Order Recycling Cart",
    "date_created": "2022-11-04T19:02:15.000",
    "date_modified": "2022-11-04T19:02:16.000",
    "request_status": "Pending",
    "responsible_agency": "Department of Sanitation",
    "final_address": "6356 Pauline Dr",
    "address_councildis": "D",
    "status": "Pending",
    "rowid": "938354",
    "final_x": "3691124.76476",
    "final_y": "557124.052314",
    "longitude": "-90.0367640598159",
    "latitude": "30.025601835462595",
    "geocoded_column": {
      "latitude": "30.025601835462595",
      "longitude": "-90.0367640598159"
    }
  },
  {
    "service_request": "2022-938353",
    "request_type": "Trash/Recycling",
    "request_reason": "Order Recycling Cart",
    "date_created": "2022-11-04T18:56:09.000",
    "date_modified": "2022-11-04T18:56:09.000",
    "request_status": "Pending",
    "responsible_agency": "Department of Sanitation",
    "final_address": "4619 Press Dr",
    "address_councildis": "D",
    "status": "Pending",
    "rowid": "938353",
    "final_x": "3689833.94307",
    "final_y": "550290.986452",
    "longitude": "-90.0410863650596",
    "latitude": "30.006853537843377",
    "geocoded_column": {
      "latitude": "30.006853537843377",
      "longitude": "-90.0410863650596"
    }
  },
  {
    "service_request": "2022-938352",
    "request_type": "Trash/Recycling",
    "request_reason": "Order Recycling Cart",
    "date_created": "2022-11-04T18:50:23.000",
    "date_modified": "2022-11-04T18:50:23.000",
    "request_status": "Pending",
    "responsible_agency": "Department of Sanitation",
    "final_address": "1225 Kerlerec St",
    "address_councildis": "C",
    "status": "Pending",
    "rowid": "938352",
    "final_x": "3682662.45903",
    "final_y": "535999.602567",
    "longitude": "-90.06424303404614",
    "latitude": "29.967777709704627",
    "geocoded_column": {
      "latitude": "29.967777709704627",
      "longitude": "-90.06424303404614"
    }
  },
  {
    "service_request": "2022-938351",
    "request_type": "Trash/Recycling",
    "request_reason": "Order Recycling Cart",
    "date_created": "2022-11-04T18:49:42.000",
    "date_modified": "2022-11-04T18:49:42.000",
    "request_status": "Pending",
    "responsible_agency": "Department of Sanitation",
    "final_address": "4843 Savoie Ct",
    "address_councildis": "E",
    "status": "Pending",
    "rowid": "938351",
    "final_x": "3725385.92819",
    "final_y": "561121.27939",
    "longitude": "-89.92835030657314",
    "latitude": "30.03548209765154",
    "geocoded_column": {
      "latitude": "30.03548209765154",
      "longitude": "-89.92835030657314"
    }
  },
  {
    "service_request": "2022-938350",
    "request_type": "Trash/Recycling",
    "request_reason": "Missed Trash Pick-Up",
    "date_created": "2022-11-04T18:38:18.000",
    "date_modified": "2022-11-04T18:38:18.000",
    "request_status": "Pending",
    "responsible_agency": "Department of Sanitation",
    "final_address": "1451 Filmore Ave",
    "address_councildis": "D",
    "status": "Assigned to Contractor",
    "contractor": "Metro Disposal",
    "rowid": "938350",
    "final_x": "3677890.92354",
    "final_y": "551907.07535",
    "longitude": "-90.07876165181804",
    "latitude": "30.01166214630129",
    "geocoded_column": {
      "latitude": "30.01166214630129",
      "longitude": "-90.07876165181804"
    }
  },
  {
    "service_request": "2022-938349",
    "request_type": "Trash/Recycling",
    "request_reason": "Order Recycling Cart",
    "date_created": "2022-11-04T18:32:57.000",
    "date_modified": "2022-11-04T18:32:57.000",
    "request_status": "Pending",
    "responsible_agency": "Department of Sanitation",
    "final_address": "7040 Queensway Dr",
    "address_councildis": "E",
    "status": "Pending",
    "rowid": "938349",
    "final_x": "3719116.17004",
    "final_y": "569416.064678",
    "longitude": "-89.94784662236164",
    "latitude": "30.058499242565798",
    "geocoded_column": {
      "latitude": "30.058499242565798",
      "longitude": "-89.94784662236164"
    }
  },
  {
    "service_request": "2022-938348",
    "request_type": "Trash/Recycling",
    "request_reason": "Order Recycling Cart",
    "date_created": "2022-11-04T18:32:11.000",
    "date_modified": "2022-11-04T18:32:11.000",
    "request_status": "Pending",
    "responsible_agency": "Department of Sanitation",
    "final_address": "2702 Allen Toussaint Blvd",
    "address_councildis": "D",
    "status": "Pending",
    "rowid": "938348",
    "final_x": "3687120.41993",
    "final_y": "555951.103961",
    "longitude": "-90.04945872549564",
    "latitude": "30.022500644390533",
    "geocoded_column": {
      "latitude": "30.022500644390533",
      "longitude": "-90.04945872549564"
    }
  },
  {
    "service_request": "2022-938347",
    "request_type": "Trash/Recycling",
    "request_reason": "Order Recycling Cart",
    "date_created": "2022-11-04T18:28:17.000",
    "date_modified": "2022-11-04T18:28:17.000",
    "request_status": "Pending",
    "responsible_agency": "Department of Sanitation",
    "final_address": "11521 Morrison Rd",
    "address_councildis": "E",
    "status": "Pending",
    "rowid": "938347",
    "final_x": "3712607.0083",
    "final_y": "566083.674275",
    "longitude": "-89.96854669109283",
    "latitude": "30.04955133038131",
    "geocoded_column": {
      "latitude": "30.04955133038131",
      "longitude": "-89.96854669109283"
    }
  },
  {
    "service_request": "2022-938346",
    "request_type": "Trash/Recycling",
    "request_reason": "Order Recycling Cart",
    "date_created": "2022-11-04T18:28:09.000",
    "date_modified": "2022-11-04T18:28:09.000",
    "request_status": "Pending",
    "responsible_agency": "Department of Sanitation",
    "final_address": "2534 Jasmine St",
    "address_councildis": "D",
    "status": "Pending",
    "rowid": "938346",
    "final_x": "3686531.3597",
    "final_y": "548008.211474",
    "longitude": "-90.05160075225177",
    "latitude": "30.00067873347891",
    "geocoded_column": {
      "latitude": "30.00067873347891",
      "longitude": "-90.05160075225177"
    }
  },
  {
    "service_request": "2022-938345",
    "request_type": "Trash/Recycling",
    "request_reason": "Replace Trash Cart",
    "date_created": "2022-11-04T18:27:55.000",
    "date_modified": "2022-11-04T18:27:56.000",
    "request_status": "Pending",
    "responsible_agency": "Department of Sanitation",
    "final_address": "610 Filmore Ave, New Orleans, Louisiana, 70124",
    "address_councildis": "A",
    "status": "Assigned to Contractor",
    "contractor": "Metro Disposal",
    "rowid": "938345",
    "final_x": "3668637.87732",
    "final_y": "551965.69359",
    "longitude": "-90.10799400548107",
    "latitude": "30.01209864882097",
    "geocoded_column": {
      "latitude": "30.01209864882097",
      "longitude": "-90.10799400548107"
    }
  },
  {
    "service_request": "2022-938344",
    "request_type": "Trash/Recycling",
    "request_reason": "Order Recycling Cart",
    "date_created": "2022-11-04T18:26:49.000",
    "date_modified": "2022-11-04T18:26:49.000",
    "request_status": "Pending",
    "responsible_agency": "Department of Sanitation",
    "final_address": "7606 Briarwood Dr",
    "address_councildis": "E",
    "status": "Pending",
    "rowid": "938344",
    "final_x": "3717601.57119",
    "final_y": "570693.763239",
    "longitude": "-89.95258539685423",
    "latitude": "30.06206265117319",
    "geocoded_column": {
      "latitude": "30.06206265117319",
      "longitude": "-89.95258539685423"
    }
  },
  {
    "service_request": "2022-938342",
    "request_type": "Trash/Recycling",
    "request_reason": "Order Recycling Cart",
    "date_created": "2022-11-04T18:19:32.000",
    "date_modified": "2022-11-04T18:19:32.000",
    "request_status": "Pending",
    "responsible_agency": "Department of Sanitation",
    "final_address": "7511 Onyx St",
    "address_councildis": "D",
    "status": "Pending",
    "rowid": "938342",
    "final_x": "3669049.89588",
    "final_y": "556465.618138",
    "longitude": "-90.10654004039422",
    "latitude": "30.024459724459277",
    "geocoded_column": {
      "latitude": "30.024459724459277",
      "longitude": "-90.10654004039422"
    }
  },
  {
    "service_request": "2022-938341",
    "request_type": "Trash/Recycling",
    "request_reason": "Replace Trash Cart",
    "date_created": "2022-11-04T18:16:17.000",
    "date_modified": "2022-11-04T18:16:18.000",
    "request_status": "Pending",
    "responsible_agency": "Department of Sanitation",
    "final_address": "1912 Onzaga St",
    "address_councildis": "D",
    "status": "Assigned to Contractor",
    "contractor": "Metro Disposal",
    "rowid": "938341",
    "final_x": "3681445.12213",
    "final_y": "538763.075401",
    "longitude": "-90.0679910431813",
    "latitude": "29.975413322552438",
    "geocoded_column": {
      "latitude": "29.975413322552438",
      "longitude": "-90.0679910431813"
    }
  },
  {
    "service_request": "2022-938340",
    "request_type": "Trash/Recycling",
    "request_reason": "Order Recycling Cart",
    "date_created": "2022-11-04T18:14:40.000",
    "date_modified": "2022-11-04T18:14:40.000",
    "request_status": "Pending",
    "responsible_agency": "Department of Sanitation",
    "final_address": "6318 St Roch Ave",
    "address_councildis": "D",
    "status": "Pending",
    "rowid": "938340",
    "final_x": "3684735.78108",
    "final_y": "556448.228122",
    "longitude": "-90.05697610554044",
    "latitude": "30.023940804063226",
    "geocoded_column": {
      "latitude": "30.023940804063226",
      "longitude": "-90.05697610554044"
    }
  },
  {
    "service_request": "2022-938339",
    "request_type": "Trash/Recycling",
    "request_reason": "Missed Trash Pick-Up",
    "date_created": "2022-11-04T18:13:33.000",
    "date_modified": "2022-11-04T18:13:34.000",
    "request_status": "Pending",
    "responsible_agency": "Department of Sanitation",
    "final_address": "8136 Hampson St",
    "address_councildis": "A",
    "status": "Assigned to Contractor",
    "contractor": "Richards Disposal",
    "rowid": "938339",
    "final_x": "3660570.14003",
    "final_y": "527259.897791",
    "longitude": "-90.13430041453564",
    "latitude": "29.94440064964879",
    "geocoded_column": {
      "latitude": "29.94440064964879",
      "longitude": "-90.13430041453564"
    }
  },
  {
    "service_request": "2022-938338",
    "request_type": "Trash/Recycling",
    "request_reason": "Order Recycling Cart",
    "date_created": "2022-11-04T18:08:54.000",
    "date_modified": "2022-11-04T18:08:54.000",
    "request_status": "Pending",
    "responsible_agency": "Department of Sanitation",
    "final_address": "5549 St Ferdinand Dr",
    "address_councildis": "D",
    "status": "Pending",
    "rowid": "938338",
    "final_x": "3688690.33763",
    "final_y": "553781.592215",
    "longitude": "-90.04457527601303",
    "latitude": "30.016486832306505",
    "geocoded_column": {
      "latitude": "30.016486832306505",
      "longitude": "-90.04457527601303"
    }
  },
  {
    "service_request": "2022-938337",
    "request_type": "Trash/Recycling",
    "request_reason": "Order Recycling Cart",
    "date_created": "2022-11-04T18:06:59.000",
    "date_modified": "2022-11-04T18:06:59.000",
    "request_status": "Pending",
    "responsible_agency": "Department of Sanitation",
    "final_address": "4515 Charlene Dr",
    "address_councildis": "E",
    "status": "Pending",
    "rowid": "938337",
    "final_x": "3708115.79998",
    "final_y": "554156.404824",
    "longitude": "-89.98318575028601",
    "latitude": "30.016902367597588",
    "geocoded_column": {
      "latitude": "30.016902367597588",
      "longitude": "-89.98318575028601"
    }
  },
  {
    "service_request": "2022-938336",
    "request_type": "Trash/Recycling",
    "request_reason": "Repair Recycling Cart",
    "date_created": "2022-11-04T18:01:18.000",
    "date_modified": "2022-11-04T18:01:19.000",
    "request_status": "Pending",
    "responsible_agency": "Department of Sanitation",
    "final_address": "7820 Zimple St",
    "address_councildis": "A",
    "status": "Pending",
    "rowid": "938336",
    "final_x": "3662439.94765",
    "final_y": "527420.133247",
    "longitude": "-90.12839154236796",
    "latitude": "29.944787313226907",
    "geocoded_column": {
      "latitude": "29.944787313226907",
      "longitude": "-90.12839154236796"
    }
  },
  {
    "service_request": "2022-938335",
    "request_type": "Trash/Recycling",
    "request_reason": "Repair Trash Cart",
    "date_created": "2022-11-04T17:59:34.000",
    "date_modified": "2022-11-04T17:59:34.000",
    "request_status": "Pending",
    "responsible_agency": "Department of Sanitation",
    "final_address": "2056 N Miro St",
    "address_councildis": "D",
    "status": "Assigned to Contractor",
    "contractor": "Metro Disposal",
    "rowid": "938335",
    "final_x": "3683692.6678",
    "final_y": "540205.568843",
    "longitude": "-90.06084210292752",
    "latitude": "29.97931123901851",
    "geocoded_column": {
      "latitude": "29.97931123901851",
      "longitude": "-90.06084210292752"
    }
  },
  {
    "service_request": "2022-938334",
    "request_type": "Trash/Recycling",
    "request_reason": "Order Recycling Cart",
    "date_created": "2022-11-04T17:58:49.000",
    "date_modified": "2022-11-04T17:58:49.000",
    "request_status": "Pending",
    "responsible_agency": "Department of Sanitation",
    "final_address": "7501 W Sandy Cove Dr",
    "address_councildis": "E",
    "status": "Pending",
    "rowid": "938334",
    "final_x": "3715473.3205",
    "final_y": "568983.529446",
    "longitude": "-89.95937757581234",
    "latitude": "30.057430558671353",
    "geocoded_column": {
      "latitude": "30.057430558671353",
      "longitude": "-89.95937757581234"
    }
  },
  {
    "service_request": "2022-938333",
    "request_type": "Trash/Recycling",
    "request_reason": "Order Recycling Cart",
    "date_created": "2022-11-04T17:58:41.000",
    "date_modified": "2022-11-04T17:58:41.000",
    "request_status": "Pending",
    "responsible_agency": "Department of Sanitation",
    "final_address": "2222 N Rampart St",
    "address_councildis": "C",
    "status": "Pending",
    "rowid": "938333",
    "final_x": "3685289.5453",
    "final_y": "535931.187975",
    "longitude": "-90.05594904452754",
    "latitude": "29.967509326056728",
    "geocoded_column": {
      "latitude": "29.967509326056728",
      "longitude": "-90.05594904452754"
    }
  },
  {
    "service_request": "2022-938332",
    "request_type": "Roads/Drainage",
    "request_reason": "Pothole",
    "date_created": "2022-11-04T17:57:49.000",
    "date_modified": "2022-11-04T18:01:36.000",
    "request_status": "Pending",
    "responsible_agency": "Department of Public Works",
    "final_address": "801 Philip Street",
    "address_councildis": "B",
    "rowid": "938332",
    "final_x": "3679218.7",
    "final_y": "520977.18",
    "longitude": "-90.07563924712257",
    "latitude": "29.926575494117074",
    "geocoded_column": {
      "latitude": "29.926575494117074",
      "longitude": "-90.07563924712257"
    }
  },
  {
    "service_request": "2022-938331",
    "request_type": "Roads/Drainage",
    "request_reason": "Street Subsidence (Sinking)",
    "date_created": "2022-11-04T17:57:15.000",
    "date_modified": "2022-11-04T17:57:15.000",
    "request_status": "Pending",
    "responsible_agency": "Department of Public Works",
    "final_address": "4232 Fontainebleau Dr",
    "address_councildis": "A",
    "status": "Pending",
    "rowid": "938331",
    "final_x": "3669494.63866",
    "final_y": "529262.996225",
    "longitude": "-90.10605537382496",
    "latitude": "29.94964871415222",
    "geocoded_column": {
      "latitude": "29.94964871415222",
      "longitude": "-90.10605537382496"
    }
  },
  {
    "service_request": "2022-938330",
    "request_type": "Traffic Signals/Signs/Striping/Streetlights",
    "request_reason": "Street Name Sign Damaged or Missing",
    "date_created": "2022-11-04T17:57:10.000",
    "date_modified": "2022-11-04T17:57:10.000",
    "request_status": "Pending",
    "responsible_agency": "Department of Public Works",
    "final_address": "6167 Catina St",
    "address_councildis": "A",
    "status": "Pending",
    "rowid": "938330",
    "final_x": "3666934.58433",
    "final_y": "548888.354771",
    "longitude": "-90.11347897020205",
    "latitude": "30.003687012956757",
    "geocoded_column": {
      "latitude": "30.003687012956757",
      "longitude": "-90.11347897020205"
    }
  },
  {
    "service_request": "2022-938329",
    "request_type": "Traffic Signals/Signs/Striping/Streetlights",
    "request_reason": "Traffic Sign Missing/Damaged",
    "date_created": "2022-11-04T17:55:47.000",
    "date_modified": "2022-11-04T17:55:47.000",
    "request_status": "Pending",
    "responsible_agency": "Department of Public Works",
    "final_address": "6167 Catina St",
    "address_councildis": "A",
    "status": "Pending",
    "rowid": "938329",
    "final_x": "3666934.58433",
    "final_y": "548888.354771",
    "longitude": "-90.11347897020205",
    "latitude": "30.003687012956757",
    "geocoded_column": {
      "latitude": "30.003687012956757",
      "longitude": "-90.11347897020205"
    }
  },
  {
    "service_request": "2022-938328",
    "request_type": "Trash/Recycling",
    "request_reason": "Missed Trash Pick-Up",
    "date_created": "2022-11-04T17:54:01.000",
    "date_modified": "2022-11-04T17:54:01.000",
    "request_status": "Pending",
    "responsible_agency": "Department of Sanitation",
    "final_address": "1525 Dufossat St",
    "address_councildis": "B",
    "status": "Assigned to Contractor",
    "contractor": "Richards Disposal",
    "rowid": "938328",
    "final_x": "3668161.69364",
    "final_y": "520678.110521",
    "longitude": "-90.11055336688219",
    "latitude": "29.926082227758133",
    "geocoded_column": {
      "latitude": "29.926082227758133",
      "longitude": "-90.11055336688219"
    }
  },
  {
    "service_request": "2022-938327",
    "request_type": "Trash/Recycling",
    "request_reason": "Missed Trash Pick-Up",
    "date_created": "2022-11-04T17:52:33.000",
    "date_modified": "2022-11-04T17:52:34.000",
    "request_status": "Pending",
    "responsible_agency": "Department of Sanitation",
    "final_address": "822 Philip St, New Orleans, Louisiana, 70130",
    "address_councildis": "B",
    "status": "Assigned to Contractor",
    "contractor": "Richards Disposal",
    "rowid": "938327",
    "final_x": "3679063.61397",
    "final_y": "521101.689977",
    "longitude": "-90.076124498656",
    "latitude": "29.926922535638944",
    "geocoded_column": {
      "latitude": "29.926922535638944",
      "longitude": "-90.076124498656"
    }
  },
  {
    "service_request": "2022-938326",
    "request_type": "Mosquito, Termite & Rodent Control",
    "request_reason": "Mosquito Complaint",
    "date_created": "2022-11-04T17:51:12.000",
    "date_modified": "2022-11-04T17:51:12.000",
    "request_status": "Pending",
    "responsible_agency": "Mosquito, Termite & Rodent Control Board",
    "final_address": "2220 Pauline St",
    "address_councildis": "D",
    "status": "Pending",
    "rowid": "938326",
    "final_x": "3692242.69904",
    "final_y": "539777.186826",
    "longitude": "-90.03385319085329",
    "latitude": "29.97786948981616",
    "geocoded_column": {
      "latitude": "29.97786948981616",
      "longitude": "-90.03385319085329"
    }
  },
  {
    "service_request": "2022-938325",
    "request_type": "Trash/Recycling",
    "request_reason": "Replace Recycling Cart",
    "date_created": "2022-11-04T17:49:52.000",
    "date_modified": "2022-11-04T17:49:52.000",
    "request_status": "Pending",
    "responsible_agency": "Department of Sanitation",
    "final_address": "115 Central Park Pl",
    "address_councildis": "A",
    "status": "Pending",
    "rowid": "938325",
    "final_x": "3670584.59751",
    "final_y": "544315.078991",
    "longitude": "-90.1021031887763",
    "latitude": "29.991004740466163",
    "geocoded_column": {
      "latitude": "29.991004740466163",
      "longitude": "-90.1021031887763"
    }
  },
  {
    "service_request": "2022-938324",
    "request_type": "Trash/Recycling",
    "request_reason": "Order Recycling Cart",
    "date_created": "2022-11-04T17:45:26.000",
    "date_modified": "2022-11-04T17:45:26.000",
    "request_status": "Pending",
    "responsible_agency": "Department of Sanitation",
    "final_address": "5800 Chatham Dr",
    "address_councildis": "D",
    "status": "Pending",
    "rowid": "938324",
    "final_x": "3679560.97883",
    "final_y": "553888.440343",
    "longitude": "-90.07341641771033",
    "latitude": "30.01705980009586",
    "geocoded_column": {
      "latitude": "30.01705980009586",
      "longitude": "-90.07341641771033"
    }
  },
  {
    "service_request": "2022-938323",
    "request_type": "Trash/Recycling",
    "request_reason": "Order Recycling Cart",
    "date_created": "2022-11-04T17:45:25.000",
    "date_modified": "2022-11-04T17:45:25.000",
    "request_status": "Pending",
    "responsible_agency": "Department of Sanitation",
    "final_address": "5800 Chatham Dr",
    "address_councildis": "D",
    "status": "Pending",
    "rowid": "938323",
    "final_x": "3679560.97883",
    "final_y": "553888.440343",
    "longitude": "-90.07341641771033",
    "latitude": "30.01705980009586",
    "geocoded_column": {
      "latitude": "30.01705980009586",
      "longitude": "-90.07341641771033"
    }
  },
  {
    "service_request": "2022-938322",
    "request_type": "Trash/Recycling",
    "request_reason": "Order Recycling Cart",
    "date_created": "2022-11-04T17:45:08.000",
    "date_modified": "2022-11-04T17:45:08.000",
    "request_status": "Pending",
    "responsible_agency": "Department of Sanitation",
    "final_address": "141 10Th St",
    "address_councildis": "A",
    "status": "Pending",
    "rowid": "938322",
    "final_x": "3665709.72103",
    "final_y": "547551.05141",
    "longitude": "-90.11739336389698",
    "latitude": "30.00004568783863",
    "geocoded_column": {
      "latitude": "30.00004568783863",
      "longitude": "-90.11739336389698"
    }
  },
  {
    "service_request": "2022-938321",
    "request_type": "Property Maintenance",
    "request_reason": "Property Maintenance",
    "date_created": "2022-11-04T17:45:05.000",
    "date_modified": "2022-11-04T17:45:05.000",
    "request_status": "Pending",
    "responsible_agency": "Department of Code Enforcement",
    "final_address": "2226 Pauline St",
    "address_councildis": "D",
    "status": "Pending",
    "rowid": "938321",
    "final_x": "3692253.58998",
    "final_y": "539824.73473",
    "longitude": "-90.0338170904808",
    "latitude": "29.977999889956138",
    "geocoded_column": {
      "latitude": "29.977999889956138",
      "longitude": "-90.0338170904808"
    }
  },
  {
    "service_request": "2022-938320",
    "request_type": "Trash/Recycling",
    "request_reason": "Missed Trash Pick-Up",
    "date_created": "2022-11-04T17:41:43.000",
    "date_modified": "2022-11-04T17:41:43.000",
    "request_status": "Pending",
    "responsible_agency": "Department of Sanitation",
    "final_address": "919 Toledano St",
    "address_councildis": "B",
    "status": "Assigned to Contractor",
    "contractor": "Richards Disposal",
    "rowid": "938320",
    "final_x": "3675650.7595",
    "final_y": "519274.000439",
    "longitude": "-90.08696074843645",
    "latitude": "29.921999501387756",
    "geocoded_column": {
      "latitude": "29.921999501387756",
      "longitude": "-90.08696074843645"
    }
  },
  {
    "service_request": "2022-938319",
    "request_type": "Roads/Drainage",
    "request_reason": "Pothole",
    "date_created": "2022-11-04T17:41:32.000",
    "date_modified": "2022-11-04T17:56:41.000",
    "request_status": "Pending",
    "responsible_agency": "Department of Public Works",
    "final_address": "9435 Stroelitz St",
    "address_councildis": "A",
    "rowid": "938319",
    "final_x": "3664384.78132",
    "final_y": "538272.151817",
    "longitude": "-90.12188884160254",
    "latitude": "29.97457044090555",
    "geocoded_column": {
      "latitude": "29.97457044090555",
      "longitude": "-90.12188884160254"
    }
  },
  {
    "service_request": "2022-938318",
    "request_type": "Roads/Drainage",
    "request_reason": "Pothole",
    "date_created": "2022-11-04T17:40:17.000",
    "date_modified": "2022-11-04T17:40:17.000",
    "request_status": "Pending",
    "responsible_agency": "Department of Public Works",
    "final_address": "8435 Stroelitz St",
    "address_councildis": "A",
    "status": "Pending",
    "rowid": "938318",
    "final_x": "3666967.44641",
    "final_y": "535888.041223",
    "longitude": "-90.11381226423828",
    "latitude": "29.967939598206815",
    "geocoded_column": {
      "latitude": "29.967939598206815",
      "longitude": "-90.11381226423828"
    }
  },
  {
    "service_request": "2022-938316",
    "request_type": "Trash/Recycling",
    "request_reason": "Order Recycling Cart",
    "date_created": "2022-11-04T17:37:27.000",
    "date_modified": "2022-11-04T17:37:27.000",
    "request_status": "Pending",
    "responsible_agency": "Department of Sanitation",
    "final_address": "224 Fairway Dr",
    "address_councildis": "A",
    "status": "Pending",
    "rowid": "938316",
    "final_x": "3664105.12967",
    "final_y": "541185.131148",
    "longitude": "-90.1226748502429",
    "latitude": "29.982588288151128",
    "geocoded_column": {
      "latitude": "29.982588288151128",
      "longitude": "-90.1226748502429"
    }
  },
  {
    "service_request": "2022-938315",
    "request_type": "Mosquito, Termite & Rodent Control",
    "request_reason": "Non-Rodent Complaint (Mice, Possums, Snakes)",
    "date_created": "2022-11-04T17:36:31.000",
    "date_modified": "2022-11-04T17:36:31.000",
    "request_status": "Pending",
    "responsible_agency": "Mosquito, Termite & Rodent Control Board",
    "final_address": "2210 Feliciana St",
    "address_councildis": "D",
    "status": "Pending",
    "rowid": "938315",
    "final_x": "3689679.70031",
    "final_y": "540362.955979",
    "longitude": "-90.04192715583828",
    "latitude": "29.97955982095993",
    "geocoded_column": {
      "latitude": "29.97955982095993",
      "longitude": "-90.04192715583828"
    }
  },
  {
    "service_request": "2022-938314",
    "request_type": "Trash/Recycling",
    "request_reason": "Replace Trash Cart",
    "date_created": "2022-11-04T17:35:40.000",
    "date_modified": "2022-11-04T17:35:41.000",
    "request_status": "Pending",
    "responsible_agency": "Department of Sanitation",
    "final_address": "317 Fairway Dr",
    "address_councildis": "A",
    "status": "Assigned to Contractor",
    "contractor": "Metro Disposal",
    "rowid": "938314",
    "final_x": "3664299.21927",
    "final_y": "541613.856524",
    "longitude": "-90.12204750131733",
    "latitude": "29.98376149880143",
    "geocoded_column": {
      "latitude": "29.98376149880143",
      "longitude": "-90.12204750131733"
    }
  },
  {
    "service_request": "2022-938313",
    "request_type": "Trash/Recycling",
    "request_reason": "Order Recycling Cart",
    "date_created": "2022-11-04T17:34:19.000",
    "date_modified": "2022-11-04T17:34:19.000",
    "request_status": "Pending",
    "responsible_agency": "Department of Sanitation",
    "final_address": "317 Fairway Dr",
    "address_councildis": "A",
    "status": "Pending",
    "rowid": "938313",
    "final_x": "3664299.21927",
    "final_y": "541613.856524",
    "longitude": "-90.12204750131733",
    "latitude": "29.98376149880143",
    "geocoded_column": {
      "latitude": "29.98376149880143",
      "longitude": "-90.12204750131733"
    }
  },
  {
    "service_request": "2022-938312",
    "request_type": "Trash/Recycling",
    "request_reason": "MIssed Recycling Pick-Up",
    "date_created": "2022-11-04T17:34:16.000",
    "date_modified": "2022-11-04T17:34:16.000",
    "request_status": "Pending",
    "responsible_agency": "Department of Sanitation",
    "final_address": "1516 Audubon St",
    "address_councildis": "A",
    "status": "Assigned to Contractor",
    "contractor": "Richards Disposal",
    "rowid": "938312",
    "final_x": "3665087.73882",
    "final_y": "527397.294079",
    "longitude": "-90.12003239683767",
    "latitude": "29.944647686482103",
    "geocoded_column": {
      "latitude": "29.944647686482103",
      "longitude": "-90.12003239683767"
    }
  },
  {
    "service_request": "2022-938311",
    "request_type": "Trash/Recycling",
    "request_reason": "MIssed Recycling Pick-Up",
    "date_created": "2022-11-04T17:31:35.000",
    "date_modified": "2022-11-04T17:31:36.000",
    "request_status": "Pending",
    "responsible_agency": "Department of Sanitation",
    "final_address": "2123 Broadway St",
    "address_councildis": "A",
    "status": "Assigned to Contractor",
    "contractor": "Richards Disposal",
    "rowid": "938311",
    "final_x": "3666112.92826",
    "final_y": "529285.727937",
    "longitude": "-90.11673225146713",
    "latitude": "29.9498103802666",
    "geocoded_column": {
      "latitude": "29.9498103802666",
      "longitude": "-90.11673225146713"
    }
  },
  {
    "service_request": "2022-938310",
    "request_type": "Trash/Recycling",
    "request_reason": "Missed Trash Pick-Up",
    "date_created": "2022-11-04T17:31:20.000",
    "date_modified": "2022-11-04T17:31:21.000",
    "request_status": "Pending",
    "responsible_agency": "Department of Sanitation",
    "final_address": "1922 Adams St, New Orleans, Louisiana, 70118",
    "address_councildis": "A",
    "status": "Assigned to Contractor",
    "contractor": "Richards Disposal",
    "rowid": "938310",
    "final_x": "3664814.87687",
    "final_y": "529368.983105",
    "longitude": "-90.12082803266622",
    "latitude": "29.95007713748382",
    "geocoded_column": {
      "latitude": "29.95007713748382",
      "longitude": "-90.12082803266622"
    }
  },
  {
    "service_request": "2022-938309",
    "request_type": "Trash/Recycling",
    "request_reason": "Order Recycling Cart",
    "date_created": "2022-11-04T17:31:04.000",
    "date_modified": "2022-11-04T17:52:20.000",
    "request_status": "Pending",
    "responsible_agency": "Department of Sanitation",
    "final_address": "1328 Madrid Street New Orleans, LA 70122",
    "address_councildis": "D",
    "rowid": "938309",
    "final_x": "3676987.64123",
    "final_y": "554623.58076",
    "longitude": "-90.0815217369259",
    "latitude": "30.01915872169706",
    "geocoded_column": {
      "latitude": "30.01915872169706",
      "longitude": "-90.0815217369259"
    }
  },
  {
    "service_request": "2022-938308",
    "request_type": "Trash/Recycling",
    "request_reason": "Repair Trash Cart",
    "date_created": "2022-11-04T17:29:35.000",
    "date_modified": "2022-11-04T17:29:36.000",
    "request_status": "Pending",
    "responsible_agency": "Department of Sanitation",
    "final_address": "1272 Sere St",
    "address_councildis": "D",
    "status": "Assigned to Contractor",
    "contractor": "Metro Disposal",
    "rowid": "938308",
    "final_x": "3677297.91784",
    "final_y": "545268.757775",
    "longitude": "-90.08086445516723",
    "latitude": "29.993426966101094",
    "geocoded_column": {
      "latitude": "29.993426966101094",
      "longitude": "-90.08086445516723"
    }
  },
  {
    "service_request": "2022-938307",
    "request_type": "Trash/Recycling",
    "request_reason": "Return Trash Cart",
    "date_created": "2022-11-04T17:26:03.000",
    "date_modified": "2022-11-04T17:26:03.000",
    "request_status": "Pending",
    "responsible_agency": "Department of Sanitation",
    "final_address": "1023 Bartholomew St",
    "address_councildis": "C",
    "status": "Assigned to Contractor",
    "contractor": "Metro Disposal",
    "rowid": "938307",
    "final_x": "3691774.14096",
    "final_y": "535049.520454",
    "longitude": "-90.03550217670221",
    "latitude": "29.96488468375125",
    "geocoded_column": {
      "latitude": "29.96488468375125",
      "longitude": "-90.03550217670221"
    }
  },
  {
    "service_request": "2022-938306",
    "request_type": "Mosquito, Termite & Rodent Control",
    "request_reason": "Non-Rodent Complaint (Mice, Possums, Snakes)",
    "date_created": "2022-11-04T17:24:55.000",
    "date_modified": "2022-11-04T17:24:55.000",
    "request_status": "Pending",
    "responsible_agency": "Mosquito, Termite & Rodent Control Board",
    "final_address": "2210 Feliciana St",
    "address_councildis": "D",
    "status": "Pending",
    "rowid": "938306",
    "final_x": "3689679.70031",
    "final_y": "540362.955979",
    "longitude": "-90.04192715583828",
    "latitude": "29.97955982095993",
    "geocoded_column": {
      "latitude": "29.97955982095993",
      "longitude": "-90.04192715583828"
    }
  },
  {
    "service_request": "2022-938305",
    "request_type": "Trash/Recycling",
    "request_reason": "Order Recycling Cart",
    "date_created": "2022-11-04T17:24:26.000",
    "date_modified": "2022-11-04T17:24:26.000",
    "request_status": "Pending",
    "responsible_agency": "Department of Sanitation",
    "final_address": "3809 Havana Pl",
    "address_councildis": "D",
    "status": "Pending",
    "rowid": "938305",
    "final_x": "3680724.17288",
    "final_y": "546087.236688",
    "longitude": "-90.07001296158931",
    "latitude": "29.995574071605084",
    "geocoded_column": {
      "latitude": "29.995574071605084",
      "longitude": "-90.07001296158931"
    }
  },
  {
    "service_request": "2022-938304",
    "request_type": "Trash/Recycling",
    "request_reason": "Replace Trash Cart",
    "date_created": "2022-11-04T17:19:51.000",
    "date_modified": "2022-11-04T17:19:51.000",
    "request_status": "Pending",
    "responsible_agency": "Department of Sanitation",
    "final_address": "6060 Cameron Blvd",
    "address_councildis": "D",
    "status": "Assigned to Contractor",
    "contractor": "Metro Disposal",
    "rowid": "938304",
    "final_x": "3682240.00194",
    "final_y": "555376.834265",
    "longitude": "-90.06489975488414",
    "latitude": "30.02107106979052",
    "geocoded_column": {
      "latitude": "30.02107106979052",
      "longitude": "-90.06489975488414"
    }
  },
  {
    "service_request": "2022-938303",
    "request_type": "Trash/Recycling",
    "request_reason": "Order Trash Cart",
    "date_created": "2022-11-04T17:19:00.000",
    "date_modified": "2022-11-04T17:19:01.000",
    "request_status": "Pending",
    "responsible_agency": "Department of Sanitation",
    "final_address": "6854 Lake Willow Dr",
    "address_councildis": "E",
    "status": "Assigned to Contractor",
    "contractor": "Metro Disposal",
    "rowid": "938303",
    "final_x": "3703395.57847",
    "final_y": "558713.596764",
    "longitude": "-89.99793176572774",
    "latitude": "30.02958497271428",
    "geocoded_column": {
      "latitude": "30.02958497271428",
      "longitude": "-89.99793176572774"
    }
  },
  {
    "service_request": "2022-938302",
    "request_type": "Trash/Recycling",
    "request_reason": "Order Recycling Cart",
    "date_created": "2022-11-04T17:16:44.000",
    "date_modified": "2022-11-04T17:16:44.000",
    "request_status": "Pending",
    "responsible_agency": "Department of Sanitation",
    "final_address": "6854 Lake Willow Dr",
    "address_councildis": "E",
    "status": "Pending",
    "rowid": "938302",
    "final_x": "3703395.57847",
    "final_y": "558713.596764",
    "longitude": "-89.99793176572774",
    "latitude": "30.02958497271428",
    "geocoded_column": {
      "latitude": "30.02958497271428",
      "longitude": "-89.99793176572774"
    }
  },
  {
    "service_request": "2022-938301",
    "request_type": "Trash/Recycling",
    "request_reason": "Order Recycling Cart",
    "date_created": "2022-11-04T17:15:03.000",
    "date_modified": "2022-11-04T17:15:03.000",
    "request_status": "Pending",
    "responsible_agency": "Department of Sanitation",
    "final_address": "737 Greenwood St",
    "address_councildis": "A",
    "status": "Pending",
    "rowid": "938301",
    "final_x": "3668570.9065",
    "final_y": "542903.020493",
    "longitude": "-90.10851166149305",
    "latitude": "29.98718140424195",
    "geocoded_column": {
      "latitude": "29.98718140424195",
      "longitude": "-90.10851166149305"
    }
  },
  {
    "service_request": "2022-938300",
    "request_type": "Trash/Recycling",
    "request_reason": "Order Recycling Cart",
    "date_created": "2022-11-04T17:14:40.000",
    "date_modified": "2022-11-04T17:15:01.000",
    "request_status": "Pending",
    "responsible_agency": "Department of Sanitation",
    "final_address": "5764 Vermillion Blvd",
    "address_councildis": "D",
    "status": "Pending",
    "rowid": "938300",
    "final_x": "3683008.27304",
    "final_y": "554630.151448",
    "longitude": "-90.06249840578977",
    "latitude": "30.01899455880003",
    "geocoded_column": {
      "latitude": "30.01899455880003",
      "longitude": "-90.06249840578977"
    }
  },
  {
    "service_request": "2022-938299",
    "request_type": "Roads/Drainage",
    "request_reason": "Pothole",
    "date_created": "2022-11-04T17:13:48.000",
    "date_modified": "2022-11-04T17:13:48.000",
    "request_status": "Pending",
    "responsible_agency": "Department of Public Works",
    "final_address": "2700 Gravier St",
    "address_councildis": "B",
    "status": "Pending",
    "rowid": "938299",
    "final_x": "3673669.72878",
    "final_y": "533217.348932",
    "longitude": "-90.09273751122163",
    "latitude": "29.96039824905914",
    "geocoded_column": {
      "latitude": "29.96039824905914",
      "longitude": "-90.09273751122163"
    }
  },
  {
    "service_request": "2022-938298",
    "request_type": "Trash/Recycling",
    "request_reason": "Order Recycling Cart",
    "date_created": "2022-11-04T17:13:34.000",
    "date_modified": "2022-11-04T17:13:34.000",
    "request_status": "Pending",
    "responsible_agency": "Department of Sanitation",
    "final_address": "5560 Woodlawn Pl",
    "address_councildis": "A",
    "status": "Pending",
    "rowid": "938298",
    "final_x": "3667379.10599",
    "final_y": "544271.518479",
    "longitude": "-90.11223008159897",
    "latitude": "29.99097928266267",
    "geocoded_column": {
      "latitude": "29.99097928266267",
      "longitude": "-90.11223008159897"
    }
  },
  {
    "service_request": "2022-938297",
    "request_type": "Trash/Recycling",
    "request_reason": "Order Recycling Cart",
    "date_created": "2022-11-04T17:12:59.000",
    "date_modified": "2022-11-04T17:13:00.000",
    "request_status": "Pending",
    "responsible_agency": "Department of Sanitation",
    "final_address": "4842 Galahad Dr",
    "address_councildis": "E",
    "status": "Pending",
    "rowid": "938297",
    "final_x": "3707060.82788",
    "final_y": "556248.463066",
    "longitude": "-89.98644129598108",
    "latitude": "30.022688854765338",
    "geocoded_column": {
      "latitude": "30.022688854765338",
      "longitude": "-89.98644129598108"
    }
  },
  {
    "service_request": "2022-938296",
    "request_type": "Trash/Recycling",
    "request_reason": "Replace Recycling Cart",
    "date_created": "2022-11-04T17:12:46.000",
    "date_modified": "2022-11-04T17:51:11.000",
    "request_status": "Pending",
    "responsible_agency": "Department of Sanitation",
    "final_address": "6125 Cartier Avenue",
    "address_councildis": "D",
    "rowid": "938296",
    "final_x": "3677697.19816",
    "final_y": "555072.803545",
    "longitude": "-90.079264245845",
    "latitude": "30.020372587912135",
    "geocoded_column": {
      "latitude": "30.020372587912135",
      "longitude": "-90.079264245845"
    }
  },
  {
    "service_request": "2022-938295",
    "request_type": "Trash/Recycling",
    "request_reason": "Request a Large Item Pick Up",
    "date_created": "2022-11-04T17:11:39.000",
    "date_modified": "2022-11-04T17:11:40.000",
    "request_status": "Pending",
    "responsible_agency": "Department of Sanitation",
    "final_address": "4840 Marseille St",
    "address_councildis": "E",
    "status": "Assigned to Contractor",
    "contractor": "Metro Disposal",
    "rowid": "938295",
    "final_x": "3729743.26963",
    "final_y": "562316.170015",
    "longitude": "-89.91453382337687",
    "latitude": "30.038619923623713",
    "geocoded_column": {
      "latitude": "30.038619923623713",
      "longitude": "-89.91453382337687"
    }
  },
  {
    "service_request": "2022-938294",
    "request_type": "Trash/Recycling",
    "request_reason": "Order Recycling Cart",
    "date_created": "2022-11-04T17:10:37.000",
    "date_modified": "2022-11-04T17:10:37.000",
    "request_status": "Pending",
    "responsible_agency": "Department of Sanitation",
    "final_address": "415 35Th St",
    "address_councildis": "A",
    "status": "Pending",
    "rowid": "938294",
    "final_x": "3664795.13216",
    "final_y": "551747.628693",
    "longitude": "-90.12014224379598",
    "latitude": "30.011611479177304",
    "geocoded_column": {
      "latitude": "30.011611479177304",
      "longitude": "-90.12014224379598"
    }
  },
  {
    "service_request": "2022-938293",
    "request_type": "Trash/Recycling",
    "request_reason": "Order Recycling Cart",
    "date_created": "2022-11-04T17:10:26.000",
    "date_modified": "2022-11-04T17:10:26.000",
    "request_status": "Pending",
    "responsible_agency": "Department of Sanitation",
    "final_address": "5014 N Rocheblave St",
    "address_councildis": "E",
    "status": "Pending",
    "rowid": "938293",
    "final_x": "3697475.66186",
    "final_y": "539062.52033",
    "longitude": "-90.01735168981207",
    "latitude": "29.975740195924374",
    "geocoded_column": {
      "latitude": "29.975740195924374",
      "longitude": "-90.01735168981207"
    }
  },
  {
    "service_request": "2022-938292",
    "request_type": "Trash/Recycling",
    "request_reason": "Order Trash Cart",
    "date_created": "2022-11-04T17:10:02.000",
    "date_modified": "2022-11-04T17:10:03.000",
    "request_status": "Pending",
    "responsible_agency": "Department of Sanitation",
    "final_address": "5014 N Rocheblave St",
    "address_councildis": "E",
    "status": "Assigned to Contractor",
    "contractor": "Metro Disposal",
    "rowid": "938292",
    "final_x": "3697475.66186",
    "final_y": "539062.52033",
    "longitude": "-90.01735168981207",
    "latitude": "29.975740195924374",
    "geocoded_column": {
      "latitude": "29.975740195924374",
      "longitude": "-90.01735168981207"
    }
  },
  {
    "service_request": "2022-938291",
    "request_type": "Traffic Signals/Signs/Striping/Streetlights",
    "request_reason": "Traffic Sign Missing/Damaged",
    "date_created": "2022-11-04T17:10:01.000",
    "date_modified": "2022-11-04T17:10:01.000",
    "request_status": "Pending",
    "responsible_agency": "Department of Public Works",
    "final_address": "2802 Tulane Ave",
    "address_councildis": "B",
    "status": "Pending",
    "rowid": "938291",
    "final_x": "3673701.29979",
    "final_y": "533990.916933",
    "longitude": "-90.0926113658331",
    "latitude": "29.962524362057614",
    "geocoded_column": {
      "latitude": "29.962524362057614",
      "longitude": "-90.0926113658331"
    }
  },
  {
    "service_request": "2022-938290",
    "request_type": "Trash/Recycling",
    "request_reason": "Order Recycling Cart",
    "date_created": "2022-11-04T17:06:19.000",
    "date_modified": "2022-11-04T17:06:19.000",
    "request_status": "Pending",
    "responsible_agency": "Department of Sanitation",
    "final_address": "3415 Dauphine St",
    "address_councildis": "C",
    "status": "Pending",
    "rowid": "938290",
    "final_x": "3690035.29027",
    "final_y": "534560.070597",
    "longitude": "-90.04101077184752",
    "latitude": "29.963592907753966",
    "geocoded_column": {
      "latitude": "29.963592907753966",
      "longitude": "-90.04101077184752"
    }
  },
  {
    "service_request": "2022-938289",
    "request_type": "Abandoned Vehicles",
    "request_reason": "Abandoned/Junk Vehicles",
    "date_created": "2022-11-04T17:05:16.000",
    "date_modified": "2022-11-04T17:05:16.000",
    "request_status": "Pending",
    "responsible_agency": "Department of Public Works",
    "final_address": "1128 Pine St",
    "address_councildis": "A",
    "status": "Pending",
    "rowid": "938289",
    "final_x": "3663848.66451",
    "final_y": "526613.033086",
    "longitude": "-90.12397067408766",
    "latitude": "29.942527238003056",
    "geocoded_column": {
      "latitude": "29.942527238003056",
      "longitude": "-90.12397067408766"
    }
  },
  {
    "service_request": "2022-938288",
    "request_type": "Trash/Recycling",
    "request_reason": "Order Recycling Cart",
    "date_created": "2022-11-04T17:04:24.000",
    "date_modified": "2022-11-04T17:04:24.000",
    "request_status": "Pending",
    "responsible_agency": "Department of Sanitation",
    "final_address": "3753 Gentilly Blvd",
    "address_councildis": "D",
    "status": "Pending",
    "rowid": "938288",
    "final_x": "3687493.31702",
    "final_y": "549019.750931",
    "longitude": "-90.04852603854562",
    "latitude": "30.003430477536895",
    "geocoded_column": {
      "latitude": "30.003430477536895",
      "longitude": "-90.04852603854562"
    }
  },
  {
    "service_request": "2022-938287",
    "request_type": "Trash/Recycling",
    "request_reason": "Replace Trash Cart",
    "date_created": "2022-11-04T16:59:12.000",
    "date_modified": "2022-11-04T16:59:13.000",
    "request_status": "Pending",
    "responsible_agency": "Department of Sanitation",
    "final_address": "2316 St Roch Ave",
    "address_councildis": "D",
    "status": "Assigned to Contractor",
    "contractor": "Metro Disposal",
    "rowid": "938287",
    "final_x": "3686044.26895",
    "final_y": "540997.545483",
    "longitude": "-90.05338689509166",
    "latitude": "29.98141687802991",
    "geocoded_column": {
      "latitude": "29.98141687802991",
      "longitude": "-90.05338689509166"
    }
  },
  {
    "service_request": "2022-938286",
    "request_type": "Trash/Recycling",
    "request_reason": "Order Recycling Cart",
    "date_created": "2022-11-04T16:58:36.000",
    "date_modified": "2022-11-04T16:58:36.000",
    "request_status": "Pending",
    "responsible_agency": "Department of Sanitation",
    "final_address": "452 Amethyst St",
    "address_councildis": "D",
    "status": "Pending",
    "rowid": "938286",
    "final_x": "3667918.85524",
    "final_y": "556644.052826",
    "longitude": "-90.11010792224943",
    "latitude": "30.024983604424914",
    "geocoded_column": {
      "latitude": "30.024983604424914",
      "longitude": "-90.11010792224943"
    }
  },
  {
    "service_request": "2022-938285",
    "request_type": "Roads/Drainage",
    "request_reason": "Street Flooding / Drainage",
    "date_created": "2022-11-04T16:57:14.000",
    "date_modified": "2022-11-04T16:57:14.000",
    "request_status": "Pending",
    "responsible_agency": "Department of Public Works",
    "final_address": "PIETY DR & PINEDA ST",
    "address_councildis": "D",
    "status": "Pending",
    "rowid": "938285",
    "final_x": "3691228.0",
    "final_y": "552599.98",
    "longitude": "-90.03659963163521",
    "latitude": "30.01315911411273",
    "geocoded_column": {
      "latitude": "30.01315911411273",
      "longitude": "-90.03659963163521"
    }
  },
  {
    "service_request": "2022-938284",
    "request_type": "Trash/Recycling",
    "request_reason": "Repair Trash Cart",
    "date_created": "2022-11-04T16:55:29.000",
    "date_modified": "2022-11-04T16:55:31.000",
    "request_status": "Pending",
    "responsible_agency": "Department of Sanitation",
    "final_address": "3010 Touro St",
    "address_councildis": "D",
    "status": "Assigned to Contractor",
    "contractor": "Metro Disposal",
    "rowid": "938284",
    "final_x": "3683580.56066",
    "final_y": "543707.88507",
    "longitude": "-90.06107335978662",
    "latitude": "29.988944798100736",
    "geocoded_column": {
      "latitude": "29.988944798100736",
      "longitude": "-90.06107335978662"
    }
  },
  {
    "service_request": "2022-938283",
    "request_type": "Trash/Recycling",
    "request_reason": "Order Recycling Cart",
    "date_created": "2022-11-04T16:54:22.000",
    "date_modified": "2022-11-04T16:54:22.000",
    "request_status": "Pending",
    "responsible_agency": "Department of Sanitation",
    "final_address": "3010 Touro St",
    "address_councildis": "D",
    "status": "Pending",
    "rowid": "938283",
    "final_x": "3683580.56066",
    "final_y": "543707.88507",
    "longitude": "-90.06107335978662",
    "latitude": "29.988944798100736",
    "geocoded_column": {
      "latitude": "29.988944798100736",
      "longitude": "-90.06107335978662"
    }
  },
  {
    "service_request": "2022-938282",
    "request_type": "Trash/Recycling",
    "request_reason": "Order Recycling Cart",
    "date_created": "2022-11-04T16:54:19.000",
    "date_modified": "2022-11-04T16:54:19.000",
    "request_status": "Pending",
    "responsible_agency": "Department of Sanitation",
    "final_address": "6113 Arts St",
    "address_councildis": "D",
    "status": "Pending",
    "rowid": "938282",
    "final_x": "3685710.70678",
    "final_y": "555635.339033",
    "longitude": "-90.05392421437583",
    "latitude": "30.021675763754317",
    "geocoded_column": {
      "latitude": "30.021675763754317",
      "longitude": "-90.05392421437583"
    }
  },
  {
    "service_request": "2022-938281",
    "request_type": "Property Maintenance",
    "request_reason": "Property Maintenance",
    "date_created": "2022-11-04T16:54:11.000",
    "date_modified": "2022-11-04T16:54:11.000",
    "request_status": "Pending",
    "responsible_agency": "Department of Code Enforcement",
    "final_address": "937 Fats Domino Ave",
    "address_councildis": "E",
    "status": "Pending",
    "rowid": "938281",
    "final_x": "3697942.42627",
    "final_y": "533287.40378",
    "longitude": "-90.01608720362415",
    "latitude": "29.959845944005593",
    "geocoded_column": {
      "latitude": "29.959845944005593",
      "longitude": "-90.01608720362415"
    }
  },
  {
    "service_request": "2022-938280",
    "request_type": "Trash/Recycling",
    "request_reason": "Order Recycling Cart",
    "date_created": "2022-11-04T16:53:45.000",
    "date_modified": "2022-11-04T16:53:45.000",
    "request_status": "Pending",
    "responsible_agency": "Department of Sanitation",
    "final_address": "6544 Louisville St",
    "address_councildis": "A",
    "status": "Pending",
    "rowid": "938280",
    "final_x": "3667996.54413",
    "final_y": "551135.919573",
    "longitude": "-90.11004824887631",
    "latitude": "30.009835903385362",
    "geocoded_column": {
      "latitude": "30.009835903385362",
      "longitude": "-90.11004824887631"
    }
  },
  {
    "service_request": "2022-938279",
    "request_type": "Trash/Recycling",
    "request_reason": "Repair Trash Cart",
    "date_created": "2022-11-04T16:52:06.000",
    "date_modified": "2022-11-04T16:52:06.000",
    "request_status": "Pending",
    "responsible_agency": "Department of Sanitation",
    "final_address": "5920 Doral Ct",
    "address_councildis": "E",
    "status": "Assigned to Contractor",
    "contractor": "Metro Disposal",
    "rowid": "938279",
    "final_x": "3719877.56492",
    "final_y": "564961.169954",
    "longitude": "-89.94561049819221",
    "latitude": "30.046224789947527",
    "geocoded_column": {
      "latitude": "30.046224789947527",
      "longitude": "-89.94561049819221"
    }
  },
  {
    "service_request": "2022-938278",
    "request_type": "Trash/Recycling",
    "request_reason": "Replace Trash Cart",
    "date_created": "2022-11-04T16:50:53.000",
    "date_modified": "2022-11-04T16:50:54.000",
    "request_status": "Pending",
    "responsible_agency": "Department of Sanitation",
    "final_address": "5837 Colbert St",
    "address_councildis": "A",
    "status": "Assigned to Contractor",
    "contractor": "Metro Disposal",
    "rowid": "938278",
    "final_x": "3667479.30529",
    "final_y": "546454.307857",
    "longitude": "-90.11184007312883",
    "latitude": "29.996978268455713",
    "geocoded_column": {
      "latitude": "29.996978268455713",
      "longitude": "-90.11184007312883"
    }
  },
  {
    "service_request": "2022-938277",
    "request_type": "Trash/Recycling",
    "request_reason": "Replace Trash Cart",
    "date_created": "2022-11-04T16:50:35.000",
    "date_modified": "2022-11-04T16:50:35.000",
    "request_status": "Pending",
    "responsible_agency": "Department of Sanitation",
    "final_address": "5841 Colbert St",
    "address_councildis": "A",
    "status": "Assigned to Contractor",
    "contractor": "Metro Disposal",
    "rowid": "938277",
    "final_x": "3667411.35137",
    "final_y": "546466.031825",
    "longitude": "-90.11205434238592",
    "latitude": "29.9970124970181",
    "geocoded_column": {
      "latitude": "29.9970124970181",
      "longitude": "-90.11205434238592"
    }
  },
  {
    "service_request": "2022-938276",
    "request_type": "Property Maintenance",
    "request_reason": "Property Maintenance",
    "date_created": "2022-11-04T16:49:36.000",
    "date_modified": "2022-11-04T16:49:36.000",
    "request_status": "Pending",
    "responsible_agency": "Department of Code Enforcement",
    "final_address": "937 Fats Domino Ave",
    "address_councildis": "E",
    "status": "Pending",
    "rowid": "938276",
    "final_x": "3697942.42627",
    "final_y": "533287.40378",
    "longitude": "-90.01608720362415",
    "latitude": "29.959845944005593",
    "geocoded_column": {
      "latitude": "29.959845944005593",
      "longitude": "-90.01608720362415"
    }
  },
  {
    "service_request": "2022-938275",
    "request_type": "Roads/Drainage",
    "request_reason": "Accessibility Ramps, Curbs and Sidewalk Repair",
    "date_created": "2022-11-04T16:49:04.000",
    "date_modified": "2022-11-04T16:49:04.000",
    "request_status": "Pending",
    "responsible_agency": "Department of Public Works",
    "final_address": "8221 Zimple St",
    "address_councildis": "A",
    "status": "Pending",
    "rowid": "938275",
    "final_x": "3661370.59693",
    "final_y": "528492.66144",
    "longitude": "-90.1317323114893",
    "latitude": "29.94776730035915",
    "geocoded_column": {
      "latitude": "29.94776730035915",
      "longitude": "-90.1317323114893"
    }
  },
  {
    "service_request": "2022-938274",
    "request_type": "Trash/Recycling",
    "request_reason": "Repair Trash Cart",
    "date_created": "2022-11-04T16:47:56.000",
    "date_modified": "2022-11-04T16:47:56.000",
    "request_status": "Pending",
    "responsible_agency": "Department of Sanitation",
    "final_address": "728 Louque Pl",
    "address_councildis": "A",
    "status": "Assigned to Contractor",
    "contractor": "Metro Disposal",
    "rowid": "938274",
    "final_x": "3668460.60654",
    "final_y": "543493.973262",
    "longitude": "-90.10884011339839",
    "latitude": "29.988809564155826",
    "geocoded_column": {
      "latitude": "29.988809564155826",
      "longitude": "-90.10884011339839"
    }
  },
  {
    "service_request": "2022-938273",
    "request_type": "Trash/Recycling",
    "request_reason": "Repair Recycling Cart",
    "date_created": "2022-11-04T16:47:28.000",
    "date_modified": "2022-11-04T16:47:29.000",
    "request_status": "Pending",
    "responsible_agency": "Department of Sanitation",
    "final_address": "728 Louque Pl",
    "address_councildis": "A",
    "status": "Pending",
    "rowid": "938273",
    "final_x": "3668460.60654",
    "final_y": "543493.973262",
    "longitude": "-90.10884011339839",
    "latitude": "29.988809564155826",
    "geocoded_column": {
      "latitude": "29.988809564155826",
      "longitude": "-90.10884011339839"
    }
  },
  {
    "service_request": "2022-938272",
    "request_type": "Trash/Recycling",
    "request_reason": "Order Recycling Cart",
    "date_created": "2022-11-04T16:47:15.000",
    "date_modified": "2022-11-04T16:47:15.000",
    "request_status": "Pending",
    "responsible_agency": "Department of Sanitation",
    "final_address": "2912 Dumaine St",
    "address_councildis": "A",
    "status": "Pending",
    "rowid": "938272",
    "final_x": "3676320.15323",
    "final_y": "538101.404169",
    "longitude": "-90.08419987531909",
    "latitude": "29.97374857350157",
    "geocoded_column": {
      "latitude": "29.97374857350157",
      "longitude": "-90.08419987531909"
    }
  },