[
  {
    "service_request": "2024-1095967",
    "request_type": "Traffic Signals/Signs/Striping/Streetlights",
    "request_reason": "Street Light Outage/Malfunction",
    "date_created": "2024-05-22T23:36:11.000",
    "date_modified": "2024-05-22T23:36:11.000",
    "request_status": "Pending",
    "responsible_agency": "Department of Public Works",
    "final_address": "1031 Harrison Ave",
    "address_councildis": "A",
    "status": "Assigned to Contractor",
    "contractor": "Legacy Professional Services",
    "rowid": "1095967",
    "final_x": "3672561.02094",
    "final_y": "549016.813523",
    "longitude": "-90.09569970707123",
    "latitude": "30.0038743292946",
    "geocoded_column": {
      "latitude": "30.0038743292946",
      "longitude": "-90.09569970707123"
    }
  },
  {
    "service_request": "2024-1095966",
    "request_type": "Roads/Drainage",
    "request_reason": "Pothole",
    "date_created": "2024-05-22T23:00:10.000",
    "date_modified": "2024-05-22T23:00:10.000",
    "request_status": "Pending",
    "responsible_agency": "Department of Public Works",
    "final_address": "1200 BLK Foucher St",
    "address_councildis": "B",
    "status": "Pending",
    "rowid": "1095966",
    "final_x": "3673986.0388",
    "final_y": "519821.291838",
    "longitude": "-90.09219686893675",
    "latitude": "29.9235540627382",
    "geocoded_column": {
      "latitude": "29.9235540627382",
      "longitude": "-90.09219686893675"
    }
  },
  {
    "service_request": "2024-1095965",
    "request_type": "Trash/Recycling",
    "request_reason": "Request a Large Item Pick Up",
    "date_created": "2024-05-22T22:40:12.000",
    "date_modified": "2024-05-22T22:40:12.000",
    "request_status": "Pending",
    "responsible_agency": "Department of Sanitation",
    "final_address": "2915 Upperline St",
    "address_councildis": "B",
    "status": "Assigned to Contractor",
    "contractor": "IV Waste",
    "rowid": "1095965",
    "final_x": "3669320.33454",
    "final_y": "525479.080317",
    "longitude": "-90.10673362909077",
    "latitude": "29.93924930695068",
    "geocoded_column": {
      "latitude": "29.93924930695068",
      "longitude": "-90.10673362909077"
    }
  },
  {
    "service_request": "2024-1095963",
    "request_type": "Roads/Drainage",
    "request_reason": "Pothole",
    "date_created": "2024-05-22T22:17:35.000",
    "date_modified": "2024-05-22T22:17:35.000",
    "request_status": "Pending",
    "responsible_agency": "Department of Public Works",
    "final_address": "1400 BLK Valence St",
    "address_councildis": "B",
    "status": "Pending",
    "rowid": "1095963",
    "final_x": "3669784.65285",
    "final_y": "520336.257015",
    "longitude": "-90.1054417057675",
    "latitude": "29.925094517046503",
    "geocoded_column": {
      "latitude": "29.925094517046503",
      "longitude": "-90.1054417057675"
    }
  },
  {
    "service_request": "2024-1095962",
    "request_type": "Roads/Drainage",
    "request_reason": "Damaged Sidewalk",
    "date_created": "2024-05-22T22:07:06.000",
    "date_modified": "2024-05-22T22:07:06.000",
    "request_status": "Pending",
    "responsible_agency": "Department of Public Works",
    "final_address": "1725 Dufossat St",
    "address_councildis": "B",
    "status": "Pending",
    "rowid": "1095962",
    "final_x": "3668192.68743",
    "final_y": "522036.060218",
    "longitude": "-90.11040977787289",
    "latitude": "29.92981524824353",
    "geocoded_column": {
      "latitude": "29.92981524824353",
      "longitude": "-90.11040977787289"
    }
  },
  {
    "service_request": "2024-1095961",
    "request_type": "Abandoned Vehicles",
    "request_reason": "Abandoned/Junk Vehicles",
    "date_created": "2024-05-22T21:44:03.000",
    "date_modified": "2024-05-22T21:44:03.000",
    "request_status": "Pending",
    "responsible_agency": "Department of Public Works",
    "final_address": "2641 Tupelo St",
    "address_councildis": "E",
    "status": "Pending",
    "rowid": "1095961",
    "final_x": "3701817.49348",
    "final_y": "538977.889738",
    "longitude": "-90.00364216548886",
    "latitude": "29.975369666123836",
    "geocoded_column": {
      "latitude": "29.975369666123836",
      "longitude": "-90.00364216548886"
    }
  },
  {
    "service_request": "2024-1095960",
    "request_type": "Property Maintenance",
    "request_reason": "Property Maintenance",
    "date_created": "2024-05-22T21:42:50.000",
    "date_modified": "2024-05-22T21:42:50.000",
    "request_status": "Pending",
    "responsible_agency": "Department of Code Enforcement",
    "final_address": "4600 S Johnson St",
    "address_councildis": "B",
    "status": "Pending",
    "rowid": "1095960",
    "final_x": "3669420.57985",
    "final_y": "527096.215999",
    "longitude": "-90.10636247112458",
    "latitude": "29.943692955317424",
    "geocoded_column": {
      "latitude": "29.943692955317424",
      "longitude": "-90.10636247112458"
    }
  },
  {
    "service_request": "2024-1095959",
    "request_type": "Property Maintenance",
    "request_reason": "Property Maintenance",
    "date_created": "2024-05-22T21:40:28.000",
    "date_modified": "2024-05-22T21:40:28.000",
    "request_status": "Pending",
    "responsible_agency": "Department of Code Enforcement",
    "final_address": "2606 Gordon St",
    "address_councildis": "E",
    "status": "Pending",
    "rowid": "1095959",
    "final_x": "3701309.80452",
    "final_y": "538869.135625",
    "longitude": "-90.00524955372448",
    "latitude": "29.975086821609285",
    "geocoded_column": {
      "latitude": "29.975086821609285",
      "longitude": "-90.00524955372448"
    }
  },
  {
    "service_request": "2024-1095958",
    "request_type": "Property Maintenance",
    "request_reason": "Property Maintenance",
    "date_created": "2024-05-22T21:39:13.000",
    "date_modified": "2024-05-22T21:39:13.000",
    "request_status": "Pending",
    "responsible_agency": "Department of Code Enforcement",
    "final_address": "4923 S Derbigny St",
    "address_councildis": "B",
    "status": "Pending",
    "rowid": "1095958",
    "final_x": "3669052.94894",
    "final_y": "526377.368254",
    "longitude": "-90.10754746286203",
    "latitude": "29.94172717617777",
    "geocoded_column": {
      "latitude": "29.94172717617777",
      "longitude": "-90.10754746286203"
    }
  },
  {
    "service_request": "2024-1095956",
    "request_type": "Trash/Recycling",
    "request_reason": "Missed Trash Pick-Up",
    "date_created": "2024-05-22T21:09:47.000",
    "date_modified": "2024-05-22T21:09:48.000",
    "request_status": "Pending",
    "responsible_agency": "Department of Sanitation",
    "final_address": "3812 Socrates St, New Orleans, Louisiana, 70114",
    "address_councildis": "C",
    "status": "Assigned to Contractor",
    "contractor": "Richards Disposal",
    "rowid": "1095956",
    "final_x": "3698314.63351",
    "final_y": "526044.202238",
    "longitude": "-90.01517498338039",
    "latitude": "29.939917913808483",
    "geocoded_column": {
      "latitude": "29.939917913808483",
      "longitude": "-90.01517498338039"
    }
  },
  {
    "service_request": "2024-1095955",
    "request_type": "Safety & Permits",
    "request_reason": "Licenses & Permits",
    "date_created": "2024-05-22T20:15:23.000",
    "date_modified": "2024-05-22T20:15:23.000",
    "request_status": "Pending",
    "responsible_agency": "Safety and Permits",
    "final_address": "4716 Laurel St",
    "address_councildis": "B",
    "status": "Pending",
    "rowid": "1095955",
    "final_x": "3669856.49466",
    "final_y": "517890.873974",
    "longitude": "-90.10529765392121",
    "latitude": "29.91836837186873",
    "geocoded_column": {
      "latitude": "29.91836837186873",
      "longitude": "-90.10529765392121"
    }
  },
  {
    "service_request": "2024-1095954",
    "request_type": "Traffic Signals/Signs/Striping/Streetlights",
    "request_reason": "Street Name Sign Damaged or Missing",
    "date_created": "2024-05-22T20:10:46.000",
    "date_modified": "2024-05-22T20:10:46.000",
    "request_status": "Pending",
    "responsible_agency": "Department of Public Works",
    "final_address": "2600 BLK Cambronne St",
    "address_councildis": "A",
    "status": "Pending",
    "rowid": "1095954",
    "final_x": "3664678.58366",
    "final_y": "532955.51557",
    "longitude": "-90.12113857442075",
    "latitude": "29.959942900655232",
    "geocoded_column": {
      "latitude": "29.959942900655232",
      "longitude": "-90.12113857442075"
    }
  },
  {
    "service_request": "2024-1095953",
    "request_type": "Trash/Recycling",
    "request_reason": "Request a Large Item Pick Up",
    "date_created": "2024-05-22T20:01:37.000",
    "date_modified": "2024-05-22T20:01:37.000",
    "request_status": "Pending",
    "responsible_agency": "Department of Sanitation",
    "final_address": "New Orleans,LA",
    "status": "Assigned to Contractor",
    "rowid": "1095953",
    "longitude": "0.0",
    "latitude": "0.0",
    "geocoded_column": {
      "latitude": "0.0",
      "longitude": "0.0"
    }
  },
  {
    "service_request": "2024-1095952",
    "request_type": "Abandoned Vehicles",
    "request_reason": "Abandoned/Junk Vehicles",
    "date_created": "2024-05-22T19:49:44.000",
    "date_modified": "2024-05-22T19:49:44.000",
    "request_status": "Pending",
    "responsible_agency": "Department of Public Works",
    "final_address": "4125 Bienville St, New Orleans, Louisiana, 70119",
    "status": "Pending",
    "rowid": "1095952",
    "longitude": "0.0",
    "latitude": "0.0",
    "geocoded_column": {
      "latitude": "0.0",
      "longitude": "0.0"
    }
  },
  {
    "service_request": "2024-1095951",
    "request_type": "Trash/Recycling",
    "request_reason": "Order Recycling Cart",
    "date_created": "2024-05-22T19:42:04.000",
    "date_modified": "2024-05-22T19:42:04.000",
    "request_status": "Pending",
    "responsible_agency": "Department of Sanitation",
    "final_address": "714 Soraparu St",
    "address_councildis": "B",
    "status": "Pending",
    "rowid": "1095951",
    "final_x": "3679031.87925",
    "final_y": "520551.76076",
    "longitude": "-90.07624372206739",
    "latitude": "29.92541136702356",
    "geocoded_column": {
      "latitude": "29.92541136702356",
      "longitude": "-90.07624372206739"
    }
  },
  {
    "service_request": "2024-1095950",
    "request_type": "Trash/Recycling",
    "request_reason": "MIssed Recycling Pick-Up",
    "date_created": "2024-05-22T19:41:07.000",
    "date_modified": "2024-05-22T19:41:08.000",
    "request_status": "Pending",
    "responsible_agency": "Department of Sanitation",
    "final_address": "4100 Vendome Pl",
    "address_councildis": "B",
    "status": "Assigned to Contractor",
    "contractor": "IV Waste",
    "rowid": "1095950",
    "final_x": "3668740.99476",
    "final_y": "530462.336834",
    "longitude": "-90.10839449509521",
    "latitude": "29.952968682658483",
    "geocoded_column": {
      "latitude": "29.952968682658483",
      "longitude": "-90.10839449509521"
    }
  },
  {
    "service_request": "2024-1095949",
    "request_type": "Traffic Signals/Signs/Striping/Streetlights",
    "request_reason": "Street Light Outage/Malfunction",
    "date_created": "2024-05-22T19:35:45.000",
    "date_modified": "2024-05-22T19:35:46.000",
    "request_status": "Pending",
    "responsible_agency": "Department of Public Works",
    "final_address": "7840 Willow St",
    "address_councildis": "A",
    "status": "Assigned to Contractor",
    "contractor": "Legacy Professional Services",
    "rowid": "1095949",
    "final_x": "3663008.89255",
    "final_y": "528311.822784",
    "longitude": "-90.12656555302829",
    "latitude": "29.947222710500984",
    "geocoded_column": {
      "latitude": "29.947222710500984",
      "longitude": "-90.12656555302829"
    }
  },
  {
    "service_request": "2024-1095948",
    "request_type": "Trash/Recycling",
    "request_reason": "MIssed Recycling Pick-Up",
    "date_created": "2024-05-22T19:32:51.000",
    "date_modified": "2024-05-22T19:32:52.000",
    "request_status": "Pending",
    "responsible_agency": "Department of Sanitation",
    "final_address": "1221 Coliseum St",
    "address_councildis": "B",
    "status": "Assigned to Contractor",
    "contractor": "IV Waste",
    "rowid": "1095948",
    "final_x": "3680098.89077",
    "final_y": "525475.637501",
    "longitude": "-90.07270449798479",
    "latitude": "29.93891817612117",
    "geocoded_column": {
      "latitude": "29.93891817612117",
      "longitude": "-90.07270449798479"
    }
  },
  {
    "service_request": "2024-1095947",
    "request_type": "Trash/Recycling",
    "request_reason": "Request a Large Item Pick Up",
    "date_created": "2024-05-22T19:27:44.000",
    "date_modified": "2024-05-22T19:27:44.000",
    "request_status": "Pending",
    "responsible_agency": "Department of Sanitation",
    "final_address": "9933 E Wheaton Cir",
    "address_councildis": "E",
    "status": "Assigned to Contractor",
    "contractor": "Waste Pro",
    "rowid": "1095947",
    "final_x": "3708933.22328",
    "final_y": "562402.814687",
    "longitude": "-89.98029539098256",
    "latitude": "30.03955024513202",
    "geocoded_column": {
      "latitude": "30.03955024513202",
      "longitude": "-89.98029539098256"
    }
  },
  {
    "service_request": "2024-1095946",
    "request_type": "Roads/Drainage",
    "request_reason": "Pothole",
    "date_created": "2024-05-22T19:27:03.000",
    "date_modified": "2024-05-22T19:27:03.000",
    "request_status": "Pending",
    "responsible_agency": "Department of Public Works",
    "final_address": "IBERVILLE ST & HELENA ST",
    "address_councildis": "A",
    "status": "Pending",
    "rowid": "1095946",
    "final_x": "3668500.9",
    "final_y": "540872.78",
    "longitude": "-90.10880131989474",
    "latitude": "29.98160099019757",
    "geocoded_column": {
      "latitude": "29.98160099019757",
      "longitude": "-90.10880131989474"
    }
  },
  {
    "service_request": "2024-1095945",
    "request_type": "Trash/Recycling",
    "request_reason": "Request a Large Item Pick Up",
    "date_created": "2024-05-22T19:18:03.000",
    "date_modified": "2024-05-22T19:18:03.000",
    "request_status": "Pending",
    "responsible_agency": "Department of Sanitation",
    "final_address": "1341 St Roch Ave",
    "address_councildis": "C",
    "status": "Assigned to Contractor",
    "contractor": "IV Waste",
    "rowid": "1095945",
    "final_x": "3686479.90569",
    "final_y": "537498.432904",
    "longitude": "-90.05213453030102",
    "latitude": "29.97178216094776",
    "geocoded_column": {
      "latitude": "29.97178216094776",
      "longitude": "-90.05213453030102"
    }
  },
  {
    "service_request": "2024-1095944",
    "request_type": "Trash/Recycling",
    "request_reason": "Start Trash Service",
    "date_created": "2024-05-22T19:03:47.000",
    "date_modified": "2024-05-22T19:03:47.000",
    "request_status": "Pending",
    "responsible_agency": "Department of Sanitation",
    "final_address": "2129 St Ann St",
    "address_councildis": "D",
    "status": "Assigned to Contractor",
    "contractor": "IV Waste",
    "rowid": "1095944",
    "final_x": "3678659.3357",
    "final_y": "535937.211399",
    "longitude": "-90.07688717451427",
    "latitude": "29.967727459951565",
    "geocoded_column": {
      "latitude": "29.967727459951565",
      "longitude": "-90.07688717451427"
    }
  },
  {
    "service_request": "2024-1095943",
    "request_type": "Trash/Recycling",
    "request_reason": "Order Trash Cart",
    "date_created": "2024-05-22T19:02:23.000",
    "date_modified": "2024-05-22T19:02:23.000",
    "request_status": "Pending",
    "responsible_agency": "Department of Sanitation",
    "final_address": "2129 St Ann St",
    "address_councildis": "D",
    "status": "Assigned to Contractor",
    "contractor": "IV Waste",
    "rowid": "1095943",
    "final_x": "3678659.3357",
    "final_y": "535937.211399",
    "longitude": "-90.07688717451427",
    "latitude": "29.967727459951565",
    "geocoded_column": {
      "latitude": "29.967727459951565",
      "longitude": "-90.07688717451427"
    }
  },
  {
    "service_request": "2024-1095942",
    "request_type": "Trash/Recycling",
    "request_reason": "Order Recycling Cart",
    "date_created": "2024-05-22T19:00:22.000",
    "date_modified": "2024-05-22T19:00:22.000",
    "request_status": "Pending",
    "responsible_agency": "Department of Sanitation",
    "final_address": "2129 St Ann St",
    "address_councildis": "D",
    "status": "Pending",
    "rowid": "1095942",
    "final_x": "3678659.3357",
    "final_y": "535937.211399",
    "longitude": "-90.07688717451427",
    "latitude": "29.967727459951565",
    "geocoded_column": {
      "latitude": "29.967727459951565",
      "longitude": "-90.07688717451427"
    }
  },
  {
    "service_request": "2024-1095941",
    "request_type": "Property Maintenance",
    "request_reason": "Property Maintenance",
    "date_created": "2024-05-22T18:43:45.000",
    "date_modified": "2024-05-22T18:43:45.000",
    "request_status": "Pending",
    "responsible_agency": "Department of Code Enforcement",
    "final_address": "6105 Laurel St",
    "address_councildis": "A",
    "status": "Pending",
    "rowid": "1095941",
    "final_x": "3663713.55251",
    "final_y": "518497.113207",
    "longitude": "-90.12466754359919",
    "latitude": "29.920214939739807",
    "geocoded_column": {
      "latitude": "29.920214939739807",
      "longitude": "-90.12466754359919"
    }
  },
  {
    "service_request": "2024-1095940",
    "request_type": "Trash/Recycling",
    "request_reason": "Request a Large Item Pick Up",
    "date_created": "2024-05-22T18:36:23.000",
    "date_modified": "2024-05-22T18:36:23.000",
    "request_status": "Pending",
    "responsible_agency": "Department of Sanitation",
    "final_address": "10136 Rosewood Pl",
    "address_councildis": "E",
    "status": "Assigned to Contractor",
    "contractor": "Waste Pro",
    "rowid": "1095940",
    "final_x": "3713002.49291",
    "final_y": "557595.788123",
    "longitude": "-89.96761647546153",
    "latitude": "30.02620008874544",
    "geocoded_column": {
      "latitude": "30.02620008874544",
      "longitude": "-89.96761647546153"
    }
  },
  {
    "service_request": "2024-1095939",
    "request_type": "Abandoned Vehicles",
    "request_reason": "Abandoned/Junk Vehicles",
    "date_created": "2024-05-22T18:31:55.000",
    "date_modified": "2024-05-22T18:31:55.000",
    "request_status": "Pending",
    "responsible_agency": "Department of Public Works",
    "final_address": "2070 St Thomas St Apt D",
    "address_councildis": "B",
    "status": "Pending",
    "rowid": "1095939",
    "final_x": "3680340.32207",
    "final_y": "520874.376505",
    "longitude": "-90.07210216782558",
    "latitude": "29.926258918959682",
    "geocoded_column": {
      "latitude": "29.926258918959682",
      "longitude": "-90.07210216782558"
    }
  },
  {
    "service_request": "2024-1095938",
    "request_type": "Roads/Drainage",
    "request_reason": "Street Flooding / Drainage",
    "date_created": "2024-05-22T18:26:36.000",
    "date_modified": "2024-05-22T18:26:36.000",
    "request_status": "Pending",
    "responsible_agency": "Department of Public Works",
    "final_address": "2903 Castiglione St",
    "address_councildis": "D",
    "status": "Pending",
    "rowid": "1095938",
    "final_x": "3679342.00431",
    "final_y": "542353.454157",
    "longitude": "-90.07450868233599",
    "latitude": "29.98534930984134",
    "geocoded_column": {
      "latitude": "29.98534930984134",
      "longitude": "-90.07450868233599"
    }
  },
  {
    "service_request": "2024-1095937",
    "request_type": "Trash/Recycling",
    "request_reason": "MIssed Recycling Pick-Up",
    "date_created": "2024-05-22T18:09:02.000",
    "date_modified": "2024-05-22T18:09:02.000",
    "request_status": "Pending",
    "responsible_agency": "Department of Sanitation",
    "final_address": "2029 S Carrollton Ave",
    "address_councildis": "A",
    "status": "Assigned to Contractor",
    "contractor": "IV Waste",
    "rowid": "1095937",
    "final_x": "3664137.28352",
    "final_y": "530511.98893",
    "longitude": "-90.1229293982272",
    "latitude": "29.953239732006622",
    "geocoded_column": {
      "latitude": "29.953239732006622",
      "longitude": "-90.1229293982272"
    }
  },
  {
    "service_request": "2024-1095936",
    "request_type": "Trash/Recycling",
    "request_reason": "Illegal Dumping",
    "date_created": "2024-05-22T18:07:32.000",
    "date_modified": "2024-05-22T18:07:32.000",
    "request_status": "Pending",
    "responsible_agency": "Department of Sanitation",
    "final_address": "3801 Fourth St",
    "address_councildis": "B",
    "status": "Pending",
    "rowid": "1095936",
    "final_x": "3671942.50708",
    "final_y": "529186.664512",
    "longitude": "-90.0983289205198",
    "latitude": "29.94936650804904",
    "geocoded_column": {
      "latitude": "29.94936650804904",
      "longitude": "-90.0983289205198"
    }
  },
  {
    "service_request": "2024-1095935",
    "request_type": "Abandoned Vehicles",
    "request_reason": "Abandoned/Junk Vehicles",
    "date_created": "2024-05-22T18:06:20.000",
    "date_modified": "2024-05-22T18:06:20.000",
    "request_status": "Pending",
    "responsible_agency": "Department of Public Works",
    "final_address": "2200 BLK Napoleon Ave",
    "address_councildis": "B",
    "status": "Pending",
    "rowid": "1095935",
    "final_x": "3670579.99542",
    "final_y": "523168.250695",
    "longitude": "-90.10283505680812",
    "latitude": "29.932858133528907",
    "geocoded_column": {
      "latitude": "29.932858133528907",
      "longitude": "-90.10283505680812"
    }
  },
  {
    "service_request": "2024-1095934",
    "request_type": "Trash/Recycling",
    "request_reason": "Request a Large Item Pick Up",
    "date_created": "2024-05-22T18:02:30.000",
    "date_modified": "2024-05-22T18:02:31.000",
    "request_status": "Pending",
    "responsible_agency": "Department of Sanitation",
    "final_address": "2420 Laurel St",
    "address_councildis": "B",
    "status": "Assigned to Contractor",
    "contractor": "IV Waste",
    "rowid": "1095934",
    "final_x": "3678342.30446",
    "final_y": "520758.839033",
    "longitude": "-90.07841333620189",
    "latitude": "29.926001548858167",
    "geocoded_column": {
      "latitude": "29.926001548858167",
      "longitude": "-90.07841333620189"
    }
  },
  {
    "service_request": "2024-1095933",
    "request_type": "Trash/Recycling",
    "request_reason": "Request a Large Item Pick Up",
    "date_created": "2024-05-22T18:02:25.000",
    "date_modified": "2024-05-22T18:02:26.000",
    "request_status": "Pending",
    "responsible_agency": "Department of Sanitation",
    "final_address": "701 First St",
    "address_councildis": "B",
    "status": "Assigned to Contractor",
    "contractor": "IV Waste",
    "rowid": "1095933",
    "final_x": "3678888.49211",
    "final_y": "520323.13548",
    "longitude": "-90.07670426539755",
    "latitude": "29.924787046647317",
    "geocoded_column": {
      "latitude": "29.924787046647317",
      "longitude": "-90.07670426539755"
    }
  },
  {
    "service_request": "2024-1095932",
    "request_type": "Abandoned Vehicles",
    "request_reason": "Abandoned/Junk Vehicles",
    "date_created": "2024-05-22T18:01:25.000",
    "date_modified": "2024-05-22T18:01:25.000",
    "request_status": "Pending",
    "responsible_agency": "Department of Public Works",
    "final_address": "3519 Martin Luther King, Jr. Blvd",
    "address_councildis": "B",
    "status": "Pending",
    "rowid": "1095932",
    "final_x": "3673139.72385",
    "final_y": "529450.347713",
    "longitude": "-90.09453976530592",
    "latitude": "29.95005601443472",
    "geocoded_column": {
      "latitude": "29.95005601443472",
      "longitude": "-90.09453976530592"
    }
  },
  {
    "service_request": "2024-1095931",
    "request_type": "Abandoned Vehicles",
    "request_reason": "Abandoned/Junk Vehicles",
    "date_created": "2024-05-22T17:55:16.000",
    "date_modified": "2024-05-22T17:55:16.000",
    "request_status": "Pending",
    "responsible_agency": "Department of Public Works",
    "final_address": "3501 Martin Luther King, Jr. Blvd",
    "address_councildis": "B",
    "status": "Pending",
    "rowid": "1095931",
    "final_x": "3673282.125",
    "final_y": "529356.166081",
    "longitude": "-90.09409335361381",
    "latitude": "29.949792812077515",
    "geocoded_column": {
      "latitude": "29.949792812077515",
      "longitude": "-90.09409335361381"
    }
  },
  {
    "service_request": "2024-1095930",
    "request_type": "Abandoned Vehicles",
    "request_reason": "Abandoned/Junk Vehicles",
    "date_created": "2024-05-22T17:50:59.000",
    "date_modified": "2024-05-22T17:50:59.000",
    "request_status": "Pending",
    "responsible_agency": "Department of Public Works",
    "final_address": "3507 Martin Luther King, Jr. Blvd",
    "address_councildis": "B",
    "status": "Pending",
    "rowid": "1095930",
    "final_x": "3673238.57704",
    "final_y": "529385.254913",
    "longitude": "-90.09422986155347",
    "latitude": "29.949874091719785",
    "geocoded_column": {
      "latitude": "29.949874091719785",
      "longitude": "-90.09422986155347"
    }
  },
  {
    "service_request": "2024-1095929",
    "request_type": "Trash/Recycling",
    "request_reason": "Missed Trash Pick-Up",
    "date_created": "2024-05-22T17:46:53.000",
    "date_modified": "2024-05-22T17:46:53.000",
    "request_status": "Pending",
    "responsible_agency": "Department of Sanitation",
    "final_address": "11268 Waverly Dr",
    "address_councildis": "E",
    "status": "Assigned to Contractor",
    "contractor": "Waste Pro",
    "rowid": "1095929",
    "final_x": "3717495.86648",
    "final_y": "560168.360093",
    "longitude": "-89.95332023010998",
    "latitude": "30.0331256046579",
    "geocoded_column": {
      "latitude": "30.0331256046579",
      "longitude": "-89.95332023010998"
    }
  },
  {
    "service_request": "2024-1095926",
    "request_type": "Trash/Recycling",
    "request_reason": "Replace Trash Cart",
    "date_created": "2024-05-22T17:36:49.000",
    "date_modified": "2024-05-22T17:36:50.000",
    "request_status": "Pending",
    "responsible_agency": "Department of Sanitation",
    "final_address": "4023 Tchoupitoulas St, New Orleans, Louisiana, 70115",
    "address_councildis": "B",
    "status": "Assigned to Contractor",
    "contractor": "IV Waste",
    "rowid": "1095926",
    "final_x": "3672456.92334",
    "final_y": "517628.933814",
    "longitude": "-90.09709839396619",
    "latitude": "29.917571230941423",
    "geocoded_column": {
      "latitude": "29.917571230941423",
      "longitude": "-90.09709839396619"
    }
  },
  {
    "service_request": "2024-1095925",
    "request_type": "Trash/Recycling",
    "request_reason": "Replace Trash Cart",
    "date_created": "2024-05-22T17:36:17.000",
    "date_modified": "2024-05-22T17:36:17.000",
    "request_status": "Pending",
    "responsible_agency": "Department of Sanitation",
    "final_address": "1032 State St",
    "address_councildis": "A",
    "status": "Assigned to Contractor",
    "contractor": "IV Waste",
    "rowid": "1095925",
    "final_x": "3664940.30266",
    "final_y": "520163.182328",
    "longitude": "-90.12073960727646",
    "latitude": "29.924760469631025",
    "geocoded_column": {
      "latitude": "29.924760469631025",
      "longitude": "-90.12073960727646"
    }
  },
  {
    "service_request": "2024-1095924",
    "request_type": "Roads/Drainage",
    "request_reason": "Pothole",
    "date_created": "2024-05-22T17:26:58.000",
    "date_modified": "2024-05-22T17:26:58.000",
    "request_status": "Pending",
    "responsible_agency": "Department of Public Works",
    "final_address": "6539 West End Blvd",
    "address_councildis": "A",
    "status": "Pending",
    "rowid": "1095924",
    "final_x": "3666754.97473",
    "final_y": "551240.882453",
    "longitude": "-90.11396729947357",
    "latitude": "30.010160902324266",
    "geocoded_column": {
      "latitude": "30.010160902324266",
      "longitude": "-90.11396729947357"
    }
  },
  {
    "service_request": "2024-1095923",
    "request_type": "Roads/Drainage",
    "request_reason": "Catch Basin - Clogged",
    "date_created": "2024-05-22T17:13:19.000",
    "date_modified": "2024-05-22T17:13:19.000",
    "request_status": "Pending",
    "responsible_agency": "Department of Public Works",
    "final_address": "8112 Oak St",
    "address_councildis": "A",
    "status": "Pending",
    "rowid": "1095923",
    "final_x": "3661866.02861",
    "final_y": "528418.806656",
    "longitude": "-90.1301704783094",
    "latitude": "29.94754992837526",
    "geocoded_column": {
      "latitude": "29.94754992837526",
      "longitude": "-90.1301704783094"
    }
  },
  {
    "service_request": "2024-1095922",
    "request_type": "Trash/Recycling",
    "request_reason": "Order Recycling Cart",
    "date_created": "2024-05-22T17:08:26.000",
    "date_modified": "2024-05-22T17:08:26.000",
    "request_status": "Pending",
    "responsible_agency": "Department of Sanitation",
    "final_address": "8620 Hayne Blvd",
    "address_councildis": "E",
    "status": "Pending",
    "rowid": "1095922",
    "final_x": "3703613.58052",
    "final_y": "563638.908193",
    "longitude": "-89.99706138263862",
    "latitude": "30.043120661364117",
    "geocoded_column": {
      "latitude": "30.043120661364117",
      "longitude": "-89.99706138263862"
    }
  },
  {
    "service_request": "2024-1095918",
    "request_type": "Trash/Recycling",
    "request_reason": "Request a Large Item Pick Up",
    "date_created": "2024-05-22T16:58:06.000",
    "date_modified": "2024-05-22T16:58:07.000",
    "request_status": "Pending",
    "responsible_agency": "Department of Sanitation",
    "final_address": "13923 Linden St",
    "address_councildis": "E",
    "status": "Assigned to Contractor",
    "contractor": "Waste Pro",
    "rowid": "1095918",
    "final_x": "3718100.35122",
    "final_y": "572257.480169",
    "longitude": "-89.95094913186578",
    "latitude": "30.066345683883302",
    "geocoded_column": {
      "latitude": "30.066345683883302",
      "longitude": "-89.95094913186578"
    }
  },
  {
    "service_request": "2024-1095919",
    "request_type": "Traffic Signals/Signs/Striping/Streetlights",
    "request_reason": "Street Light Outage/Malfunction",
    "date_created": "2024-05-22T16:58:06.000",
    "date_modified": "2024-05-22T16:58:07.000",
    "request_status": "Pending",
    "responsible_agency": "Department of Public Works",
    "final_address": "3143 Yupon St",
    "address_councildis": "D",
    "status": "Assigned to Contractor",
    "contractor": "Legacy Professional Services",
    "rowid": "1095919",
    "final_x": "3675687.96251",
    "final_y": "544050.819662",
    "longitude": "-90.08599193349272",
    "latitude": "29.990126350337864",
    "geocoded_column": {
      "latitude": "29.990126350337864",
      "longitude": "-90.08599193349272"
    }
  },
  {
    "service_request": "2024-1095917",
    "request_type": "Abandoned Vehicles",
    "request_reason": "Abandoned/Junk Vehicles",
    "date_created": "2024-05-22T16:56:02.000",
    "date_modified": "2024-05-22T16:56:03.000",
    "request_status": "Pending",
    "responsible_agency": "Department of Public Works",
    "final_address": "4724 Charlene Dr",
    "address_councildis": "E",
    "status": "Pending",
    "rowid": "1095917",
    "final_x": "3707857.83499",
    "final_y": "555399.027865",
    "longitude": "-89.98395456929535",
    "latitude": "30.02032745439956",
    "geocoded_column": {
      "latitude": "30.02032745439956",
      "longitude": "-89.98395456929535"
    }
  },
  {
    "service_request": "2024-1095916",
    "request_type": "Trash/Recycling",
    "request_reason": "Request a Large Item Pick Up",
    "date_created": "2024-05-22T16:55:04.000",
    "date_modified": "2024-05-22T16:55:05.000",
    "request_status": "Pending",
    "responsible_agency": "Department of Sanitation",
    "final_address": "2239 Peniston St",
    "address_councildis": "B",
    "status": "Assigned to Contractor",
    "contractor": "IV Waste",
    "rowid": "1095916",
    "final_x": "3672343.41716",
    "final_y": "523499.706875",
    "longitude": "-90.09725676945675",
    "latitude": "29.93371734232109",
    "geocoded_column": {
      "latitude": "29.93371734232109",
      "longitude": "-90.09725676945675"
    }
  },
  {
    "service_request": "2024-1095915",
    "request_type": "Trash/Recycling",
    "request_reason": "Repair Trash Cart",
    "date_created": "2024-05-22T16:54:55.000",
    "date_modified": "2024-05-22T16:54:56.000",
    "request_status": "Pending",
    "responsible_agency": "Department of Sanitation",
    "final_address": "4839 Chartres St",
    "address_councildis": "E",
    "status": "Assigned to Contractor",
    "contractor": "Waste Pro",
    "rowid": "1095915",
    "final_x": "3694847.08509",
    "final_y": "532618.066628",
    "longitude": "-90.02588567253319",
    "latitude": "29.958102982282732",
    "geocoded_column": {
      "latitude": "29.958102982282732",
      "longitude": "-90.02588567253319"
    }
  },
  {
    "service_request": "2024-1095914",
    "request_type": "Trash/Recycling",
    "request_reason": "Request a Large Item Pick Up",
    "date_created": "2024-05-22T16:51:40.000",
    "date_modified": "2024-05-22T16:51:41.000",
    "request_status": "Pending",
    "responsible_agency": "Department of Sanitation",
    "final_address": "7211 Lake Barrington Dr",
    "address_councildis": "E",
    "status": "Assigned to Contractor",
    "contractor": "Waste Pro",
    "rowid": "1095914",
    "final_x": "3712310.10994",
    "final_y": "564443.720225",
    "longitude": "-89.96954675520688",
    "latitude": "30.0450518404302",
    "geocoded_column": {
      "latitude": "30.0450518404302",
      "longitude": "-89.96954675520688"
    }
  },
  {
    "service_request": "2024-1095913",
    "request_type": "Trash/Recycling",
    "request_reason": "Order Trash Cart",
    "date_created": "2024-05-22T16:49:19.000",
    "date_modified": "2024-05-22T16:49:20.000",
    "request_status": "Pending",
    "responsible_agency": "Department of Sanitation",
    "final_address": "4700 BLK Papania Dr",
    "address_councildis": "E",
    "status": "Assigned to Contractor",
    "contractor": "Waste Pro",
    "rowid": "1095913",
    "final_x": "3715566.59836",
    "final_y": "557008.65808",
    "longitude": "-89.95953655008307",
    "latitude": "30.024501433152338",
    "geocoded_column": {
      "latitude": "30.024501433152338",
      "longitude": "-89.95953655008307"
    }
  },
  {
    "service_request": "2024-1095912",
    "request_type": "Trash/Recycling",
    "request_reason": "Request a Large Item Pick Up",
    "date_created": "2024-05-22T16:46:13.000",
    "date_modified": "2024-05-22T16:46:14.000",
    "request_status": "Pending",
    "responsible_agency": "Department of Sanitation",
    "final_address": "4100 Fontainebleau Dr",
    "address_councildis": "B",
    "status": "Assigned to Contractor",
    "contractor": "IV Waste",
    "rowid": "1095912",
    "final_x": "3669901.82292",
    "final_y": "528998.839104",
    "longitude": "-90.10477864703935",
    "latitude": "29.948910370252857",
    "geocoded_column": {
      "latitude": "29.948910370252857",
      "longitude": "-90.10477864703935"
    }
  },
  {
    "service_request": "2024-1095911",
    "request_type": "Trash/Recycling",
    "request_reason": "MIssed Recycling Pick-Up",
    "date_created": "2024-05-22T16:45:29.000",
    "date_modified": "2024-05-22T16:45:30.000",
    "request_status": "Pending",
    "responsible_agency": "Department of Sanitation",
    "final_address": "14010 Linden St",
    "address_councildis": "E",
    "status": "Assigned to Contractor",
    "contractor": "Waste Pro",
    "rowid": "1095911",
    "final_x": "3718430.4485",
    "final_y": "572425.916777",
    "longitude": "-89.94989922889216",
    "latitude": "30.066797859742053",
    "geocoded_column": {
      "latitude": "30.066797859742053",
      "longitude": "-89.94989922889216"
    }
  },
  {
    "service_request": "2024-1095910",
    "request_type": "Property Maintenance",
    "request_reason": "Property Maintenance",
    "date_created": "2024-05-22T16:43:33.000",
    "date_modified": "2024-05-22T16:43:34.000",
    "request_status": "Pending",
    "responsible_agency": "Department of Code Enforcement",
    "final_address": "2314 Delery St",
    "address_councildis": "E",
    "status": "Pending",
    "rowid": "1095910",
    "final_x": "3702208.70065",
    "final_y": "537434.866696",
    "longitude": "-90.00246323893724",
    "latitude": "29.971114425544155",
    "geocoded_column": {
      "latitude": "29.971114425544155",
      "longitude": "-90.00246323893724"
    }
  },
  {
    "service_request": "2024-1095909",
    "request_type": "Trash/Recycling",
    "request_reason": "Request a Large Item Pick Up",
    "date_created": "2024-05-22T16:38:43.000",
    "date_modified": "2024-05-22T16:38:43.000",
    "request_status": "Pending",
    "responsible_agency": "Department of Sanitation",
    "final_address": "7400 Dartmoor Dr",
    "address_councildis": "E",
    "status": "Assigned to Contractor",
    "contractor": "Waste Pro",
    "rowid": "1095909",
    "final_x": "3704943.01841",
    "final_y": "561888.866847",
    "longitude": "-89.99292454113606",
    "latitude": "30.038266042314778",
    "geocoded_column": {
      "latitude": "30.038266042314778",
      "longitude": "-89.99292454113606"
    }
  },
  {
    "service_request": "2024-1095908",
    "request_type": "Trash/Recycling",
    "request_reason": "Request a Large Item Pick Up",
    "date_created": "2024-05-22T16:37:21.000",
    "date_modified": "2024-05-22T16:42:56.000",
    "request_status": "Pending",
    "responsible_agency": "Department of Sanitation",
    "final_address": "11251 S Parkwood Ct",
    "address_councildis": "E",
    "contractor": "Waste Pro",
    "rowid": "1095908",
    "final_x": "3716809.82904",
    "final_y": "559174.723612",
    "longitude": "-89.95552590628999",
    "latitude": "30.03041620408868",
    "geocoded_column": {
      "latitude": "30.03041620408868",
      "longitude": "-89.95552590628999"
    }
  },
  {
    "service_request": "2024-1095907",
    "request_type": "Trash/Recycling",
    "request_reason": "Request a Large Item Pick Up",
    "date_created": "2024-05-22T16:36:39.000",
    "date_modified": "2024-05-22T16:36:39.000",
    "request_status": "Pending",
    "responsible_agency": "Department of Sanitation",
    "final_address": "2218 Valence St",
    "address_councildis": "B",
    "status": "Assigned to Contractor",
    "contractor": "IV Waste",
    "rowid": "1095907",
    "final_x": "3669401.92398",
    "final_y": "523036.346491",
    "longitude": "-90.1065586076973",
    "latitude": "29.932530173099984",
    "geocoded_column": {
      "latitude": "29.932530173099984",
      "longitude": "-90.1065586076973"
    }
  },
  {
    "service_request": "2024-1095906",
    "request_type": "Safety & Permits",
    "request_reason": "Licenses & Permits",
    "date_created": "2024-05-22T16:34:01.000",
    "date_modified": "2024-05-22T16:34:02.000",
    "request_status": "Pending",
    "responsible_agency": "Safety and Permits",
    "final_address": "2427 Annunciation St",
    "address_councildis": "B",
    "status": "Pending",
    "rowid": "1095906",
    "final_x": "3678472.17646",
    "final_y": "520491.231864",
    "longitude": "-90.07801262297028",
    "latitude": "29.925261804600424",
    "geocoded_column": {
      "latitude": "29.925261804600424",
      "longitude": "-90.07801262297028"
    }
  },
  {
    "service_request": "2024-1095905",
    "request_type": "Roads/Drainage",
    "request_reason": "Damaged Sidewalk",
    "date_created": "2024-05-22T16:32:35.000",
    "date_modified": "2024-05-22T16:32:36.000",
    "request_status": "Pending",
    "responsible_agency": "Department of Public Works",
    "final_address": "6510 Manchester St",
    "address_councildis": "E",
    "status": "Pending",
    "rowid": "1095905",
    "final_x": "3697385.07216",
    "final_y": "559234.766556",
    "longitude": "-90.01690585342139",
    "latitude": "30.031209227105013",
    "geocoded_column": {
      "latitude": "30.031209227105013",
      "longitude": "-90.01690585342139"
    }
  },
  {
    "service_request": "2024-1095904",
    "request_type": "Trash/Recycling",
    "request_reason": "Missed Trash Pick-Up",
    "date_created": "2024-05-22T16:29:15.000",
    "date_modified": "2024-05-22T16:29:15.000",
    "request_status": "Pending",
    "responsible_agency": "Department of Sanitation",
    "final_address": "11275 Midpoint Dr",
    "address_councildis": "E",
    "status": "Assigned to Contractor",
    "contractor": "Waste Pro",
    "rowid": "1095904",
    "final_x": "3718206.6094",
    "final_y": "559455.143005",
    "longitude": "-89.95110142858286",
    "latitude": "30.031140989378496",
    "geocoded_column": {
      "latitude": "30.031140989378496",
      "longitude": "-89.95110142858286"
    }
  },
  {
    "service_request": "2024-1095903",
    "request_type": "Trash/Recycling",
    "request_reason": "Request a Large Item Pick Up",
    "date_created": "2024-05-22T16:28:13.000",
    "date_modified": "2024-05-22T16:28:13.000",
    "request_status": "Pending",
    "responsible_agency": "Department of Sanitation",
    "final_address": "616 Fats Domino Ave",
    "address_councildis": "E",
    "status": "Assigned to Contractor",
    "contractor": "Waste Pro",
    "rowid": "1095903",
    "final_x": "3697498.90231",
    "final_y": "532124.949955",
    "longitude": "-90.0175298981997",
    "latitude": "29.956663619494044",
    "geocoded_column": {
      "latitude": "29.956663619494044",
      "longitude": "-90.0175298981997"
    }
  },
  {
    "service_request": "2024-1095902",
    "request_type": "Trash/Recycling",
    "request_reason": "Replace Trash Cart",
    "date_created": "2024-05-22T16:27:49.000",
    "date_modified": "2024-05-22T16:27:50.000",
    "request_status": "Pending",
    "responsible_agency": "Department of Sanitation",
    "final_address": "5937 Annunciation St",
    "address_councildis": "A",
    "status": "Assigned to Contractor",
    "contractor": "IV Waste",
    "rowid": "1095902",
    "final_x": "3664643.13978",
    "final_y": "517874.226422",
    "longitude": "-90.12175405602147",
    "latitude": "29.918475200536463",
    "geocoded_column": {
      "latitude": "29.918475200536463",
      "longitude": "-90.12175405602147"
    }
  },
  {
    "service_request": "2024-1095901",
    "request_type": "Property Maintenance",
    "request_reason": "Property Maintenance",
    "date_created": "2024-05-22T16:27:29.000",
    "date_modified": "2024-05-22T16:27:30.000",
    "request_status": "Pending",
    "responsible_agency": "Department of Code Enforcement",
    "final_address": "1218 Lesseps St",
    "address_councildis": "D",
    "status": "Pending",
    "rowid": "1095901",
    "final_x": "3692788.236",
    "final_y": "535596.923846",
    "longitude": "-90.0322801136052",
    "latitude": "29.966358228284104",
    "geocoded_column": {
      "latitude": "29.966358228284104",
      "longitude": "-90.0322801136052"
    }
  },
  {
    "service_request": "2024-1095900",
    "request_type": "Roads/Drainage",
    "request_reason": "Damaged Sidewalk",
    "date_created": "2024-05-22T16:25:33.000",
    "date_modified": "2024-05-22T16:25:34.000",
    "request_status": "Pending",
    "responsible_agency": "Department of Public Works",
    "final_address": "7430 W Laverne St",
    "address_councildis": "D",
    "status": "Pending",
    "rowid": "1095900",
    "final_x": "3695259.4479",
    "final_y": "558166.466587",
    "longitude": "-90.02366145766904",
    "latitude": "30.028338786548243",
    "geocoded_column": {
      "latitude": "30.028338786548243",
      "longitude": "-90.02366145766904"
    }
  },
  {
    "service_request": "2024-1095899",
    "request_type": "Parks & Parkways",
    "request_reason": "Request Tree Service (Right of Way/Public Property)",
    "date_created": "2024-05-22T16:24:19.000",
    "date_modified": "2024-05-22T16:24:20.000",
    "request_status": "Pending",
    "responsible_agency": "Department of Parks & Parkway",
    "final_address": "7430 W Laverne St",
    "address_councildis": "D",
    "status": "Pending",
    "rowid": "1095899",
    "final_x": "3695259.4479",
    "final_y": "558166.466587",
    "longitude": "-90.02366145766904",
    "latitude": "30.028338786548243",
    "geocoded_column": {
      "latitude": "30.028338786548243",
      "longitude": "-90.02366145766904"
    }
  },
  {
    "service_request": "2024-1095898",
    "request_type": "Trash/Recycling",
    "request_reason": "Request a Large Item Pick Up",
    "date_created": "2024-05-22T16:24:15.000",
    "date_modified": "2024-05-22T16:24:16.000",
    "request_status": "Pending",
    "responsible_agency": "Department of Sanitation",
    "final_address": "2505 Third St",
    "address_councildis": "B",
    "status": "Assigned to Contractor",
    "contractor": "IV Waste",
    "rowid": "1095898",
    "final_x": "3674616.27745",
    "final_y": "525694.918973",
    "longitude": "-90.0900062532165",
    "latitude": "29.939685845743963",
    "geocoded_column": {
      "latitude": "29.939685845743963",
      "longitude": "-90.0900062532165"
    }
  },
  {
    "service_request": "2024-1095897",
    "request_type": "Trash/Recycling",
    "request_reason": "Request a Large Item Pick Up",
    "date_created": "2024-05-22T16:24:11.000",
    "date_modified": "2024-05-22T16:24:11.000",
    "request_status": "Pending",
    "responsible_agency": "Department of Sanitation",
    "final_address": "1633 Tropic Dr",
    "address_councildis": "C",
    "status": "Assigned to Contractor",
    "contractor": "Richards Disposal",
    "rowid": "1095897",
    "final_x": "3699441.24791",
    "final_y": "524688.232124",
    "longitude": "-90.01166749723583",
    "latitude": "29.93615378283697",
    "geocoded_column": {
      "latitude": "29.93615378283697",
      "longitude": "-90.01166749723583"
    }
  },
  {
    "service_request": "2024-1095896",
    "request_type": "Trash/Recycling",
    "request_reason": "Request a Large Item Pick Up",
    "date_created": "2024-05-22T16:19:42.000",
    "date_modified": "2024-05-22T16:19:43.000",
    "request_status": "Pending",
    "responsible_agency": "Department of Sanitation",
    "final_address": "WAGNER ST & OPELOUSAS AVE",
    "address_councildis": "C",
    "status": "Assigned to Contractor",
    "contractor": "Richards Disposal",
    "rowid": "1095896",
    "final_x": "3690562.2",
    "final_y": "529024.88",
    "longitude": "-90.03954421601912",
    "latitude": "29.948356703112204",
    "geocoded_column": {
      "latitude": "29.948356703112204",
      "longitude": "-90.03954421601912"
    }
  },
  {
    "service_request": "2024-1095895",
    "request_type": "Roads/Drainage",
    "request_reason": "Debris in Roadway",
    "date_created": "2024-05-22T16:17:18.000",
    "date_modified": "2024-05-22T16:17:18.000",
    "request_status": "Pending",
    "responsible_agency": "Department of Public Works",
    "final_address": "8003 Jeannette St",
    "address_councildis": "A",
    "status": "Pending",
    "rowid": "1095895",
    "final_x": "3662993.83802",
    "final_y": "528918.341824",
    "longitude": "-90.1265929181658",
    "latitude": "29.94889087904273",
    "geocoded_column": {
      "latitude": "29.94889087904273",
      "longitude": "-90.1265929181658"
    }
  },
  {
    "service_request": "2024-1095894",
    "request_type": "Roads/Drainage",
    "request_reason": "Street Subsidence (Sinking)",
    "date_created": "2024-05-22T16:16:12.000",
    "date_modified": "2024-05-22T16:16:12.000",
    "request_status": "Pending",
    "responsible_agency": "Department of Public Works",
    "final_address": "2032 Toledano St",
    "address_councildis": "B",
    "status": "Pending",
    "rowid": "1095894",
    "final_x": "3673807.41998",
    "final_y": "523254.166779",
    "longitude": "-90.09264337008615",
    "latitude": "29.93299868010127",
    "geocoded_column": {
      "latitude": "29.93299868010127",
      "longitude": "-90.09264337008615"
    }
  },
  {
    "service_request": "2024-1095893",
    "request_type": "Traffic Signals/Signs/Striping/Streetlights",
    "request_reason": "Traffic Signal Malfunctioning/Damaged",
    "date_created": "2024-05-22T16:16:00.000",
    "date_modified": "2024-05-22T16:16:00.000",
    "request_status": "Pending",
    "responsible_agency": "Department of Public Works",
    "final_address": "2602 Royal St",
    "address_councildis": "C",
    "status": "Pending",
    "rowid": "1095893",
    "final_x": "3686781.46479",
    "final_y": "534928.537862",
    "longitude": "-90.05127297185369",
    "latitude": "29.964706570357663",
    "geocoded_column": {
      "latitude": "29.964706570357663",
      "longitude": "-90.05127297185369"
    }
  },
  {
    "service_request": "2024-1095891",
    "request_type": "Traffic Signals/Signs/Striping/Streetlights",
    "request_reason": "Street Light Outage/Malfunction",
    "date_created": "2024-05-22T16:14:45.000",
    "date_modified": "2024-05-22T16:14:46.000",
    "request_status": "Pending",
    "responsible_agency": "Department of Public Works",
    "final_address": "2032 Toledano St",
    "address_councildis": "B",
    "status": "Assigned to Contractor",
    "contractor": "Legacy Professional Services",
    "rowid": "1095891",
    "final_x": "3673807.41998",
    "final_y": "523254.166779",
    "longitude": "-90.09264337008615",
    "latitude": "29.93299868010127",
    "geocoded_column": {
      "latitude": "29.93299868010127",
      "longitude": "-90.09264337008615"
    }
  },
  {
    "service_request": "2024-1095892",
    "request_type": "Traffic Signals/Signs/Striping/Streetlights",
    "request_reason": "Street Light Outage/Malfunction",
    "date_created": "2024-05-22T16:14:45.000",
    "date_modified": "2024-05-22T16:14:46.000",
    "request_status": "Pending",
    "responsible_agency": "Department of Public Works",
    "final_address": "2032 Toledano St",
    "address_councildis": "B",
    "status": "Assigned to Contractor",
    "contractor": "Legacy Professional Services",
    "rowid": "1095892",
    "final_x": "3673807.41998",
    "final_y": "523254.166779",
    "longitude": "-90.09264337008615",
    "latitude": "29.93299868010127",
    "geocoded_column": {
      "latitude": "29.93299868010127",
      "longitude": "-90.09264337008615"
    }
  },
  {
    "service_request": "2024-1095890",
    "request_type": "Trash/Recycling",
    "request_reason": "MIssed Recycling Pick-Up",
    "date_created": "2024-05-22T16:13:22.000",
    "date_modified": "2024-05-22T16:13:22.000",
    "request_status": "Pending",
    "responsible_agency": "Department of Sanitation",
    "final_address": "5338 Royal St",
    "address_councildis": "E",
    "status": "Assigned to Contractor",
    "contractor": "Waste Pro",
    "rowid": "1095890",
    "final_x": "3696698.38346",
    "final_y": "532453.820676",
    "longitude": "-90.02004576215406",
    "latitude": "29.95759315021726",
    "geocoded_column": {
      "latitude": "29.95759315021726",
      "longitude": "-90.02004576215406"
    }
  },
  {
    "service_request": "2024-1095889",
    "request_type": "Trash/Recycling",
    "request_reason": "Repair Trash Cart",
    "date_created": "2024-05-22T16:13:09.000",
    "date_modified": "2024-05-22T16:13:09.000",
    "request_status": "Pending",
    "responsible_agency": "Department of Sanitation",
    "final_address": "92 Westpark Ct",
    "address_councildis": "C",
    "status": "Assigned to Contractor",
    "contractor": "Richards Disposal",
    "rowid": "1095889",
    "final_x": "3695856.93994",
    "final_y": "521820.599162",
    "longitude": "-90.02308672128626",
    "latitude": "29.928381967758433",
    "geocoded_column": {
      "latitude": "29.928381967758433",
      "longitude": "-90.02308672128626"
    }
  },
  {
    "service_request": "2024-1095888",
    "request_type": "Trash/Recycling",
    "request_reason": "MIssed Recycling Pick-Up",
    "date_created": "2024-05-22T16:08:48.000",
    "date_modified": "2024-05-22T17:01:41.000",
    "case_close_date": "2024-05-22T12:01:41.000",
    "request_status": "Closed",
    "responsible_agency": "Department of Sanitation",
    "final_address": "841 Lowerline St",
    "address_councildis": "A",
    "status": "Invalid Request",
    "contractor": "IV Waste",
    "contractor_action": "Invalid Request",
    "rowid": "1095888",
    "final_x": "3663089.25696",
    "final_y": "525873.007101",
    "longitude": "-90.12639291977504",
    "latitude": "29.940514419404433",
    "geocoded_column": {
      "latitude": "29.940514419404433",
      "longitude": "-90.12639291977504"
    }
  },
  {
    "service_request": "2024-1095887",
    "request_type": "Trash/Recycling",
    "request_reason": "Order Trash Cart",
    "date_created": "2024-05-22T16:08:07.000",
    "date_modified": "2024-05-22T16:08:07.000",
    "request_status": "Pending",
    "responsible_agency": "Department of Sanitation",
    "final_address": "3000 St Roch Ave",
    "address_councildis": "D",
    "status": "Assigned to Contractor",
    "contractor": "IV Waste",
    "rowid": "1095887",
    "final_x": "3685812.19222",
    "final_y": "543820.392142",
    "longitude": "-90.05402035474606",
    "latitude": "29.989185831718906",
    "geocoded_column": {
      "latitude": "29.989185831718906",
      "longitude": "-90.05402035474606"
    }
  },
  {
    "service_request": "2024-1095886",
    "request_type": "Trash/Recycling",
    "request_reason": "Start Trash Service",
    "date_created": "2024-05-22T16:07:04.000",
    "date_modified": "2024-05-22T16:07:05.000",
    "request_status": "Pending",
    "responsible_agency": "Department of Sanitation",
    "final_address": "3000 St Roch Ave",
    "address_councildis": "D",
    "status": "Assigned to Contractor",
    "contractor": "IV Waste",
    "rowid": "1095886",
    "final_x": "3685812.19222",
    "final_y": "543820.392142",
    "longitude": "-90.05402035474606",
    "latitude": "29.989185831718906",
    "geocoded_column": {
      "latitude": "29.989185831718906",
      "longitude": "-90.05402035474606"
    }
  },
  {
    "service_request": "2024-1095885",
    "request_type": "Abandoned Vehicles",
    "request_reason": "Abandoned/Junk Vehicles",
    "date_created": "2024-05-22T16:03:28.000",
    "date_modified": "2024-05-22T16:04:55.000",
    "request_status": "Pending",
    "responsible_agency": "Department of Public Works",
    "final_address": "5531 Clements Dr",
    "address_councildis": "E",
    "status": "Pending",
    "rowid": "1095885",
    "final_x": "3702487.21674",
    "final_y": "556117.463514",
    "longitude": "-90.00089755186711",
    "latitude": "30.022475686299167",
    "geocoded_column": {
      "latitude": "30.022475686299167",
      "longitude": "-90.00089755186711"
    }
  },
  {
    "service_request": "2024-1095884",
    "request_type": "Roads/Drainage",
    "request_reason": "Pothole",
    "date_created": "2024-05-22T16:02:33.000",
    "date_modified": "2024-05-22T16:02:33.000",
    "request_status": "Pending",
    "responsible_agency": "Department of Public Works",
    "final_address": "2220 N Robertson St",
    "address_councildis": "C",
    "status": "Pending",
    "rowid": "1095884",
    "final_x": "3685144.9174",
    "final_y": "537765.012168",
    "longitude": "-90.05634124040681",
    "latitude": "29.97255613728462",
    "geocoded_column": {
      "latitude": "29.97255613728462",
      "longitude": "-90.05634124040681"
    }
  },
  {
    "service_request": "2024-1095882",
    "request_type": "Trash/Recycling",
    "request_reason": "Request a Large Item Pick Up",
    "date_created": "2024-05-22T16:01:11.000",
    "date_modified": "2024-05-22T16:01:12.000",
    "request_status": "Pending",
    "responsible_agency": "Department of Sanitation",
    "final_address": "3443 Esplanade Ave Apt 635",
    "address_councildis": "A",
    "status": "Assigned to Contractor",
    "contractor": "IV Waste",
    "rowid": "1095882",
    "final_x": "3675002.23182",
    "final_y": "542014.93646",
    "longitude": "-90.08822785776424",
    "latitude": "29.984548884205356",
    "geocoded_column": {
      "latitude": "29.984548884205356",
      "longitude": "-90.08822785776424"
    }
  },
  {
    "service_request": "2024-1095881",
    "request_type": "Abandoned Vehicles",
    "request_reason": "Abandoned/Junk Vehicles",
    "date_created": "2024-05-22T15:57:57.000",
    "date_modified": "2024-05-22T15:57:57.000",
    "request_status": "Pending",
    "responsible_agency": "Department of Public Works",
    "final_address": "810 N Robertson St A",
    "address_councildis": "C",
    "status": "Pending",
    "rowid": "1095881",
    "final_x": "3680400.55829",
    "final_y": "534719.188678",
    "longitude": "-90.07143071022064",
    "latitude": "29.96432570023556",
    "geocoded_column": {
      "latitude": "29.96432570023556",
      "longitude": "-90.07143071022064"
    }
  },
  {
    "service_request": "2024-1095879",
    "request_type": "Trash/Recycling",
    "request_reason": "Request a Large Item Pick Up",
    "date_created": "2024-05-22T15:48:14.000",
    "date_modified": "2024-05-22T15:48:14.000",
    "request_status": "Pending",
    "responsible_agency": "Department of Sanitation",
    "final_address": "4859 Evangeline Dr",
    "address_councildis": "E",
    "status": "Assigned to Contractor",
    "contractor": "Waste Pro",
    "rowid": "1095879",
    "final_x": "3709084.48363",
    "final_y": "556536.015002",
    "longitude": "-89.98003634358123",
    "latitude": "30.02341394874305",
    "geocoded_column": {
      "latitude": "30.02341394874305",
      "longitude": "-89.98003634358123"
    }
  },
  {
    "service_request": "2024-1095878",
    "request_type": "Roads/Drainage",
    "request_reason": "Debris in Roadway",
    "date_created": "2024-05-22T15:47:51.000",
    "date_modified": "2024-05-22T15:50:56.000",
    "request_status": "Pending",
    "responsible_agency": "Department of Public Works",
    "final_address": "1210 Peniston St",
    "address_councildis": "B",
    "status": "Wrong Agency",
    "rowid": "1095878",
    "final_x": "3673070.73268",
    "final_y": "520149.477688",
    "longitude": "-90.0950749614316",
    "latitude": "29.924483698017024",
    "geocoded_column": {
      "latitude": "29.924483698017024",
      "longitude": "-90.0950749614316"
    }
  },
  {
    "service_request": "2024-1095876",
    "request_type": "Trash/Recycling",
    "request_reason": "Request a Large Item Pick Up",
    "date_created": "2024-05-22T15:45:56.000",
    "date_modified": "2024-05-22T15:45:56.000",
    "request_status": "Pending",
    "responsible_agency": "Department of Sanitation",
    "final_address": "6241 Kingston Ct",
    "address_councildis": "C",
    "status": "Assigned to Contractor",
    "contractor": "Richards Disposal",
    "rowid": "1095876",
    "final_x": "3707160.04561",
    "final_y": "517745.210038",
    "longitude": "-89.98755668816732",
    "latitude": "29.916815839726723",
    "geocoded_column": {
      "latitude": "29.916815839726723",
      "longitude": "-89.98755668816732"
    }
  },
  {
    "service_request": "2024-1095875",
    "request_type": "Abandoned Vehicles",
    "request_reason": "Abandoned/Junk Vehicles",
    "date_created": "2024-05-22T15:43:50.000",
    "date_modified": "2024-05-22T15:43:51.000",
    "request_status": "Pending",
    "responsible_agency": "Department of Public Works",
    "final_address": "3400 BLK N Galvez St",
    "address_councildis": "D",
    "status": "Pending",
    "rowid": "1095875",
    "final_x": "3691254.64403",
    "final_y": "539434.393032",
    "longitude": "-90.03698604954985",
    "latitude": "29.976957702787914",
    "geocoded_column": {
      "latitude": "29.976957702787914",
      "longitude": "-90.03698604954985"
    }
  },
  {
    "service_request": "2024-1095874",
    "request_type": "Trash/Recycling",
    "request_reason": "Request a Large Item Pick Up",
    "date_created": "2024-05-22T15:42:23.000",
    "date_modified": "2024-05-22T15:42:24.000",
    "request_status": "Pending",
    "responsible_agency": "Department of Sanitation",
    "final_address": "6800 BLK Colbert St",
    "address_councildis": "A",
    "status": "Assigned to Contractor",
    "contractor": "IV Waste",
    "rowid": "1095874",
    "final_x": "3667937.04335",
    "final_y": "553100.191487",
    "longitude": "-90.11016998761592",
    "latitude": "30.015238707911337",
    "geocoded_column": {
      "latitude": "30.015238707911337",
      "longitude": "-90.11016998761592"
    }
  },
  {
    "service_request": "2024-1095873",
    "request_type": "Trash/Recycling",
    "request_reason": "MIssed Recycling Pick-Up",
    "date_created": "2024-05-22T15:42:12.000",
    "date_modified": "2024-05-22T15:42:12.000",
    "request_status": "Pending",
    "responsible_agency": "Department of Sanitation",
    "final_address": "4526 Sierra Madre Dr",
    "address_councildis": "E",
    "status": "Assigned to Contractor",
    "contractor": "Waste Pro",
    "rowid": "1095873",
    "final_x": "3713930.66693",
    "final_y": "555470.136217",
    "longitude": "-89.9647638142446",
    "latitude": "30.02032493491354",
    "geocoded_column": {
      "latitude": "30.02032493491354",
      "longitude": "-89.9647638142446"
    }
  },
  {
    "service_request": "2024-1095872",
    "request_type": "Property Maintenance",
    "request_reason": "Property Maintenance",
    "date_created": "2024-05-22T15:41:08.000",
    "date_modified": "2024-05-22T15:41:08.000",
    "request_status": "Pending",
    "responsible_agency": "Department of Code Enforcement",
    "final_address": "1738 Holiday Dr",
    "address_councildis": "C",
    "status": "Pending",
    "rowid": "1095872",
    "final_x": "3699050.80292",
    "final_y": "524226.04806",
    "longitude": "-90.01291694974678",
    "latitude": "29.93489531439768",
    "geocoded_column": {
      "latitude": "29.93489531439768",
      "longitude": "-90.01291694974678"
    }
  },
  {
    "service_request": "2024-1095871",
    "request_type": "Trash/Recycling",
    "request_reason": "Request a Large Item Pick Up",
    "date_created": "2024-05-22T15:39:41.000",
    "date_modified": "2024-05-22T15:39:41.000",
    "request_status": "Pending",
    "responsible_agency": "Department of Sanitation",
    "final_address": "933 Montegut St",
    "address_councildis": "C",
    "status": "Assigned to Contractor",
    "contractor": "IV Waste",
    "rowid": "1095871",
    "final_x": "3688334.01404",
    "final_y": "535629.087558",
    "longitude": "-90.04634529357357",
    "latitude": "29.966584981529756",
    "geocoded_column": {
      "latitude": "29.966584981529756",
      "longitude": "-90.04634529357357"
    }
  },
  {
    "service_request": "2024-1095870",
    "request_type": "Trash/Recycling",
    "request_reason": "Request a Large Item Pick Up",
    "date_created": "2024-05-22T15:39:35.000",
    "date_modified": "2024-05-22T15:39:36.000",
    "request_status": "Pending",
    "responsible_agency": "Department of Sanitation",
    "final_address": "1160 Camp St",
    "address_councildis": "B",
    "status": "Assigned to Contractor",
    "contractor": "IV Waste",
    "rowid": "1095870",
    "final_x": "3680338.02453",
    "final_y": "525878.510717",
    "longitude": "-90.07193552346271",
    "latitude": "29.940018707417398",
    "geocoded_column": {
      "latitude": "29.940018707417398",
      "longitude": "-90.07193552346271"
    }
  },
  {
    "service_request": "2024-1095869",
    "request_type": "Parks & Parkways",
    "request_reason": "Request Tree Service (Right of Way/Public Property)",
    "date_created": "2024-05-22T15:38:48.000",
    "date_modified": "2024-05-22T15:38:48.000",
    "request_status": "Pending",
    "responsible_agency": "Department of Parks & Parkway",
    "final_address": "300 N Broad St",
    "address_councildis": "B",
    "status": "Pending",
    "rowid": "1095869",
    "final_x": "3676178.53237",
    "final_y": "535718.605831",
    "longitude": "-90.08472914828391",
    "latitude": "29.96720093376451",
    "geocoded_column": {
      "latitude": "29.96720093376451",
      "longitude": "-90.08472914828391"
    }
  },
  {
    "service_request": "2024-1095868",
    "request_type": "Trash/Recycling",
    "request_reason": "Return Trash Cart",
    "date_created": "2024-05-22T15:35:55.000",
    "date_modified": "2024-05-22T15:35:56.000",
    "request_status": "Pending",
    "responsible_agency": "Department of Sanitation",
    "final_address": "2436 Bristol Pl",
    "address_councildis": "C",
    "status": "Assigned to Contractor",
    "contractor": "Richards Disposal",
    "rowid": "1095868",
    "final_x": "3702691.85124",
    "final_y": "521986.95641",
    "longitude": "-90.00150444848313",
    "latitude": "29.928622720286548",
    "geocoded_column": {
      "latitude": "29.928622720286548",
      "longitude": "-90.00150444848313"
    }
  },
  {
    "service_request": "2024-1095867",
    "request_type": "Traffic Signals/Signs/Striping/Streetlights",
    "request_reason": "Street Light Outage/Malfunction",
    "date_created": "2024-05-22T15:35:49.000",
    "date_modified": "2024-05-22T15:35:50.000",
    "request_status": "Pending",
    "responsible_agency": "Department of Public Works",
    "final_address": "3143 Yupon St",
    "address_councildis": "D",
    "status": "Assigned to Contractor",
    "contractor": "Legacy Professional Services",
    "rowid": "1095867",
    "final_x": "3675687.96251",
    "final_y": "544050.819662",
    "longitude": "-90.08599193349272",
    "latitude": "29.990126350337864",
    "geocoded_column": {
      "latitude": "29.990126350337864",
      "longitude": "-90.08599193349272"
    }
  },
  {
    "service_request": "2024-1095866",
    "request_type": "Trash/Recycling",
    "request_reason": "Request a Large Item Pick Up",
    "date_created": "2024-05-22T15:35:35.000",
    "date_modified": "2024-05-22T15:35:36.000",
    "request_status": "Pending",
    "responsible_agency": "Department of Sanitation",
    "final_address": "10 Bear Creek Dr",
    "address_councildis": "C",
    "status": "Assigned to Contractor",
    "contractor": "Richards Disposal",
    "rowid": "1095866",
    "final_x": "3718405.81695",
    "final_y": "515134.765491",
    "longitude": "-89.95216010903188",
    "latitude": "29.90927007952927",
    "geocoded_column": {
      "latitude": "29.90927007952927",
      "longitude": "-89.95216010903188"
    }
  },
  {
    "service_request": "2024-1095865",
    "request_type": "Parks & Parkways",
    "request_reason": "Request Tree Service (Right of Way/Public Property)",
    "date_created": "2024-05-22T15:34:56.000",
    "date_modified": "2024-05-22T15:34:56.000",
    "request_status": "Pending",
    "responsible_agency": "Department of Parks & Parkway",
    "final_address": "7530 Farwood Dr",
    "address_councildis": "E",
    "status": "Pending",
    "rowid": "1095865",
    "final_x": "3702039.60189",
    "final_y": "556954.479578",
    "longitude": "-90.00228117499506",
    "latitude": "30.02479146280455",
    "geocoded_column": {
      "latitude": "30.02479146280455",
      "longitude": "-90.00228117499506"
    }
  },
  {
    "service_request": "2024-1095864",
    "request_type": "Trash/Recycling",
    "request_reason": "Request a Large Item Pick Up",
    "date_created": "2024-05-22T15:34:01.000",
    "date_modified": "2024-05-22T15:34:02.000",
    "request_status": "Pending",
    "responsible_agency": "Department of Sanitation",
    "final_address": "2436 Bristol Pl",
    "address_councildis": "C",
    "status": "Assigned to Contractor",
    "contractor": "Richards Disposal",
    "rowid": "1095864",
    "final_x": "3702691.85124",
    "final_y": "521986.95641",
    "longitude": "-90.00150444848313",
    "latitude": "29.928622720286548",
    "geocoded_column": {
      "latitude": "29.928622720286548",
      "longitude": "-90.00150444848313"
    }
  },
  {
    "service_request": "2024-1095863",
    "request_type": "Roads/Drainage",
    "request_reason": "Street Subsidence (Sinking)",
    "date_created": "2024-05-22T15:33:05.000",
    "date_modified": "2024-05-22T15:33:06.000",
    "request_status": "Pending",
    "responsible_agency": "Department of Public Works",
    "final_address": "5900 BLK N Miro St",
    "address_councildis": "E",
    "status": "Pending",
    "rowid": "1095863",
    "final_x": "3700655.28074",
    "final_y": "537401.167439",
    "longitude": "-90.00737034629907",
    "latitude": "29.971071284320473",
    "geocoded_column": {
      "latitude": "29.971071284320473",
      "longitude": "-90.00737034629907"
    }
  },
  {
    "service_request": "2024-1095862",
    "request_type": "Parks & Parkways",
    "request_reason": "Request Tree Service (Right of Way/Public Property)",
    "date_created": "2024-05-22T15:30:15.000",
    "date_modified": "2024-05-22T15:30:15.000",
    "request_status": "Pending",
    "responsible_agency": "Department of Parks & Parkway",
    "final_address": "7530 Farwood Dr",
    "address_councildis": "E",
    "status": "Pending",
    "rowid": "1095862",
    "final_x": "3702039.60189",
    "final_y": "556954.479578",
    "longitude": "-90.00228117499506",
    "latitude": "30.02479146280455",
    "geocoded_column": {
      "latitude": "30.02479146280455",
      "longitude": "-90.00228117499506"
    }
  },
  {
    "service_request": "2024-1095861",
    "request_type": "Trash/Recycling",
    "request_reason": "Missed Trash Pick-Up",
    "date_created": "2024-05-22T15:29:39.000",
    "date_modified": "2024-05-22T15:51:14.000",
    "case_close_date": "2024-05-22T10:51:14.000",
    "request_status": "Closed",
    "responsible_agency": "Department of Sanitation",
    "final_address": "710 Webster St",
    "address_councildis": "A",
    "status": "Invalid Request",
    "contractor": "IV Waste",
    "contractor_action": "Invalid",
    "rowid": "1095861",
    "final_x": "3664001.82093",
    "final_y": "519216.008119",
    "longitude": "-90.12373365851342",
    "latitude": "29.922183312161255",
    "geocoded_column": {
      "latitude": "29.922183312161255",
      "longitude": "-90.12373365851342"
    }
  },
  {
    "service_request": "2024-1095860",
    "request_type": "Parks & Parkways",
    "request_reason": "Request Tree Service (Right of Way/Public Property)",
    "date_created": "2024-05-22T15:27:43.000",
    "date_modified": "2024-05-22T15:27:43.000",
    "request_status": "Pending",
    "responsible_agency": "Department of Parks & Parkway",
    "final_address": "2200 BLK Benton St",
    "address_councildis": "E",
    "status": "Pending",
    "rowid": "1095860",
    "final_x": "3700476.86246",
    "final_y": "537681.497259",
    "longitude": "-90.00792357061302",
    "latitude": "29.971847765829192",
    "geocoded_column": {
      "latitude": "29.971847765829192",
      "longitude": "-90.00792357061302"
    }
  },
  {
    "service_request": "2024-1095859",
    "request_type": "Abandoned Vehicles",
    "request_reason": "Abandoned/Junk Vehicles",
    "date_created": "2024-05-22T15:27:42.000",
    "date_modified": "2024-05-22T15:27:42.000",
    "request_status": "Pending",
    "responsible_agency": "Department of Public Works",
    "final_address": "DREUX AVE & DOWNMAN RD",
    "address_councildis": "D",
    "status": "Inspected",
    "rowid": "1095859",
    "final_x": "3695997.2",
    "final_y": "553769.58",
    "longitude": "-90.02148928044049",
    "latitude": "30.016225808033237",
    "geocoded_column": {
      "latitude": "30.016225808033237",
      "longitude": "-90.02148928044049"
    }
  },
  {
    "service_request": "2024-1095858",
    "request_type": "Trash/Recycling",
    "request_reason": "Replace Recycling Cart",
    "date_created": "2024-05-22T15:27:31.000",
    "date_modified": "2024-05-22T15:27:31.000",
    "request_status": "Pending",
    "responsible_agency": "Department of Sanitation",
    "final_address": "3601 Rue Mignon",
    "address_councildis": "C",
    "status": "Pending",
    "rowid": "1095858",
    "final_x": "3703264.0417",
    "final_y": "517408.430453",
    "longitude": "-89.99986637787691",
    "latitude": "29.91601505640425",
    "geocoded_column": {
      "latitude": "29.91601505640425",
      "longitude": "-89.99986637787691"
    }
  },
  {
    "service_request": "2024-1095857",
    "request_type": "Trash/Recycling",
    "request_reason": "Repair Trash Cart",
    "date_created": "2024-05-22T15:26:16.000",
    "date_modified": "2024-05-22T15:26:17.000",
    "request_status": "Pending",
    "responsible_agency": "Department of Sanitation",
    "final_address": "422 Vallette St",
    "address_councildis": "C",
    "status": "Assigned to Contractor",
    "contractor": "Richards Disposal",
    "rowid": "1095857",
    "final_x": "3687578.80073",
    "final_y": "530146.242497",
    "longitude": "-90.04892433085668",
    "latitude": "29.951532354567913",
    "geocoded_column": {
      "latitude": "29.951532354567913",
      "longitude": "-90.04892433085668"
    }
  },
  {
    "service_request": "2024-1095856",
    "request_type": "Trash/Recycling",
    "request_reason": "Illegal Dumping",
    "date_created": "2024-05-22T15:20:43.000",
    "date_modified": "2024-05-22T15:20:43.000",
    "request_status": "Pending",
    "responsible_agency": "Department of Sanitation",
    "final_address": "2432 Dumaine St",
    "address_councildis": "D",
    "status": "Pending",
    "rowid": "1095856",
    "final_x": "3678019.8285",
    "final_y": "536817.822216",
    "longitude": "-90.07887631013025",
    "latitude": "29.97016810518361",
    "geocoded_column": {
      "latitude": "29.97016810518361",
      "longitude": "-90.07887631013025"
    }
  },
  {
    "service_request": "2024-1095855",
    "request_type": "Trash/Recycling",
    "request_reason": "Repair Trash Cart",
    "date_created": "2024-05-22T15:19:48.000",
    "date_modified": "2024-05-22T15:19:48.000",
    "request_status": "Pending",
    "responsible_agency": "Department of Sanitation",
    "final_address": "4543 Knight Dr",
    "address_councildis": "E",
    "status": "Assigned to Contractor",
    "contractor": "Waste Pro",
    "rowid": "1095855",
    "final_x": "3708322.4227",
    "final_y": "554397.1446",
    "longitude": "-89.98252394741502",
    "latitude": "30.01755761269605",
    "geocoded_column": {
      "latitude": "30.01755761269605",
      "longitude": "-89.98252394741502"
    }
  },
  {
    "service_request": "2024-1095854",
    "request_type": "Abandoned Vehicles",
    "request_reason": "Abandoned/Junk Vehicles",
    "date_created": "2024-05-22T15:19:15.000",
    "date_modified": "2024-05-22T15:19:15.000",
    "request_status": "Pending",
    "responsible_agency": "Department of Public Works",
    "final_address": "2432 Dumaine St",
    "address_councildis": "D",
    "status": "Pending",
    "rowid": "1095854",
    "final_x": "3678019.8285",
    "final_y": "536817.822216",
    "longitude": "-90.07887631013025",
    "latitude": "29.97016810518361",
    "geocoded_column": {
      "latitude": "29.97016810518361",
      "longitude": "-90.07887631013025"
    }
  },
  {
    "service_request": "2024-1095853",
    "request_type": "Roads/Drainage",
    "request_reason": "Service Cut",
    "date_created": "2024-05-22T15:18:06.000",
    "date_modified": "2024-05-22T15:25:02.000",
    "case_close_date": "2024-05-22T10:25:02.000",
    "request_status": "Closed",
    "responsible_agency": "Department of Public Works",
    "final_address": "1120 Aline St Apt 1A",
    "address_councildis": "B",
    "status": "Referred to External Agency",
    "rowid": "1095853",
    "final_x": "3674351.3012",
    "final_y": "519525.785335",
    "longitude": "-90.0910539823041",
    "latitude": "29.92273063089548",
    "geocoded_column": {
      "latitude": "29.92273063089548",
      "longitude": "-90.0910539823041"
    }
  },
  {
    "service_request": "2024-1095852",
    "request_type": "Trash/Recycling",
    "request_reason": "Request a Large Item Pick Up",
    "date_created": "2024-05-22T15:17:12.000",
    "date_modified": "2024-05-22T15:17:13.000",
    "request_status": "Pending",
    "responsible_agency": "Department of Sanitation",
    "final_address": "11308 King Richard Dr",
    "address_councildis": "E",
    "status": "Assigned to Contractor",
    "contractor": "Waste Pro",
    "rowid": "1095852",
    "final_x": "3717314.2334",
    "final_y": "556428.16009",
    "longitude": "-89.95403647609145",
    "latitude": "30.02284756597243",
    "geocoded_column": {
      "latitude": "30.02284756597243",
      "longitude": "-89.95403647609145"
    }
  },
  {
    "service_request": "2024-1095851",
    "request_type": "Property Maintenance",
    "request_reason": "Property Maintenance",
    "date_created": "2024-05-22T15:13:54.000",
    "date_modified": "2024-05-22T15:27:10.000",
    "case_close_date": "2024-05-22T10:27:10.000",
    "request_status": "Closed",
    "responsible_agency": "Department of Code Enforcement",
    "final_address": "3534 Clematis St",
    "address_councildis": "D",
    "status": "Referred to Code Enforcement",
    "rowid": "1095851",
    "final_x": "3686373.60066",
    "final_y": "545998.046224",
    "longitude": "-90.0521701251194",
    "latitude": "29.99515635442638",
    "geocoded_column": {
      "latitude": "29.99515635442638",
      "longitude": "-90.0521701251194"
    }
  },
  {
    "service_request": "2024-1095850",
    "request_type": "Trash/Recycling",
    "request_reason": "Replace Trash Cart",
    "date_created": "2024-05-22T15:13:29.000",
    "date_modified": "2024-05-22T15:13:30.000",
    "request_status": "Pending",
    "responsible_agency": "Department of Sanitation",
    "final_address": "1809 Baronne St Apt 1A",
    "address_councildis": "B",
    "status": "Assigned to Contractor",
    "contractor": "IV Waste",
    "rowid": "1095850",
    "final_x": "3677784.21134",
    "final_y": "525136.798013",
    "longitude": "-90.08002391222621",
    "latitude": "29.938056298233786",
    "geocoded_column": {
      "latitude": "29.938056298233786",
      "longitude": "-90.08002391222621"
    }
  },
  {
    "service_request": "2024-1095849",
    "request_type": "Trash/Recycling",
    "request_reason": "Replace Trash Cart",
    "date_created": "2024-05-22T15:09:39.000",
    "date_modified": "2024-05-22T15:09:39.000",
    "request_status": "Pending",
    "responsible_agency": "Department of Sanitation",
    "final_address": "2904 Hollygrove St",
    "address_councildis": "A",
    "status": "Assigned to Contractor",
    "contractor": "IV Waste",
    "rowid": "1095849",
    "final_x": "3663720.78541",
    "final_y": "535081.86951",
    "longitude": "-90.12409224411068",
    "latitude": "29.965817504427974",
    "geocoded_column": {
      "latitude": "29.965817504427974",
      "longitude": "-90.12409224411068"
    }
  },
  {
    "service_request": "2024-1095848",
    "request_type": "Trash/Recycling",
    "request_reason": "Replace Trash Cart",
    "date_created": "2024-05-22T15:09:11.000",
    "date_modified": "2024-05-22T15:09:11.000",
    "request_status": "Pending",
    "responsible_agency": "Department of Sanitation",
    "final_address": "7042 Salem Dr",
    "address_councildis": "E",
    "status": "Assigned to Contractor",
    "contractor": "Waste Pro",
    "rowid": "1095848",
    "final_x": "3706594.14545",
    "final_y": "560854.39587",
    "longitude": "-89.98774498434871",
    "latitude": "30.035368443282756",
    "geocoded_column": {
      "latitude": "30.035368443282756",
      "longitude": "-89.98774498434871"
    }
  },
  {
    "service_request": "2024-1095847",
    "request_type": "Property Maintenance",
    "request_reason": "Property Maintenance",
    "date_created": "2024-05-22T15:08:52.000",
    "date_modified": "2024-05-22T15:17:42.000",
    "case_close_date": "2024-05-22T10:17:42.000",
    "request_status": "Closed",
    "responsible_agency": "Department of Code Enforcement",
    "final_address": "7921 Drum St",
    "address_councildis": "E",
    "status": "Referred to Code Enforcement",
    "rowid": "1095847",
    "final_x": "3700029.23927",
    "final_y": "561527.099615",
    "longitude": "-90.00846648441821",
    "latitude": "30.037428460399674",
    "geocoded_column": {
      "latitude": "30.037428460399674",
      "longitude": "-90.00846648441821"
    }
  },
  {
    "service_request": "2024-1095846",
    "request_type": "Traffic Signals/Signs/Striping/Streetlights",
    "request_reason": "Street Light Outage/Malfunction",
    "date_created": "2024-05-22T15:06:46.000",
    "date_modified": "2024-05-22T15:06:46.000",
    "request_status": "Pending",
    "responsible_agency": "Department of Public Works",
    "final_address": "1820 Rosiere St",
    "address_councildis": "D",
    "status": "Assigned to Contractor",
    "contractor": "Legacy Professional Services",
    "rowid": "1095846",
    "final_x": "3678989.04386",
    "final_y": "542331.727437",
    "longitude": "-90.07562429117344",
    "latitude": "29.98530022636632",
    "geocoded_column": {
      "latitude": "29.98530022636632",
      "longitude": "-90.07562429117344"
    }
  },
  {
    "service_request": "2024-1095845",
    "request_type": "Trash/Recycling",
    "request_reason": "Missed Trash Pick-Up",
    "date_created": "2024-05-22T14:59:48.000",
    "date_modified": "2024-05-22T14:59:49.000",
    "request_status": "Pending",
    "responsible_agency": "Department of Sanitation",
    "final_address": "9330 Old Gentilly Rd",
    "address_councildis": "E",
    "status": "Assigned to Contractor",
    "contractor": "Waste Pro",
    "rowid": "1095845",
    "final_x": "3710301.46859",
    "final_y": "552666.228438",
    "longitude": "-89.97633577387583",
    "latitude": "30.012733966626847",
    "geocoded_column": {
      "latitude": "30.012733966626847",
      "longitude": "-89.97633577387583"
    }
  },
  {
    "service_request": "2024-1095844",
    "request_type": "Trash/Recycling",
    "request_reason": "Request a Large Item Pick Up",
    "date_created": "2024-05-22T14:56:45.000",
    "date_modified": "2024-05-22T14:56:46.000",
    "request_status": "Pending",
    "responsible_agency": "Department of Sanitation",
    "final_address": "4560 Francisco Verrett Dr",
    "address_councildis": "E",
    "status": "Assigned to Contractor",
    "contractor": "Waste Pro",
    "rowid": "1095844",
    "final_x": "3704299.35614",
    "final_y": "554026.151256",
    "longitude": "-89.9952488368954",
    "latitude": "30.016667317013255",
    "geocoded_column": {
      "latitude": "30.016667317013255",
      "longitude": "-89.9952488368954"
    }
  },
  {
    "service_request": "2024-1095843",
    "request_type": "Trash/Recycling",
    "request_reason": "Replace Trash Cart",
    "date_created": "2024-05-22T14:54:58.000",
    "date_modified": "2024-05-22T14:54:59.000",
    "request_status": "Pending",
    "responsible_agency": "Department of Sanitation",
    "final_address": "1435 Holiday Pl",
    "address_councildis": "C",
    "status": "Assigned to Contractor",
    "contractor": "Richards Disposal",
    "rowid": "1095843",
    "final_x": "3698902.91485",
    "final_y": "525773.211965",
    "longitude": "-90.0133275599713",
    "latitude": "29.939154163381694",
    "geocoded_column": {
      "latitude": "29.939154163381694",
      "longitude": "-90.0133275599713"
    }
  },
  {
    "service_request": "2024-1095842",
    "request_type": "Healthy Homes",
    "request_reason": "Healthy Homes",
    "date_created": "2024-05-22T14:54:51.000",
    "date_modified": "2024-05-22T15:31:43.000",
    "case_close_date": "2024-05-22T10:31:43.000",
    "request_status": "Closed",
    "responsible_agency": "Department of Code Enforcement",
    "final_address": "3101 Rue Parc Fontaine Apt 1203",
    "address_councildis": "C",
    "status": "Referred to Code Enforcement",
    "rowid": "1095842",
    "final_x": "3699964.59767",
    "final_y": "519731.652728",
    "longitude": "-90.01019597058283",
    "latitude": "29.922508291343416",
    "geocoded_column": {
      "latitude": "29.922508291343416",
      "longitude": "-90.01019597058283"
    }
  },
  {
    "service_request": "2024-1095841",
    "request_type": "Mosquito, Termite & Rodent Control",
    "request_reason": "Mosquito Complaint",
    "date_created": "2024-05-22T14:52:17.000",
    "date_modified": "2024-05-22T14:52:17.000",
    "request_status": "Pending",
    "responsible_agency": "Mosquito, Termite & Rodent Control Board",
    "final_address": "741 Herald St",
    "address_councildis": "C",
    "status": "Pending",
    "rowid": "1095841",
    "final_x": "3702217.04209",
    "final_y": "519542.501815",
    "longitude": "-90.00309289490711",
    "latitude": "29.921916481371458",
    "geocoded_column": {
      "latitude": "29.921916481371458",
      "longitude": "-90.00309289490711"
    }
  },
  {
    "service_request": "2024-1095840",
    "request_type": "Healthy Homes",
    "request_reason": "Healthy Homes",
    "date_created": "2024-05-22T14:51:47.000",
    "date_modified": "2024-05-22T15:35:51.000",
    "case_close_date": "2024-05-22T10:35:51.000",
    "request_status": "Closed",
    "responsible_agency": "Department of Code Enforcement",
    "final_address": "3101 Rue Parc Fontaine Apt 1203",
    "address_councildis": "C",
    "status": "Referred to Code Enforcement",
    "rowid": "1095840",
    "final_x": "3699964.59767",
    "final_y": "519731.652728",
    "longitude": "-90.01019597058283",
    "latitude": "29.922508291343416",
    "geocoded_column": {
      "latitude": "29.922508291343416",
      "longitude": "-90.01019597058283"
    }
  },
  {
    "service_request": "2024-1095839",
    "request_type": "Trash/Recycling",
    "request_reason": "Request a Large Item Pick Up",
    "date_created": "2024-05-22T14:49:35.000",
    "date_modified": "2024-05-22T14:49:35.000",
    "request_status": "Pending",
    "responsible_agency": "Department of Sanitation",
    "final_address": "3507 Nashville Ave",
    "address_councildis": "A",
    "status": "Assigned to Contractor",
    "contractor": "IV Waste",
    "rowid": "1095839",
    "final_x": "3668279.3778",
    "final_y": "528505.468224",
    "longitude": "-90.10991805566245",
    "latitude": "29.94760149341001",
    "geocoded_column": {
      "latitude": "29.94760149341001",
      "longitude": "-90.10991805566245"
    }
  },
  {
    "service_request": "2024-1095838",
    "request_type": "Trash/Recycling",
    "request_reason": "Replace Trash Cart",
    "date_created": "2024-05-22T14:49:33.000",
    "date_modified": "2024-05-22T14:49:34.000",
    "request_status": "Pending",
    "responsible_agency": "Department of Sanitation",
    "final_address": "741 Herald St",
    "address_councildis": "C",
    "status": "Assigned to Contractor",
    "contractor": "Richards Disposal",
    "rowid": "1095838",
    "final_x": "3702217.04209",
    "final_y": "519542.501815",
    "longitude": "-90.00309289490711",
    "latitude": "29.921916481371458",
    "geocoded_column": {
      "latitude": "29.921916481371458",
      "longitude": "-90.00309289490711"
    }
  },
  {
    "service_request": "2024-1095837",
    "request_type": "Roads/Drainage",
    "request_reason": "Pothole",
    "date_created": "2024-05-22T14:44:22.000",
    "date_modified": "2024-05-22T14:44:22.000",
    "request_status": "Pending",
    "responsible_agency": "Department of Public Works",
    "final_address": "1200 BLK Joseph St",
    "address_councildis": "A",
    "status": "Pending",
    "rowid": "1095837",
    "final_x": "3666536.1997",
    "final_y": "520786.799421",
    "longitude": "-90.11568095237064",
    "latitude": "29.926428684826913",
    "geocoded_column": {
      "latitude": "29.926428684826913",
      "longitude": "-90.11568095237064"
    }
  },
  {
    "service_request": "2024-1095836",
    "request_type": "Safety & Permits",
    "request_reason": "Licenses & Permits",
    "date_created": "2024-05-22T14:44:15.000",
    "date_modified": "2024-05-22T14:45:34.000",
    "request_status": "Pending",
    "responsible_agency": "Safety and Permits",
    "final_address": "1114 S Carrollton Ave",
    "address_councildis": "A",
    "status": "Pending",
    "rowid": "1095836",
    "final_x": "3661811.22758",
    "final_y": "528258.155712",
    "longitude": "-90.13034883268963",
    "latitude": "29.94710977178985",
    "geocoded_column": {
      "latitude": "29.94710977178985",
      "longitude": "-90.13034883268963"
    }
  },
  {
    "service_request": "2024-1095835",
    "request_type": "Trash/Recycling",
    "request_reason": "Repair Trash Cart",
    "date_created": "2024-05-22T14:43:50.000",
    "date_modified": "2024-05-22T14:43:50.000",
    "request_status": "Pending",
    "responsible_agency": "Department of Sanitation",
    "final_address": "3063 Hudson Pl",
    "address_councildis": "C",
    "status": "Assigned to Contractor",
    "contractor": "Richards Disposal",
    "rowid": "1095835",
    "final_x": "3703041.36618",
    "final_y": "519402.584503",
    "longitude": "-90.00049600847473",
    "latitude": "29.921505417469017",
    "geocoded_column": {
      "latitude": "29.921505417469017",
      "longitude": "-90.00049600847473"
    }
  },
  {
    "service_request": "2024-1095834",
    "request_type": "Trash/Recycling",
    "request_reason": "Request a Large Item Pick Up",
    "date_created": "2024-05-22T14:39:12.000",
    "date_modified": "2024-05-22T14:39:12.000",
    "request_status": "Pending",
    "responsible_agency": "Department of Sanitation",
    "final_address": "7614 Hansbrough Ave",
    "address_councildis": "E",
    "status": "Assigned to Contractor",
    "contractor": "Waste Pro",
    "rowid": "1095834",
    "final_x": "3707602.25444",
    "final_y": "564444.958689",
    "longitude": "-89.98442564142037",
    "latitude": "30.045208475050902",
    "geocoded_column": {
      "latitude": "30.045208475050902",
      "longitude": "-89.98442564142037"
    }
  },
  {
    "service_request": "2024-1095833",
    "request_type": "Roads/Drainage",
    "request_reason": "Damaged Sidewalk",
    "date_created": "2024-05-22T14:35:09.000",
    "date_modified": "2024-05-22T14:37:11.000",
    "request_status": "Pending",
    "responsible_agency": "Department of Public Works",
    "final_address": "5939 Vicksburg St",
    "address_councildis": "A",
    "status": "Pending",
    "rowid": "1095833",
    "final_x": "3668915.581",
    "final_y": "546963.477137",
    "longitude": "-90.10728572138565",
    "latitude": "29.99833612982078",
    "geocoded_column": {
      "latitude": "29.99833612982078",
      "longitude": "-90.10728572138565"
    }
  },
  {
    "service_request": "2024-1095832",
    "request_type": "Traffic Signals/Signs/Striping/Streetlights",
    "request_reason": "Street Light Outage/Malfunction",
    "date_created": "2024-05-22T14:34:03.000",
    "date_modified": "2024-05-22T14:34:03.000",
    "request_status": "Pending",
    "responsible_agency": "Department of Public Works",
    "final_address": "7520 Marquis St",
    "address_councildis": "E",
    "status": "Assigned to Contractor",
    "contractor": "Legacy Professional Services",
    "rowid": "1095832",
    "final_x": "3711639.9283",
    "final_y": "565622.312418",
    "longitude": "-89.97162056001491",
    "latitude": "30.04831440850575",
    "geocoded_column": {
      "latitude": "30.04831440850575",
      "longitude": "-89.97162056001491"
    }
  },
  {
    "service_request": "2024-1095831",
    "request_type": "Trash/Recycling",
    "request_reason": "Request a Large Item Pick Up",
    "date_created": "2024-05-22T14:33:58.000",
    "date_modified": "2024-05-22T14:33:59.000",
    "request_status": "Pending",
    "responsible_agency": "Department of Sanitation",
    "final_address": "5416 LaSalle St",
    "address_councildis": "A",
    "status": "Assigned to Contractor",
    "contractor": "IV Waste",
    "rowid": "1095831",
    "final_x": "3667645.77754",
    "final_y": "523592.996091",
    "longitude": "-90.1120838995846",
    "latitude": "29.934112363939825",
    "geocoded_column": {
      "latitude": "29.934112363939825",
      "longitude": "-90.1120838995846"
    }
  },
  {
    "service_request": "2024-1095830",
    "request_type": "Trash/Recycling",
    "request_reason": "Request a Large Item Pick Up",
    "date_created": "2024-05-22T14:33:45.000",
    "date_modified": "2024-05-22T14:33:45.000",
    "request_status": "Pending",
    "responsible_agency": "Department of Sanitation",
    "final_address": "2625 Upperline St",
    "address_councildis": "B",
    "status": "Assigned to Contractor",
    "contractor": "IV Waste",
    "rowid": "1095830",
    "final_x": "3669220.41927",
    "final_y": "524479.56006",
    "longitude": "-90.10708284573731",
    "latitude": "29.9365038890327",
    "geocoded_column": {
      "latitude": "29.9365038890327",
      "longitude": "-90.10708284573731"
    }
  },
  {
    "service_request": "2024-1095829",
    "request_type": "Trash/Recycling",
    "request_reason": "Request a Large Item Pick Up",
    "date_created": "2024-05-22T14:31:39.000",
    "date_modified": "2024-05-22T14:31:39.000",
    "request_status": "Pending",
    "responsible_agency": "Department of Sanitation",
    "final_address": "7520 Marquis St",
    "address_councildis": "E",
    "status": "Assigned to Contractor",
    "contractor": "Waste Pro",
    "rowid": "1095829",
    "final_x": "3711639.9283",
    "final_y": "565622.312418",
    "longitude": "-89.97162056001491",
    "latitude": "30.04831440850575",
    "geocoded_column": {
      "latitude": "30.04831440850575",
      "longitude": "-89.97162056001491"
    }
  },
  {
    "service_request": "2024-1095828",
    "request_type": "Parks & Parkways",
    "request_reason": "Request Tree Service (Right of Way/Public Property)",
    "date_created": "2024-05-22T14:29:34.000",
    "date_modified": "2024-05-22T14:29:35.000",
    "request_status": "Pending",
    "responsible_agency": "Department of Parks & Parkway",
    "final_address": "1715 Lakeshore Dr",
    "address_councildis": "D",
    "status": "Pending",
    "rowid": "1095828",
    "final_x": "3678243.93736",
    "final_y": "558397.57974",
    "longitude": "-90.07742157246933",
    "latitude": "30.029498044263704",
    "geocoded_column": {
      "latitude": "30.029498044263704",
      "longitude": "-90.07742157246933"
    }
  },
  {
    "service_request": "2024-1095827",
    "request_type": "Trash/Recycling",
    "request_reason": "Order Recycling Cart",
    "date_created": "2024-05-22T14:25:32.000",
    "date_modified": "2024-05-22T14:25:32.000",
    "request_status": "Pending",
    "responsible_agency": "Department of Sanitation",
    "final_address": "1813 Touro St",
    "address_councildis": "D",
    "status": "Pending",
    "rowid": "1095827",
    "final_x": "3684044.51586",
    "final_y": "538950.608842",
    "longitude": "-90.05977488442684",
    "latitude": "29.975849789476868",
    "geocoded_column": {
      "latitude": "29.975849789476868",
      "longitude": "-90.05977488442684"
    }
  },
  {
    "service_request": "2024-1095826",
    "request_type": "Property Maintenance",
    "request_reason": "Property Maintenance",
    "date_created": "2024-05-22T14:24:17.000",
    "date_modified": "2024-05-22T14:49:47.000",
    "case_close_date": "2024-05-22T09:49:47.000",
    "request_status": "Closed",
    "responsible_agency": "Department of Code Enforcement",
    "final_address": "618 Burgundy St",
    "address_councildis": "C",
    "status": "Referred to Code Enforcement",
    "rowid": "1095826",
    "final_x": "3681571.98984",
    "final_y": "532915.691076",
    "longitude": "-90.06779432902938",
    "latitude": "29.959331172912645",
    "geocoded_column": {
      "latitude": "29.959331172912645",
      "longitude": "-90.06779432902938"
    }
  },
  {
    "service_request": "2024-1095825",
    "request_type": "Trash/Recycling",
    "request_reason": "Order Recycling Cart",
    "date_created": "2024-05-22T14:20:21.000",
    "date_modified": "2024-05-22T14:20:21.000",
    "request_status": "Pending",
    "responsible_agency": "Department of Sanitation",
    "final_address": "1813 Touro St",
    "address_councildis": "D",
    "status": "Pending",
    "rowid": "1095825",
    "final_x": "3684044.51586",
    "final_y": "538950.608842",
    "longitude": "-90.05977488442684",
    "latitude": "29.975849789476868",
    "geocoded_column": {
      "latitude": "29.975849789476868",
      "longitude": "-90.05977488442684"
    }
  },
  {
    "service_request": "2024-1095824",
    "request_type": "Traffic Signals/Signs/Striping/Streetlights",
    "request_reason": "Street Light Outage/Malfunction",
    "date_created": "2024-05-22T14:16:50.000",
    "date_modified": "2024-05-22T14:16:51.000",
    "request_status": "Pending",
    "responsible_agency": "Department of Public Works",
    "final_address": "3505 Touro St",
    "address_councildis": "D",
    "status": "Assigned to Contractor",
    "contractor": "Legacy Professional Services",
    "rowid": "1095824",
    "final_x": "3683558.51273",
    "final_y": "545526.25768",
    "longitude": "-90.06107922890983",
    "latitude": "29.99394535012469",
    "geocoded_column": {
      "latitude": "29.99394535012469",
      "longitude": "-90.06107922890983"
    }
  },
  {
    "service_request": "2024-1095823",
    "request_type": "Trash/Recycling",
    "request_reason": "Request a Large Item Pick Up",
    "date_created": "2024-05-22T14:15:12.000",
    "date_modified": "2024-05-22T14:15:13.000",
    "request_status": "Pending",
    "responsible_agency": "Department of Sanitation",
    "final_address": "4623 S Derbigny St",
    "address_councildis": "B",
    "status": "Assigned to Contractor",
    "contractor": "IV Waste",
    "rowid": "1095823",
    "final_x": "3669289.66906",
    "final_y": "526180.381694",
    "longitude": "-90.10680674407845",
    "latitude": "29.94117856162485",
    "geocoded_column": {
      "latitude": "29.94117856162485",
      "longitude": "-90.10680674407845"
    }
  },
  {
    "service_request": "2024-1095822",
    "request_type": "Trash/Recycling",
    "request_reason": "Illegal Dumping",
    "date_created": "2024-05-22T14:14:01.000",
    "date_modified": "2024-05-22T14:14:01.000",
    "request_status": "Pending",
    "responsible_agency": "Department of Sanitation",
    "final_address": "2226 Philip St",
    "address_councildis": "B",
    "status": "Pending",
    "rowid": "1095822",
    "final_x": "3675813.76635",
    "final_y": "525301.002557",
    "longitude": "-90.08623914501763",
    "latitude": "29.93856692218271",
    "geocoded_column": {
      "latitude": "29.93856692218271",
      "longitude": "-90.08623914501763"
    }
  },
  {
    "service_request": "2024-1095820",
    "request_type": "Parks & Parkways",
    "request_reason": "Request Grass Cutting Service (City Owned Property)",
    "date_created": "2024-05-22T14:07:31.000",
    "date_modified": "2024-05-22T14:07:31.000",
    "request_status": "Pending",
    "responsible_agency": "Department of Parks & Parkway",
    "final_address": "13955 Explorers Ave",
    "address_councildis": "E",
    "status": "Pending",
    "rowid": "1095820",
    "final_x": "3726395.40781",
    "final_y": "570480.789863",
    "longitude": "-89.9247966401097",
    "latitude": "30.061182765805718",
    "geocoded_column": {
      "latitude": "30.061182765805718",
      "longitude": "-89.9247966401097"
    }
  },