[
  {
    "service_request": "2025-1166380",
    "request_type": "Trash/Recycling",
    "request_reason": "Replace Trash Cart",
    "date_created": "2025-02-03T22:27:04.000",
    "date_modified": "2025-02-03T22:27:07.000",
    "request_status": "Pending",
    "responsible_agency": "Department of Sanitation",
    "final_address": "1311 Pleasant St",
    "address_councildis": "B",
    "status": "Assigned to Contractor",
    "contractor": "IV Waste",
    "rowid": "1166380",
    "final_x": "3675185.15963",
    "final_y": "520649.577144",
    "longitude": "-90.08838327671047",
    "latitude": "29.925795811701455",
    "geocoded_column": {
      "latitude": "29.925795811701455",
      "longitude": "-90.08838327671047"
    }
  },
  {
    "service_request": "2025-1166379",
    "request_type": "Trash/Recycling",
    "request_reason": "Order Trash Cart",
    "date_created": "2025-02-03T21:49:39.000",
    "date_modified": "2025-02-03T21:49:41.000",
    "request_status": "Pending",
    "responsible_agency": "Department of Sanitation",
    "final_address": "340 S Diamond St",
    "address_councildis": "B",
    "status": "Assigned to Contractor",
    "contractor": "IV Waste",
    "rowid": "1166379",
    "final_x": "3681947.21423",
    "final_y": "526776.795902",
    "longitude": "-90.06682372717539",
    "latitude": "29.94243988380038",
    "geocoded_column": {
      "latitude": "29.94243988380038",
      "longitude": "-90.06682372717539"
    }
  },
  {
    "service_request": "2025-1166378",
    "request_type": "Trash/Recycling",
    "request_reason": "Repair Trash Cart",
    "date_created": "2025-02-03T21:45:27.000",
    "date_modified": "2025-02-03T21:45:31.000",
    "request_status": "Pending",
    "responsible_agency": "Department of Sanitation",
    "final_address": "4238 Iberville St",
    "address_councildis": "A",
    "status": "Assigned to Contractor",
    "contractor": "IV Waste",
    "rowid": "1166378",
    "final_x": "3670563.48372",
    "final_y": "539229.686026",
    "longitude": "-90.10234245538484",
    "latitude": "29.97702226940237",
    "geocoded_column": {
      "latitude": "29.97702226940237",
      "longitude": "-90.10234245538484"
    }
  },
  {
    "service_request": "2025-1166377",
    "request_type": "Streetlights",
    "request_reason": "Streetlight Outage/Malfunction",
    "date_created": "2025-02-03T21:42:16.000",
    "date_modified": "2025-02-03T21:42:18.000",
    "request_status": "Pending",
    "responsible_agency": "Department of Public Works",
    "final_address": "4835 Gabriel Dr",
    "address_councildis": "E",
    "status": "Pending",
    "contractor": "Legacy Professional Services",
    "rowid": "1166377",
    "final_x": "3708888.43659",
    "final_y": "556326.619482",
    "longitude": "-89.98066361609057",
    "latitude": "30.022844557940868",
    "geocoded_column": {
      "latitude": "30.022844557940868",
      "longitude": "-89.98066361609057"
    }
  },
  {
    "service_request": "2025-1166376",
    "request_type": "Street and Traffic Signs",
    "request_reason": "One Way Sign Missing or Damaged",
    "date_created": "2025-02-03T20:55:09.000",
    "date_modified": "2025-02-03T20:55:12.000",
    "request_status": "Pending",
    "responsible_agency": "Department of Public Works",
    "final_address": "800 Constance St",
    "address_councildis": "B",
    "status": "Pending",
    "rowid": "1166376",
    "final_x": "3681462.79631",
    "final_y": "527657.199295",
    "longitude": "-90.06832245617356",
    "latitude": "29.94487541228478",
    "geocoded_column": {
      "latitude": "29.94487541228478",
      "longitude": "-90.06832245617356"
    }
  },
  {
    "service_request": "2025-1166375",
    "request_type": "Abandoned Vehicles",
    "request_reason": "Abandoned/Junk Vehicles",
    "date_created": "2025-02-03T20:46:02.000",
    "date_modified": "2025-02-03T20:46:04.000",
    "request_status": "Pending",
    "responsible_agency": "Department of Public Works",
    "final_address": "829 Second St",
    "address_councildis": "B",
    "status": "Pending",
    "rowid": "1166375",
    "final_x": "3678325.7853",
    "final_y": "520633.973944",
    "longitude": "-90.07846979902122",
    "latitude": "29.925658707952266",
    "geocoded_column": {
      "latitude": "29.925658707952266",
      "longitude": "-90.07846979902122"
    }
  },
  {
    "service_request": "2025-1166374",
    "request_type": "Trash/Recycling",
    "request_reason": "Replace Trash Cart",
    "date_created": "2025-02-03T20:40:33.000",
    "date_modified": "2025-02-03T20:40:35.000",
    "request_status": "Pending",
    "responsible_agency": "Department of Sanitation",
    "final_address": "1555 N Galvez St",
    "address_councildis": "D",
    "status": "Assigned to Contractor",
    "contractor": "IV Waste",
    "rowid": "1166374",
    "final_x": "3680565.34408",
    "final_y": "538730.952585",
    "longitude": "-90.0707707367436",
    "latitude": "29.975351680362024",
    "geocoded_column": {
      "latitude": "29.975351680362024",
      "longitude": "-90.0707707367436"
    }
  },
  {
    "service_request": "2025-1166373",
    "request_type": "Trash/Recycling",
    "request_reason": "Replace Trash Cart",
    "date_created": "2025-02-03T20:38:17.000",
    "date_modified": "2025-02-03T20:38:19.000",
    "request_status": "Pending",
    "responsible_agency": "Department of Sanitation",
    "final_address": "419 S Dupre St",
    "address_councildis": "B",
    "status": "Assigned to Contractor",
    "contractor": "IV Waste",
    "rowid": "1166373",
    "final_x": "3673698.05691",
    "final_y": "534531.158469",
    "longitude": "-90.09260313353897",
    "latitude": "29.96400994151759",
    "geocoded_column": {
      "latitude": "29.96400994151759",
      "longitude": "-90.09260313353897"
    }
  },
  {
    "service_request": "2025-1166372",
    "request_type": "Trash/Recycling",
    "request_reason": "Order Recycling Cart",
    "date_created": "2025-02-03T19:52:59.000",
    "date_modified": "2025-02-03T19:53:01.000",
    "request_status": "Pending",
    "responsible_agency": "Department of Sanitation",
    "final_address": "2616 Comet St",
    "address_councildis": "C",
    "status": "Pending",
    "rowid": "1166372",
    "final_x": "3699881.94871",
    "final_y": "521324.244025",
    "longitude": "-90.01039881708832",
    "latitude": "29.926889994459575",
    "geocoded_column": {
      "latitude": "29.926889994459575",
      "longitude": "-90.01039881708832"
    }
  },
  {
    "service_request": "2025-1166371",
    "request_type": "Streetlights",
    "request_reason": "Streetlight Outage/Malfunction",
    "date_created": "2025-02-03T19:51:40.000",
    "date_modified": "2025-02-03T19:51:41.000",
    "request_status": "Pending",
    "responsible_agency": "Department of Public Works",
    "final_address": "7328 Plum St",
    "address_councildis": "A",
    "status": "Pending",
    "contractor": "Legacy Professional Services",
    "rowid": "1166371",
    "final_x": "3663927.37088",
    "final_y": "527035.813182",
    "longitude": "-90.12370808767713",
    "latitude": "29.94368746359225",
    "geocoded_column": {
      "latitude": "29.94368746359225",
      "longitude": "-90.12370808767713"
    }
  },
  {
    "service_request": "2025-1166370",
    "request_type": "Trash/Recycling",
    "request_reason": "Order Second Trash Cart",
    "date_created": "2025-02-03T19:50:29.000",
    "date_modified": "2025-02-03T19:50:31.000",
    "request_status": "Pending",
    "responsible_agency": "Department of Sanitation",
    "final_address": "2616 Comet St",
    "address_councildis": "C",
    "status": "Assigned to Contractor",
    "contractor": "Richards Disposal",
    "rowid": "1166370",
    "final_x": "3699881.94871",
    "final_y": "521324.244025",
    "longitude": "-90.01039881708832",
    "latitude": "29.926889994459575",
    "geocoded_column": {
      "latitude": "29.926889994459575",
      "longitude": "-90.01039881708832"
    }
  },
  {
    "service_request": "2025-1166369",
    "request_type": "Roads and Streets",
    "request_reason": "Street Subsidence (Sinking)",
    "date_created": "2025-02-03T19:43:36.000",
    "date_modified": "2025-02-03T19:43:38.000",
    "request_status": "Pending",
    "responsible_agency": "Department of Public Works",
    "final_address": "100 BLK N Bernadotte St",
    "address_councildis": "A",
    "status": "Pending",
    "rowid": "1166369",
    "final_x": "3668967.66793",
    "final_y": "540263.984548",
    "longitude": "-90.10734761824288",
    "latitude": "29.979913284716734",
    "geocoded_column": {
      "latitude": "29.979913284716734",
      "longitude": "-90.10734761824288"
    }
  },
  {
    "service_request": "2025-1166368",
    "request_type": "Healthy Homes",
    "request_reason": "Healthy Homes",
    "date_created": "2025-02-03T19:16:25.000",
    "date_modified": "2025-02-03T19:16:27.000",
    "request_status": "Pending",
    "responsible_agency": "Department of Code Enforcement",
    "final_address": "2741 Orleans Ave",
    "address_councildis": "A",
    "status": "Pending",
    "rowid": "1166368",
    "final_x": "3676523.06945",
    "final_y": "537348.57588",
    "longitude": "-90.08358495326227",
    "latitude": "29.97167246889072",
    "geocoded_column": {
      "latitude": "29.97167246889072",
      "longitude": "-90.08358495326227"
    }
  },
  {
    "service_request": "2025-1166367",
    "request_type": "Abandoned Vehicles",
    "request_reason": "Vehicle Blocking Your Driveway",
    "date_created": "2025-02-03T19:16:12.000",
    "date_modified": "2025-02-03T19:16:14.000",
    "request_status": "Pending",
    "responsible_agency": "Department of Public Works",
    "final_address": "1419 Milan St Apt 202",
    "address_councildis": "B",
    "status": "Pending",
    "rowid": "1166367",
    "final_x": "3671692.70235",
    "final_y": "520608.26444",
    "longitude": "-90.09940934735906",
    "latitude": "29.925786090472545",
    "geocoded_column": {
      "latitude": "29.925786090472545",
      "longitude": "-90.09940934735906"
    }
  },
  {
    "service_request": "2025-1166366",
    "request_type": "Streetlights",
    "request_reason": "Streetlight Outage/Malfunction",
    "date_created": "2025-02-03T19:12:02.000",
    "date_modified": "2025-02-03T19:12:03.000",
    "request_status": "Pending",
    "responsible_agency": "Department of Public Works",
    "final_address": "310 S Rampart St",
    "address_councildis": "B",
    "status": "Pending",
    "contractor": "Legacy Professional Services",
    "rowid": "1166366",
    "final_x": "3679596.80149",
    "final_y": "530517.795522",
    "longitude": "-90.07411471371286",
    "latitude": "29.952797606649035",
    "geocoded_column": {
      "latitude": "29.952797606649035",
      "longitude": "-90.07411471371286"
    }
  },
  {
    "service_request": "2025-1166365",
    "request_type": "Streetlights",
    "request_reason": "Streetlight Outage/Malfunction",
    "date_created": "2025-02-03T19:10:55.000",
    "date_modified": "2025-02-03T19:10:56.000",
    "request_status": "Pending",
    "responsible_agency": "Department of Public Works",
    "final_address": "310 S Rampart St",
    "address_councildis": "B",
    "status": "Pending",
    "contractor": "Legacy Professional Services",
    "rowid": "1166365",
    "final_x": "3679596.80149",
    "final_y": "530517.795522",
    "longitude": "-90.07411471371286",
    "latitude": "29.952797606649035",
    "geocoded_column": {
      "latitude": "29.952797606649035",
      "longitude": "-90.07411471371286"
    }
  },
  {
    "service_request": "2025-1166364",
    "request_type": "Streetlights",
    "request_reason": "Streetlight Outage/Malfunction",
    "date_created": "2025-02-03T19:08:11.000",
    "date_modified": "2025-02-03T19:08:12.000",
    "request_status": "Pending",
    "responsible_agency": "Department of Public Works",
    "final_address": "310 S Rampart St",
    "address_councildis": "B",
    "status": "Pending",
    "contractor": "Legacy Professional Services",
    "rowid": "1166364",
    "final_x": "3679596.80149",
    "final_y": "530517.795522",
    "longitude": "-90.07411471371286",
    "latitude": "29.952797606649035",
    "geocoded_column": {
      "latitude": "29.952797606649035",
      "longitude": "-90.07411471371286"
    }
  },
  {
    "service_request": "2025-1166363",
    "request_type": "Streetlights",
    "request_reason": "Streetlight Outage/Malfunction",
    "date_created": "2025-02-03T19:06:00.000",
    "date_modified": "2025-02-03T19:06:01.000",
    "request_status": "Pending",
    "responsible_agency": "Department of Public Works",
    "final_address": "310 S Rampart St",
    "address_councildis": "B",
    "status": "Pending",
    "contractor": "Legacy Professional Services",
    "rowid": "1166363",
    "final_x": "3679596.80149",
    "final_y": "530517.795522",
    "longitude": "-90.07411471371286",
    "latitude": "29.952797606649035",
    "geocoded_column": {
      "latitude": "29.952797606649035",
      "longitude": "-90.07411471371286"
    }
  },
  {
    "service_request": "2025-1166362",
    "request_type": "Streetlights",
    "request_reason": "Streetlight Outage/Malfunction",
    "date_created": "2025-02-03T19:04:28.000",
    "date_modified": "2025-02-03T19:04:29.000",
    "request_status": "Pending",
    "responsible_agency": "Department of Public Works",
    "final_address": "310 S Rampart St",
    "address_councildis": "B",
    "status": "Pending",
    "contractor": "Legacy Professional Services",
    "rowid": "1166362",
    "final_x": "3679596.80149",
    "final_y": "530517.795522",
    "longitude": "-90.07411471371286",
    "latitude": "29.952797606649035",
    "geocoded_column": {
      "latitude": "29.952797606649035",
      "longitude": "-90.07411471371286"
    }
  },
  {
    "service_request": "2025-1166361",
    "request_type": "Trash/Recycling",
    "request_reason": "Request a Large Item Pick Up",
    "date_created": "2025-02-03T19:03:22.000",
    "date_modified": "2025-02-03T19:03:31.000",
    "request_status": "Pending",
    "responsible_agency": "Department of Sanitation",
    "final_address": "4908 Pecan St",
    "address_councildis": "E",
    "status": "Assigned to Contractor",
    "contractor": "Waste Pro",
    "rowid": "1166361",
    "final_x": "3701654.75191",
    "final_y": "555115.490969",
    "longitude": "-90.00356466494442",
    "latitude": "30.019747236825854",
    "geocoded_column": {
      "latitude": "30.019747236825854",
      "longitude": "-90.00356466494442"
    }
  },
  {
    "service_request": "2025-1166360",
    "request_type": "Streetlights",
    "request_reason": "Streetlight Outage/Malfunction",
    "date_created": "2025-02-03T19:02:13.000",
    "date_modified": "2025-02-03T19:02:15.000",
    "request_status": "Pending",
    "responsible_agency": "Department of Public Works",
    "final_address": "310 S Rampart St",
    "address_councildis": "B",
    "status": "Pending",
    "contractor": "Legacy Professional Services",
    "rowid": "1166360",
    "final_x": "3679596.80149",
    "final_y": "530517.795522",
    "longitude": "-90.07411471371286",
    "latitude": "29.952797606649035",
    "geocoded_column": {
      "latitude": "29.952797606649035",
      "longitude": "-90.07411471371286"
    }
  },
  {
    "service_request": "2025-1166359",
    "request_type": "Family Reunification",
    "request_reason": "Misplaced Citizen Search/Report",
    "date_created": "2025-02-03T18:53:15.000",
    "date_modified": "2025-02-03T19:09:22.000",
    "case_close_date": "2025-02-03T13:07:34.000",
    "request_status": "Closed",
    "responsible_agency": "Health Department",
    "final_address": "1300 Perdido St",
    "address_councildis": "B",
    "status": "Alive & Well (Confirmed By Phone)",
    "rowid": "1166359",
    "final_x": "3678683.48347",
    "final_y": "530227.987073",
    "longitude": "-90.07700859883013",
    "latitude": "29.952028297123956",
    "geocoded_column": {
      "latitude": "29.952028297123956",
      "longitude": "-90.07700859883013"
    }
  },
  {
    "service_request": "2025-1166358",
    "request_type": "Roads and Streets",
    "request_reason": "Sidewalk Damaged or Missing",
    "date_created": "2025-02-03T18:51:51.000",
    "date_modified": "2025-02-03T18:51:54.000",
    "request_status": "Pending",
    "responsible_agency": "Department of Public Works",
    "final_address": "129 Burgundy St",
    "address_councildis": "C",
    "status": "Pending",
    "rowid": "1166358",
    "final_x": "3680471.87599",
    "final_y": "531572.241091",
    "longitude": "-90.0713149488568",
    "latitude": "29.955670504386838",
    "geocoded_column": {
      "latitude": "29.955670504386838",
      "longitude": "-90.0713149488568"
    }
  },
  {
    "service_request": "2025-1166357",
    "request_type": "Trash/Recycling",
    "request_reason": "Repair Trash Cart",
    "date_created": "2025-02-03T18:28:54.000",
    "date_modified": "2025-02-03T18:28:56.000",
    "request_status": "Pending",
    "responsible_agency": "Department of Sanitation",
    "final_address": "511 S Pierce St",
    "address_councildis": "A",
    "status": "Assigned to Contractor",
    "contractor": "IV Waste",
    "rowid": "1166357",
    "final_x": "3670409.38177",
    "final_y": "536702.390791",
    "longitude": "-90.10291487206533",
    "latitude": "29.97007761042458",
    "geocoded_column": {
      "latitude": "29.97007761042458",
      "longitude": "-90.10291487206533"
    }
  },
  {
    "service_request": "2025-1166356",
    "request_type": "Trash/Recycling",
    "request_reason": "Request a Large Item Pick Up",
    "date_created": "2025-02-03T18:27:53.000",
    "date_modified": "2025-02-03T18:28:04.000",
    "request_status": "Pending",
    "responsible_agency": "Department of Sanitation",
    "final_address": "404 Pacific Ave",
    "address_councildis": "C",
    "status": "Assigned to Contractor",
    "contractor": "Richards Disposal",
    "rowid": "1166356",
    "final_x": "3688568.77417",
    "final_y": "530245.319553",
    "longitude": "-90.04579496909072",
    "latitude": "29.951774232505453",
    "geocoded_column": {
      "latitude": "29.951774232505453",
      "longitude": "-90.04579496909072"
    }
  },
  {
    "service_request": "2025-1166355",
    "request_type": "Trash/Recycling",
    "request_reason": "Request a Large Item Pick Up",
    "date_created": "2025-02-03T18:20:58.000",
    "date_modified": "2025-02-03T18:21:01.000",
    "request_status": "Pending",
    "responsible_agency": "Department of Sanitation",
    "final_address": "7930 Wave Dr",
    "address_councildis": "E",
    "status": "Assigned to Contractor",
    "contractor": "Waste Pro",
    "rowid": "1166355",
    "final_x": "3714167.02885",
    "final_y": "569727.654054",
    "longitude": "-89.96347842724394",
    "latitude": "30.05951959889848",
    "geocoded_column": {
      "latitude": "30.05951959889848",
      "longitude": "-89.96347842724394"
    }
  },
  {
    "service_request": "2025-1166354",
    "request_type": "Trash/Recycling",
    "request_reason": "Request a Large Item Pick Up",
    "date_created": "2025-02-03T18:19:20.000",
    "date_modified": "2025-02-03T18:19:22.000",
    "request_status": "Pending",
    "responsible_agency": "Department of Sanitation",
    "final_address": "400 40Th St",
    "address_councildis": "A",
    "status": "Assigned to Contractor",
    "contractor": "IV Waste",
    "rowid": "1166354",
    "final_x": "3665011.32884",
    "final_y": "553309.459607",
    "longitude": "-90.11940690867381",
    "latitude": "30.01589967280443",
    "geocoded_column": {
      "latitude": "30.01589967280443",
      "longitude": "-90.11940690867381"
    }
  },
  {
    "service_request": "2025-1166353",
    "request_type": "Trash/Recycling",
    "request_reason": "Request a Large Item Pick Up",
    "date_created": "2025-02-03T17:33:31.000",
    "date_modified": "2025-02-03T17:33:33.000",
    "request_status": "Pending",
    "responsible_agency": "Department of Sanitation",
    "final_address": "8634 Plum St",
    "address_councildis": "A",
    "status": "Assigned to Contractor",
    "contractor": "IV Waste",
    "rowid": "1166353",
    "final_x": "3660651.09914",
    "final_y": "529983.473793",
    "longitude": "-90.13395479267538",
    "latitude": "29.95188728432085",
    "geocoded_column": {
      "latitude": "29.95188728432085",
      "longitude": "-90.13395479267538"
    }
  },
  {
    "service_request": "2025-1166352",
    "request_type": "Trash/Recycling",
    "request_reason": "Missed Trash Pick-Up",
    "date_created": "2025-02-03T17:14:04.000",
    "date_modified": "2025-02-03T17:50:57.000",
    "case_close_date": "2025-02-03T11:50:55.000",
    "request_status": "Closed",
    "responsible_agency": "Department of Sanitation",
    "final_address": "4871 Brittany Ct",
    "address_councildis": "E",
    "status": "Invalid Request",
    "contractor": "Waste Pro",
    "contractor_action": "Invalid Request",
    "rowid": "1166352",
    "final_x": "3726825.62713",
    "final_y": "561927.055711",
    "longitude": "-89.92376935426087",
    "latitude": "30.03764903214526",
    "geocoded_column": {
      "latitude": "30.03764903214526",
      "longitude": "-89.92376935426087"
    }
  },
  {
    "service_request": "2025-1166351",
    "request_type": "Parks & Parkways",
    "request_reason": "Tree Stump (removal, grind)",
    "date_created": "2025-02-03T17:13:22.000",
    "date_modified": "2025-02-03T17:13:23.000",
    "request_status": "Pending",
    "responsible_agency": "Department of Parks & Parkway",
    "final_address": "901 Porteous St",
    "address_councildis": "A",
    "status": "Pending",
    "rowid": "1166351",
    "final_x": "3670296.16058",
    "final_y": "551299.520789",
    "longitude": "-90.10277736183275",
    "latitude": "30.010218043777957",
    "geocoded_column": {
      "latitude": "30.010218043777957",
      "longitude": "-90.10277736183275"
    }
  },
  {
    "service_request": "2025-1166350",
    "request_type": "Drainage",
    "request_reason": "Street Flooding",
    "date_created": "2025-02-03T17:13:16.000",
    "date_modified": "2025-02-03T17:13:18.000",
    "request_status": "Pending",
    "responsible_agency": "Department of Public Works",
    "final_address": "1600 BLK Elizardi Blvd",
    "address_councildis": "C",
    "status": "Pending",
    "rowid": "1166350",
    "final_x": "3694678.6923",
    "final_y": "524984.32974",
    "longitude": "-90.0266922873444",
    "latitude": "29.937118139297024",
    "geocoded_column": {
      "latitude": "29.937118139297024",
      "longitude": "-90.0266922873444"
    }
  },
  {
    "service_request": "2025-1166349",
    "request_type": "Roads and Streets",
    "request_reason": "Sidewalk Damaged or Missing",
    "date_created": "2025-02-03T17:10:51.000",
    "date_modified": "2025-02-03T17:10:53.000",
    "request_status": "Pending",
    "responsible_agency": "Department of Public Works",
    "final_address": "1600 BLK Elizardi Blvd",
    "address_councildis": "C",
    "status": "Pending",
    "rowid": "1166349",
    "final_x": "3694678.6923",
    "final_y": "524984.32974",
    "longitude": "-90.0266922873444",
    "latitude": "29.937118139297024",
    "geocoded_column": {
      "latitude": "29.937118139297024",
      "longitude": "-90.0266922873444"
    }
  },
  {
    "service_request": "2025-1166348",
    "request_type": "Traffic Signals",
    "request_reason": "Traffic Signal Malfunctioning or Damaged",
    "date_created": "2025-02-03T17:04:25.000",
    "date_modified": "2025-02-03T17:04:28.000",
    "request_status": "Pending",
    "responsible_agency": "Department of Public Works",
    "final_address": "1000 BLK Jackson Ave",
    "address_councildis": "B",
    "status": "Pending",
    "rowid": "1166348",
    "final_x": "3678978.7775",
    "final_y": "521939.418507",
    "longitude": "-90.07636329537843",
    "latitude": "29.929228574516234",
    "geocoded_column": {
      "latitude": "29.929228574516234",
      "longitude": "-90.07636329537843"
    }
  },
  {
    "service_request": "2025-1166347",
    "request_type": "Trash/Recycling",
    "request_reason": "Request a Large Item Pick Up",
    "date_created": "2025-02-03T16:57:31.000",
    "date_modified": "2025-02-03T16:57:33.000",
    "request_status": "Pending",
    "responsible_agency": "Department of Sanitation",
    "final_address": "4610 Lancelot Dr",
    "address_councildis": "E",
    "status": "Assigned to Contractor",
    "contractor": "Waste Pro",
    "rowid": "1166347",
    "final_x": "3707474.7436",
    "final_y": "554524.211672",
    "longitude": "-89.98519753103969",
    "latitude": "30.017934448117064",
    "geocoded_column": {
      "latitude": "30.017934448117064",
      "longitude": "-89.98519753103969"
    }
  },
  {
    "service_request": "2025-1166346",
    "request_type": "Trash/Recycling",
    "request_reason": "Dead Animal Pick Up",
    "date_created": "2025-02-03T16:53:43.000",
    "date_modified": "2025-02-03T16:53:45.000",
    "request_status": "Pending",
    "responsible_agency": "Department of Sanitation",
    "final_address": "11200 Lincoln Beach Blvd",
    "address_councildis": "E",
    "status": "Assigned to Contractor",
    "contractor": "Waste Pro",
    "rowid": "1166346",
    "final_x": "3710180.71825",
    "final_y": "567416.191396",
    "longitude": "-89.97616531103715",
    "latitude": "30.053294451218346",
    "geocoded_column": {
      "latitude": "30.053294451218346",
      "longitude": "-89.97616531103715"
    }
  },
  {
    "service_request": "2025-1166345",
    "request_type": "Trash/Recycling",
    "request_reason": "Illegal Dumping",
    "date_created": "2025-02-03T16:49:00.000",
    "date_modified": "2025-02-03T16:49:02.000",
    "request_status": "Pending",
    "responsible_agency": "Department of Sanitation",
    "final_address": "7900 Lamb Rd",
    "address_councildis": "E",
    "status": "Pending",
    "rowid": "1166345",
    "final_x": "3696649.80707",
    "final_y": "560035.730781",
    "longitude": "-90.01920027786507",
    "latitude": "30.03343477755246",
    "geocoded_column": {
      "latitude": "30.03343477755246",
      "longitude": "-90.01920027786507"
    }
  },
  {
    "service_request": "2025-1166344",
    "request_type": "Trash/Recycling",
    "request_reason": "Request a Large Item Pick Up",
    "date_created": "2025-02-03T16:48:07.000",
    "date_modified": "2025-02-03T17:55:58.000",
    "case_close_date": "2025-02-03T11:55:56.000",
    "request_status": "Closed",
    "responsible_agency": "Department of Sanitation",
    "final_address": "12800 BLK Lincoln Beach Blvd",
    "address_councildis": "E",
    "status": "Invalid Request",
    "contractor": "Waste Pro",
    "contractor_action": "Additional information required from resident",
    "rowid": "1166344",
    "final_x": "3714807.14712",
    "final_y": "570790.060635",
    "longitude": "-89.96141487029499",
    "latitude": "30.06241972066234",
    "geocoded_column": {
      "latitude": "30.06241972066234",
      "longitude": "-89.96141487029499"
    }
  },
  {
    "service_request": "2025-1166343",
    "request_type": "Trash/Recycling",
    "request_reason": "Request a Large Item Pick Up",
    "date_created": "2025-02-03T16:45:01.000",
    "date_modified": "2025-02-03T16:45:02.000",
    "request_status": "Pending",
    "responsible_agency": "Department of Sanitation",
    "final_address": "10240 Brookfield Dr",
    "address_councildis": "E",
    "status": "Assigned to Contractor",
    "contractor": "Waste Pro",
    "rowid": "1166343",
    "final_x": "3710377.23077",
    "final_y": "563042.336096",
    "longitude": "-89.97570799013343",
    "latitude": "30.041261709972005",
    "geocoded_column": {
      "latitude": "30.041261709972005",
      "longitude": "-89.97570799013343"
    }
  },
  {
    "service_request": "2025-1166342",
    "request_type": "Streetlights",
    "request_reason": "Streetlight Outage/Malfunction",
    "date_created": "2025-02-03T16:44:20.000",
    "date_modified": "2025-02-03T16:44:21.000",
    "request_status": "Pending",
    "responsible_agency": "Department of Public Works",
    "final_address": "7000 BLK Camp St",
    "address_councildis": "A",
    "status": "Pending",
    "contractor": "Legacy Professional Services",
    "rowid": "1166342",
    "final_x": "3661263.07606",
    "final_y": "521369.326144",
    "longitude": "-90.1323075435512",
    "latitude": "29.928183479241692",
    "geocoded_column": {
      "latitude": "29.928183479241692",
      "longitude": "-90.1323075435512"
    }
  },
  {
    "service_request": "2025-1166341",
    "request_type": "Healthy Homes",
    "request_reason": "Healthy Homes",
    "date_created": "2025-02-03T16:41:56.000",
    "date_modified": "2025-02-03T16:41:57.000",
    "request_status": "Pending",
    "responsible_agency": "Department of Code Enforcement",
    "final_address": "921 France St",
    "address_councildis": "C",
    "status": "Pending",
    "rowid": "1166341",
    "final_x": "3692256.16688",
    "final_y": "534518.277189",
    "longitude": "-90.0339989989348",
    "latitude": "29.963408930582027",
    "geocoded_column": {
      "latitude": "29.963408930582027",
      "longitude": "-90.0339989989348"
    }
  },
  {
    "service_request": "2025-1166340",
    "request_type": "Street and Traffic Signs",
    "request_reason": "Stop Sign Missing or Damaged",
    "date_created": "2025-02-03T16:38:33.000",
    "date_modified": "2025-02-03T16:38:35.000",
    "request_status": "Pending",
    "responsible_agency": "Department of Public Works",
    "final_address": "2942 Joliet St",
    "address_councildis": "A",
    "status": "Pending",
    "rowid": "1166340",
    "final_x": "3665191.17492",
    "final_y": "534103.882629",
    "longitude": "-90.11948150158378",
    "latitude": "29.963085612672376",
    "geocoded_column": {
      "latitude": "29.963085612672376",
      "longitude": "-90.11948150158378"
    }
  },
  {
    "service_request": "2025-1166339",
    "request_type": "Roads and Streets",
    "request_reason": "Sidewalk Damaged or Missing",
    "date_created": "2025-02-03T16:38:23.000",
    "date_modified": "2025-02-03T16:38:23.000",
    "request_status": "Pending",
    "responsible_agency": "Department of Public Works",
    "final_address": "1652 Holiday Pl",
    "address_councildis": "C",
    "status": "Pending",
    "rowid": "1166339",
    "final_x": "3698984.72362",
    "final_y": "524857.382076",
    "longitude": "-90.01310259554184",
    "latitude": "29.9366333577226",
    "geocoded_column": {
      "latitude": "29.9366333577226",
      "longitude": "-90.01310259554184"
    }
  },
  {
    "service_request": "2025-1166338",
    "request_type": "Trash/Recycling",
    "request_reason": "Request a Large Item Pick Up",
    "date_created": "2025-02-03T16:35:50.000",
    "date_modified": "2025-02-03T16:35:52.000",
    "request_status": "Pending",
    "responsible_agency": "Department of Sanitation",
    "final_address": "1729 Lesseps St",
    "address_councildis": "D",
    "status": "Assigned to Contractor",
    "contractor": "IV Waste",
    "rowid": "1166338",
    "final_x": "3693354.83702",
    "final_y": "537571.771016",
    "longitude": "-90.03041989030996",
    "latitude": "29.9717706559581",
    "geocoded_column": {
      "latitude": "29.9717706559581",
      "longitude": "-90.03041989030996"
    }
  },
  {
    "service_request": "2025-1166337",
    "request_type": "Trash/Recycling",
    "request_reason": "Order Recycling Cart",
    "date_created": "2025-02-03T16:34:49.000",
    "date_modified": "2025-02-03T16:34:50.000",
    "request_status": "Pending",
    "responsible_agency": "Department of Sanitation",
    "final_address": "4601 Constance St",
    "address_councildis": "B",
    "status": "Pending",
    "rowid": "1166337",
    "final_x": "3670309.41082",
    "final_y": "518372.128054",
    "longitude": "-90.1038517363669",
    "latitude": "29.919678313443253",
    "geocoded_column": {
      "latitude": "29.919678313443253",
      "longitude": "-90.1038517363669"
    }
  },
  {
    "service_request": "2025-1166336",
    "request_type": "Trash/Recycling",
    "request_reason": "Request a Large Item Pick Up",
    "date_created": "2025-02-03T16:30:12.000",
    "date_modified": "2025-02-03T16:30:16.000",
    "request_status": "Pending",
    "responsible_agency": "Department of Sanitation",
    "final_address": "5907 Beechcraft St",
    "address_councildis": "D",
    "status": "Assigned to Contractor",
    "contractor": "Waste Pro",
    "rowid": "1166336",
    "final_x": "3696353.26064",
    "final_y": "553186.703639",
    "longitude": "-90.02038539262581",
    "latitude": "30.01461190378941",
    "geocoded_column": {
      "latitude": "30.01461190378941",
      "longitude": "-90.02038539262581"
    }
  },
  {
    "service_request": "2025-1166335",
    "request_type": "Trash/Recycling",
    "request_reason": "Request a Large Item Pick Up",
    "date_created": "2025-02-03T16:25:11.000",
    "date_modified": "2025-02-03T16:25:13.000",
    "request_status": "Pending",
    "responsible_agency": "Department of Sanitation",
    "final_address": "8447 Huntington Park Dr",
    "address_councildis": "E",
    "status": "Assigned to Contractor",
    "contractor": "Waste Pro",
    "rowid": "1166335",
    "final_x": "3704842.36407",
    "final_y": "560037.813661",
    "longitude": "-89.99331104399343",
    "latitude": "30.033179610090006",
    "geocoded_column": {
      "latitude": "30.033179610090006",
      "longitude": "-89.99331104399343"
    }
  },
  {
    "service_request": "2025-1166334",
    "request_type": "Street and Traffic Signs",
    "request_reason": "Additional Signage Request",
    "date_created": "2025-02-03T16:24:28.000",
    "date_modified": "2025-02-03T16:24:30.000",
    "request_status": "Pending",
    "responsible_agency": "Department of Public Works",
    "final_address": "5141 E Parkwood Ct",
    "address_councildis": "E",
    "status": "Pending",
    "rowid": "1166334",
    "final_x": "3717053.87999",
    "final_y": "559541.150045",
    "longitude": "-89.9547407804547",
    "latitude": "30.031415658440324",
    "geocoded_column": {
      "latitude": "30.031415658440324",
      "longitude": "-89.9547407804547"
    }
  },
  {
    "service_request": "2025-1166333",
    "request_type": "Trash/Recycling",
    "request_reason": "Request a Large Item Pick Up",
    "date_created": "2025-02-03T16:23:49.000",
    "date_modified": "2025-02-03T16:23:51.000",
    "request_status": "Pending",
    "responsible_agency": "Department of Sanitation",
    "final_address": "326 40Th St",
    "address_councildis": "A",
    "status": "Assigned to Contractor",
    "contractor": "IV Waste",
    "rowid": "1166333",
    "final_x": "3665170.14413",
    "final_y": "553302.928535",
    "longitude": "-90.11890534006518",
    "latitude": "30.01587708735757",
    "geocoded_column": {
      "latitude": "30.01587708735757",
      "longitude": "-90.11890534006518"
    }
  },
  {
    "service_request": "2025-1166332",
    "request_type": "Trash/Recycling",
    "request_reason": "Repair Trash Cart",
    "date_created": "2025-02-03T16:23:22.000",
    "date_modified": "2025-02-03T16:23:25.000",
    "request_status": "Pending",
    "responsible_agency": "Department of Sanitation",
    "final_address": "1556 De Battista Pl",
    "address_councildis": "C",
    "status": "Assigned to Contractor",
    "contractor": "Richards Disposal",
    "rowid": "1166332",
    "final_x": "3699811.86519",
    "final_y": "525354.927037",
    "longitude": "-90.01047315624429",
    "latitude": "29.93797520228674",
    "geocoded_column": {
      "latitude": "29.93797520228674",
      "longitude": "-90.01047315624429"
    }
  },
  {
    "service_request": "2025-1166331",
    "request_type": "Trash/Recycling",
    "request_reason": "Illegal Dumping",
    "date_created": "2025-02-03T16:20:44.000",
    "date_modified": "2025-02-03T16:20:48.000",
    "request_status": "Pending",
    "responsible_agency": "Department of Sanitation",
    "final_address": "2425 Law St",
    "address_councildis": "D",
    "status": "Pending",
    "rowid": "1166331",
    "final_x": "3685634.551",
    "final_y": "541966.329996",
    "longitude": "-90.05464682423352",
    "latitude": "29.984093271117256",
    "geocoded_column": {
      "latitude": "29.984093271117256",
      "longitude": "-90.05464682423352"
    }
  },
  {
    "service_request": "2025-1166330",
    "request_type": "Trash/Recycling",
    "request_reason": "Request a Large Item Pick Up",
    "date_created": "2025-02-03T16:18:56.000",
    "date_modified": "2025-02-03T16:18:57.000",
    "request_status": "Pending",
    "responsible_agency": "Department of Sanitation",
    "final_address": "864 Florida Blvd",
    "address_councildis": "A",
    "status": "Assigned to Contractor",
    "contractor": "IV Waste",
    "rowid": "1166330",
    "final_x": "3669375.35009",
    "final_y": "545207.809359",
    "longitude": "-90.1058927195692",
    "latitude": "29.993495114618522",
    "geocoded_column": {
      "latitude": "29.993495114618522",
      "longitude": "-90.1058927195692"
    }
  },
  {
    "service_request": "2025-1166329",
    "request_type": "Drainage",
    "request_reason": "Street Flooding",
    "date_created": "2025-02-03T16:18:38.000",
    "date_modified": "2025-02-03T16:18:40.000",
    "request_status": "Pending",
    "responsible_agency": "Department of Public Works",
    "final_address": "1511 Marigny St",
    "address_councildis": "C",
    "status": "Pending",
    "rowid": "1166329",
    "final_x": "3685324.01513",
    "final_y": "537914.057865",
    "longitude": "-90.05577037038246",
    "latitude": "29.972960471483866",
    "geocoded_column": {
      "latitude": "29.972960471483866",
      "longitude": "-90.05577037038246"
    }
  },
  {
    "service_request": "2025-1166328",
    "request_type": "Trash/Recycling",
    "request_reason": "Illegal Dumping",
    "date_created": "2025-02-03T16:16:50.000",
    "date_modified": "2025-02-03T16:16:52.000",
    "request_status": "Pending",
    "responsible_agency": "Department of Sanitation",
    "final_address": "754 Florida Blvd",
    "address_councildis": "A",
    "status": "Pending",
    "rowid": "1166328",
    "final_x": "3668856.83073",
    "final_y": "545205.611535",
    "longitude": "-90.10753072000459",
    "latitude": "29.993504333972965",
    "geocoded_column": {
      "latitude": "29.993504333972965",
      "longitude": "-90.10753072000459"
    }
  },
  {
    "service_request": "2025-1166327",
    "request_type": "Trash/Recycling",
    "request_reason": "Request a Large Item Pick Up",
    "date_created": "2025-02-03T16:15:54.000",
    "date_modified": "2025-02-03T16:15:56.000",
    "request_status": "Pending",
    "responsible_agency": "Department of Sanitation",
    "final_address": "7550 Anne Marie Ct",
    "address_councildis": "E",
    "status": "Assigned to Contractor",
    "contractor": "Waste Pro",
    "rowid": "1166327",
    "final_x": "3718183.74034",
    "final_y": "570805.954087",
    "longitude": "-89.95074089490446",
    "latitude": "30.062351827365294",
    "geocoded_column": {
      "latitude": "30.062351827365294",
      "longitude": "-89.95074089490446"
    }
  },
  {
    "service_request": "2025-1166326",
    "request_type": "Trash/Recycling",
    "request_reason": "Request a Large Item Pick Up",
    "date_created": "2025-02-03T16:08:17.000",
    "date_modified": "2025-02-03T16:08:19.000",
    "request_status": "Pending",
    "responsible_agency": "Department of Sanitation",
    "final_address": "7832 Brevard Ave",
    "address_councildis": "E",
    "status": "Assigned to Contractor",
    "contractor": "Waste Pro",
    "rowid": "1166326",
    "final_x": "3705960.51249",
    "final_y": "564080.534881",
    "longitude": "-89.98962779868937",
    "latitude": "30.04425949400478",
    "geocoded_column": {
      "latitude": "30.04425949400478",
      "longitude": "-89.98962779868937"
    }
  },
  {
    "service_request": "2025-1166325",
    "request_type": "Trash/Recycling",
    "request_reason": "Order Recycling Cart",
    "date_created": "2025-02-03T16:07:23.000",
    "date_modified": "2025-02-03T16:07:25.000",
    "request_status": "Pending",
    "responsible_agency": "Department of Sanitation",
    "final_address": "938 Jourdan Ave",
    "address_councildis": "E",
    "status": "Pending",
    "rowid": "1166325",
    "final_x": "3694814.05283",
    "final_y": "534034.842821",
    "longitude": "-90.02593893329619",
    "latitude": "29.9619996542102",
    "geocoded_column": {
      "latitude": "29.9619996542102",
      "longitude": "-90.02593893329619"
    }
  },
  {
    "service_request": "2025-1166324",
    "request_type": "Drainage",
    "request_reason": "Street Flooding",
    "date_created": "2025-02-03T16:06:30.000",
    "date_modified": "2025-02-03T16:06:32.000",
    "request_status": "Pending",
    "responsible_agency": "Department of Public Works",
    "final_address": "1910 Marigny St",
    "address_councildis": "D",
    "status": "Pending",
    "rowid": "1166324",
    "final_x": "3685035.55439",
    "final_y": "539374.421258",
    "longitude": "-90.05662999492948",
    "latitude": "29.976984800476696",
    "geocoded_column": {
      "latitude": "29.976984800476696",
      "longitude": "-90.05662999492948"
    }
  },
  {
    "service_request": "2025-1166323",
    "request_type": "Property Maintenance",
    "request_reason": "Property Maintenance",
    "date_created": "2025-02-03T16:06:12.000",
    "date_modified": "2025-02-03T16:06:14.000",
    "request_status": "Pending",
    "responsible_agency": "Department of Code Enforcement",
    "final_address": "90 Versailles Blvd",
    "address_councildis": "B",
    "status": "Pending",
    "rowid": "1166323",
    "final_x": "3668045.60493",
    "final_y": "531036.604034",
    "longitude": "-90.1105708873391",
    "latitude": "29.954568151983928",
    "geocoded_column": {
      "latitude": "29.954568151983928",
      "longitude": "-90.1105708873391"
    }
  },
  {
    "service_request": "2025-1166322",
    "request_type": "Trash/Recycling",
    "request_reason": "Order Recycling Cart",
    "date_created": "2025-02-03T16:04:27.000",
    "date_modified": "2025-02-03T16:04:29.000",
    "request_status": "Pending",
    "responsible_agency": "Department of Sanitation",
    "final_address": "941 France St",
    "address_councildis": "C",
    "status": "Pending",
    "rowid": "1166322",
    "final_x": "3692300.90569",
    "final_y": "534682.678918",
    "longitude": "-90.03385183150745",
    "latitude": "29.96385958253897",
    "geocoded_column": {
      "latitude": "29.96385958253897",
      "longitude": "-90.03385183150745"
    }
  },
  {
    "service_request": "2025-1166321",
    "request_type": "Trash/Recycling",
    "request_reason": "Order Trash Cart",
    "date_created": "2025-02-03T16:03:45.000",
    "date_modified": "2025-02-03T16:03:47.000",
    "request_status": "Pending",
    "responsible_agency": "Department of Sanitation",
    "final_address": "941 France St",
    "address_councildis": "C",
    "status": "Assigned to Contractor",
    "contractor": "IV Waste",
    "rowid": "1166321",
    "final_x": "3692300.90569",
    "final_y": "534682.678918",
    "longitude": "-90.03385183150745",
    "latitude": "29.96385958253897",
    "geocoded_column": {
      "latitude": "29.96385958253897",
      "longitude": "-90.03385183150745"
    }
  },
  {
    "service_request": "2025-1166320",
    "request_type": "Trash/Recycling",
    "request_reason": "Repair Trash Cart",
    "date_created": "2025-02-03T16:01:00.000",
    "date_modified": "2025-02-03T16:01:02.000",
    "request_status": "Pending",
    "responsible_agency": "Department of Sanitation",
    "final_address": "1521 Harcourt Dr",
    "address_councildis": "D",
    "status": "Assigned to Contractor",
    "contractor": "IV Waste",
    "rowid": "1166320",
    "final_x": "3679041.06728",
    "final_y": "548623.474259",
    "longitude": "-90.0752417724118",
    "latitude": "30.0025987427065",
    "geocoded_column": {
      "latitude": "30.0025987427065",
      "longitude": "-90.0752417724118"
    }
  },
  {
    "service_request": "2025-1166319",
    "request_type": "Trash/Recycling",
    "request_reason": "Illegal Dumping",
    "date_created": "2025-02-03T16:00:03.000",
    "date_modified": "2025-02-03T16:00:05.000",
    "request_status": "Pending",
    "responsible_agency": "Department of Sanitation",
    "final_address": "DOWNMAN EXIT & I 10 E",
    "address_councildis": "E",
    "status": "Pending",
    "rowid": "1166319",
    "final_x": "3695633.7",
    "final_y": "549869.38",
    "longitude": "-90.02277871883778",
    "latitude": "30.005513153258267",
    "geocoded_column": {
      "latitude": "30.005513153258267",
      "longitude": "-90.02277871883778"
    }
  },
  {
    "service_request": "2025-1166318",
    "request_type": "Trash/Recycling",
    "request_reason": "Repair Trash Cart",
    "date_created": "2025-02-03T15:59:31.000",
    "date_modified": "2025-02-03T15:59:34.000",
    "request_status": "Pending",
    "responsible_agency": "Department of Sanitation",
    "final_address": "1401 St Bernard Ave",
    "address_councildis": "C",
    "status": "Assigned to Contractor",
    "contractor": "IV Waste",
    "rowid": "1166318",
    "final_x": "3682549.06466",
    "final_y": "537253.57204",
    "longitude": "-90.06455728693709",
    "latitude": "29.971229145463933",
    "geocoded_column": {
      "latitude": "29.971229145463933",
      "longitude": "-90.06455728693709"
    }
  },
  {
    "service_request": "2025-1166317",
    "request_type": "Abandoned Vehicles",
    "request_reason": "Abandoned/Junk Vehicles",
    "date_created": "2025-02-03T15:58:10.000",
    "date_modified": "2025-02-03T15:58:14.000",
    "request_status": "Pending",
    "responsible_agency": "Department of Public Works",
    "final_address": "1824 Sophie Wright Pl",
    "address_councildis": "B",
    "status": "Pending",
    "rowid": "1166317",
    "final_x": "3679653.70095",
    "final_y": "523149.326139",
    "longitude": "-90.07419072006655",
    "latitude": "29.9325350479122",
    "geocoded_column": {
      "latitude": "29.9325350479122",
      "longitude": "-90.07419072006655"
    }
  },
  {
    "service_request": "2025-1166316",
    "request_type": "Roads and Streets",
    "request_reason": "Road Shoulder Damage",
    "date_created": "2025-02-03T15:58:07.000",
    "date_modified": "2025-02-03T15:58:09.000",
    "request_status": "Pending",
    "responsible_agency": "Department of Public Works",
    "final_address": "1205 St Charles Ave",
    "address_councildis": "B",
    "status": "Pending",
    "rowid": "1166316",
    "final_x": "3679654.76706",
    "final_y": "526356.192382",
    "longitude": "-90.07407609579455",
    "latitude": "29.94135283774421",
    "geocoded_column": {
      "latitude": "29.94135283774421",
      "longitude": "-90.07407609579455"
    }
  },
  {
    "service_request": "2025-1166315",
    "request_type": "Parks & Parkways",
    "request_reason": "Request Tree Service (Right of Way/Public Property)",
    "date_created": "2025-02-03T15:57:46.000",
    "date_modified": "2025-02-03T15:57:48.000",
    "request_status": "Pending",
    "responsible_agency": "Department of Parks & Parkway",
    "final_address": "4114 N Galvez St",
    "address_councildis": "D",
    "status": "Pending",
    "rowid": "1166315",
    "final_x": "3693168.20419",
    "final_y": "538886.143113",
    "longitude": "-90.03096212275015",
    "latitude": "29.975390545128953",
    "geocoded_column": {
      "latitude": "29.975390545128953",
      "longitude": "-90.03096212275015"
    }
  },
  {
    "service_request": "2025-1166314",
    "request_type": "Trash/Recycling",
    "request_reason": "Request a Large Item Pick Up",
    "date_created": "2025-02-03T15:54:03.000",
    "date_modified": "2025-02-03T15:54:04.000",
    "request_status": "Pending",
    "responsible_agency": "Department of Sanitation",
    "final_address": "1237 Filmore Ave",
    "address_councildis": "D",
    "status": "Assigned to Contractor",
    "contractor": "IV Waste",
    "rowid": "1166314",
    "final_x": "3677173.48936",
    "final_y": "551852.451094",
    "longitude": "-90.08103021388658",
    "latitude": "30.011533528442477",
    "geocoded_column": {
      "latitude": "30.011533528442477",
      "longitude": "-90.08103021388658"
    }
  },
  {
    "service_request": "2025-1166313",
    "request_type": "Trash/Recycling",
    "request_reason": "Request a Large Item Pick Up",
    "date_created": "2025-02-03T15:53:20.000",
    "date_modified": "2025-02-03T15:53:22.000",
    "request_status": "Pending",
    "responsible_agency": "Department of Sanitation",
    "final_address": "4823 Rosemont Pl",
    "address_councildis": "E",
    "status": "Assigned to Contractor",
    "contractor": "Waste Pro",
    "rowid": "1166313",
    "final_x": "3702734.97905",
    "final_y": "555331.708441",
    "longitude": "-90.00014357539133",
    "latitude": "30.0203072376472",
    "geocoded_column": {
      "latitude": "30.0203072376472",
      "longitude": "-90.00014357539133"
    }
  },
  {
    "service_request": "2025-1166312",
    "request_type": "Abandoned Vehicles",
    "request_reason": "Abandoned/Junk Vehicles",
    "date_created": "2025-02-03T15:51:16.000",
    "date_modified": "2025-02-03T15:52:58.000",
    "request_status": "Pending",
    "responsible_agency": "Department of Public Works",
    "final_address": "2024 Danneel St",
    "address_councildis": "B",
    "status": "Pending",
    "rowid": "1166312",
    "final_x": "3677095.6836",
    "final_y": "525284.590077",
    "longitude": "-90.08219256169419",
    "latitude": "29.938483367740236",
    "geocoded_column": {
      "latitude": "29.938483367740236",
      "longitude": "-90.08219256169419"
    }
  },
  {
    "service_request": "2025-1166311",
    "request_type": "Roads and Streets",
    "request_reason": "Pothole",
    "date_created": "2025-02-03T15:51:08.000",
    "date_modified": "2025-02-03T15:51:11.000",
    "request_status": "Pending",
    "responsible_agency": "Department of Public Works",
    "final_address": "900 BLK Girod St",
    "address_councildis": "B",
    "status": "Pending",
    "rowid": "1166311",
    "final_x": "3679548.39119",
    "final_y": "528791.983214",
    "longitude": "-90.07432744720246",
    "latitude": "29.94805366459155",
    "geocoded_column": {
      "latitude": "29.94805366459155",
      "longitude": "-90.07432744720246"
    }
  },
  {
    "service_request": "2025-1166310",
    "request_type": "Trash/Recycling",
    "request_reason": "Missed Trash Pick-Up",
    "date_created": "2025-02-03T15:47:19.000",
    "date_modified": "2025-02-03T16:35:13.000",
    "case_close_date": "2025-02-03T10:35:12.000",
    "request_status": "Closed",
    "responsible_agency": "Department of Sanitation",
    "final_address": "4843 Brittany Ct",
    "address_councildis": "E",
    "status": "Invalid Request",
    "contractor": "Waste Pro",
    "contractor_action": "Invalid",
    "rowid": "1166310",
    "final_x": "3726886.99149",
    "final_y": "561674.941791",
    "longitude": "-89.9235852334314",
    "latitude": "30.036953747333563",
    "geocoded_column": {
      "latitude": "30.036953747333563",
      "longitude": "-89.9235852334314"
    }
  },
  {
    "service_request": "2025-1166309",
    "request_type": "Mosquito, Termite & Rodent Control",
    "request_reason": "Non-Rodent Complaint (Mice, Possums, Snakes)",
    "date_created": "2025-02-03T15:38:33.000",
    "date_modified": "2025-02-03T15:38:36.000",
    "request_status": "Pending",
    "responsible_agency": "Mosquito, Termite & Rodent Control Board",
    "final_address": "2801 Dryades St",
    "address_councildis": "B",
    "status": "Pending",
    "rowid": "1166309",
    "final_x": "3675253.25621",
    "final_y": "523434.747131",
    "longitude": "-90.08807276801495",
    "latitude": "29.933452091463728",
    "geocoded_column": {
      "latitude": "29.933452091463728",
      "longitude": "-90.08807276801495"
    }
  },
  {
    "service_request": "2025-1166308",
    "request_type": "Trash/Recycling",
    "request_reason": "Request a Large Item Pick Up",
    "date_created": "2025-02-03T15:34:34.000",
    "date_modified": "2025-02-03T15:34:35.000",
    "request_status": "Pending",
    "responsible_agency": "Department of Sanitation",
    "final_address": "7401 Scottsdale Dr",
    "address_councildis": "E",
    "status": "Assigned to Contractor",
    "contractor": "Waste Pro",
    "rowid": "1166308",
    "final_x": "3704351.17988",
    "final_y": "561620.155103",
    "longitude": "-89.99480481068728",
    "latitude": "30.03754621399373",
    "geocoded_column": {
      "latitude": "30.03754621399373",
      "longitude": "-89.99480481068728"
    }
  },
  {
    "service_request": "2025-1166307",
    "request_type": "Trash/Recycling",
    "request_reason": "Request a Large Item Pick Up",
    "date_created": "2025-02-03T15:31:18.000",
    "date_modified": "2025-02-03T16:57:00.000",
    "request_status": "Pending",
    "responsible_agency": "Department of Sanitation",
    "final_address": "7161 Bunker Hill Rd",
    "address_councildis": "E",
    "status": "Assigned to Contractor",
    "contractor": "Waste Pro",
    "rowid": "1166307",
    "final_x": "3705648.29534",
    "final_y": "561058.241246",
    "longitude": "-89.99072645793701",
    "latitude": "30.035959444968075",
    "geocoded_column": {
      "latitude": "30.035959444968075",
      "longitude": "-89.99072645793701"
    }
  },
  {
    "service_request": "2025-1166306",
    "request_type": "Trash/Recycling",
    "request_reason": "Replace Recycling Cart",
    "date_created": "2025-02-03T15:29:26.000",
    "date_modified": "2025-02-03T15:29:27.000",
    "request_status": "Pending",
    "responsible_agency": "Department of Sanitation",
    "final_address": "6056 Carlisle Ct",
    "address_councildis": "C",
    "status": "Pending",
    "rowid": "1166306",
    "final_x": "3706388.62167",
    "final_y": "516525.634869",
    "longitude": "-89.9900367310843",
    "latitude": "29.913487319951162",
    "geocoded_column": {
      "latitude": "29.913487319951162",
      "longitude": "-89.9900367310843"
    }
  },
  {
    "service_request": "2025-1166305",
    "request_type": "Trash/Recycling",
    "request_reason": "Illegal Dumping",
    "date_created": "2025-02-03T15:29:23.000",
    "date_modified": "2025-02-03T16:23:18.000",
    "case_close_date": "2025-02-03T10:23:18.000",
    "request_status": "Closed",
    "responsible_agency": "Department of Sanitation",
    "final_address": "6900 BLK E Laverne St",
    "address_councildis": "D",
    "status": "Invalid Request",
    "contractor": "Waste Pro",
    "contractor_action": "Invalid Pick-Up",
    "rowid": "1166305",
    "final_x": "3697127.29698",
    "final_y": "556939.011566",
    "longitude": "-90.01780371822645",
    "latitude": "30.02490491945605",
    "geocoded_column": {
      "latitude": "30.02490491945605",
      "longitude": "-90.01780371822645"
    }
  },
  {
    "service_request": "2025-1166304",
    "request_type": "Trash/Recycling",
    "request_reason": "Illegal Dumping",
    "date_created": "2025-02-03T15:28:34.000",
    "date_modified": "2025-02-03T15:28:35.000",
    "request_status": "Pending",
    "responsible_agency": "Department of Sanitation",
    "final_address": "14000 Lincoln Beach Blvd",
    "address_councildis": "E",
    "status": "Pending",
    "rowid": "1166304",
    "final_x": "3717914.11583",
    "final_y": "573229.521833",
    "longitude": "-89.95150078675579",
    "latitude": "30.069024567408636",
    "geocoded_column": {
      "latitude": "30.069024567408636",
      "longitude": "-89.95150078675579"
    }
  },
  {
    "service_request": "2025-1166303",
    "request_type": "Trash/Recycling",
    "request_reason": "Illegal Dumping",
    "date_created": "2025-02-03T15:28:17.000",
    "date_modified": "2025-02-03T15:28:18.000",
    "request_status": "Pending",
    "responsible_agency": "Department of Sanitation",
    "final_address": "4429 Stephen Girard Ave",
    "address_councildis": "D",
    "status": "Pending",
    "rowid": "1166303",
    "final_x": "3690701.72924",
    "final_y": "550299.269332",
    "longitude": "-90.03834451186725",
    "latitude": "30.006849374415964",
    "geocoded_column": {
      "latitude": "30.006849374415964",
      "longitude": "-90.03834451186725"
    }
  },
  {
    "service_request": "2025-1166302",
    "request_type": "Trash/Recycling",
    "request_reason": "Request a Large Item Pick Up",
    "date_created": "2025-02-03T15:27:51.000",
    "date_modified": "2025-02-03T15:27:52.000",
    "request_status": "Pending",
    "responsible_agency": "Department of Sanitation",
    "final_address": "5826 S Robertson St",
    "address_councildis": "A",
    "status": "Assigned to Contractor",
    "contractor": "IV Waste",
    "rowid": "1166302",
    "final_x": "3666710.28621",
    "final_y": "524587.479612",
    "longitude": "-90.1150038408161",
    "latitude": "29.936874258606082",
    "geocoded_column": {
      "latitude": "29.936874258606082",
      "longitude": "-90.1150038408161"
    }
  },
  {
    "service_request": "2025-1166301",
    "request_type": "Trash/Recycling",
    "request_reason": "Repair Trash Cart",
    "date_created": "2025-02-03T15:25:49.000",
    "date_modified": "2025-02-03T15:25:51.000",
    "request_status": "Pending",
    "responsible_agency": "Department of Sanitation",
    "final_address": "2660 Cupid St",
    "address_councildis": "C",
    "status": "Assigned to Contractor",
    "contractor": "Richards Disposal",
    "rowid": "1166301",
    "final_x": "3700397.37911",
    "final_y": "521077.476601",
    "longitude": "-90.00878075530015",
    "latitude": "29.92619509594043",
    "geocoded_column": {
      "latitude": "29.92619509594043",
      "longitude": "-90.00878075530015"
    }
  },
  {
    "service_request": "2025-1166300",
    "request_type": "Trash/Recycling",
    "request_reason": "Request a Large Item Pick Up",
    "date_created": "2025-02-03T15:25:12.000",
    "date_modified": "2025-02-03T15:25:16.000",
    "request_status": "Pending",
    "responsible_agency": "Department of Sanitation",
    "final_address": "7600 Read Blvd",
    "address_councildis": "E",
    "status": "Assigned to Contractor",
    "contractor": "Waste Pro",
    "rowid": "1166300",
    "final_x": "3708453.71224",
    "final_y": "564443.736225",
    "longitude": "-89.98173469545425",
    "latitude": "30.045177525372484",
    "geocoded_column": {
      "latitude": "30.045177525372484",
      "longitude": "-89.98173469545425"
    }
  },
  {
    "service_request": "2025-1166299",
    "request_type": "Street and Traffic Signs",
    "request_reason": "Disabled Parking Sign Missing or Damaged",
    "date_created": "2025-02-03T15:23:52.000",
    "date_modified": "2025-02-03T15:23:54.000",
    "request_status": "Pending",
    "responsible_agency": "Department of Public Works",
    "final_address": "1932 St Philip St",
    "address_councildis": "D",
    "status": "Pending",
    "rowid": "1166299",
    "final_x": "3679638.23131",
    "final_y": "536075.439559",
    "longitude": "-90.07379099772749",
    "latitude": "29.968077989303925",
    "geocoded_column": {
      "latitude": "29.968077989303925",
      "longitude": "-90.07379099772749"
    }
  },
  {
    "service_request": "2025-1166298",
    "request_type": "Trash/Recycling",
    "request_reason": "Repair Recycling Cart",
    "date_created": "2025-02-03T15:23:19.000",
    "date_modified": "2025-02-03T15:23:20.000",
    "request_status": "Pending",
    "responsible_agency": "Department of Sanitation",
    "final_address": "1612 De Battista Pl",
    "address_councildis": "C",
    "status": "Pending",
    "rowid": "1166298",
    "final_x": "3699792.59997",
    "final_y": "524876.650428",
    "longitude": "-90.01055140906054",
    "latitude": "29.93666071955856",
    "geocoded_column": {
      "latitude": "29.93666071955856",
      "longitude": "-90.01055140906054"
    }
  },
  {
    "service_request": "2025-1166297",
    "request_type": "Trash/Recycling",
    "request_reason": "Return Trash Cart",
    "date_created": "2025-02-03T15:21:05.000",
    "date_modified": "2025-02-03T15:21:08.000",
    "request_status": "Pending",
    "responsible_agency": "Department of Sanitation",
    "final_address": "1801 Nie Prkwy",
    "address_councildis": "C",
    "status": "Assigned to Contractor",
    "contractor": "Richards Disposal",
    "rowid": "1166297",
    "final_x": "3701094.44177",
    "final_y": "524265.42662",
    "longitude": "-90.00646381027909",
    "latitude": "29.934938678930216",
    "geocoded_column": {
      "latitude": "29.934938678930216",
      "longitude": "-90.00646381027909"
    }
  },
  {
    "service_request": "2025-1166296",
    "request_type": "Trash/Recycling",
    "request_reason": "Damaged Caused By Contractor",
    "date_created": "2025-02-03T15:19:23.000",
    "date_modified": "2025-02-03T15:19:37.000",
    "request_status": "Pending",
    "responsible_agency": "Department of Sanitation",
    "final_address": "5614 Marcia Ave",
    "address_councildis": "A",
    "status": "Assigned to Contractor",
    "contractor": "IV Waste",
    "rowid": "1166296",
    "final_x": "3664770.40148",
    "final_y": "545002.428303",
    "longitude": "-90.12044595766655",
    "latitude": "29.99306522008895",
    "geocoded_column": {
      "latitude": "29.99306522008895",
      "longitude": "-90.12044595766655"
    }
  },
  {
    "service_request": "2025-1166295",
    "request_type": "Healthy Homes",
    "request_reason": "Healthy Homes",
    "date_created": "2025-02-03T15:14:14.000",
    "date_modified": "2025-02-03T15:14:16.000",
    "request_status": "Pending",
    "responsible_agency": "Department of Code Enforcement",
    "final_address": "1921 France St",
    "address_councildis": "D",
    "status": "Pending",
    "rowid": "1166295",
    "final_x": "3693215.84662",
    "final_y": "538359.582025",
    "longitude": "-90.03083055968291",
    "latitude": "29.97394120083057",
    "geocoded_column": {
      "latitude": "29.97394120083057",
      "longitude": "-90.03083055968291"
    }
  },
  {
    "service_request": "2025-1166294",
    "request_type": "Trash/Recycling",
    "request_reason": "Order Second Trash Cart",
    "date_created": "2025-02-03T15:12:06.000",
    "date_modified": "2025-02-03T15:12:07.000",
    "request_status": "Pending",
    "responsible_agency": "Department of Sanitation",
    "final_address": "7613 Briarwood Dr",
    "address_councildis": "E",
    "status": "Assigned to Contractor",
    "contractor": "Waste Pro",
    "rowid": "1166294",
    "final_x": "3717630.87276",
    "final_y": "570779.739303",
    "longitude": "-89.95248950018353",
    "latitude": "30.06229807866544",
    "geocoded_column": {
      "latitude": "30.06229807866544",
      "longitude": "-89.95248950018353"
    }
  },
  {
    "service_request": "2025-1166293",
    "request_type": "Trash/Recycling",
    "request_reason": "Missed Trash Pick-Up",
    "date_created": "2025-02-03T15:11:44.000",
    "date_modified": "2025-02-03T15:11:47.000",
    "request_status": "Pending",
    "responsible_agency": "Department of Sanitation",
    "final_address": "7613 Briarwood Dr",
    "address_councildis": "E",
    "status": "Assigned to Contractor",
    "contractor": "Waste Pro",
    "rowid": "1166293",
    "final_x": "3717630.87276",
    "final_y": "570779.739303",
    "longitude": "-89.95248950018353",
    "latitude": "30.06229807866544",
    "geocoded_column": {
      "latitude": "30.06229807866544",
      "longitude": "-89.95248950018353"
    }
  },
  {
    "service_request": "2025-1166292",
    "request_type": "General Services",
    "request_reason": "General Service Request",
    "date_created": "2025-02-03T15:10:16.000",
    "date_modified": "2025-02-03T15:10:17.000",
    "request_status": "Pending",
    "responsible_agency": "Orleans Parish Communication District",
    "final_address": "1428 Clouet St",
    "address_councildis": "C",
    "status": "Pending",
    "rowid": "1166292",
    "final_x": "3689313.39996",
    "final_y": "537391.775496",
    "longitude": "-90.04318973565131",
    "latitude": "29.971401471418698",
    "geocoded_column": {
      "latitude": "29.971401471418698",
      "longitude": "-90.04318973565131"
    }
  },
  {
    "service_request": "2025-1166291",
    "request_type": "Healthy Homes",
    "request_reason": "Healthy Homes",
    "date_created": "2025-02-03T15:09:43.000",
    "date_modified": "2025-02-03T15:56:39.000",
    "case_close_date": "2025-02-03T09:56:38.000",
    "request_status": "Closed",
    "responsible_agency": "Department of Code Enforcement",
    "final_address": "921 France St",
    "address_councildis": "C",
    "status": "Referred to Code Enforcement",
    "rowid": "1166291",
    "final_x": "3692256.16688",
    "final_y": "534518.277189",
    "longitude": "-90.0339989989348",
    "latitude": "29.963408930582027",
    "geocoded_column": {
      "latitude": "29.963408930582027",
      "longitude": "-90.0339989989348"
    }
  },
  {
    "service_request": "2025-1166290",
    "request_type": "Trash/Recycling",
    "request_reason": "Request a Large Item Pick Up",
    "date_created": "2025-02-03T15:09:42.000",
    "date_modified": "2025-02-03T15:53:43.000",
    "request_status": "Pending",
    "responsible_agency": "Department of Sanitation",
    "final_address": "410 26Th St",
    "address_councildis": "A",
    "status": "Assigned to Contractor",
    "contractor": "IV Waste",
    "rowid": "1166290",
    "final_x": "3664718.85492",
    "final_y": "549904.308052",
    "longitude": "-90.1204448824341",
    "latitude": "30.00654520757462",
    "geocoded_column": {
      "latitude": "30.00654520757462",
      "longitude": "-90.1204448824341"
    }
  },
  {
    "service_request": "2025-1166289",
    "request_type": "Trash/Recycling",
    "request_reason": "Request a Large Item Pick Up",
    "date_created": "2025-02-03T15:09:24.000",
    "date_modified": "2025-02-03T15:09:25.000",
    "request_status": "Pending",
    "responsible_agency": "Department of Sanitation",
    "final_address": "1131 Cadiz St",
    "address_councildis": "B",
    "status": "Assigned to Contractor",
    "contractor": "IV Waste",
    "rowid": "1166289",
    "final_x": "3670248.05134",
    "final_y": "519686.53612",
    "longitude": "-90.10400090595793",
    "latitude": "29.923294328821004",
    "geocoded_column": {
      "latitude": "29.923294328821004",
      "longitude": "-90.10400090595793"
    }
  },
  {
    "service_request": "2025-1166288",
    "request_type": "Property Maintenance",
    "request_reason": "Property Maintenance",
    "date_created": "2025-02-03T15:07:14.000",
    "date_modified": "2025-02-03T15:07:16.000",
    "request_status": "Pending",
    "responsible_agency": "Department of Code Enforcement",
    "final_address": "1430 Clouet St",
    "address_councildis": "C",
    "status": "Pending",
    "rowid": "1166288",
    "final_x": "3689317.14998",
    "final_y": "537407.60884",
    "longitude": "-90.04317732956989",
    "latitude": "29.97144489144419",
    "geocoded_column": {
      "latitude": "29.97144489144419",
      "longitude": "-90.04317732956989"
    }
  },
  {
    "service_request": "2025-1166287",
    "request_type": "Drainage",
    "request_reason": "Street Flooding",
    "date_created": "2025-02-03T15:05:52.000",
    "date_modified": "2025-02-03T15:05:55.000",
    "request_status": "Pending",
    "responsible_agency": "Department of Public Works",
    "final_address": "4420 Annunciation St",
    "address_councildis": "B",
    "status": "Pending",
    "rowid": "1166287",
    "final_x": "3670922.84609",
    "final_y": "517684.556534",
    "longitude": "-90.10193874256797",
    "latitude": "29.91776959660592",
    "geocoded_column": {
      "latitude": "29.91776959660592",
      "longitude": "-90.10193874256797"
    }
  },
  {
    "service_request": "2025-1166286",
    "request_type": "Trash/Recycling",
    "request_reason": "Request a Large Item Pick Up",
    "date_created": "2025-02-03T15:03:52.000",
    "date_modified": "2025-02-03T15:47:41.000",
    "case_close_date": "2025-02-03T09:47:40.000",
    "request_status": "Closed",
    "responsible_agency": "Department of Sanitation",
    "final_address": "4529 Citrus Dr",
    "address_councildis": "E",
    "status": "Duplicate Request",
    "contractor": "Waste Pro",
    "contractor_action": "Duplicate",
    "rowid": "1166286",
    "final_x": "3710940.55358",
    "final_y": "554929.536472",
    "longitude": "-89.97423181893542",
    "latitude": "30.018936356361362",
    "geocoded_column": {
      "latitude": "30.018936356361362",
      "longitude": "-89.97423181893542"
    }
  },
  {
    "service_request": "2025-1166285",
    "request_type": "Trash/Recycling",
    "request_reason": "Replace Trash Cart",
    "date_created": "2025-02-03T14:59:11.000",
    "date_modified": "2025-02-03T14:59:13.000",
    "request_status": "Pending",
    "responsible_agency": "Department of Sanitation",
    "final_address": "936 Belleville St",
    "address_councildis": "C",
    "status": "Assigned to Contractor",
    "contractor": "Richards Disposal",
    "rowid": "1166285",
    "final_x": "3687821.3302",
    "final_y": "528036.695743",
    "longitude": "-90.0482332470776",
    "latitude": "29.94572434460503",
    "geocoded_column": {
      "latitude": "29.94572434460503",
      "longitude": "-90.0482332470776"
    }
  },
  {
    "service_request": "2025-1166284",
    "request_type": "Property Maintenance",
    "request_reason": "Property Maintenance",
    "date_created": "2025-02-03T14:59:07.000",
    "date_modified": "2025-02-03T14:59:08.000",
    "request_status": "Pending",
    "responsible_agency": "Department of Code Enforcement",
    "final_address": "5218 Hawthorne Pl",
    "address_councildis": "A",
    "status": "Pending",
    "rowid": "1166284",
    "final_x": "3667769.11444",
    "final_y": "543123.389837",
    "longitude": "-90.1110368197074",
    "latitude": "29.987810886679547",
    "geocoded_column": {
      "latitude": "29.987810886679547",
      "longitude": "-90.1110368197074"
    }
  },
  {
    "service_request": "2025-1166283",
    "request_type": "Property Maintenance",
    "request_reason": "Property Maintenance",
    "date_created": "2025-02-03T14:56:21.000",
    "date_modified": "2025-02-03T15:44:56.000",
    "case_close_date": "2025-02-03T09:44:55.000",
    "request_status": "Closed",
    "responsible_agency": "Department of Code Enforcement",
    "final_address": "11101 Whiteside Rd, New Orleans, Louisiana, 70128",
    "address_councildis": "E",
    "status": "Referred to Code Enforcement",
    "rowid": "1166283",
    "final_x": "3711664.61221",
    "final_y": "564944.785506",
    "longitude": "-89.97156799430708",
    "latitude": "30.04645067667639",
    "geocoded_column": {
      "latitude": "30.04645067667639",
      "longitude": "-89.97156799430708"
    }
  },
  {
    "service_request": "2025-1166282",
    "request_type": "Trash/Recycling",
    "request_reason": "Request a Large Item Pick Up",
    "date_created": "2025-02-03T14:55:23.000",
    "date_modified": "2025-02-03T14:55:26.000",
    "request_status": "Pending",
    "responsible_agency": "Department of Sanitation",
    "final_address": "2025 Soniat St",
    "address_councildis": "B",
    "status": "Assigned to Contractor",
    "contractor": "IV Waste",
    "rowid": "1166282",
    "final_x": "3668547.26362",
    "final_y": "523107.125179",
    "longitude": "-90.1092543180416",
    "latitude": "29.93274992446187",
    "geocoded_column": {
      "latitude": "29.93274992446187",
      "longitude": "-90.1092543180416"
    }
  },
  {
    "service_request": "2025-1166281",
    "request_type": "Trash/Recycling",
    "request_reason": "Request a Large Item Pick Up",
    "date_created": "2025-02-03T14:52:11.000",
    "date_modified": "2025-02-03T14:52:13.000",
    "request_status": "Pending",
    "responsible_agency": "Department of Sanitation",
    "final_address": "4529 Citrus Dr",
    "address_councildis": "E",
    "status": "Assigned to Contractor",
    "contractor": "Waste Pro",
    "rowid": "1166281",
    "final_x": "3710940.55358",
    "final_y": "554929.536472",
    "longitude": "-89.97423181893542",
    "latitude": "30.018936356361362",
    "geocoded_column": {
      "latitude": "30.018936356361362",
      "longitude": "-89.97423181893542"
    }
  },
  {
    "service_request": "2025-1166280",
    "request_type": "Trash/Recycling",
    "request_reason": "Request a Large Item Pick Up",
    "date_created": "2025-02-03T14:51:27.000",
    "date_modified": "2025-02-03T14:51:29.000",
    "request_status": "Pending",
    "responsible_agency": "Department of Sanitation",
    "final_address": "4902 S Saratoga St",
    "address_councildis": "B",
    "status": "Assigned to Contractor",
    "contractor": "IV Waste",
    "rowid": "1166280",
    "final_x": "3669075.13294",
    "final_y": "522461.882618",
    "longitude": "-90.10760966150319",
    "latitude": "29.930960197600903",
    "geocoded_column": {
      "latitude": "29.930960197600903",
      "longitude": "-90.10760966150319"
    }
  },
  {
    "service_request": "2025-1166279",
    "request_type": "Trash/Recycling",
    "request_reason": "Order Second Trash Cart",
    "date_created": "2025-02-03T14:50:31.000",
    "date_modified": "2025-02-03T14:50:33.000",
    "request_status": "Pending",
    "responsible_agency": "Department of Sanitation",
    "final_address": "802 Pontalba St",
    "address_councildis": "A",
    "status": "Assigned to Contractor",
    "contractor": "IV Waste",
    "rowid": "1166279",
    "final_x": "3668771.91207",
    "final_y": "544352.499023",
    "longitude": "-90.10782778767756",
    "latitude": "29.99116106506074",
    "geocoded_column": {
      "latitude": "29.99116106506074",
      "longitude": "-90.10782778767756"
    }
  },
  {
    "service_request": "2025-1166278",
    "request_type": "Trash/Recycling",
    "request_reason": "Request a Large Item Pick Up",
    "date_created": "2025-02-03T14:50:09.000",
    "date_modified": "2025-02-03T14:50:11.000",
    "request_status": "Pending",
    "responsible_agency": "Department of Sanitation",
    "final_address": "5050 Westlake Dr",
    "address_councildis": "E",
    "status": "Assigned to Contractor",
    "contractor": "Waste Pro",
    "rowid": "1166278",
    "final_x": "3699519.01616",
    "final_y": "556021.091481",
    "longitude": "-90.01027981216896",
    "latitude": "30.022305271109317",
    "geocoded_column": {
      "latitude": "30.022305271109317",
      "longitude": "-90.01027981216896"
    }
  },
  {
    "service_request": "2025-1166277",
    "request_type": "Road Striping",
    "request_reason": "Lane Striping or other Pavement Markings",
    "date_created": "2025-02-03T14:49:44.000",
    "date_modified": "2025-02-03T14:52:57.000",
    "request_status": "Pending",
    "responsible_agency": "Department of Public Works",
    "final_address": "CHEF MENTEUR HWY & LOUISA ST",
    "address_councildis": "D",
    "status": "Pending",
    "rowid": "1166277",
    "final_x": "3691347.4",
    "final_y": "549732.88",
    "longitude": "-90.03632492843472",
    "latitude": "30.00527193180098",
    "geocoded_column": {
      "latitude": "30.00527193180098",
      "longitude": "-90.03632492843472"
    }
  },
  {
    "service_request": "2025-1166276",
    "request_type": "Health Related Request",
    "request_reason": "Noise Ordinance Complaint",
    "date_created": "2025-02-03T14:48:04.000",
    "date_modified": "2025-02-03T15:37:03.000",
    "case_close_date": "2025-02-03T09:37:03.000",
    "request_status": "Closed",
    "responsible_agency": "Health Department",
    "final_address": "ST LOUIS ST & BOURBON ST",
    "address_councildis": "C",
    "status": "Resolved",
    "rowid": "1166276",
    "final_x": "3681815.5",
    "final_y": "532087.48",
    "longitude": "-90.06705428452473",
    "latitude": "29.957046476953085",
    "geocoded_column": {
      "latitude": "29.957046476953085",
      "longitude": "-90.06705428452473"
    }
  },
  {
    "service_request": "2025-1166275",
    "request_type": "Trash/Recycling",
    "request_reason": "Replace Trash Cart",
    "date_created": "2025-02-03T14:47:55.000",
    "date_modified": "2025-02-03T14:47:57.000",
    "request_status": "Pending",
    "responsible_agency": "Department of Sanitation",
    "final_address": "4733 Stemway Dr",
    "address_councildis": "D",
    "status": "Assigned to Contractor",
    "contractor": "Waste Pro",
    "rowid": "1166275",
    "final_x": "3696979.90647",
    "final_y": "554268.631512",
    "longitude": "-90.01836627972656",
    "latitude": "30.01756703926937",
    "geocoded_column": {
      "latitude": "30.01756703926937",
      "longitude": "-90.01836627972656"
    }
  },
  {
    "service_request": "2025-1166274",
    "request_type": "Road Striping",
    "request_reason": "Lane Striping or other Pavement Markings",
    "date_created": "2025-02-03T14:45:41.000",
    "date_modified": "2025-02-03T14:45:42.000",
    "request_status": "Pending",
    "responsible_agency": "Department of Public Works",
    "final_address": "12400 BLK Morrison Rd",
    "address_councildis": "E",
    "status": "Pending",
    "rowid": "1166274",
    "final_x": "3715074.61542",
    "final_y": "567881.124524",
    "longitude": "-89.96067955876536",
    "latitude": "30.054412537682733",
    "geocoded_column": {
      "latitude": "30.054412537682733",
      "longitude": "-89.96067955876536"
    }
  },
  {
    "service_request": "2025-1166273",
    "request_type": "Mosquito, Termite & Rodent Control",
    "request_reason": "Rodent Complaint (Rats)",
    "date_created": "2025-02-03T14:40:36.000",
    "date_modified": "2025-02-03T14:40:38.000",
    "request_status": "Pending",
    "responsible_agency": "Mosquito, Termite & Rodent Control Board",
    "final_address": "2120 Spain St",
    "address_councildis": "D",
    "status": "Pending",
    "rowid": "1166273",
    "final_x": "3685781.80399",
    "final_y": "540260.795403",
    "longitude": "-90.05424185461388",
    "latitude": "29.979399133912555",
    "geocoded_column": {
      "latitude": "29.979399133912555",
      "longitude": "-90.05424185461388"
    }
  },
  {
    "service_request": "2025-1166272",
    "request_type": "Trash/Recycling",
    "request_reason": "Replace Recycling Cart",
    "date_created": "2025-02-03T14:38:15.000",
    "date_modified": "2025-02-03T14:38:16.000",
    "request_status": "Pending",
    "responsible_agency": "Department of Sanitation",
    "final_address": "504 Fourth St",
    "address_councildis": "B",
    "status": "Pending",
    "rowid": "1166272",
    "final_x": "3678414.69006",
    "final_y": "519122.309623",
    "longitude": "-90.07824142208244",
    "latitude": "29.921499444433685",
    "geocoded_column": {
      "latitude": "29.921499444433685",
      "longitude": "-90.07824142208244"
    }
  },
  {
    "service_request": "2025-1166271",
    "request_type": "Trash/Recycling",
    "request_reason": "Repair Recycling Cart",
    "date_created": "2025-02-03T14:38:00.000",
    "date_modified": "2025-02-03T14:38:02.000",
    "request_status": "Pending",
    "responsible_agency": "Department of Sanitation",
    "final_address": "721 Short St",
    "address_councildis": "A",
    "status": "Pending",
    "rowid": "1166271",
    "final_x": "3661288.63936",
    "final_y": "526885.025342",
    "longitude": "-90.13204430114482",
    "latitude": "29.943349176632033",
    "geocoded_column": {
      "latitude": "29.943349176632033",
      "longitude": "-90.13204430114482"
    }
  },
  {
    "service_request": "2025-1166269",
    "request_type": "Trash/Recycling",
    "request_reason": "Replace Trash Cart",
    "date_created": "2025-02-03T14:36:40.000",
    "date_modified": "2025-02-03T14:36:42.000",
    "request_status": "Pending",
    "responsible_agency": "Department of Sanitation",
    "final_address": "504 Fourth St",
    "address_councildis": "B",
    "status": "Assigned to Contractor",
    "contractor": "IV Waste",
    "rowid": "1166269",
    "final_x": "3678414.69006",
    "final_y": "519122.309623",
    "longitude": "-90.07824142208244",
    "latitude": "29.921499444433685",
    "geocoded_column": {
      "latitude": "29.921499444433685",
      "longitude": "-90.07824142208244"
    }
  },
  {
    "service_request": "2025-1166268",
    "request_type": "Trash/Recycling",
    "request_reason": "Illegal Dumping",
    "date_created": "2025-02-03T14:36:32.000",
    "date_modified": "2025-02-03T14:36:35.000",
    "request_status": "Pending",
    "responsible_agency": "Department of Sanitation",
    "final_address": "4700 BLK Werner Dr",
    "address_councildis": "E",
    "status": "Pending",
    "rowid": "1166268",
    "final_x": "3704767.62258",
    "final_y": "555296.183487",
    "longitude": "-89.99372241161224",
    "latitude": "30.02014437267428",
    "geocoded_column": {
      "latitude": "30.02014437267428",
      "longitude": "-89.99372241161224"
    }
  },
  {
    "service_request": "2025-1166267",
    "request_type": "Trash/Recycling",
    "request_reason": "Request a Large Item Pick Up",
    "date_created": "2025-02-03T14:36:09.000",
    "date_modified": "2025-02-03T14:36:11.000",
    "request_status": "Pending",
    "responsible_agency": "Department of Sanitation",
    "final_address": "1825 Josephine St",
    "address_councildis": "B",
    "status": "Assigned to Contractor",
    "contractor": "IV Waste",
    "rowid": "1166267",
    "final_x": "3677223.658",
    "final_y": "524895.469372",
    "longitude": "-90.08180195134194",
    "latitude": "29.93740957092294",
    "geocoded_column": {
      "latitude": "29.93740957092294",
      "longitude": "-90.08180195134194"
    }
  },
  {
    "service_request": "2025-1166266",
    "request_type": "Drainage",
    "request_reason": "Catch Basin Clogged",
    "date_created": "2025-02-03T14:33:53.000",
    "date_modified": "2025-02-03T14:33:55.000",
    "request_status": "Pending",
    "responsible_agency": "Department of Public Works",
    "final_address": "1403 Octavia St",
    "address_councildis": "A",
    "status": "Pending",
    "rowid": "1166266",
    "final_x": "3666945.09549",
    "final_y": "520956.923257",
    "longitude": "-90.11438446496794",
    "latitude": "29.926884517259424",
    "geocoded_column": {
      "latitude": "29.926884517259424",
      "longitude": "-90.11438446496794"
    }
  },
  {
    "service_request": "2025-1166265",
    "request_type": "Trash/Recycling",
    "request_reason": "Request a Large Item Pick Up",
    "date_created": "2025-02-03T14:32:22.000",
    "date_modified": "2025-02-03T14:32:24.000",
    "request_status": "Pending",
    "responsible_agency": "Department of Sanitation",
    "final_address": "4128 LaSalle St",
    "address_councildis": "B",
    "status": "Assigned to Contractor",
    "contractor": "IV Waste",
    "rowid": "1166265",
    "final_x": "3671441.07547",
    "final_y": "523753.445627",
    "longitude": "-90.10009680315675",
    "latitude": "29.934441776521318",
    "geocoded_column": {
      "latitude": "29.934441776521318",
      "longitude": "-90.10009680315675"
    }
  },
  {
    "service_request": "2025-1166263",
    "request_type": "General Services",
    "request_reason": "General Service Request",
    "date_created": "2025-02-03T14:28:58.000",
    "date_modified": "2025-02-03T14:29:00.000",
    "request_status": "Pending",
    "responsible_agency": "Orleans Parish Communication District",
    "final_address": "MORRISON RD & GANNON RD",
    "address_councildis": "E",
    "status": "Pending",
    "rowid": "1166263",
    "final_x": "3716924.6",
    "final_y": "569197.48",
    "longitude": "-89.95478219091096",
    "latitude": "30.057970905569707",
    "geocoded_column": {
      "latitude": "30.057970905569707",
      "longitude": "-89.95478219091096"
    }
  },
  {
    "service_request": "2025-1166262",
    "request_type": "Trash/Recycling",
    "request_reason": "Order Trash Cart",
    "date_created": "2025-02-03T14:27:40.000",
    "date_modified": "2025-02-03T14:27:43.000",
    "request_status": "Pending",
    "responsible_agency": "Department of Sanitation",
    "final_address": "5517 S Johnson St",
    "address_councildis": "A",
    "status": "Assigned to Contractor",
    "contractor": "IV Waste",
    "rowid": "1166262",
    "final_x": "3668104.1961",
    "final_y": "527126.310399",
    "longitude": "-90.1105176452035",
    "latitude": "29.943814398589414",
    "geocoded_column": {
      "latitude": "29.943814398589414",
      "longitude": "-90.1105176452035"
    }
  },
  {
    "service_request": "2025-1166261",
    "request_type": "Trash/Recycling",
    "request_reason": "Repair Trash Cart",
    "date_created": "2025-02-03T14:24:15.000",
    "date_modified": "2025-02-03T14:24:17.000",
    "request_status": "Pending",
    "responsible_agency": "Department of Sanitation",
    "final_address": "3733 Silver Maple Ct",
    "address_councildis": "C",
    "status": "Assigned to Contractor",
    "contractor": "Richards Disposal",
    "rowid": "1166261",
    "final_x": "3703364.57258",
    "final_y": "512824.812209",
    "longitude": "-89.99971745100355",
    "latitude": "29.90340845287543",
    "geocoded_column": {
      "latitude": "29.90340845287543",
      "longitude": "-89.99971745100355"
    }
  },
  {
    "service_request": "2025-1166260",
    "request_type": "Property Maintenance",
    "request_reason": "Property Maintenance",
    "date_created": "2025-02-03T14:22:15.000",
    "date_modified": "2025-02-03T14:40:49.000",
    "case_close_date": "2025-02-03T08:40:47.000",
    "request_status": "Closed",
    "responsible_agency": "Department of Code Enforcement",
    "final_address": "90 Versailles Blvd",
    "address_councildis": "B",
    "status": "Referred to Code Enforcement",
    "rowid": "1166260",
    "final_x": "3668045.60493",
    "final_y": "531036.604034",
    "longitude": "-90.1105708873391",
    "latitude": "29.954568151983928",
    "geocoded_column": {
      "latitude": "29.954568151983928",
      "longitude": "-90.1105708873391"
    }
  },
  {
    "service_request": "2025-1166259",
    "request_type": "Trash/Recycling",
    "request_reason": "Request a Large Item Pick Up",
    "date_created": "2025-02-03T14:20:48.000",
    "date_modified": "2025-02-03T14:20:50.000",
    "request_status": "Pending",
    "responsible_agency": "Department of Sanitation",
    "final_address": "2514 Monroe St",
    "address_councildis": "A",
    "status": "Assigned to Contractor",
    "contractor": "IV Waste",
    "rowid": "1166259",
    "final_x": "3663607.02618",
    "final_y": "533402.434308",
    "longitude": "-90.12450744502705",
    "latitude": "29.9612029082867",
    "geocoded_column": {
      "latitude": "29.9612029082867",
      "longitude": "-90.12450744502705"
    }
  },
  {
    "service_request": "2025-1166258",
    "request_type": "Trash/Recycling",
    "request_reason": "Repair Trash Cart",
    "date_created": "2025-02-03T14:18:27.000",
    "date_modified": "2025-02-03T14:18:30.000",
    "request_status": "Pending",
    "responsible_agency": "Department of Sanitation",
    "final_address": "869 Taft Pl",
    "address_councildis": "A",
    "status": "Assigned to Contractor",
    "contractor": "IV Waste",
    "rowid": "1166258",
    "final_x": "3673790.02708",
    "final_y": "539985.586571",
    "longitude": "-90.09212611782726",
    "latitude": "29.979005031456463",
    "geocoded_column": {
      "latitude": "29.979005031456463",
      "longitude": "-90.09212611782726"
    }
  },
  {
    "service_request": "2025-1166257",
    "request_type": "Trash/Recycling",
    "request_reason": "Order Recycling Cart",
    "date_created": "2025-02-03T14:16:54.000",
    "date_modified": "2025-02-03T14:16:57.000",
    "request_status": "Pending",
    "responsible_agency": "Department of Sanitation",
    "final_address": "2018 Marais St",
    "address_councildis": "C",
    "status": "Pending",
    "rowid": "1166257",
    "final_x": "3684368.6829",
    "final_y": "536588.017799",
    "longitude": "-90.0588340700118",
    "latitude": "29.96934357571803",
    "geocoded_column": {
      "latitude": "29.96934357571803",
      "longitude": "-90.0588340700118"
    }
  },
  {
    "service_request": "2025-1166255",
    "request_type": "Trash/Recycling",
    "request_reason": "Request a Large Item Pick Up",
    "date_created": "2025-02-03T14:04:02.000",
    "date_modified": "2025-02-03T14:04:07.000",
    "request_status": "Pending",
    "responsible_agency": "Department of Sanitation",
    "final_address": "7620 Rochon Ave",
    "address_councildis": "E",
    "status": "Assigned to Contractor",
    "contractor": "Waste Pro",
    "rowid": "1166255",
    "final_x": "3718581.17599",
    "final_y": "571678.564264",
    "longitude": "-89.94945129320509",
    "latitude": "30.064737948841916",
    "geocoded_column": {
      "latitude": "30.064737948841916",
      "longitude": "-89.94945129320509"
    }
  },
  {
    "service_request": "2025-1166254",
    "request_type": "Drainage",
    "request_reason": "Catch Basin Clogged",
    "date_created": "2025-02-03T14:01:14.000",
    "date_modified": "2025-02-03T14:01:18.000",
    "request_status": "Pending",
    "responsible_agency": "Department of Public Works",
    "final_address": "JENA ST & CONSTANCE ST",
    "address_councildis": "B",
    "status": "Pending",
    "rowid": "1166254",
    "final_x": "3670699.5",
    "final_y": "518380.98",
    "longitude": "-90.10262011389452",
    "latitude": "29.9196911385645",
    "geocoded_column": {
      "latitude": "29.9196911385645",
      "longitude": "-90.10262011389452"
    }
  },
  {
    "service_request": "2025-1166253",
    "request_type": "Trash/Recycling",
    "request_reason": "Illegal Dumping",
    "date_created": "2025-02-03T14:00:28.000",
    "date_modified": "2025-02-03T14:00:31.000",
    "request_status": "Pending",
    "responsible_agency": "Department of Sanitation",
    "final_address": "12400 BLK Morrison Rd",
    "address_councildis": "E",
    "status": "Pending",
    "rowid": "1166253",
    "final_x": "3715074.61542",
    "final_y": "567881.124524",
    "longitude": "-89.96067955876536",
    "latitude": "30.054412537682733",
    "geocoded_column": {
      "latitude": "30.054412537682733",
      "longitude": "-89.96067955876536"
    }
  },
  {
    "service_request": "2025-1166252",
    "request_type": "Trash/Recycling",
    "request_reason": "Request a Large Item Pick Up",
    "date_created": "2025-02-03T13:56:45.000",
    "date_modified": "2025-02-03T13:56:51.000",
    "request_status": "Pending",
    "responsible_agency": "Department of Sanitation",
    "final_address": "1824 Simon Bolivar Ave",
    "address_councildis": "B",
    "status": "Assigned to Contractor",
    "contractor": "IV Waste",
    "rowid": "1166252",
    "final_x": "3676887.11694",
    "final_y": "525903.821117",
    "longitude": "-90.08282969284237",
    "latitude": "29.940192309543214",
    "geocoded_column": {
      "latitude": "29.940192309543214",
      "longitude": "-90.08282969284237"
    }
  },
  {
    "service_request": "2025-1166251",
    "request_type": "Health Related Request",
    "request_reason": "Homeless Encampment Complaint",
    "date_created": "2025-02-03T13:54:42.000",
    "date_modified": "2025-02-03T13:54:44.000",
    "request_status": "Pending",
    "responsible_agency": "Health Department",
    "final_address": "2718 LaSalle St",
    "address_councildis": "B",
    "status": "Pending",
    "rowid": "1166251",
    "final_x": "3674486.96462",
    "final_y": "524948.167229",
    "longitude": "-90.09044008536776",
    "latitude": "29.93763638014198",
    "geocoded_column": {
      "latitude": "29.93763638014198",
      "longitude": "-90.09044008536776"
    }
  },
  {
    "service_request": "2025-1166249",
    "request_type": "Trash/Recycling",
    "request_reason": "Illegal Dumping",
    "date_created": "2025-02-03T13:50:00.000",
    "date_modified": "2025-02-03T13:50:02.000",
    "request_status": "Pending",
    "responsible_agency": "Department of Sanitation",
    "final_address": "4128 LaSalle St",
    "address_councildis": "B",
    "status": "Pending",
    "rowid": "1166249",
    "final_x": "3671441.07547",
    "final_y": "523753.445627",
    "longitude": "-90.10009680315675",
    "latitude": "29.934441776521318",
    "geocoded_column": {
      "latitude": "29.934441776521318",
      "longitude": "-90.10009680315675"
    }
  },
  {
    "service_request": "2025-1166248",
    "request_type": "Trash/Recycling",
    "request_reason": "Request a Large Item Pick Up",
    "date_created": "2025-02-03T13:47:44.000",
    "date_modified": "2025-02-03T13:47:46.000",
    "request_status": "Pending",
    "responsible_agency": "Department of Sanitation",
    "final_address": "8320 Curran Rd",
    "address_councildis": "E",
    "status": "Assigned to Contractor",
    "contractor": "Waste Pro",
    "rowid": "1166248",
    "final_x": "3703118.63063",
    "final_y": "561984.555615",
    "longitude": "-89.99868651742396",
    "latitude": "30.038587704438676",
    "geocoded_column": {
      "latitude": "30.038587704438676",
      "longitude": "-89.99868651742396"
    }
  },
  {
    "service_request": "2025-1166246",
    "request_type": "Trash/Recycling",
    "request_reason": "Repair Trash Cart",
    "date_created": "2025-02-03T13:43:31.000",
    "date_modified": "2025-02-03T13:44:42.000",
    "request_status": "Pending",
    "responsible_agency": "Department of Sanitation",
    "final_address": "2842 Fortin St",
    "address_councildis": "A",
    "status": "Assigned to Contractor",
    "contractor": "IV Waste",
    "rowid": "1166246",
    "final_x": "3678051.96322",
    "final_y": "540875.575755",
    "longitude": "-90.07863450273692",
    "latitude": "29.98132456356883",
    "geocoded_column": {
      "latitude": "29.98132456356883",
      "longitude": "-90.07863450273692"
    }
  },
  {
    "service_request": "2025-1166245",
    "request_type": "Trash/Recycling",
    "request_reason": "Repair Trash Cart",
    "date_created": "2025-02-03T13:43:15.000",
    "date_modified": "2025-02-03T13:45:44.000",
    "request_status": "Pending",
    "responsible_agency": "Department of Sanitation",
    "final_address": "2829 Maurepas St",
    "address_councildis": "A",
    "status": "Assigned to Contractor",
    "contractor": "IV Waste",
    "rowid": "1166245",
    "final_x": "3678171.6612",
    "final_y": "540728.494539",
    "longitude": "-90.07826152999839",
    "latitude": "29.980916536670463",
    "geocoded_column": {
      "latitude": "29.980916536670463",
      "longitude": "-90.07826152999839"
    }
  },
  {
    "service_request": "2025-1166244",
    "request_type": "Trash/Recycling",
    "request_reason": "Repair Trash Cart",
    "date_created": "2025-02-03T13:42:58.000",
    "date_modified": "2025-02-03T13:46:09.000",
    "request_status": "Pending",
    "responsible_agency": "Department of Sanitation",
    "final_address": "2827 Maurepas St",
    "address_councildis": "A",
    "status": "Assigned to Contractor",
    "contractor": "IV Waste",
    "rowid": "1166244",
    "final_x": "3678178.19701",
    "final_y": "540727.165387",
    "longitude": "-90.07824093298238",
    "latitude": "29.980912685117342",
    "geocoded_column": {
      "latitude": "29.980912685117342",
      "longitude": "-90.07824093298238"
    }
  },
  {
    "service_request": "2025-1166243",
    "request_type": "Trash/Recycling",
    "request_reason": "Repair Trash Cart",
    "date_created": "2025-02-03T13:41:41.000",
    "date_modified": "2025-02-03T13:41:43.000",
    "request_status": "Pending",
    "responsible_agency": "Department of Sanitation",
    "final_address": "3947 Tchoupitoulas St",
    "address_councildis": "B",
    "status": "Assigned to Contractor",
    "contractor": "IV Waste",
    "rowid": "1166243",
    "final_x": "3673063.49019",
    "final_y": "517699.90623",
    "longitude": "-90.09518137765606",
    "latitude": "29.917748374164916",
    "geocoded_column": {
      "latitude": "29.917748374164916",
      "longitude": "-90.09518137765606"
    }
  },
  {
    "service_request": "2025-1166242",
    "request_type": "Trash/Recycling",
    "request_reason": "Request a Large Item Pick Up",
    "date_created": "2025-02-03T13:40:51.000",
    "date_modified": "2025-02-03T13:40:54.000",
    "request_status": "Pending",
    "responsible_agency": "Department of Sanitation",
    "final_address": "7100 Lake Barrington Dr",
    "address_councildis": "E",
    "status": "Assigned to Contractor",
    "contractor": "Waste Pro",
    "rowid": "1166242",
    "final_x": "3712428.45733",
    "final_y": "564013.278561",
    "longitude": "-89.96918892079688",
    "latitude": "30.043864425928636",
    "geocoded_column": {
      "latitude": "30.043864425928636",
      "longitude": "-89.96918892079688"
    }
  },
  {
    "service_request": "2025-1166241",
    "request_type": "Streetlights",
    "request_reason": "Streetlight Outage/Malfunction",
    "date_created": "2025-02-03T13:39:41.000",
    "date_modified": "2025-02-03T13:39:42.000",
    "request_status": "Pending",
    "responsible_agency": "Department of Public Works",
    "final_address": "3906 Iroquois St",
    "address_councildis": "D",
    "status": "Pending",
    "contractor": "Legacy Professional Services",
    "rowid": "1166241",
    "final_x": "3689117.92047",
    "final_y": "547618.712466",
    "longitude": "-90.04344350143077",
    "latitude": "29.999527943321876",
    "geocoded_column": {
      "latitude": "29.999527943321876",
      "longitude": "-90.04344350143077"
    }
  },
  {
    "service_request": "2025-1166240",
    "request_type": "Streetlights",
    "request_reason": "Streetlight Outage/Malfunction",
    "date_created": "2025-02-03T13:36:42.000",
    "date_modified": "2025-02-03T13:36:43.000",
    "request_status": "Pending",
    "responsible_agency": "Department of Public Works",
    "final_address": "3920 Iroquois St",
    "address_councildis": "D",
    "status": "Pending",
    "contractor": "Legacy Professional Services",
    "rowid": "1166240",
    "final_x": "3689119.07779",
    "final_y": "547712.837074",
    "longitude": "-90.04343649818132",
    "latitude": "29.99978671597863",
    "geocoded_column": {
      "latitude": "29.99978671597863",
      "longitude": "-90.04343649818132"
    }
  },
  {
    "service_request": "2025-1166239",
    "request_type": "Streetlights",
    "request_reason": "Streetlight Outage/Malfunction",
    "date_created": "2025-02-03T13:29:08.000",
    "date_modified": "2025-02-03T13:29:09.000",
    "request_status": "Pending",
    "responsible_agency": "Department of Public Works",
    "final_address": "6009 Warrington Dr",
    "address_councildis": "D",
    "status": "Pending",
    "contractor": "Legacy Professional Services",
    "rowid": "1166239",
    "final_x": "3680810.39605",
    "final_y": "554703.861912",
    "longitude": "-90.06944035629968",
    "latitude": "30.01926407861352",
    "geocoded_column": {
      "latitude": "30.01926407861352",
      "longitude": "-90.06944035629968"
    }
  },