[
  {
    "service_request": "2022-894318",
    "request_type": "Traffic Signals/Signs/Striping/Streetlights",
    "request_reason": "Street Light Outage/Malfunction",
    "date_created": "2022-06-24T00:30:51.000",
    "date_modified": "2022-06-24T00:30:52.000",
    "request_status": "Pending",
    "responsible_agency": "Department of Public Works",
    "final_address": "MIRABEAU AVE & DEMONTLUZIN ST",
    "address_councildis": "D",
    "status": "Pending",
    "contractor": "Royal Engineering",
    "rowid": "894318",
    "final_x": "3687114.7",
    "final_y": "550968.18",
    "longitude": "-90.04965318782286",
    "latitude": "30.008799615435663",
    "geocoded_column": {
      "latitude": "30.008799615435663",
      "longitude": "-90.04965318782286"
    }
  },
  {
    "service_request": "2022-894317",
    "request_type": "Traffic Signals/Signs/Striping/Streetlights",
    "request_reason": "Street Light Outage/Malfunction",
    "date_created": "2022-06-23T23:59:00.000",
    "date_modified": "2022-06-23T23:59:00.000",
    "request_status": "Pending",
    "responsible_agency": "Department of Public Works",
    "final_address": "829 Pacific Ave, New Orleans, Louisiana, 70114",
    "address_councildis": "C",
    "status": "Pending",
    "contractor": "Royal Engineering",
    "rowid": "894317",
    "final_x": "3688404.78377",
    "final_y": "528460.248896",
    "longitude": "-90.04637607644734",
    "latitude": "29.946870965473337",
    "geocoded_column": {
      "latitude": "29.946870965473337",
      "longitude": "-90.04637607644734"
    }
  },
  {
    "service_request": "2022-894316",
    "request_type": "Trash/Recycling",
    "request_reason": "Order Trash Cart",
    "date_created": "2022-06-23T22:44:59.000",
    "date_modified": "2022-06-23T22:45:00.000",
    "request_status": "Pending",
    "responsible_agency": "Department of Sanitation",
    "final_address": "4131 Hamilton St",
    "address_councildis": "A",
    "status": "Assigned to Contractor",
    "contractor": "Richards Disposal",
    "rowid": "894316",
    "final_x": "3666485.9993",
    "final_y": "538515.822601",
    "longitude": "-90.1152444773365",
    "latitude": "29.975179202527354",
    "geocoded_column": {
      "latitude": "29.975179202527354",
      "longitude": "-90.1152444773365"
    }
  },
  {
    "service_request": "2022-894315",
    "request_type": "Trash/Recycling",
    "request_reason": "Illegal Dumping",
    "date_created": "2022-06-23T22:25:54.000",
    "date_modified": "2022-06-23T22:25:54.000",
    "request_status": "Pending",
    "responsible_agency": "Department of Sanitation",
    "final_address": "1031 Sister St",
    "address_councildis": "E",
    "status": "Pending",
    "rowid": "894315",
    "final_x": "3694652.86384",
    "final_y": "534384.967173",
    "longitude": "-90.02643533039497",
    "latitude": "29.962967428648412",
    "geocoded_column": {
      "latitude": "29.962967428648412",
      "longitude": "-90.02643533039497"
    }
  },
  {
    "service_request": "2022-894314",
    "request_type": "Traffic Signals/Signs/Striping/Streetlights",
    "request_reason": "Street Light Outage/Malfunction",
    "date_created": "2022-06-23T22:15:49.000",
    "date_modified": "2022-06-23T22:20:10.000",
    "request_status": "Pending",
    "responsible_agency": "Department of Public Works",
    "final_address": "2305 Toledano St",
    "address_councildis": "B",
    "status": "Pending",
    "contractor": "Royal Engineering",
    "rowid": "894314",
    "final_x": "3673575.14644",
    "final_y": "524052.5447",
    "longitude": "-90.0933493671814",
    "latitude": "29.935200873697312",
    "geocoded_column": {
      "latitude": "29.935200873697312",
      "longitude": "-90.0933493671814"
    }
  },
  {
    "service_request": "2022-894313",
    "request_type": "Trash/Recycling",
    "request_reason": "Missed Trash Pick-Up",
    "date_created": "2022-06-23T22:13:13.000",
    "date_modified": "2022-06-23T22:13:14.000",
    "request_status": "Pending",
    "responsible_agency": "Department of Sanitation",
    "final_address": "8231 Lomond Rd, New Orleans, Louisiana, 70126",
    "address_councildis": "E",
    "status": "Assigned to Contractor",
    "contractor": "Metro Disposal",
    "rowid": "894313",
    "final_x": "3702948.9242",
    "final_y": "561782.128991",
    "longitude": "-89.9992302800815",
    "latitude": "30.03803654468898",
    "geocoded_column": {
      "latitude": "30.03803654468898",
      "longitude": "-89.9992302800815"
    }
  },
  {
    "service_request": "2022-894312",
    "request_type": "Trash/Recycling",
    "request_reason": "Missed Trash Pick-Up",
    "date_created": "2022-06-23T22:10:31.000",
    "date_modified": "2022-06-23T22:10:33.000",
    "request_status": "Pending",
    "responsible_agency": "Department of Sanitation",
    "final_address": "8231 Lomond Rd, New Orleans, Louisiana, 70126",
    "address_councildis": "E",
    "status": "Assigned to Contractor",
    "contractor": "Metro Disposal",
    "rowid": "894312",
    "final_x": "3702948.9242",
    "final_y": "561782.128991",
    "longitude": "-89.9992302800815",
    "latitude": "30.03803654468898",
    "geocoded_column": {
      "latitude": "30.03803654468898",
      "longitude": "-89.9992302800815"
    }
  },
  {
    "service_request": "2022-894310",
    "request_type": "Traffic Signals/Signs/Striping/Streetlights",
    "request_reason": "Street Light Outage/Malfunction",
    "date_created": "2022-06-23T21:25:42.000",
    "date_modified": "2022-06-23T21:25:43.000",
    "request_status": "Pending",
    "responsible_agency": "Department of Public Works",
    "final_address": "1029 Eliza St",
    "address_councildis": "C",
    "status": "Pending",
    "contractor": "Royal Engineering",
    "rowid": "894310",
    "final_x": "3688770.03235",
    "final_y": "529827.321281",
    "longitude": "-90.04517433146124",
    "latitude": "29.950618661079076",
    "geocoded_column": {
      "latitude": "29.950618661079076",
      "longitude": "-90.04517433146124"
    }
  },
  {
    "service_request": "2022-894309",
    "request_type": "Traffic Signals/Signs/Striping/Streetlights",
    "request_reason": "Street Light Outage/Malfunction",
    "date_created": "2022-06-23T21:24:48.000",
    "date_modified": "2022-06-23T21:24:49.000",
    "request_status": "Pending",
    "responsible_agency": "Department of Public Works",
    "final_address": "636 Leboeuf St",
    "address_councildis": "C",
    "status": "Pending",
    "contractor": "Royal Engineering",
    "rowid": "894309",
    "final_x": "3689860.80912",
    "final_y": "529103.284288",
    "longitude": "-90.04175599978635",
    "latitude": "29.94859404537287",
    "geocoded_column": {
      "latitude": "29.94859404537287",
      "longitude": "-90.04175599978635"
    }
  },
  {
    "service_request": "2022-894308",
    "request_type": "Traffic Signals/Signs/Striping/Streetlights",
    "request_reason": "Street Light Outage/Malfunction",
    "date_created": "2022-06-23T21:23:48.000",
    "date_modified": "2022-06-23T21:23:49.000",
    "request_status": "Pending",
    "responsible_agency": "Department of Public Works",
    "final_address": "636 Leboeuf St",
    "address_councildis": "C",
    "status": "Pending",
    "contractor": "Royal Engineering",
    "rowid": "894308",
    "final_x": "3689860.80912",
    "final_y": "529103.284288",
    "longitude": "-90.04175599978635",
    "latitude": "29.94859404537287",
    "geocoded_column": {
      "latitude": "29.94859404537287",
      "longitude": "-90.04175599978635"
    }
  },
  {
    "service_request": "2022-894307",
    "request_type": "Traffic Signals/Signs/Striping/Streetlights",
    "request_reason": "Street Light Outage/Malfunction",
    "date_created": "2022-06-23T21:22:37.000",
    "date_modified": "2022-06-23T21:22:38.000",
    "request_status": "Pending",
    "responsible_agency": "Department of Public Works",
    "final_address": "636 Leboeuf St",
    "address_councildis": "C",
    "status": "Pending",
    "contractor": "Royal Engineering",
    "rowid": "894307",
    "final_x": "3689860.80912",
    "final_y": "529103.284288",
    "longitude": "-90.04175599978635",
    "latitude": "29.94859404537287",
    "geocoded_column": {
      "latitude": "29.94859404537287",
      "longitude": "-90.04175599978635"
    }
  },
  {
    "service_request": "2022-894306",
    "request_type": "Roads/Drainage",
    "request_reason": "Street Subsidence (Sinking)",
    "date_created": "2022-06-23T21:13:08.000",
    "date_modified": "2022-06-23T21:13:08.000",
    "request_status": "Pending",
    "responsible_agency": "Department of Public Works",
    "final_address": "225 W Harrison Ave",
    "address_councildis": "A",
    "status": "Pending",
    "rowid": "894306",
    "final_x": "3665607.89792",
    "final_y": "549728.510356",
    "longitude": "-90.117642049107",
    "latitude": "30.00603591892956",
    "geocoded_column": {
      "latitude": "30.00603591892956",
      "longitude": "-90.117642049107"
    }
  },
  {
    "service_request": "2022-894303",
    "request_type": "Trash/Recycling",
    "request_reason": "Illegal Dumping",
    "date_created": "2022-06-23T21:02:36.000",
    "date_modified": "2022-06-23T21:02:36.000",
    "request_status": "Pending",
    "responsible_agency": "Department of Sanitation",
    "final_address": "2026 Philip St",
    "address_councildis": "B",
    "status": "Pending",
    "rowid": "894303",
    "final_x": "3676203.36949",
    "final_y": "524710.893308",
    "longitude": "-90.08502942247196",
    "latitude": "29.93693265010777",
    "geocoded_column": {
      "latitude": "29.93693265010777",
      "longitude": "-90.08502942247196"
    }
  },
  {
    "service_request": "2022-894302",
    "request_type": "Trash/Recycling",
    "request_reason": "Request a Large Item Pick Up",
    "date_created": "2022-06-23T20:55:28.000",
    "date_modified": "2022-06-23T20:55:28.000",
    "request_status": "Pending",
    "responsible_agency": "Department of Sanitation",
    "final_address": "3212 Toulouse St",
    "address_councildis": "A",
    "status": "Assigned to Contractor",
    "contractor": "Richards Disposal",
    "rowid": "894302",
    "final_x": "3674560.79387",
    "final_y": "537940.584585",
    "longitude": "-90.08976183493206",
    "latitude": "29.97335899437288",
    "geocoded_column": {
      "latitude": "29.97335899437288",
      "longitude": "-90.08976183493206"
    }
  },
  {
    "service_request": "2022-894301",
    "request_type": "Trash/Recycling",
    "request_reason": "Request a Large Item Pick Up",
    "date_created": "2022-06-23T20:33:51.000",
    "date_modified": "2022-06-23T20:33:52.000",
    "request_status": "Pending",
    "responsible_agency": "Department of Sanitation",
    "final_address": "1214 Decatur St",
    "address_councildis": "C",
    "status": "Assigned to Contractor",
    "contractor": "Empire Services",
    "rowid": "894301",
    "final_x": "3684401.14684",
    "final_y": "533521.000132",
    "longitude": "-90.05883928046349",
    "latitude": "29.96090934310693",
    "geocoded_column": {
      "latitude": "29.96090934310693",
      "longitude": "-90.05883928046349"
    }
  },
  {
    "service_request": "2022-894298",
    "request_type": "Parks & Parkways",
    "request_reason": "Request Tree Service (Right of Way/Public Property)",
    "date_created": "2022-06-23T20:20:40.000",
    "date_modified": "2022-06-23T21:03:35.000",
    "request_status": "Pending",
    "responsible_agency": "Department of Parks & Parkway",
    "final_address": "S CLAIBORNE AVE & S MIRO ST",
    "address_councildis": "A",
    "status": "Pending",
    "rowid": "894298",
    "final_x": "3667002.3",
    "final_y": "528218.98",
    "longitude": "-90.11395992922854",
    "latitude": "29.946851174609485",
    "geocoded_column": {
      "latitude": "29.946851174609485",
      "longitude": "-90.11395992922854"
    }
  },
  {
    "service_request": "2022-894297",
    "request_type": "Traffic Signals/Signs/Striping/Streetlights",
    "request_reason": "Traffic Signal Malfunctioning/Damaged",
    "date_created": "2022-06-23T20:00:04.000",
    "date_modified": "2022-06-23T20:00:04.000",
    "request_status": "Pending",
    "responsible_agency": "Department of Public Works",
    "final_address": "741 State St",
    "address_councildis": "A",
    "status": "Pending",
    "rowid": "894297",
    "final_x": "3664739.58183",
    "final_y": "519167.559159",
    "longitude": "-90.12140646016461",
    "latitude": "29.922028657216714",
    "geocoded_column": {
      "latitude": "29.922028657216714",
      "longitude": "-90.12140646016461"
    }
  },
  {
    "service_request": "2022-894296",
    "request_type": "Property Maintenance",
    "request_reason": "Property Maintenance",
    "date_created": "2022-06-23T19:59:51.000",
    "date_modified": "2022-06-23T19:59:51.000",
    "request_status": "Pending",
    "responsible_agency": "Department of Code Enforcement",
    "final_address": "6568 Catina St",
    "address_councildis": "A",
    "status": "Pending",
    "rowid": "894296",
    "final_x": "3666910.84506",
    "final_y": "551436.760085",
    "longitude": "-90.11346825723848",
    "latitude": "30.010694935557922",
    "geocoded_column": {
      "latitude": "30.010694935557922",
      "longitude": "-90.11346825723848"
    }
  },
  {
    "service_request": "2022-894294",
    "request_type": "Abandoned Vehicles",
    "request_reason": "Abandoned/Junk Vehicles",
    "date_created": "2022-06-23T19:57:40.000",
    "date_modified": "2022-06-23T19:57:40.000",
    "request_status": "Pending",
    "responsible_agency": "Department of Public Works",
    "final_address": "2439 Peniston St",
    "address_councildis": "B",
    "status": "Pending",
    "rowid": "894294",
    "final_x": "3672222.02945",
    "final_y": "524201.036988",
    "longitude": "-90.097616107987",
    "latitude": "29.935649373228085",
    "geocoded_column": {
      "latitude": "29.935649373228085",
      "longitude": "-90.097616107987"
    }
  },
  {
    "service_request": "2022-894292",
    "request_type": "Safety & Permits",
    "request_reason": "Licenses & Permits",
    "date_created": "2022-06-23T19:50:15.000",
    "date_modified": "2022-06-23T19:50:15.000",
    "request_status": "Pending",
    "responsible_agency": "Safety and Permits",
    "status": "Pending",
    "rowid": "894292",
    "longitude": "0.0",
    "latitude": "0.0",
    "geocoded_column": {
      "latitude": "0.0",
      "longitude": "0.0"
    }
  },
  {
    "service_request": "2022-894290",
    "request_type": "Property Maintenance",
    "request_reason": "Property Maintenance",
    "date_created": "2022-06-23T19:45:07.000",
    "date_modified": "2022-06-23T19:45:07.000",
    "request_status": "Pending",
    "responsible_agency": "Department of Code Enforcement",
    "final_address": "1439 St Roch Ave",
    "address_councildis": "C",
    "status": "Pending",
    "rowid": "894290",
    "final_x": "3686446.63183",
    "final_y": "537858.488329",
    "longitude": "-90.0522269006313",
    "latitude": "29.97277321037334",
    "geocoded_column": {
      "latitude": "29.97277321037334",
      "longitude": "-90.0522269006313"
    }
  },
  {
    "service_request": "2022-894288",
    "request_type": "Trash/Recycling",
    "request_reason": "Replace Recycling Cart",
    "date_created": "2022-06-23T19:31:11.000",
    "date_modified": "2022-06-23T19:31:11.000",
    "request_status": "Pending",
    "responsible_agency": "Department of Sanitation",
    "final_address": "2529 Jefferson Ave",
    "address_councildis": "B",
    "status": "Pending",
    "rowid": "894288",
    "final_x": "3668170.48429",
    "final_y": "524862.2327",
    "longitude": "-90.11038464829609",
    "latitude": "29.937586969852422",
    "geocoded_column": {
      "latitude": "29.937586969852422",
      "longitude": "-90.11038464829609"
    }
  },
  {
    "service_request": "2022-894287",
    "request_type": "Trash/Recycling",
    "request_reason": "Replace Trash Cart",
    "date_created": "2022-06-23T19:31:03.000",
    "date_modified": "2022-06-23T19:31:03.000",
    "request_status": "Pending",
    "responsible_agency": "Department of Sanitation",
    "final_address": "4712 Rosemont Pl",
    "address_councildis": "E",
    "status": "Assigned to Contractor",
    "contractor": "Metro Disposal",
    "rowid": "894287",
    "final_x": "3702680.45201",
    "final_y": "554697.393752",
    "longitude": "-90.00033917870017",
    "latitude": "30.01856485984492",
    "geocoded_column": {
      "latitude": "30.01856485984492",
      "longitude": "-90.00033917870017"
    }
  },
  {
    "service_request": "2022-894286",
    "request_type": "Abandoned Vehicles",
    "request_reason": "Abandoned/Junk Vehicles",
    "date_created": "2022-06-23T19:28:47.000",
    "date_modified": "2022-06-23T19:28:48.000",
    "request_status": "Pending",
    "responsible_agency": "Department of Public Works",
    "final_address": "1814 Mardi Gras Blvd",
    "address_councildis": "C",
    "status": "Pending",
    "rowid": "894286",
    "final_x": "3690823.98537",
    "final_y": "525356.907005",
    "longitude": "-90.03884849096939",
    "latitude": "29.938262902938767",
    "geocoded_column": {
      "latitude": "29.938262902938767",
      "longitude": "-90.03884849096939"
    }
  },
  {
    "service_request": "2022-894285",
    "request_type": "Trash/Recycling",
    "request_reason": "Missed Trash Pick-Up",
    "date_created": "2022-06-23T19:23:44.000",
    "date_modified": "2022-06-23T19:23:45.000",
    "request_status": "Pending",
    "responsible_agency": "Department of Sanitation",
    "final_address": "883 Navarre St",
    "address_councildis": "A",
    "status": "Assigned to Contractor",
    "contractor": "Metro Disposal",
    "rowid": "894285",
    "final_x": "3669372.46785",
    "final_y": "543816.225614",
    "longitude": "-90.10594891040328",
    "latitude": "29.989668822165346",
    "geocoded_column": {
      "latitude": "29.989668822165346",
      "longitude": "-90.10594891040328"
    }
  },
  {
    "service_request": "2022-894284",
    "request_type": "Roads/Drainage",
    "request_reason": "Pothole",
    "date_created": "2022-06-23T19:06:49.000",
    "date_modified": "2022-06-23T19:06:49.000",
    "request_status": "Pending",
    "responsible_agency": "Department of Public Works",
    "final_address": "4761 Press Dr",
    "address_councildis": "D",
    "status": "Pending",
    "rowid": "894284",
    "final_x": "3689682.5039",
    "final_y": "551043.423061",
    "longitude": "-90.04153800069814",
    "latitude": "30.008927157400688",
    "geocoded_column": {
      "latitude": "30.008927157400688",
      "longitude": "-90.04153800069814"
    }
  },
  {
    "service_request": "2022-894283",
    "request_type": "Trash/Recycling",
    "request_reason": "MIssed Recycling Pick-Up",
    "date_created": "2022-06-23T18:59:30.000",
    "date_modified": "2022-06-23T18:59:31.000",
    "request_status": "Pending",
    "responsible_agency": "Department of Sanitation",
    "final_address": "2116 Oretha Castle Haley Blvd",
    "address_councildis": "B",
    "status": "Assigned to Contractor",
    "contractor": "Richards Disposal",
    "rowid": "894283",
    "final_x": "3677023.08584",
    "final_y": "524835.779004",
    "longitude": "-90.08243722889668",
    "latitude": "29.937251464273828",
    "geocoded_column": {
      "latitude": "29.937251464273828",
      "longitude": "-90.08243722889668"
    }
  },
  {
    "service_request": "2022-894282",
    "request_type": "Traffic Signals/Signs/Striping/Streetlights",
    "request_reason": "Street Light Outage/Malfunction",
    "date_created": "2022-06-23T18:57:38.000",
    "date_modified": "2022-06-23T18:57:39.000",
    "request_status": "Pending",
    "responsible_agency": "Department of Public Works",
    "final_address": "3338 Octavia St",
    "address_councildis": "A",
    "status": "Pending",
    "contractor": "Royal Engineering",
    "rowid": "894282",
    "final_x": "3668402.83879",
    "final_y": "527986.363711",
    "longitude": "-90.1095457450252",
    "latitude": "29.94617049955007",
    "geocoded_column": {
      "latitude": "29.94617049955007",
      "longitude": "-90.1095457450252"
    }
  },
  {
    "service_request": "2022-894281",
    "request_type": "Abandoned Vehicles",
    "request_reason": "Abandoned/Junk Vehicles",
    "date_created": "2022-06-23T18:53:02.000",
    "date_modified": "2022-06-23T18:56:19.000",
    "request_status": "Pending",
    "responsible_agency": "Department of Public Works",
    "final_address": "1955 N Prieur St",
    "address_councildis": "D",
    "status": "Pending",
    "rowid": "894281",
    "final_x": "3683368.60124",
    "final_y": "539180.365258",
    "longitude": "-90.06190156039172",
    "latitude": "29.976502179050755",
    "geocoded_column": {
      "latitude": "29.976502179050755",
      "longitude": "-90.06190156039172"
    }
  },
  {
    "service_request": "2022-894280",
    "request_type": "Trash/Recycling",
    "request_reason": "Illegal Dumping",
    "date_created": "2022-06-23T18:40:26.000",
    "date_modified": "2022-06-23T18:40:26.000",
    "request_status": "Pending",
    "responsible_agency": "Department of Sanitation",
    "final_address": "2735 Soniat St",
    "address_councildis": "B",
    "status": "Pending",
    "rowid": "894280",
    "final_x": "3668637.40775",
    "final_y": "525623.442301",
    "longitude": "-90.1088848514033",
    "latitude": "29.93966633993043",
    "geocoded_column": {
      "latitude": "29.93966633993043",
      "longitude": "-90.1088848514033"
    }
  },
  {
    "service_request": "2022-894279",
    "request_type": "Trash/Recycling",
    "request_reason": "Illegal Dumping",
    "date_created": "2022-06-23T18:21:57.000",
    "date_modified": "2022-06-23T18:21:57.000",
    "request_status": "Pending",
    "responsible_agency": "Department of Sanitation",
    "final_address": "4427 Allen St",
    "address_councildis": "D",
    "status": "Pending",
    "rowid": "894279",
    "final_x": "3681787.27285",
    "final_y": "548867.449939",
    "longitude": "-90.06655763507614",
    "latitude": "30.003186394309083",
    "geocoded_column": {
      "latitude": "30.003186394309083",
      "longitude": "-90.06655763507614"
    }
  },
  {
    "service_request": "2022-894278",
    "request_type": "Trash/Recycling",
    "request_reason": "Missed Trash Pick-Up",
    "date_created": "2022-06-23T18:20:57.000",
    "date_modified": "2022-06-23T18:20:58.000",
    "request_status": "Pending",
    "responsible_agency": "Department of Sanitation",
    "final_address": "2831 Audubon St",
    "address_councildis": "B",
    "status": "Assigned to Contractor",
    "contractor": "Richards Disposal",
    "rowid": "894278",
    "final_x": "3667694.17434",
    "final_y": "531295.870018",
    "longitude": "-90.11167184375363",
    "latitude": "29.955291355719048",
    "geocoded_column": {
      "latitude": "29.955291355719048",
      "longitude": "-90.11167184375363"
    }
  },
  {
    "service_request": "2022-894277",
    "request_type": "Traffic Signals/Signs/Striping/Streetlights",
    "request_reason": "Street Light Outage/Malfunction",
    "date_created": "2022-06-23T18:18:26.000",
    "date_modified": "2022-06-23T18:18:26.000",
    "request_status": "Pending",
    "responsible_agency": "Department of Public Works",
    "final_address": "6421 Urquhart St",
    "address_councildis": "E",
    "status": "Pending",
    "contractor": "Royal Engineering",
    "rowid": "894277",
    "final_x": "3700930.18282",
    "final_y": "533622.260293",
    "longitude": "-90.00664035383141",
    "latitude": "29.960671899237386",
    "geocoded_column": {
      "latitude": "29.960671899237386",
      "longitude": "-90.00664035383141"
    }
  },
  {
    "service_request": "2022-894276",
    "request_type": "Traffic Signals/Signs/Striping/Streetlights",
    "request_reason": "Street Light Outage/Malfunction",
    "date_created": "2022-06-23T18:17:44.000",
    "date_modified": "2022-06-23T18:17:45.000",
    "request_status": "Pending",
    "responsible_agency": "Department of Public Works",
    "final_address": "3630 Rue Colette",
    "address_councildis": "C",
    "status": "Pending",
    "contractor": "Royal Engineering",
    "rowid": "894276",
    "final_x": "3704567.61028",
    "final_y": "516953.195957",
    "longitude": "-89.9957686112282",
    "latitude": "29.914721540772536",
    "geocoded_column": {
      "latitude": "29.914721540772536",
      "longitude": "-89.9957686112282"
    }
  },
  {
    "service_request": "2022-894275",
    "request_type": "Property Maintenance",
    "request_reason": "Property Maintenance",
    "date_created": "2022-06-23T18:10:11.000",
    "date_modified": "2022-06-23T18:10:11.000",
    "request_status": "Pending",
    "responsible_agency": "Department of Code Enforcement",
    "final_address": "2473 N Claiborne Ave",
    "address_councildis": "D",
    "status": "Pending",
    "rowid": "894275",
    "final_x": "3686982.10908",
    "final_y": "538350.257289",
    "longitude": "-90.05051837998556",
    "latitude": "29.974108929772544",
    "geocoded_column": {
      "latitude": "29.974108929772544",
      "longitude": "-90.05051837998556"
    }
  },
  {
    "service_request": "2022-894274",
    "request_type": "Property Maintenance",
    "request_reason": "Property Maintenance",
    "date_created": "2022-06-23T18:06:09.000",
    "date_modified": "2022-06-23T18:06:09.000",
    "request_status": "Pending",
    "responsible_agency": "Department of Code Enforcement",
    "final_address": "2346 N Galvez St",
    "address_councildis": "D",
    "status": "Pending",
    "rowid": "894274",
    "final_x": "3685908.10159",
    "final_y": "540052.894667",
    "longitude": "-90.05385028971652",
    "latitude": "29.978823602887914",
    "geocoded_column": {
      "latitude": "29.978823602887914",
      "longitude": "-90.05385028971652"
    }
  },
  {
    "service_request": "2022-894273",
    "request_type": "Property Maintenance",
    "request_reason": "Property Maintenance",
    "date_created": "2022-06-23T17:42:18.000",
    "date_modified": "2022-06-23T17:42:18.000",
    "request_status": "Pending",
    "responsible_agency": "Department of Code Enforcement",
    "final_address": "2346 N Galvez St",
    "address_councildis": "D",
    "status": "Pending",
    "rowid": "894273",
    "final_x": "3685908.10159",
    "final_y": "540052.894667",
    "longitude": "-90.05385028971652",
    "latitude": "29.978823602887914",
    "geocoded_column": {
      "latitude": "29.978823602887914",
      "longitude": "-90.05385028971652"
    }
  },
  {
    "service_request": "2022-894272",
    "request_type": "Trash/Recycling",
    "request_reason": "MIssed Recycling Pick-Up",
    "date_created": "2022-06-23T17:31:08.000",
    "date_modified": "2022-06-23T17:31:08.000",
    "request_status": "Pending",
    "responsible_agency": "Department of Sanitation",
    "final_address": "5351 Tchoupitoulas St",
    "address_councildis": "B",
    "status": "Assigned to Contractor",
    "contractor": "Richards Disposal",
    "rowid": "894272",
    "final_x": "3666843.49517",
    "final_y": "517212.276725",
    "longitude": "-90.11483089618059",
    "latitude": "29.916590888881792",
    "geocoded_column": {
      "latitude": "29.916590888881792",
      "longitude": "-90.11483089618059"
    }
  },
  {
    "service_request": "2022-894271",
    "request_type": "Trash/Recycling",
    "request_reason": "Order Trash Cart",
    "date_created": "2022-06-23T17:30:04.000",
    "date_modified": "2022-06-23T17:30:05.000",
    "request_status": "Pending",
    "responsible_agency": "Department of Sanitation",
    "final_address": "888 Homedale St",
    "address_councildis": "A",
    "status": "Assigned to Contractor",
    "contractor": "Metro Disposal",
    "rowid": "894271",
    "final_x": "3669485.14881",
    "final_y": "544576.641423",
    "longitude": "-90.10556724480207",
    "latitude": "29.99175638536448",
    "geocoded_column": {
      "latitude": "29.99175638536448",
      "longitude": "-90.10556724480207"
    }
  },
  {
    "service_request": "2022-894270",
    "request_type": "Trash/Recycling",
    "request_reason": "Missed Trash Pick-Up",
    "date_created": "2022-06-23T17:26:51.000",
    "date_modified": "2022-06-23T17:26:51.000",
    "request_status": "Pending",
    "responsible_agency": "Department of Sanitation",
    "final_address": "3923 Buchanan St",
    "address_councildis": "D",
    "status": "Assigned to Contractor",
    "contractor": "Metro Disposal",
    "rowid": "894270",
    "final_x": "3677368.57954",
    "final_y": "546654.126929",
    "longitude": "-90.08059340171556",
    "latitude": "29.99723412027319",
    "geocoded_column": {
      "latitude": "29.99723412027319",
      "longitude": "-90.08059340171556"
    }
  },
  {
    "service_request": "2022-894269",
    "request_type": "Trash/Recycling",
    "request_reason": "Repair Trash Cart",
    "date_created": "2022-06-23T17:21:33.000",
    "date_modified": "2022-06-23T17:21:34.000",
    "request_status": "Pending",
    "responsible_agency": "Department of Sanitation",
    "final_address": "1930 Annunciation St Unit T",
    "address_councildis": "B",
    "status": "Assigned to Contractor",
    "contractor": "Richards Disposal",
    "rowid": "894269",
    "final_x": "3680402.88872",
    "final_y": "521858.547002",
    "longitude": "-90.07187046045702",
    "latitude": "29.92896317143418",
    "geocoded_column": {
      "latitude": "29.92896317143418",
      "longitude": "-90.07187046045702"
    }
  },
  {
    "service_request": "2022-894268",
    "request_type": "Trash/Recycling",
    "request_reason": "MIssed Recycling Pick-Up",
    "date_created": "2022-06-23T17:19:00.000",
    "date_modified": "2022-06-23T17:19:01.000",
    "request_status": "Pending",
    "responsible_agency": "Department of Sanitation",
    "final_address": "1847 S Chippewa St",
    "address_councildis": "B",
    "status": "Assigned to Contractor",
    "contractor": "Richards Disposal",
    "rowid": "894268",
    "final_x": "3680784.2868",
    "final_y": "521863.399802",
    "longitude": "-90.07066629453007",
    "latitude": "29.928964964109387",
    "geocoded_column": {
      "latitude": "29.928964964109387",
      "longitude": "-90.07066629453007"
    }
  },
  {
    "service_request": "2022-894267",
    "request_type": "Property Maintenance",
    "request_reason": "Property Maintenance",
    "date_created": "2022-06-23T17:13:52.000",
    "date_modified": "2022-06-23T17:13:52.000",
    "request_status": "Pending",
    "responsible_agency": "Department of Code Enforcement",
    "final_address": "1720 Pleasure St",
    "address_councildis": "D",
    "status": "Pending",
    "rowid": "894267",
    "final_x": "3680705.71944",
    "final_y": "544806.289039",
    "longitude": "-90.0701158632778",
    "latitude": "29.99205247808153",
    "geocoded_column": {
      "latitude": "29.99205247808153",
      "longitude": "-90.0701158632778"
    }
  },
  {
    "service_request": "2022-894266",
    "request_type": "Property Maintenance",
    "request_reason": "Property Maintenance",
    "date_created": "2022-06-23T17:13:39.000",
    "date_modified": "2022-06-23T17:13:39.000",
    "request_status": "Pending",
    "responsible_agency": "Department of Code Enforcement",
    "final_address": "1710 Pleasure St",
    "address_councildis": "D",
    "status": "Pending",
    "rowid": "894266",
    "final_x": "3680671.59343",
    "final_y": "544794.292687",
    "longitude": "-90.07022407809103",
    "latitude": "29.99202052677038",
    "geocoded_column": {
      "latitude": "29.99202052677038",
      "longitude": "-90.07022407809103"
    }
  },
  {
    "service_request": "2022-894264",
    "request_type": "Trash/Recycling",
    "request_reason": "Missed Trash Pick-Up",
    "date_created": "2022-06-23T17:09:40.000",
    "date_modified": "2022-06-23T17:09:40.000",
    "request_status": "Pending",
    "responsible_agency": "Department of Sanitation",
    "final_address": "8710 Scottsdale Dr",
    "address_councildis": "E",
    "status": "Assigned to Contractor",
    "contractor": "Metro Disposal",
    "rowid": "894264",
    "final_x": "3704928.1562",
    "final_y": "561737.181215",
    "longitude": "-89.99297711663168",
    "latitude": "30.03784944459812",
    "geocoded_column": {
      "latitude": "30.03784944459812",
      "longitude": "-89.99297711663168"
    }
  },
  {
    "service_request": "2022-894263",
    "request_type": "Trash/Recycling",
    "request_reason": "Illegal Dumping",
    "date_created": "2022-06-23T17:04:18.000",
    "date_modified": "2022-06-23T17:05:35.000",
    "request_status": "Pending",
    "responsible_agency": "Department of Code Enforcement",
    "final_address": "2414 St Ann St",
    "address_councildis": "D",
    "status": "Pending",
    "rowid": "894263",
    "final_x": "3677868.58926",
    "final_y": "536419.755207",
    "longitude": "-90.07936769725389",
    "latitude": "29.969078108763366",
    "geocoded_column": {
      "latitude": "29.969078108763366",
      "longitude": "-90.07936769725389"
    }
  },
  {
    "service_request": "2022-894262",
    "request_type": "Trash/Recycling",
    "request_reason": "Order Trash Cart",
    "date_created": "2022-06-23T17:01:49.000",
    "date_modified": "2022-06-23T17:01:50.000",
    "request_status": "Pending",
    "responsible_agency": "Department of Sanitation",
    "final_address": "422 33Rd St",
    "address_councildis": "A",
    "status": "Assigned to Contractor",
    "contractor": "Metro Disposal",
    "rowid": "894262",
    "final_x": "3664695.69344",
    "final_y": "550953.936597",
    "longitude": "-90.12048295603282",
    "latitude": "30.009431996399087",
    "geocoded_column": {
      "latitude": "30.009431996399087",
      "longitude": "-90.12048295603282"
    }
  },
  {
    "service_request": "2022-894261",
    "request_type": "Trash/Recycling",
    "request_reason": "Request a Large Item Pick Up",
    "date_created": "2022-06-23T16:57:27.000",
    "date_modified": "2022-06-23T16:58:12.000",
    "request_status": "Pending",
    "responsible_agency": "Department of Sanitation",
    "final_address": "411 Lowerline St",
    "address_councildis": "A",
    "status": "Assigned to Contractor",
    "contractor": "Richards Disposal",
    "rowid": "894261",
    "final_x": "3661851.87053",
    "final_y": "523976.974396",
    "longitude": "-90.13036241977007",
    "latitude": "29.9353367098244",
    "geocoded_column": {
      "latitude": "29.9353367098244",
      "longitude": "-90.13036241977007"
    }
  },
  {
    "service_request": "2022-894260",
    "request_type": "Parks & Parkways",
    "request_reason": "Request Tree Service (Right of Way/Public Property)",
    "date_created": "2022-06-23T16:53:04.000",
    "date_modified": "2022-06-23T16:54:39.000",
    "request_status": "Pending",
    "responsible_agency": "Department of Parks & Parkway",
    "final_address": "5948 Marshal Foch St",
    "address_councildis": "A",
    "status": "Pending",
    "rowid": "894260",
    "final_x": "3669705.18823",
    "final_y": "546912.746001",
    "longitude": "-90.10479306646937",
    "latitude": "29.99817338195283",
    "geocoded_column": {
      "latitude": "29.99817338195283",
      "longitude": "-90.10479306646937"
    }
  },
  {
    "service_request": "2022-894259",
    "request_type": "Property Maintenance",
    "request_reason": "Property Maintenance",
    "date_created": "2022-06-23T16:38:39.000",
    "date_modified": "2022-06-23T16:38:39.000",
    "request_status": "Pending",
    "responsible_agency": "Department of Code Enforcement",
    "final_address": "5134 Cameron Blvd",
    "address_councildis": "D",
    "status": "Pending",
    "rowid": "894259",
    "final_x": "3682575.12303",
    "final_y": "551736.719061",
    "longitude": "-90.06396828487144",
    "latitude": "30.011051875940787",
    "geocoded_column": {
      "latitude": "30.011051875940787",
      "longitude": "-90.06396828487144"
    }
  },
  {
    "service_request": "2022-894258",
    "request_type": "Trash/Recycling",
    "request_reason": "Missed Trash Pick-Up",
    "date_created": "2022-06-23T16:38:04.000",
    "date_modified": "2022-06-23T16:38:05.000",
    "request_status": "Pending",
    "responsible_agency": "Department of Sanitation",
    "final_address": "1255 Foy St",
    "address_councildis": "D",
    "status": "Assigned to Contractor",
    "contractor": "Metro Disposal",
    "rowid": "894258",
    "final_x": "3677072.98894",
    "final_y": "546449.048081",
    "longitude": "-90.08153423895939",
    "latitude": "29.996679108277736",
    "geocoded_column": {
      "latitude": "29.996679108277736",
      "longitude": "-90.08153423895939"
    }
  },
  {
    "service_request": "2022-894256",
    "request_type": "Trash/Recycling",
    "request_reason": "MIssed Recycling Pick-Up",
    "date_created": "2022-06-23T16:31:33.000",
    "date_modified": "2022-06-23T16:31:33.000",
    "request_status": "Pending",
    "responsible_agency": "Department of Sanitation",
    "final_address": "1007 Race St",
    "address_councildis": "B",
    "status": "Assigned to Contractor",
    "contractor": "Richards Disposal",
    "rowid": "894256",
    "final_x": "3680507.72527",
    "final_y": "523815.155643",
    "longitude": "-90.07147149218021",
    "latitude": "29.934340026823723",
    "geocoded_column": {
      "latitude": "29.934340026823723",
      "longitude": "-90.07147149218021"
    }
  },
  {
    "service_request": "2022-894255",
    "request_type": "Trash/Recycling",
    "request_reason": "Request a Large Item Pick Up",
    "date_created": "2022-06-23T16:30:54.000",
    "date_modified": "2022-06-23T16:30:55.000",
    "request_status": "Pending",
    "responsible_agency": "Department of Sanitation",
    "final_address": "401 Elmira Ave, New Orleans, Louisiana, 70114",
    "address_councildis": "C",
    "status": "Assigned to Contractor",
    "contractor": "Richards Disposal",
    "rowid": "894255",
    "final_x": "3688188.60598",
    "final_y": "530288.369409",
    "longitude": "-90.04699382929253",
    "latitude": "29.95190434538229",
    "geocoded_column": {
      "latitude": "29.95190434538229",
      "longitude": "-90.04699382929253"
    }
  },
  {
    "service_request": "2022-894254",
    "request_type": "Traffic Signals/Signs/Striping/Streetlights",
    "request_reason": "Street Light Outage/Malfunction",
    "date_created": "2022-06-23T16:29:02.000",
    "date_modified": "2022-06-23T16:29:03.000",
    "request_status": "Pending",
    "responsible_agency": "Department of Public Works",
    "final_address": "2129 First St",
    "address_councildis": "B",
    "status": "Pending",
    "contractor": "Royal Engineering",
    "rowid": "894254",
    "final_x": "3675857.79893",
    "final_y": "524924.706812",
    "longitude": "-90.08611306058464",
    "latitude": "29.93753091443368",
    "geocoded_column": {
      "latitude": "29.93753091443368",
      "longitude": "-90.08611306058464"
    }
  },
  {
    "service_request": "2022-894253",
    "request_type": "Trash/Recycling",
    "request_reason": "Request a Large Item Pick Up",
    "date_created": "2022-06-23T16:25:35.000",
    "date_modified": "2022-06-23T16:25:36.000",
    "request_status": "Pending",
    "responsible_agency": "Department of Sanitation",
    "final_address": "1414 Slidell St",
    "address_councildis": "C",
    "status": "Assigned to Contractor",
    "contractor": "Richards Disposal",
    "rowid": "894253",
    "final_x": "3690122.9414",
    "final_y": "528769.843904",
    "longitude": "-90.04094021509748",
    "latitude": "29.94766907178409",
    "geocoded_column": {
      "latitude": "29.94766907178409",
      "longitude": "-90.04094021509748"
    }
  },
  {
    "service_request": "2022-894252",
    "request_type": "Trash/Recycling",
    "request_reason": "Missed Trash Pick-Up",
    "date_created": "2022-06-23T16:22:41.000",
    "date_modified": "2022-06-23T16:22:41.000",
    "request_status": "Pending",
    "responsible_agency": "Department of Sanitation",
    "final_address": "1724 Clio St, New Orleans, Louisiana, 70113",
    "address_councildis": "B",
    "status": "Assigned to Contractor",
    "contractor": "Richards Disposal",
    "rowid": "894252",
    "final_x": "3679138.50799",
    "final_y": "526693.81171",
    "longitude": "-90.0756943257652",
    "latitude": "29.942296769216746",
    "geocoded_column": {
      "latitude": "29.942296769216746",
      "longitude": "-90.0756943257652"
    }
  },
  {
    "service_request": "2022-894251",
    "request_type": "Traffic Signals/Signs/Striping/Streetlights",
    "request_reason": "Street Light Outage/Malfunction",
    "date_created": "2022-06-23T16:18:45.000",
    "date_modified": "2022-06-23T16:18:45.000",
    "request_status": "Pending",
    "responsible_agency": "Department of Public Works",
    "final_address": "1409 Octavia St",
    "address_councildis": "A",
    "status": "Pending",
    "contractor": "Royal Engineering",
    "rowid": "894251",
    "final_x": "3666956.38663",
    "final_y": "520991.088313",
    "longitude": "-90.11434767435445",
    "latitude": "29.92697813006529",
    "geocoded_column": {
      "latitude": "29.92697813006529",
      "longitude": "-90.11434767435445"
    }
  },
  {
    "service_request": "2022-894250",
    "request_type": "Traffic Signals/Signs/Striping/Streetlights",
    "request_reason": "Street Light Outage/Malfunction",
    "date_created": "2022-06-23T16:17:10.000",
    "date_modified": "2022-06-23T16:17:10.000",
    "request_status": "Pending",
    "responsible_agency": "Department of Public Works",
    "final_address": "GARFIELD ST & OCTAVIA ST",
    "address_councildis": "A",
    "status": "Pending",
    "contractor": "Royal Engineering",
    "rowid": "894250",
    "final_x": "3666934.8",
    "final_y": "521113.18",
    "longitude": "-90.11441171800209",
    "latitude": "29.927314474986083",
    "geocoded_column": {
      "latitude": "29.927314474986083",
      "longitude": "-90.11441171800209"
    }
  },
  {
    "service_request": "2022-894249",
    "request_type": "Abandoned Vehicles",
    "request_reason": "Abandoned/Junk Vehicles",
    "date_created": "2022-06-23T16:10:12.000",
    "date_modified": "2022-06-23T16:12:27.000",
    "request_status": "Pending",
    "responsible_agency": "Department of Public Works",
    "final_address": "1138 S Salcedo St",
    "address_councildis": "B",
    "status": "Pending",
    "rowid": "894249",
    "final_x": "3671131.9074",
    "final_y": "531808.861379",
    "longitude": "-90.1007992926904",
    "latitude": "29.956600683560854",
    "geocoded_column": {
      "latitude": "29.956600683560854",
      "longitude": "-90.1007992926904"
    }
  },
  {
    "service_request": "2022-894248",
    "request_type": "Abandoned Vehicles",
    "request_reason": "Abandoned/Junk Vehicles",
    "date_created": "2022-06-23T16:09:10.000",
    "date_modified": "2022-06-23T16:09:10.000",
    "request_status": "Pending",
    "responsible_agency": "Department of Public Works",
    "final_address": "4027 Tchoupitoulas St",
    "address_councildis": "B",
    "status": "Pending",
    "rowid": "894248",
    "final_x": "3672429.29422",
    "final_y": "517626.287798",
    "longitude": "-90.09718569391603",
    "latitude": "29.917564774854082",
    "geocoded_column": {
      "latitude": "29.917564774854082",
      "longitude": "-90.09718569391603"
    }
  },
  {
    "service_request": "2022-894247",
    "request_type": "Trash/Recycling",
    "request_reason": "Missed Trash Pick-Up",
    "date_created": "2022-06-23T16:08:39.000",
    "date_modified": "2022-06-23T16:08:39.000",
    "request_status": "Pending",
    "responsible_agency": "Department of Sanitation",
    "final_address": "3101 Toulouse St",
    "address_councildis": "A",
    "status": "Assigned to Contractor",
    "contractor": "Richards Disposal",
    "rowid": "894247",
    "final_x": "3675169.38165",
    "final_y": "537581.300168",
    "longitude": "-90.08785212114995",
    "latitude": "29.972352909203597",
    "geocoded_column": {
      "latitude": "29.972352909203597",
      "longitude": "-90.08785212114995"
    }
  },
  {
    "service_request": "2022-894246",
    "request_type": "Trash/Recycling",
    "request_reason": "Missed Trash Pick-Up",
    "date_created": "2022-06-23T16:02:47.000",
    "date_modified": "2022-06-23T16:02:48.000",
    "request_status": "Pending",
    "responsible_agency": "Department of Sanitation",
    "final_address": "1620 Fourth St",
    "address_councildis": "B",
    "status": "Assigned to Contractor",
    "contractor": "Richards Disposal",
    "rowid": "894246",
    "final_x": "3676043.77665",
    "final_y": "522866.967739",
    "longitude": "-90.08559665644712",
    "latitude": "29.931867236838222",
    "geocoded_column": {
      "latitude": "29.931867236838222",
      "longitude": "-90.08559665644712"
    }
  },
  {
    "service_request": "2022-894245",
    "request_type": "Roads/Drainage",
    "request_reason": "Leaking Hydrant",
    "date_created": "2022-06-23T15:52:29.000",
    "date_modified": "2022-06-23T15:52:29.000",
    "request_status": "Pending",
    "responsible_agency": "Department of Public Works",
    "final_address": "NASHVILLE AVE & S GALVEZ ST",
    "address_councildis": "A",
    "status": "Pending",
    "rowid": "894245",
    "final_x": "3667843.7",
    "final_y": "527486.38",
    "longitude": "-90.11132798054967",
    "latitude": "29.944812114860888",
    "geocoded_column": {
      "latitude": "29.944812114860888",
      "longitude": "-90.11132798054967"
    }
  },
  {
    "service_request": "2022-894244",
    "request_type": "Trash/Recycling",
    "request_reason": "Repair Trash Cart",
    "date_created": "2022-06-23T15:51:46.000",
    "date_modified": "2022-06-23T15:51:47.000",
    "request_status": "Pending",
    "responsible_agency": "Department of Sanitation",
    "final_address": "2142 France St",
    "address_councildis": "D",
    "status": "Assigned to Contractor",
    "contractor": "Metro Disposal",
    "rowid": "894244",
    "final_x": "3693369.62499",
    "final_y": "539272.150218",
    "longitude": "-90.0303121209071",
    "latitude": "29.976445630308124",
    "geocoded_column": {
      "latitude": "29.976445630308124",
      "longitude": "-90.0303121209071"
    }
  },
  {
    "service_request": "2022-894243",
    "request_type": "Trash/Recycling",
    "request_reason": "Missed Trash Pick-Up",
    "date_created": "2022-06-23T15:50:06.000",
    "date_modified": "2022-06-23T15:50:07.000",
    "request_status": "Pending",
    "responsible_agency": "Department of Sanitation",
    "final_address": "527 First St",
    "address_councildis": "B",
    "status": "Assigned to Contractor",
    "contractor": "Richards Disposal",
    "rowid": "894243",
    "final_x": "3679248.93711",
    "final_y": "519811.790392",
    "longitude": "-90.07558417794448",
    "latitude": "29.92337013987657",
    "geocoded_column": {
      "latitude": "29.92337013987657",
      "longitude": "-90.07558417794448"
    }
  },
  {
    "service_request": "2022-894242",
    "request_type": "Property Maintenance",
    "request_reason": "Property Maintenance",
    "date_created": "2022-06-23T15:49:41.000",
    "date_modified": "2022-06-23T15:49:41.000",
    "request_status": "Pending",
    "responsible_agency": "Department of Code Enforcement",
    "final_address": "1810 Hermosa St",
    "address_councildis": "C",
    "status": "Pending",
    "rowid": "894242",
    "final_x": "3687705.45731",
    "final_y": "524812.758204",
    "longitude": "-90.04871321388802",
    "latitude": "29.93686318198356",
    "geocoded_column": {
      "latitude": "29.93686318198356",
      "longitude": "-90.04871321388802"
    }
  },
  {
    "service_request": "2022-894240",
    "request_type": "Abandoned Vehicles",
    "request_reason": "Abandoned/Junk Vehicles",
    "date_created": "2022-06-23T15:40:35.000",
    "date_modified": "2022-06-23T15:40:35.000",
    "request_status": "Pending",
    "responsible_agency": "Department of Public Works",
    "final_address": "3535 St Anthony Ave",
    "address_councildis": "D",
    "status": "Pending",
    "rowid": "894240",
    "final_x": "3682859.06812",
    "final_y": "545737.060624",
    "longitude": "-90.06328129112279",
    "latitude": "29.994546318726034",
    "geocoded_column": {
      "latitude": "29.994546318726034",
      "longitude": "-90.06328129112279"
    }
  },
  {
    "service_request": "2022-894237",
    "request_type": "Trash/Recycling",
    "request_reason": "Repair Trash Cart",
    "date_created": "2022-06-23T15:39:12.000",
    "date_modified": "2022-06-23T15:39:12.000",
    "request_status": "Pending",
    "responsible_agency": "Department of Sanitation",
    "final_address": "1724 Nie Prkwy",
    "address_councildis": "C",
    "status": "Assigned to Contractor",
    "contractor": "Richards Disposal",
    "rowid": "894237",
    "final_x": "3701258.86813",
    "final_y": "524411.534076",
    "longitude": "-90.00593937809985",
    "latitude": "29.935335187044284",
    "geocoded_column": {
      "latitude": "29.935335187044284",
      "longitude": "-90.00593937809985"
    }
  },
  {
    "service_request": "2022-894236",
    "request_type": "Trash/Recycling",
    "request_reason": "Dead Animal Pick Up",
    "date_created": "2022-06-23T15:38:01.000",
    "date_modified": "2022-06-23T15:53:33.000",
    "case_close_date": "2022-06-23T10:53:33.000",
    "request_status": "Closed",
    "responsible_agency": "Department of Sanitation",
    "final_address": "1030 Burgundy St",
    "address_councildis": "C",
    "status": "Assigned to Contractor",
    "contractor": "Empire Services",
    "contractor_action": "Completed",
    "rowid": "894236",
    "final_x": "3682539.48015",
    "final_y": "534188.221765",
    "longitude": "-90.0646947388382",
    "latitude": "29.962800779804972",
    "geocoded_column": {
      "latitude": "29.962800779804972",
      "longitude": "-90.0646947388382"
    }
  },
  {
    "service_request": "2022-894235",
    "request_type": "Roads/Drainage",
    "request_reason": "Debris in Roadway",
    "date_created": "2022-06-23T15:36:55.000",
    "date_modified": "2022-06-23T15:36:56.000",
    "request_status": "Pending",
    "responsible_agency": "Department of Public Works",
    "final_address": "PRENTISS AVE & SIERRA MADRE DR",
    "address_councildis": "E",
    "status": "Pending",
    "rowid": "894235",
    "final_x": "3713934.4",
    "final_y": "556049.98",
    "longitude": "-89.96473013598093",
    "latitude": "30.02191915407418",
    "geocoded_column": {
      "latitude": "30.02191915407418",
      "longitude": "-89.96473013598093"
    }
  },
  {
    "service_request": "2022-894234",
    "request_type": "Mayor's Request",
    "request_reason": "Requests to the Mayor",
    "date_created": "2022-06-23T15:36:42.000",
    "date_modified": "2022-06-23T15:36:43.000",
    "request_status": "Pending",
    "responsible_agency": "Executive Office of the Mayor",
    "final_address": "118 City Park Ave",
    "address_councildis": "A",
    "status": "Pending",
    "rowid": "894234",
    "final_x": "3667651.43245",
    "final_y": "540854.232907",
    "longitude": "-90.1114849682831",
    "latitude": "29.98157492613766",
    "geocoded_column": {
      "latitude": "29.98157492613766",
      "longitude": "-90.1114849682831"
    }
  },
  {
    "service_request": "2022-894233",
    "request_type": "Trash/Recycling",
    "request_reason": "Dead Animal Pick Up",
    "date_created": "2022-06-23T15:35:57.000",
    "date_modified": "2022-06-23T15:37:22.000",
    "case_close_date": "2022-06-23T10:37:22.000",
    "request_status": "Closed",
    "responsible_agency": "Department of Sanitation",
    "final_address": "406 40Th St",
    "address_councildis": "A",
    "status": "Invalid Request",
    "contractor": "Metro Disposal",
    "rowid": "894233",
    "final_x": "3664962.3977",
    "final_y": "553311.989975",
    "longitude": "-90.11956142513752",
    "latitude": "30.015908055716455",
    "geocoded_column": {
      "latitude": "30.015908055716455",
      "longitude": "-90.11956142513752"
    }
  },
  {
    "service_request": "2022-894232",
    "request_type": "Trash/Recycling",
    "request_reason": "MIssed Recycling Pick-Up",
    "date_created": "2022-06-23T15:32:50.000",
    "date_modified": "2022-06-23T15:32:51.000",
    "request_status": "Pending",
    "responsible_agency": "Department of Sanitation",
    "final_address": "1217 Caffin Ave",
    "address_councildis": "E",
    "status": "Assigned to Contractor",
    "contractor": "Metro Disposal",
    "rowid": "894232",
    "final_x": "3698245.84637",
    "final_y": "534237.805829",
    "longitude": "-90.01509454916796",
    "latitude": "29.96244961718677",
    "geocoded_column": {
      "latitude": "29.96244961718677",
      "longitude": "-90.01509454916796"
    }
  },
  {
    "service_request": "2022-894231",
    "request_type": "Parks & Parkways",
    "request_reason": "Request Grass Cutting Service (City Owned Property)",
    "date_created": "2022-06-23T15:30:46.000",
    "date_modified": "2022-06-23T15:30:46.000",
    "request_status": "Pending",
    "responsible_agency": "Department of Parks & Parkway",
    "final_address": "12345 N Interstate 10 Service Rd",
    "address_councildis": "E",
    "status": "Pending",
    "rowid": "894231",
    "final_x": "3716593.31205",
    "final_y": "566491.532899",
    "longitude": "-89.95593215830806",
    "latitude": "30.050541620166843",
    "geocoded_column": {
      "latitude": "30.050541620166843",
      "longitude": "-89.95593215830806"
    }
  },
  {
    "service_request": "2022-894229",
    "request_type": "Trash/Recycling",
    "request_reason": "Request a Large Item Pick Up",
    "date_created": "2022-06-23T15:27:05.000",
    "date_modified": "2022-06-23T15:27:06.000",
    "request_status": "Pending",
    "responsible_agency": "Department of Sanitation",
    "final_address": "235 S Olympia St",
    "address_councildis": "A",
    "status": "Assigned to Contractor",
    "contractor": "Richards Disposal",
    "rowid": "894229",
    "final_x": "3668909.87111",
    "final_y": "539103.661386",
    "longitude": "-90.10756936906948",
    "latitude": "29.97672448807579",
    "geocoded_column": {
      "latitude": "29.97672448807579",
      "longitude": "-90.10756936906948"
    }
  },
  {
    "service_request": "2022-894230",
    "request_type": "Traffic Signals/Signs/Striping/Streetlights",
    "request_reason": "Street Light Outage/Malfunction",
    "date_created": "2022-06-23T15:27:05.000",
    "date_modified": "2022-06-23T15:27:07.000",
    "request_status": "Pending",
    "responsible_agency": "Department of Public Works",
    "final_address": "12345 N Interstate 10 Service Rd",
    "address_councildis": "E",
    "status": "Pending",
    "contractor": "Royal Engineering",
    "rowid": "894230",
    "final_x": "3716593.31205",
    "final_y": "566491.532899",
    "longitude": "-89.95593215830806",
    "latitude": "30.050541620166843",
    "geocoded_column": {
      "latitude": "30.050541620166843",
      "longitude": "-89.95593215830806"
    }
  },
  {
    "service_request": "2022-894228",
    "request_type": "Trash/Recycling",
    "request_reason": "MIssed Recycling Pick-Up",
    "date_created": "2022-06-23T15:26:24.000",
    "date_modified": "2022-06-23T15:26:52.000",
    "request_status": "Pending",
    "responsible_agency": "Department of Sanitation",
    "final_address": "4600 S Tonti St",
    "address_councildis": "B",
    "status": "Assigned to Contractor",
    "contractor": "Richards Disposal",
    "rowid": "894228",
    "final_x": "3669348.64372",
    "final_y": "527989.227199",
    "longitude": "-90.1065594070908",
    "latitude": "29.946150563692175",
    "geocoded_column": {
      "latitude": "29.946150563692175",
      "longitude": "-90.1065594070908"
    }
  },
  {
    "service_request": "2022-894227",
    "request_type": "Trash/Recycling",
    "request_reason": "Dead Animal Pick Up",
    "date_created": "2022-06-23T15:25:53.000",
    "date_modified": "2022-06-23T15:34:54.000",
    "case_close_date": "2022-06-23T10:34:54.000",
    "request_status": "Closed",
    "responsible_agency": "Department of Sanitation",
    "final_address": "1030 Burgundy St",
    "address_councildis": "C",
    "status": "Invalid Request",
    "contractor": "Empire Services",
    "rowid": "894227",
    "final_x": "3682539.48015",
    "final_y": "534188.221765",
    "longitude": "-90.0646947388382",
    "latitude": "29.962800779804972",
    "geocoded_column": {
      "latitude": "29.962800779804972",
      "longitude": "-90.0646947388382"
    }
  },
  {
    "service_request": "2022-894226",
    "request_type": "Trash/Recycling",
    "request_reason": "MIssed Recycling Pick-Up",
    "date_created": "2022-06-23T15:19:45.000",
    "date_modified": "2022-06-23T15:19:45.000",
    "request_status": "Pending",
    "responsible_agency": "Department of Sanitation",
    "final_address": "4432 St Charles Ave",
    "address_councildis": "B",
    "status": "Assigned to Contractor",
    "contractor": "Richards Disposal",
    "rowid": "894226",
    "final_x": "3670552.09966",
    "final_y": "520707.283321",
    "longitude": "-90.10300654114516",
    "latitude": "29.926092085341498",
    "geocoded_column": {
      "latitude": "29.926092085341498",
      "longitude": "-90.10300654114516"
    }
  },
  {
    "service_request": "2022-894225",
    "request_type": "Roads/Drainage",
    "request_reason": "Pothole",
    "date_created": "2022-06-23T15:18:07.000",
    "date_modified": "2022-06-23T15:18:07.000",
    "request_status": "Pending",
    "responsible_agency": "Department of Public Works",
    "final_address": "1803 S Carrollton Ave",
    "address_councildis": "A",
    "status": "Pending",
    "rowid": "894225",
    "final_x": "3663534.3824",
    "final_y": "529846.002753",
    "longitude": "-90.12485528723494",
    "latitude": "29.951425983352085",
    "geocoded_column": {
      "latitude": "29.951425983352085",
      "longitude": "-90.12485528723494"
    }
  },
  {
    "service_request": "2022-894224",
    "request_type": "Trash/Recycling",
    "request_reason": "Missed Trash Pick-Up",
    "date_created": "2022-06-23T15:17:29.000",
    "date_modified": "2022-06-23T15:17:30.000",
    "request_status": "Pending",
    "responsible_agency": "Department of Sanitation",
    "final_address": "7 Cypress Grove Ct",
    "address_councildis": "C",
    "status": "Assigned to Contractor",
    "contractor": "Richards Disposal",
    "rowid": "894224",
    "final_x": "3704775.66308",
    "final_y": "512220.755441",
    "longitude": "-89.99528635701827",
    "latitude": "29.901702267897317",
    "geocoded_column": {
      "latitude": "29.901702267897317",
      "longitude": "-89.99528635701827"
    }
  },
  {
    "service_request": "2022-894223",
    "request_type": "Roads/Drainage",
    "request_reason": "Street Subsidence (Sinking)",
    "date_created": "2022-06-23T15:17:15.000",
    "date_modified": "2022-06-23T15:17:15.000",
    "request_status": "Pending",
    "responsible_agency": "Department of Public Works",
    "final_address": "1838 S Carrollton Ave",
    "address_councildis": "A",
    "status": "Pending",
    "rowid": "894223",
    "final_x": "3663562.15098",
    "final_y": "530166.351553",
    "longitude": "-90.12475693835293",
    "latitude": "29.952306033759722",
    "geocoded_column": {
      "latitude": "29.952306033759722",
      "longitude": "-90.12475693835293"
    }
  },
  {
    "service_request": "2022-894222",
    "request_type": "Trash/Recycling",
    "request_reason": "Missed Trash Pick-Up",
    "date_created": "2022-06-23T15:15:27.000",
    "date_modified": "2022-06-23T15:15:28.000",
    "request_status": "Pending",
    "responsible_agency": "Department of Sanitation",
    "final_address": "6310 Essex Ct",
    "address_councildis": "C",
    "status": "Assigned to Contractor",
    "contractor": "Richards Disposal",
    "rowid": "894222",
    "final_x": "3707205.5635",
    "final_y": "517589.956918",
    "longitude": "-89.98741877208532",
    "latitude": "29.916387477460464",
    "geocoded_column": {
      "latitude": "29.916387477460464",
      "longitude": "-89.98741877208532"
    }
  },
  {
    "service_request": "2022-894221",
    "request_type": "Trash/Recycling",
    "request_reason": "Replace Trash Cart",
    "date_created": "2022-06-23T15:14:33.000",
    "date_modified": "2022-06-23T15:14:34.000",
    "request_status": "Pending",
    "responsible_agency": "Department of Sanitation",
    "final_address": "6310 Essex Ct",
    "address_councildis": "C",
    "status": "Assigned to Contractor",
    "contractor": "Richards Disposal",
    "rowid": "894221",
    "final_x": "3707205.5635",
    "final_y": "517589.956918",
    "longitude": "-89.98741877208532",
    "latitude": "29.916387477460464",
    "geocoded_column": {
      "latitude": "29.916387477460464",
      "longitude": "-89.98741877208532"
    }
  },
  {
    "service_request": "2022-894220",
    "request_type": "Abandoned Vehicles",
    "request_reason": "Abandoned/Junk Vehicles",
    "date_created": "2022-06-23T15:10:51.000",
    "date_modified": "2022-06-23T15:10:51.000",
    "request_status": "Pending",
    "responsible_agency": "Department of Public Works",
    "final_address": "7700 Hayne Blvd",
    "address_councildis": "E",
    "status": "Pending",
    "rowid": "894220",
    "final_x": "3700686.36477",
    "final_y": "562111.450847",
    "longitude": "-90.00636844173287",
    "latitude": "30.039014290448694",
    "geocoded_column": {
      "latitude": "30.039014290448694",
      "longitude": "-90.00636844173287"
    }
  },
  {
    "service_request": "2022-894219",
    "request_type": "Trash/Recycling",
    "request_reason": "Missed Trash Pick-Up",
    "date_created": "2022-06-23T15:10:17.000",
    "date_modified": "2022-06-23T15:10:18.000",
    "request_status": "Pending",
    "responsible_agency": "Department of Sanitation",
    "final_address": "7540 W Sandy Cove Dr",
    "address_councildis": "E",
    "status": "Assigned to Contractor",
    "contractor": "Metro Disposal",
    "rowid": "894219",
    "final_x": "3715577.62066",
    "final_y": "569246.017062",
    "longitude": "-89.95903794945343",
    "latitude": "30.058148852151746",
    "geocoded_column": {
      "latitude": "30.058148852151746",
      "longitude": "-89.95903794945343"
    }
  },
  {
    "service_request": "2022-894218",
    "request_type": "Traffic Signals/Signs/Striping/Streetlights",
    "request_reason": "Street Light Outage/Malfunction",
    "date_created": "2022-06-23T15:09:27.000",
    "date_modified": "2022-06-23T15:09:28.000",
    "request_status": "Pending",
    "responsible_agency": "Department of Public Works",
    "final_address": "2316 Bienville Ave",
    "address_councildis": "B",
    "status": "Pending",
    "contractor": "Royal Engineering",
    "rowid": "894218",
    "final_x": "3677011.04731",
    "final_y": "534742.641222",
    "longitude": "-90.08213371081236",
    "latitude": "29.96449239171347",
    "geocoded_column": {
      "latitude": "29.96449239171347",
      "longitude": "-90.08213371081236"
    }
  },
  {
    "service_request": "2022-894216",
    "request_type": "Roads/Drainage",
    "request_reason": "Debris in Roadway",
    "date_created": "2022-06-23T15:06:48.000",
    "date_modified": "2022-06-23T15:06:49.000",
    "request_status": "Pending",
    "responsible_agency": "Department of Public Works",
    "final_address": "PRYTANIA ST & OCTAVIA ST",
    "address_councildis": "A",
    "status": "Pending",
    "rowid": "894216",
    "final_x": "3666777.6",
    "final_y": "520386.58",
    "longitude": "-90.11493235014713",
    "latitude": "29.925321151958908",
    "geocoded_column": {
      "latitude": "29.925321151958908",
      "longitude": "-90.11493235014713"
    }
  },
  {
    "service_request": "2022-894215",
    "request_type": "Traffic Signals/Signs/Striping/Streetlights",
    "request_reason": "Street Light Outage/Malfunction",
    "date_created": "2022-06-23T15:01:43.000",
    "date_modified": "2022-06-23T15:01:44.000",
    "request_status": "Pending",
    "responsible_agency": "Department of Public Works",
    "final_address": "4618 Croftway Ct",
    "address_councildis": "D",
    "status": "Pending",
    "contractor": "Royal Engineering",
    "rowid": "894215",
    "final_x": "3676558.96142",
    "final_y": "549142.873235",
    "longitude": "-90.08306517233422",
    "latitude": "30.00410160738476",
    "geocoded_column": {
      "latitude": "30.00410160738476",
      "longitude": "-90.08306517233422"
    }
  },
  {
    "service_request": "2022-894214",
    "request_type": "Abandoned Vehicles",
    "request_reason": "Abandoned/Junk Vehicles",
    "date_created": "2022-06-23T14:58:58.000",
    "date_modified": "2022-06-23T14:58:58.000",
    "request_status": "Pending",
    "responsible_agency": "Department of Public Works",
    "final_address": "616 Clouet St",
    "address_councildis": "C",
    "status": "Pending",
    "rowid": "894214",
    "final_x": "3688543.03151",
    "final_y": "534304.420741",
    "longitude": "-90.04573222847941",
    "latitude": "29.96293615270086",
    "geocoded_column": {
      "latitude": "29.96293615270086",
      "longitude": "-90.04573222847941"
    }
  },
  {
    "service_request": "2022-894212",
    "request_type": "Trash/Recycling",
    "request_reason": "Replace Trash Cart",
    "date_created": "2022-06-23T14:56:56.000",
    "date_modified": "2022-06-23T14:56:57.000",
    "request_status": "Pending",
    "responsible_agency": "Department of Sanitation",
    "final_address": "1707 Valmont St",
    "address_councildis": "B",
    "status": "Assigned to Contractor",
    "contractor": "Richards Disposal",
    "rowid": "894212",
    "final_x": "3667983.30189",
    "final_y": "521890.47609",
    "longitude": "-90.11107567647309",
    "latitude": "29.92942108131164",
    "geocoded_column": {
      "latitude": "29.92942108131164",
      "longitude": "-90.11107567647309"
    }
  },
  {
    "service_request": "2022-894211",
    "request_type": "Trash/Recycling",
    "request_reason": "Repair Recycling Cart",
    "date_created": "2022-06-23T14:56:09.000",
    "date_modified": "2022-06-23T14:56:10.000",
    "request_status": "Pending",
    "responsible_agency": "Department of Sanitation",
    "final_address": "1707 Valmont St",
    "address_councildis": "B",
    "status": "Pending",
    "rowid": "894211",
    "final_x": "3667983.30189",
    "final_y": "521890.47609",
    "longitude": "-90.11107567647309",
    "latitude": "29.92942108131164",
    "geocoded_column": {
      "latitude": "29.92942108131164",
      "longitude": "-90.11107567647309"
    }
  },
  {
    "service_request": "2022-894210",
    "request_type": "Property Maintenance",
    "request_reason": "Property Maintenance",
    "date_created": "2022-06-23T14:54:54.000",
    "date_modified": "2022-06-23T14:54:54.000",
    "request_status": "Pending",
    "responsible_agency": "Department of Code Enforcement",
    "final_address": "3515 Danneel St",
    "address_councildis": "B",
    "status": "Pending",
    "rowid": "894210",
    "final_x": "3673122.57902",
    "final_y": "522696.471034",
    "longitude": "-90.09482439773251",
    "latitude": "29.931485569087414",
    "geocoded_column": {
      "latitude": "29.931485569087414",
      "longitude": "-90.09482439773251"
    }
  },
  {
    "service_request": "2022-894209",
    "request_type": "Traffic Signals/Signs/Striping/Streetlights",
    "request_reason": "Request for Traffic Calming due to Speeding",
    "date_created": "2022-06-23T14:53:35.000",
    "date_modified": "2022-06-23T14:53:35.000",
    "request_status": "Pending",
    "responsible_agency": "Department of Public Works",
    "final_address": "7500 BLK Garfield St",
    "address_councildis": "A",
    "status": "Pending",
    "rowid": "894209",
    "final_x": "3660877.37276",
    "final_y": "524262.015896",
    "longitude": "-90.13342950464681",
    "latitude": "29.936148579745737",
    "geocoded_column": {
      "latitude": "29.936148579745737",
      "longitude": "-90.13342950464681"
    }
  },
  {
    "service_request": "2022-894208",
    "request_type": "Property Maintenance",
    "request_reason": "Property Maintenance",
    "date_created": "2022-06-23T14:53:27.000",
    "date_modified": "2022-06-23T14:53:27.000",
    "request_status": "Pending",
    "responsible_agency": "Department of Code Enforcement",
    "final_address": "3513 Danneel St",
    "address_councildis": "B",
    "status": "Pending",
    "rowid": "894208",
    "final_x": "3673136.57595",
    "final_y": "522706.53529",
    "longitude": "-90.09477986759434",
    "latitude": "29.93151282653541",
    "geocoded_column": {
      "latitude": "29.93151282653541",
      "longitude": "-90.09477986759434"
    }
  },
  {
    "service_request": "2022-894207",
    "request_type": "Trash/Recycling",
    "request_reason": "Replace Trash Cart",
    "date_created": "2022-06-23T14:52:35.000",
    "date_modified": "2022-06-23T14:52:36.000",
    "request_status": "Pending",
    "responsible_agency": "Department of Sanitation",
    "final_address": "1233 Poland Ave Apt 2A",
    "address_councildis": "D",
    "status": "Assigned to Contractor",
    "contractor": "Metro Disposal",
    "rowid": "894207",
    "final_x": "3693303.70729",
    "final_y": "535618.307142",
    "longitude": "-90.03065150306053",
    "latitude": "29.966400921112015",
    "geocoded_column": {
      "latitude": "29.966400921112015",
      "longitude": "-90.03065150306053"
    }
  },
  {
    "service_request": "2022-894206",
    "request_type": "Trash/Recycling",
    "request_reason": "Missed Trash Pick-Up",
    "date_created": "2022-06-23T14:48:51.000",
    "date_modified": "2022-06-23T14:48:52.000",
    "request_status": "Pending",
    "responsible_agency": "Department of Sanitation",
    "final_address": "1233 Poland Ave Apt 2A",
    "address_councildis": "D",
    "status": "Assigned to Contractor",
    "contractor": "Metro Disposal",
    "rowid": "894206",
    "final_x": "3693303.70729",
    "final_y": "535618.307142",
    "longitude": "-90.03065150306053",
    "latitude": "29.966400921112015",
    "geocoded_column": {
      "latitude": "29.966400921112015",
      "longitude": "-90.03065150306053"
    }
  },
  {
    "service_request": "2022-894205",
    "request_type": "Abandoned Vehicles",
    "request_reason": "Abandoned/Junk Vehicles",
    "date_created": "2022-06-23T14:41:28.000",
    "date_modified": "2022-06-23T14:41:28.000",
    "request_status": "Pending",
    "responsible_agency": "Department of Public Works",
    "final_address": "4725 Crowder Blvd",
    "address_councildis": "E",
    "status": "Pending",
    "rowid": "894205",
    "final_x": "3706558.65041",
    "final_y": "555623.069017",
    "longitude": "-89.98805124686034",
    "latitude": "30.02098548502369",
    "geocoded_column": {
      "latitude": "30.02098548502369",
      "longitude": "-89.98805124686034"
    }
  },
  {
    "service_request": "2022-894204",
    "request_type": "Property Maintenance",
    "request_reason": "Property Maintenance",
    "date_created": "2022-06-23T14:40:04.000",
    "date_modified": "2022-06-23T14:40:04.000",
    "request_status": "Pending",
    "responsible_agency": "Department of Code Enforcement",
    "final_address": "5167 Desire Dr",
    "address_councildis": "D",
    "status": "Pending",
    "rowid": "894204",
    "final_x": "3691471.45827",
    "final_y": "553034.043671",
    "longitude": "-90.03581490709004",
    "latitude": "30.01434505003376",
    "geocoded_column": {
      "latitude": "30.01434505003376",
      "longitude": "-90.03581490709004"
    }
  },
  {
    "service_request": "2022-894203",
    "request_type": "Trash/Recycling",
    "request_reason": "Replace Recycling Cart",
    "date_created": "2022-06-23T14:36:07.000",
    "date_modified": "2022-06-23T14:36:07.000",
    "request_status": "Pending",
    "responsible_agency": "Department of Sanitation",
    "final_address": "LOMBARD ST & DEMONTLUZIN ST",
    "address_councildis": "D",
    "status": "Pending",
    "rowid": "894203",
    "final_x": "3687217.5",
    "final_y": "549684.08",
    "longitude": "-90.04937386880458",
    "latitude": "30.005265641780117",
    "geocoded_column": {
      "latitude": "30.005265641780117",
      "longitude": "-90.04937386880458"
    }
  },
  {
    "service_request": "2022-894202",
    "request_type": "Roads/Drainage",
    "request_reason": "Street Subsidence (Sinking)",
    "date_created": "2022-06-23T14:35:26.000",
    "date_modified": "2022-06-23T14:35:26.000",
    "request_status": "Pending",
    "responsible_agency": "Department of Public Works",
    "final_address": "1838 S Carrollton Ave",
    "address_councildis": "A",
    "status": "Pending",
    "rowid": "894202",
    "final_x": "3663562.15098",
    "final_y": "530166.351553",
    "longitude": "-90.12475693835293",
    "latitude": "29.952306033759722",
    "geocoded_column": {
      "latitude": "29.952306033759722",
      "longitude": "-90.12475693835293"
    }
  },
  {
    "service_request": "2022-894201",
    "request_type": "Roads/Drainage",
    "request_reason": "Pothole",
    "date_created": "2022-06-23T14:34:22.000",
    "date_modified": "2022-06-23T14:34:22.000",
    "request_status": "Pending",
    "responsible_agency": "Department of Public Works",
    "final_address": "1803 S Carrollton Ave",
    "address_councildis": "A",
    "status": "Pending",
    "rowid": "894201",
    "final_x": "3663534.3824",
    "final_y": "529846.002753",
    "longitude": "-90.12485528723494",
    "latitude": "29.951425983352085",
    "geocoded_column": {
      "latitude": "29.951425983352085",
      "longitude": "-90.12485528723494"
    }
  },
  {
    "service_request": "2022-894199",
    "request_type": "Parks & Parkways",
    "request_reason": "Request Tree Service (Right of Way/Public Property)",
    "date_created": "2022-06-23T14:26:13.000",
    "date_modified": "2022-06-23T15:26:49.000",
    "case_close_date": "2022-06-23T10:26:49.000",
    "request_status": "Closed",
    "responsible_agency": "Department of Parks & Parkway",
    "final_address": "8736 Chef Menteur Hwy, New Orleans, Louisiana, 70127",
    "address_councildis": "E",
    "status": "Resolved",
    "rowid": "894199",
    "final_x": "3707978.4204",
    "final_y": "553322.313687",
    "longitude": "-89.98365085069396",
    "latitude": "30.014613389690897",
    "geocoded_column": {
      "latitude": "30.014613389690897",
      "longitude": "-89.98365085069396"
    }
  },
  {
    "service_request": "2022-894198",
    "request_type": "Trash/Recycling",
    "request_reason": "MIssed Recycling Pick-Up",
    "date_created": "2022-06-23T14:22:29.000",
    "date_modified": "2022-06-23T14:22:29.000",
    "request_status": "Pending",
    "responsible_agency": "Department of Sanitation",
    "final_address": "4223 DHemecourt St",
    "address_councildis": "A",
    "status": "Assigned to Contractor",
    "contractor": "Richards Disposal",
    "rowid": "894198",
    "final_x": "3669275.36622",
    "final_y": "537345.936072",
    "longitude": "-90.10647445787552",
    "latitude": "29.971880578776602",
    "geocoded_column": {
      "latitude": "29.971880578776602",
      "longitude": "-90.10647445787552"
    }
  },
  {
    "service_request": "2022-894197",
    "request_type": "Trash/Recycling",
    "request_reason": "MIssed Recycling Pick-Up",
    "date_created": "2022-06-23T14:20:41.000",
    "date_modified": "2022-06-23T14:20:42.000",
    "request_status": "Pending",
    "responsible_agency": "Department of Sanitation",
    "final_address": "306 S Clark St",
    "address_councildis": "B",
    "status": "Assigned to Contractor",
    "contractor": "Richards Disposal",
    "rowid": "894197",
    "final_x": "3672364.3931",
    "final_y": "536276.611527",
    "longitude": "-90.09675524680925",
    "latitude": "29.968848992027976",
    "geocoded_column": {
      "latitude": "29.968848992027976",
      "longitude": "-90.09675524680925"
    }
  },
  {
    "service_request": "2022-894196",
    "request_type": "Traffic Signals/Signs/Striping/Streetlights",
    "request_reason": "Street Light Outage/Malfunction",
    "date_created": "2022-06-23T14:20:30.000",
    "date_modified": "2022-06-23T14:20:31.000",
    "request_status": "Pending",
    "responsible_agency": "Department of Public Works",
    "final_address": "MANDEVILLE ST & GENTILLY BLVD",
    "address_councildis": "D",
    "status": "Pending",
    "contractor": "Royal Engineering",
    "rowid": "894196",
    "final_x": "3684873.32",
    "final_y": "548325.19",
    "longitude": "-90.05682745153017",
    "latitude": "30.0016012030017",
    "geocoded_column": {
      "latitude": "30.0016012030017",
      "longitude": "-90.05682745153017"
    }
  },
  {
    "service_request": "2022-894195",
    "request_type": "Roads/Drainage",
    "request_reason": "Damaged Sidewalk",
    "date_created": "2022-06-23T14:11:10.000",
    "date_modified": "2022-06-23T14:11:10.000",
    "request_status": "Pending",
    "responsible_agency": "Department of Public Works",
    "final_address": "507 Frenchmen St",
    "address_councildis": "C",
    "status": "Pending",
    "rowid": "894195",
    "final_x": "3684782.23119",
    "final_y": "534235.890245",
    "longitude": "-90.05761075633102",
    "latitude": "29.962863384239242",
    "geocoded_column": {
      "latitude": "29.962863384239242",
      "longitude": "-90.05761075633102"
    }
  },
  {
    "service_request": "2022-894194",
    "request_type": "Trash/Recycling",
    "request_reason": "Request a Large Item Pick Up",
    "date_created": "2022-06-23T14:05:07.000",
    "date_modified": "2022-06-23T14:05:07.000",
    "request_status": "Pending",
    "responsible_agency": "Department of Sanitation",
    "final_address": "4114 St Charles Ave",
    "address_councildis": "B",
    "status": "Assigned to Contractor",
    "contractor": "Richards Disposal",
    "rowid": "894194",
    "final_x": "3671821.14977",
    "final_y": "520826.746297",
    "longitude": "-90.09899644699132",
    "latitude": "29.92638304160928",
    "geocoded_column": {
      "latitude": "29.92638304160928",
      "longitude": "-90.09899644699132"
    }
  },
  {
    "service_request": "2022-894193",
    "request_type": "Property Maintenance",
    "request_reason": "Property Maintenance",
    "date_created": "2022-06-23T13:59:02.000",
    "date_modified": "2022-06-23T13:59:02.000",
    "request_status": "Pending",
    "responsible_agency": "Department of Code Enforcement",
    "final_address": "400 N Galvez St",
    "address_councildis": "B",
    "status": "Pending",
    "rowid": "894193",
    "final_x": "3677786.69314",
    "final_y": "534821.61991",
    "longitude": "-90.07968154996631",
    "latitude": "29.964686244815574",
    "geocoded_column": {
      "latitude": "29.964686244815574",
      "longitude": "-90.07968154996631"
    }
  },
  {
    "service_request": "2022-894192",
    "request_type": "Roads/Drainage",
    "request_reason": "Accessibility Ramps, Curbs and Sidewalk Repair",
    "date_created": "2022-06-23T13:58:56.000",
    "date_modified": "2022-06-23T13:58:56.000",
    "request_status": "Pending",
    "responsible_agency": "Department of Public Works",
    "final_address": "801 Canal St",
    "address_councildis": "C",
    "status": "Pending",
    "rowid": "894192",
    "final_x": "3680951.89391",
    "final_y": "530998.395906",
    "longitude": "-90.0698192041145",
    "latitude": "29.954078078458494",
    "geocoded_column": {
      "latitude": "29.954078078458494",
      "longitude": "-90.0698192041145"
    }
  },
  {
    "service_request": "2022-894191",
    "request_type": "Trash/Recycling",
    "request_reason": "Repair Trash Cart",
    "date_created": "2022-06-23T13:50:10.000",
    "date_modified": "2022-06-23T13:50:10.000",
    "request_status": "Pending",
    "responsible_agency": "Department of Sanitation",
    "final_address": "6301 Bertha Dr",
    "address_councildis": "D",
    "status": "Assigned to Contractor",
    "contractor": "Metro Disposal",
    "rowid": "894191",
    "final_x": "3678498.4523",
    "final_y": "556262.941402",
    "longitude": "-90.07669128633881",
    "latitude": "30.02362089703048",
    "geocoded_column": {
      "latitude": "30.02362089703048",
      "longitude": "-90.07669128633881"
    }
  },
  {
    "service_request": "2022-894190",
    "request_type": "Trash/Recycling",
    "request_reason": "Order Trash Cart",
    "date_created": "2022-06-23T13:50:06.000",
    "date_modified": "2022-06-23T13:50:07.000",
    "request_status": "Pending",
    "responsible_agency": "Department of Sanitation",
    "final_address": "1322 Prytania St",
    "address_councildis": "B",
    "status": "Assigned to Contractor",
    "contractor": "Richards Disposal",
    "rowid": "894190",
    "final_x": "3679908.57199",
    "final_y": "525582.781629",
    "longitude": "-90.0733016364487",
    "latitude": "29.939218542958017",
    "geocoded_column": {
      "latitude": "29.939218542958017",
      "longitude": "-90.0733016364487"
    }
  },
  {
    "service_request": "2022-894189",
    "request_type": "Trash/Recycling",
    "request_reason": "Missed Trash Pick-Up",
    "date_created": "2022-06-23T13:49:07.000",
    "date_modified": "2022-06-23T13:49:07.000",
    "request_status": "Pending",
    "responsible_agency": "Department of Sanitation",
    "final_address": "4351 Trieste St",
    "address_councildis": "E",
    "status": "Assigned to Contractor",
    "contractor": "Metro Disposal",
    "rowid": "894189",
    "final_x": "3760307.79529",
    "final_y": "573691.42769",
    "longitude": "-89.81746863650366",
    "latitude": "30.068820702359208",
    "geocoded_column": {
      "latitude": "30.068820702359208",
      "longitude": "-89.81746863650366"
    }
  },
  {
    "service_request": "2022-894188",
    "request_type": "Trash/Recycling",
    "request_reason": "Request a Large Item Pick Up",
    "date_created": "2022-06-23T13:48:19.000",
    "date_modified": "2022-06-23T13:48:19.000",
    "request_status": "Pending",
    "responsible_agency": "Department of Sanitation",
    "final_address": "1322 Prytania St",
    "address_councildis": "B",
    "status": "Assigned to Contractor",
    "contractor": "Richards Disposal",
    "rowid": "894188",
    "final_x": "3679908.57199",
    "final_y": "525582.781629",
    "longitude": "-90.0733016364487",
    "latitude": "29.939218542958017",
    "geocoded_column": {
      "latitude": "29.939218542958017",
      "longitude": "-90.0733016364487"
    }
  },
  {
    "service_request": "2022-894187",
    "request_type": "Trash/Recycling",
    "request_reason": "Missed Trash Pick-Up",
    "date_created": "2022-06-23T13:46:25.000",
    "date_modified": "2022-06-23T13:46:26.000",
    "request_status": "Pending",
    "responsible_agency": "Department of Sanitation",
    "final_address": "200 Brunswick Ct, New Orleans, Louisiana, 70131",
    "address_councildis": "C",
    "status": "Assigned to Contractor",
    "contractor": "Richards Disposal",
    "rowid": "894187",
    "final_x": "3706937.55959",
    "final_y": "517118.816117",
    "longitude": "-89.98828214955718",
    "latitude": "29.9151006567208",
    "geocoded_column": {
      "latitude": "29.9151006567208",
      "longitude": "-89.98828214955718"
    }
  },
  {
    "service_request": "2022-894186",
    "request_type": "Property Maintenance",
    "request_reason": "Property Maintenance",
    "date_created": "2022-06-23T13:46:07.000",
    "date_modified": "2022-06-23T13:46:07.000",
    "request_status": "Pending",
    "responsible_agency": "Department of Code Enforcement",
    "final_address": "2801 Banks St",
    "address_councildis": "B",
    "status": "Pending",
    "rowid": "894186",
    "final_x": "3674160.12059",
    "final_y": "534574.613253",
    "longitude": "-90.09114248846855",
    "latitude": "29.964115662138898",
    "geocoded_column": {
      "latitude": "29.964115662138898",
      "longitude": "-90.09114248846855"
    }
  },
  {
    "service_request": "2022-894185",
    "request_type": "Trash/Recycling",
    "request_reason": "MIssed Recycling Pick-Up",
    "date_created": "2022-06-23T13:44:23.000",
    "date_modified": "2022-06-23T13:44:24.000",
    "request_status": "Pending",
    "responsible_agency": "Department of Sanitation",
    "final_address": "1125 Race St",
    "address_councildis": "B",
    "status": "Assigned to Contractor",
    "contractor": "Richards Disposal",
    "rowid": "894185",
    "final_x": "3680013.18882",
    "final_y": "523935.104956",
    "longitude": "-90.07302856381352",
    "latitude": "29.93468481358087",
    "geocoded_column": {
      "latitude": "29.93468481358087",
      "longitude": "-90.07302856381352"
    }
  },
  {
    "service_request": "2022-894184",
    "request_type": "Property Maintenance",
    "request_reason": "Property Maintenance",
    "date_created": "2022-06-23T13:43:47.000",
    "date_modified": "2022-06-23T13:43:47.000",
    "request_status": "Pending",
    "responsible_agency": "Department of Code Enforcement",
    "final_address": "5900 Vicksburg St",
    "address_councildis": "A",
    "status": "Pending",
    "rowid": "894184",
    "final_x": "3668722.67745",
    "final_y": "546662.869137",
    "longitude": "-90.10790526063029",
    "latitude": "29.997515235745485",
    "geocoded_column": {
      "latitude": "29.997515235745485",
      "longitude": "-90.10790526063029"
    }
  },
  {
    "service_request": "2022-894183",
    "request_type": "Property Maintenance",
    "request_reason": "Property Maintenance",
    "date_created": "2022-06-23T13:43:36.000",
    "date_modified": "2022-06-23T13:43:36.000",
    "request_status": "Pending",
    "responsible_agency": "Department of Code Enforcement",
    "final_address": "301 S White St",
    "address_councildis": "B",
    "status": "Pending",
    "rowid": "894183",
    "final_x": "3674313.05544",
    "final_y": "534803.115974",
    "longitude": "-90.0906517070814",
    "latitude": "29.964739408035033",
    "geocoded_column": {
      "latitude": "29.964739408035033",
      "longitude": "-90.0906517070814"
    }
  },
  {
    "service_request": "2022-894181",
    "request_type": "Trash/Recycling",
    "request_reason": "Illegal Dumping",
    "date_created": "2022-06-23T13:40:33.000",
    "date_modified": "2022-06-23T13:40:33.000",
    "request_status": "Pending",
    "responsible_agency": "Department of Sanitation",
    "final_address": "2736 Banks St",
    "address_councildis": "B",
    "status": "Pending",
    "rowid": "894181",
    "final_x": "3674303.03464",
    "final_y": "534315.478661",
    "longitude": "-90.09070005222678",
    "latitude": "29.963398868300928",
    "geocoded_column": {
      "latitude": "29.963398868300928",
      "longitude": "-90.09070005222678"
    }
  },
  {
    "service_request": "2022-894180",
    "request_type": "Trash/Recycling",
    "request_reason": "Illegal Dumping",
    "date_created": "2022-06-23T13:38:39.000",
    "date_modified": "2022-06-23T13:38:39.000",
    "request_status": "Pending",
    "responsible_agency": "Department of Sanitation",
    "final_address": "2762 Palmyra St",
    "address_councildis": "B",
    "status": "Pending",
    "rowid": "894180",
    "final_x": "3674412.46888",
    "final_y": "534752.962566",
    "longitude": "-90.09033948380404",
    "latitude": "29.96459853812009",
    "geocoded_column": {
      "latitude": "29.96459853812009",
      "longitude": "-90.09033948380404"
    }
  },
  {
    "service_request": "2022-894179",
    "request_type": "Abandoned Vehicles",
    "request_reason": "Abandoned/Junk Vehicles",
    "date_created": "2022-06-23T13:35:40.000",
    "date_modified": "2022-06-23T13:35:40.000",
    "request_status": "Pending",
    "responsible_agency": "Department of Public Works",
    "final_address": "326 S White St",
    "address_councildis": "B",
    "status": "Pending",
    "rowid": "894179",
    "final_x": "3674299.50888",
    "final_y": "534627.380614",
    "longitude": "-90.09070050466292",
    "latitude": "29.96425659890453",
    "geocoded_column": {
      "latitude": "29.96425659890453",
      "longitude": "-90.09070050466292"
    }
  },
  {
    "service_request": "2022-894178",
    "request_type": "Trash/Recycling",
    "request_reason": "Return Recycling Cart",
    "date_created": "2022-06-23T13:35:00.000",
    "date_modified": "2022-06-23T13:35:01.000",
    "request_status": "Pending",
    "responsible_agency": "Department of Sanitation",
    "final_address": "1527 De Battista Pl",
    "address_councildis": "C",
    "status": "Pending",
    "rowid": "894178",
    "final_x": "3699714.98384",
    "final_y": "525536.219325",
    "longitude": "-90.01077241074624",
    "latitude": "29.93847676805832",
    "geocoded_column": {
      "latitude": "29.93847676805832",
      "longitude": "-90.01077241074624"
    }
  },
  {
    "service_request": "2022-894177",
    "request_type": "Trash/Recycling",
    "request_reason": "MIssed Recycling Pick-Up",
    "date_created": "2022-06-23T13:32:48.000",
    "date_modified": "2022-06-23T13:32:48.000",
    "request_status": "Pending",
    "responsible_agency": "Department of Sanitation",
    "final_address": "1021 Moss St",
    "address_councildis": "A",
    "status": "Assigned to Contractor",
    "contractor": "Richards Disposal",
    "rowid": "894177",
    "final_x": "3674816.06011",
    "final_y": "539961.676042",
    "longitude": "-90.08888632747582",
    "latitude": "29.97890868535699",
    "geocoded_column": {
      "latitude": "29.97890868535699",
      "longitude": "-90.08888632747582"
    }
  },
  {
    "service_request": "2022-894176",
    "request_type": "Property Maintenance",
    "request_reason": "Property Maintenance",
    "date_created": "2022-06-23T13:30:01.000",
    "date_modified": "2022-06-23T13:30:02.000",
    "request_status": "Pending",
    "responsible_agency": "Department of Code Enforcement",
    "final_address": "4746 De Montluzin St",
    "address_councildis": "D",
    "status": "Pending",
    "rowid": "894176",
    "final_x": "3687079.31772",
    "final_y": "550719.213525",
    "longitude": "-90.04977378279787",
    "latitude": "30.008116138439682",
    "geocoded_column": {
      "latitude": "30.008116138439682",
      "longitude": "-90.04977378279787"
    }
  },
  {
    "service_request": "2022-894175",
    "request_type": "Parks & Parkways",
    "request_reason": "Request Grass Cutting Service (City Owned Property)",
    "date_created": "2022-06-23T13:27:44.000",
    "date_modified": "2022-06-23T13:27:45.000",
    "request_status": "Pending",
    "responsible_agency": "Department of Parks & Parkway",
    "final_address": "CAMPUS BLVD & EMMETT W BASHFUL BLVD",
    "address_councildis": "D",
    "status": "Pending",
    "rowid": "894175",
    "final_x": "3688510.3",
    "final_y": "556188.58",
    "longitude": "-90.04505861214493",
    "latitude": "30.023110721374316",
    "geocoded_column": {
      "latitude": "30.023110721374316",
      "longitude": "-90.04505861214493"
    }
  },
  {
    "service_request": "2022-894174",
    "request_type": "Tax and Revenue",
    "request_reason": "Sales Tax Question",
    "date_created": "2022-06-23T13:22:51.000",
    "date_modified": "2022-06-23T13:22:51.000",
    "request_status": "Pending",
    "responsible_agency": "Bureau of Revenue",
    "status": "Pending",
    "rowid": "894174",
    "longitude": "0.0",
    "latitude": "0.0",
    "geocoded_column": {
      "latitude": "0.0",
      "longitude": "0.0"
    }
  },
  {
    "service_request": "2022-894173",
    "request_type": "Traffic Signals/Signs/Striping/Streetlights",
    "request_reason": "Street Light Knocked Down/Leaning",
    "date_created": "2022-06-23T13:18:42.000",
    "date_modified": "2022-06-23T13:18:43.000",
    "request_status": "Pending",
    "responsible_agency": "Department of Public Works",
    "final_address": "5414 St Charles Ave",
    "address_councildis": "A",
    "status": "Pending",
    "contractor": "Royal Engineering",
    "rowid": "894173",
    "final_x": "3667208.90221",
    "final_y": "521482.298617",
    "longitude": "-90.11353403892521",
    "latitude": "29.92832141368019",
    "geocoded_column": {
      "latitude": "29.92832141368019",
      "longitude": "-90.11353403892521"
    }
  },
  {
    "service_request": "2022-894172",
    "request_type": "Traffic Signals/Signs/Striping/Streetlights",
    "request_reason": "Request for Traffic Calming due to Speeding",
    "date_created": "2022-06-23T13:16:10.000",
    "date_modified": "2022-06-23T13:16:10.000",
    "request_status": "Pending",
    "responsible_agency": "Department of Public Works",
    "final_address": "1800 BLK Gallier St",
    "address_councildis": "D",
    "status": "Pending",
    "rowid": "894172",
    "final_x": "3691134.9028",
    "final_y": "538346.821388",
    "longitude": "-90.03740307737682",
    "latitude": "29.973970991316026",
    "geocoded_column": {
      "latitude": "29.973970991316026",
      "longitude": "-90.03740307737682"
    }
  },
  {
    "service_request": "2022-894171",
    "request_type": "Trash/Recycling",
    "request_reason": "Missed Trash Pick-Up",
    "date_created": "2022-06-23T13:15:46.000",
    "date_modified": "2022-06-23T13:15:46.000",
    "request_status": "Pending",
    "responsible_agency": "Department of Sanitation",
    "final_address": "1021 Moss St",
    "address_councildis": "A",
    "status": "Assigned to Contractor",
    "contractor": "Richards Disposal",
    "rowid": "894171",
    "final_x": "3674816.06011",
    "final_y": "539961.676042",
    "longitude": "-90.08888632747582",
    "latitude": "29.97890868535699",
    "geocoded_column": {
      "latitude": "29.97890868535699",
      "longitude": "-90.08888632747582"
    }
  },
  {
    "service_request": "2022-894170",
    "request_type": "Trash/Recycling",
    "request_reason": "MIssed Recycling Pick-Up",
    "date_created": "2022-06-23T13:15:17.000",
    "date_modified": "2022-06-23T13:15:18.000",
    "request_status": "Pending",
    "responsible_agency": "Department of Sanitation",
    "final_address": "5414 St Charles Ave",
    "address_councildis": "A",
    "status": "Assigned to Contractor",
    "contractor": "Richards Disposal",
    "rowid": "894170",
    "final_x": "3667208.90221",
    "final_y": "521482.298617",
    "longitude": "-90.11353403892521",
    "latitude": "29.92832141368019",
    "geocoded_column": {
      "latitude": "29.92832141368019",
      "longitude": "-90.11353403892521"
    }
  },
  {
    "service_request": "2022-894169",
    "request_type": "Trash/Recycling",
    "request_reason": "Request a Large Item Pick Up",
    "date_created": "2022-06-23T13:12:44.000",
    "date_modified": "2022-06-23T13:12:44.000",
    "request_status": "Pending",
    "responsible_agency": "Department of Sanitation",
    "final_address": "5235 E Lemans St",
    "address_councildis": "E",
    "status": "Assigned to Contractor",
    "contractor": "Metro Disposal",
    "rowid": "894169",
    "final_x": "3727121.60595",
    "final_y": "563606.245281",
    "longitude": "-89.92276867803751",
    "latitude": "30.042256092142175",
    "geocoded_column": {
      "latitude": "30.042256092142175",
      "longitude": "-89.92276867803751"
    }
  },
  {
    "service_request": "2022-894168",
    "request_type": "Trash/Recycling",
    "request_reason": "Repair Trash Cart",
    "date_created": "2022-06-23T13:12:18.000",
    "date_modified": "2022-06-23T13:12:18.000",
    "request_status": "Pending",
    "responsible_agency": "Department of Sanitation",
    "final_address": "5235 E Lemans St",
    "address_councildis": "E",
    "status": "Assigned to Contractor",
    "contractor": "Metro Disposal",
    "rowid": "894168",
    "final_x": "3727121.60595",
    "final_y": "563606.245281",
    "longitude": "-89.92276867803751",
    "latitude": "30.042256092142175",
    "geocoded_column": {
      "latitude": "30.042256092142175",
      "longitude": "-89.92276867803751"
    }
  },
  {
    "service_request": "2022-894167",
    "request_type": "Trash/Recycling",
    "request_reason": "Order Trash Cart",
    "date_created": "2022-06-23T13:12:00.000",
    "date_modified": "2022-06-23T13:12:02.000",
    "request_status": "Pending",
    "responsible_agency": "Department of Sanitation",
    "final_address": "5658 Woodlawn Pl",
    "address_councildis": "A",
    "status": "Assigned to Contractor",
    "contractor": "Metro Disposal",
    "rowid": "894167",
    "final_x": "3667463.81274",
    "final_y": "545186.413903",
    "longitude": "-90.11193170695877",
    "latitude": "29.993492449619477",
    "geocoded_column": {
      "latitude": "29.993492449619477",
      "longitude": "-90.11193170695877"
    }
  },
  {
    "service_request": "2022-894165",
    "request_type": "Trash/Recycling",
    "request_reason": "Replace Trash Cart",
    "date_created": "2022-06-23T13:08:24.000",
    "date_modified": "2022-06-23T13:08:25.000",
    "request_status": "Pending",
    "responsible_agency": "Department of Sanitation",
    "final_address": "3712 Toledano St",
    "address_councildis": "B",
    "status": "Assigned to Contractor",
    "contractor": "Richards Disposal",
    "rowid": "894165",
    "final_x": "3671445.28724",
    "final_y": "528893.911104",
    "longitude": "-90.09990881903737",
    "latitude": "29.948576258693812",
    "geocoded_column": {
      "latitude": "29.948576258693812",
      "longitude": "-90.09990881903737"
    }
  },
  {
    "service_request": "2022-894164",
    "request_type": "Roads/Drainage",
    "request_reason": "Ditch Issue",
    "date_created": "2022-06-23T13:01:03.000",
    "date_modified": "2022-06-23T13:01:07.000",
    "request_status": "Pending",
    "responsible_agency": "Department of Public Works",
    "final_address": "7931 Burke Ave",
    "address_councildis": "E",
    "status": "Pending",
    "rowid": "894164",
    "final_x": "3704976.90238",
    "final_y": "563885.890657",
    "longitude": "-89.99274362234398",
    "latitude": "30.043755978665164",
    "geocoded_column": {
      "latitude": "30.043755978665164",
      "longitude": "-89.99274362234398"
    }
  },
  {
    "service_request": "2022-894163",
    "request_type": "Trash/Recycling",
    "request_reason": "Illegal Dumping",
    "date_created": "2022-06-23T12:59:21.000",
    "date_modified": "2022-06-23T12:59:21.000",
    "request_status": "Pending",
    "responsible_agency": "Department of Sanitation",
    "final_address": "3012 Carondelet St",
    "address_councildis": "B",
    "status": "Pending",
    "rowid": "894163",
    "final_x": "3674942.80321",
    "final_y": "522311.876154",
    "longitude": "-90.08909134418242",
    "latitude": "29.9303738344928",
    "geocoded_column": {
      "latitude": "29.9303738344928",
      "longitude": "-90.08909134418242"
    }
  },
  {
    "service_request": "2022-894162",
    "request_type": "Trash/Recycling",
    "request_reason": "Missed Trash Pick-Up",
    "date_created": "2022-06-23T12:58:12.000",
    "date_modified": "2022-06-23T12:58:13.000",
    "request_status": "Pending",
    "responsible_agency": "Department of Sanitation",
    "final_address": "357 39Th St",
    "address_councildis": "A",
    "status": "Assigned to Contractor",
    "contractor": "Metro Disposal",
    "rowid": "894162",
    "final_x": "3665043.397",
    "final_y": "553081.038487",
    "longitude": "-90.11931323374337",
    "latitude": "30.01527066050764",
    "geocoded_column": {
      "latitude": "30.01527066050764",
      "longitude": "-90.11931323374337"
    }
  },