[
  {
    "service_request": "2024-1088129",
    "request_type": "Roads/Drainage",
    "request_reason": "Damaged Sidewalk",
    "date_created": "2024-04-25T23:23:18.000",
    "date_modified": "2024-04-25T23:23:18.000",
    "request_status": "Pending",
    "responsible_agency": "Department of Public Works",
    "final_address": "6201 Berkley Dr",
    "address_councildis": "C",
    "status": "Pending",
    "rowid": "1088129",
    "final_x": "3707025.10321",
    "final_y": "518035.768886",
    "longitude": "-89.98797185070612",
    "latitude": "29.917619132934384",
    "geocoded_column": {
      "latitude": "29.917619132934384",
      "longitude": "-89.98797185070612"
    }
  },
  {
    "service_request": "2024-1088128",
    "request_type": "Traffic Signals/Signs/Striping/Streetlights",
    "request_reason": "Street Light Outage/Malfunction",
    "date_created": "2024-04-25T22:54:33.000",
    "date_modified": "2024-04-25T22:54:34.000",
    "request_status": "Pending",
    "responsible_agency": "Department of Public Works",
    "final_address": "6933 Argonne Blvd",
    "address_councildis": "A",
    "status": "Assigned to Contractor",
    "contractor": "Legacy Professional Services",
    "rowid": "1088128",
    "final_x": "3670813.88475",
    "final_y": "553396.403479",
    "longitude": "-90.1010704292848",
    "latitude": "30.015968431267186",
    "geocoded_column": {
      "latitude": "30.015968431267186",
      "longitude": "-90.1010704292848"
    }
  },
  {
    "service_request": "2024-1088127",
    "request_type": "Trash/Recycling",
    "request_reason": "Damaged Caused By Contractor",
    "date_created": "2024-04-25T22:05:04.000",
    "date_modified": "2024-04-25T22:05:04.000",
    "request_status": "Pending",
    "responsible_agency": "Department of Sanitation",
    "final_address": "3015 Nashville Ave",
    "address_councildis": "A",
    "status": "Assigned to Contractor",
    "contractor": "IV Waste",
    "rowid": "1088127",
    "final_x": "3667779.94356",
    "final_y": "526975.54547",
    "longitude": "-90.1115464771764",
    "latitude": "29.9434093546211",
    "geocoded_column": {
      "latitude": "29.9434093546211",
      "longitude": "-90.1115464771764"
    }
  },
  {
    "service_request": "2024-1088126",
    "request_type": "Property Maintenance",
    "request_reason": "Property Maintenance",
    "date_created": "2024-04-25T22:04:51.000",
    "date_modified": "2024-04-25T22:04:51.000",
    "request_status": "Pending",
    "responsible_agency": "Department of Code Enforcement",
    "final_address": "5829 Bellaire Dr",
    "address_councildis": "A",
    "status": "Pending",
    "rowid": "1088126",
    "final_x": "3664264.89415",
    "final_y": "546600.090257",
    "longitude": "-90.12198942348327",
    "latitude": "29.997472949190055",
    "geocoded_column": {
      "latitude": "29.997472949190055",
      "longitude": "-90.12198942348327"
    }
  },
  {
    "service_request": "2024-1088125",
    "request_type": "Property Maintenance",
    "request_reason": "Property Maintenance",
    "date_created": "2024-04-25T22:02:52.000",
    "date_modified": "2024-04-25T22:02:52.000",
    "request_status": "Pending",
    "responsible_agency": "Department of Code Enforcement",
    "final_address": "5811 Bellaire Dr",
    "address_councildis": "A",
    "status": "Pending",
    "rowid": "1088125",
    "final_x": "3664258.34292",
    "final_y": "546516.597137",
    "longitude": "-90.1220129069545",
    "latitude": "29.99724356207445",
    "geocoded_column": {
      "latitude": "29.99724356207445",
      "longitude": "-90.1220129069545"
    }
  },
  {
    "service_request": "2024-1088124",
    "request_type": "Safety & Permits",
    "request_reason": "Licenses & Permits",
    "date_created": "2024-04-25T22:01:10.000",
    "date_modified": "2024-04-25T22:01:10.000",
    "request_status": "Pending",
    "responsible_agency": "Safety and Permits",
    "final_address": "324 Webster St",
    "address_councildis": "A",
    "status": "Pending",
    "rowid": "1088124",
    "final_x": "3663530.48519",
    "final_y": "517983.532214",
    "longitude": "-90.12526249443583",
    "latitude": "29.918808060301245",
    "geocoded_column": {
      "latitude": "29.918808060301245",
      "longitude": "-90.12526249443583"
    }
  },
  {
    "service_request": "2024-1088123",
    "request_type": "Trash/Recycling",
    "request_reason": "Request a Large Item Pick Up",
    "date_created": "2024-04-25T21:56:06.000",
    "date_modified": "2024-04-25T21:56:06.000",
    "request_status": "Pending",
    "responsible_agency": "Department of Sanitation",
    "final_address": "3015 Nashville Ave",
    "address_councildis": "A",
    "status": "Assigned to Contractor",
    "contractor": "IV Waste",
    "rowid": "1088123",
    "final_x": "3667779.94356",
    "final_y": "526975.54547",
    "longitude": "-90.1115464771764",
    "latitude": "29.9434093546211",
    "geocoded_column": {
      "latitude": "29.9434093546211",
      "longitude": "-90.1115464771764"
    }
  },
  {
    "service_request": "2024-1088122",
    "request_type": "Roads/Drainage",
    "request_reason": "Pothole",
    "date_created": "2024-04-25T21:49:11.000",
    "date_modified": "2024-04-25T21:49:11.000",
    "request_status": "Pending",
    "responsible_agency": "Department of Public Works",
    "final_address": "5924 Coliseum St",
    "address_councildis": "A",
    "status": "Pending",
    "rowid": "1088122",
    "final_x": "3665169.45293",
    "final_y": "520029.276984",
    "longitude": "-90.12002072885706",
    "latitude": "29.924385602060447",
    "geocoded_column": {
      "latitude": "29.924385602060447",
      "longitude": "-90.12002072885706"
    }
  },
  {
    "service_request": "2024-1088121",
    "request_type": "Roads/Drainage",
    "request_reason": "Pothole",
    "date_created": "2024-04-25T21:47:15.000",
    "date_modified": "2024-04-25T21:47:15.000",
    "request_status": "Pending",
    "responsible_agency": "Department of Public Works",
    "final_address": "6030 Chestnut St",
    "address_councildis": "A",
    "status": "Pending",
    "rowid": "1088121",
    "final_x": "3664661.37773",
    "final_y": "519852.51884",
    "longitude": "-90.1216304547064",
    "latitude": "29.923914355909606",
    "geocoded_column": {
      "latitude": "29.923914355909606",
      "longitude": "-90.1216304547064"
    }
  },
  {
    "service_request": "2024-1088120",
    "request_type": "Trash/Recycling",
    "request_reason": "Illegal Dumping",
    "date_created": "2024-04-25T21:24:48.000",
    "date_modified": "2024-04-25T21:24:48.000",
    "request_status": "Pending",
    "responsible_agency": "Department of Sanitation",
    "final_address": "11400 Prentiss Ave",
    "address_councildis": "E",
    "status": "Pending",
    "rowid": "1088120",
    "final_x": "3717548.21708",
    "final_y": "556632.307866",
    "longitude": "-89.95328938086897",
    "latitude": "30.0234011444467",
    "geocoded_column": {
      "latitude": "30.0234011444467",
      "longitude": "-89.95328938086897"
    }
  },
  {
    "service_request": "2024-1088119",
    "request_type": "Trash/Recycling",
    "request_reason": "Illegal Dumping",
    "date_created": "2024-04-25T20:48:49.000",
    "date_modified": "2024-04-25T20:48:49.000",
    "request_status": "Pending",
    "responsible_agency": "Department of Sanitation",
    "final_address": "4910 Alsace St",
    "address_councildis": "E",
    "status": "Pending",
    "rowid": "1088119",
    "final_x": "3730445.84192",
    "final_y": "562973.046624",
    "longitude": "-89.91228779555362",
    "latitude": "30.040402121247237",
    "geocoded_column": {
      "latitude": "30.040402121247237",
      "longitude": "-89.91228779555362"
    }
  },
  {
    "service_request": "2024-1088118",
    "request_type": "Trash/Recycling",
    "request_reason": "Request a Large Item Pick Up",
    "date_created": "2024-04-25T20:45:14.000",
    "date_modified": "2024-04-25T20:45:14.000",
    "request_status": "Pending",
    "responsible_agency": "Department of Sanitation",
    "final_address": "536 Madison St",
    "address_councildis": "C",
    "status": "Assigned to Contractor",
    "contractor": "Empire Services",
    "rowid": "1088118",
    "final_x": "3683249.06159",
    "final_y": "532610.464324",
    "longitude": "-90.06250923296177",
    "latitude": "29.958440866133927",
    "geocoded_column": {
      "latitude": "29.958440866133927",
      "longitude": "-90.06250923296177"
    }
  },
  {
    "service_request": "2024-1088117",
    "request_type": "Trash/Recycling",
    "request_reason": "Replace Trash Cart",
    "date_created": "2024-04-25T20:43:59.000",
    "date_modified": "2024-04-25T20:44:00.000",
    "request_status": "Pending",
    "responsible_agency": "Department of Sanitation",
    "final_address": "4910 Alsace St",
    "address_councildis": "E",
    "status": "Assigned to Contractor",
    "contractor": "Waste Pro",
    "rowid": "1088117",
    "final_x": "3730445.84192",
    "final_y": "562973.046624",
    "longitude": "-89.91228779555362",
    "latitude": "30.040402121247237",
    "geocoded_column": {
      "latitude": "30.040402121247237",
      "longitude": "-89.91228779555362"
    }
  },
  {
    "service_request": "2024-1088116",
    "request_type": "Trash/Recycling",
    "request_reason": "Missed Trash Pick-Up",
    "date_created": "2024-04-25T20:42:55.000",
    "date_modified": "2024-04-25T20:42:56.000",
    "request_status": "Pending",
    "responsible_agency": "Department of Sanitation",
    "final_address": "1523 Nashville Ave, New Orleans, Louisiana, 70115",
    "address_councildis": "A",
    "status": "Assigned to Contractor",
    "contractor": "IV Waste",
    "rowid": "1088116",
    "final_x": "3666228.28653",
    "final_y": "521830.005434",
    "longitude": "-90.11661798385923",
    "latitude": "29.92930616505468",
    "geocoded_column": {
      "latitude": "29.92930616505468",
      "longitude": "-90.11661798385923"
    }
  },
  {
    "service_request": "2024-1088115",
    "request_type": "Mosquito, Termite & Rodent Control",
    "request_reason": "Mosquito Complaint",
    "date_created": "2024-04-25T20:28:03.000",
    "date_modified": "2024-04-25T20:28:03.000",
    "request_status": "Pending",
    "responsible_agency": "Mosquito, Termite & Rodent Control Board",
    "final_address": "31 Lake Breeze Dr",
    "address_councildis": "E",
    "status": "Pending",
    "rowid": "1088115",
    "final_x": "3763057.31101",
    "final_y": "571985.934632",
    "longitude": "-89.80884875986133",
    "latitude": "30.06403108396738",
    "geocoded_column": {
      "latitude": "30.06403108396738",
      "longitude": "-89.80884875986133"
    }
  },
  {
    "service_request": "2024-1088112",
    "request_type": "Trash/Recycling",
    "request_reason": "MIssed Recycling Pick-Up",
    "date_created": "2024-04-25T19:01:14.000",
    "date_modified": "2024-04-25T19:01:15.000",
    "request_status": "Pending",
    "responsible_agency": "Department of Sanitation",
    "final_address": "4000 BLK Danneel St",
    "address_councildis": "B",
    "status": "Assigned to Contractor",
    "contractor": "IV Waste",
    "rowid": "1088112",
    "final_x": "3671989.62744",
    "final_y": "522420.228897",
    "longitude": "-90.09841039670219",
    "latitude": "29.930759615467554",
    "geocoded_column": {
      "latitude": "29.930759615467554",
      "longitude": "-90.09841039670219"
    }
  },
  {
    "service_request": "2024-1088111",
    "request_type": "Safety & Permits",
    "request_reason": "Licenses & Permits",
    "date_created": "2024-04-25T18:59:13.000",
    "date_modified": "2024-04-25T18:59:13.000",
    "request_status": "Pending",
    "responsible_agency": "Safety and Permits",
    "final_address": "615 Lyons St",
    "address_councildis": "B",
    "status": "Pending",
    "rowid": "1088111",
    "final_x": "3669370.63412",
    "final_y": "517710.506614",
    "longitude": "-90.10683735448791",
    "latitude": "29.9178867275067",
    "geocoded_column": {
      "latitude": "29.9178867275067",
      "longitude": "-90.10683735448791"
    }
  },
  {
    "service_request": "2024-1088110",
    "request_type": "Roads/Drainage",
    "request_reason": "Damaged Sidewalk",
    "date_created": "2024-04-25T18:50:37.000",
    "date_modified": "2024-04-25T18:50:37.000",
    "request_status": "Pending",
    "responsible_agency": "Department of Public Works",
    "final_address": "2809 Danneel St",
    "address_councildis": "B",
    "status": "Pending",
    "rowid": "1088110",
    "final_x": "3675015.29198",
    "final_y": "523693.821819",
    "longitude": "-90.08881512517999",
    "latitude": "29.934171571325734",
    "geocoded_column": {
      "latitude": "29.934171571325734",
      "longitude": "-90.08881512517999"
    }
  },
  {
    "service_request": "2024-1088109",
    "request_type": "Trash/Recycling",
    "request_reason": "Missed Trash Pick-Up",
    "date_created": "2024-04-25T18:50:29.000",
    "date_modified": "2024-04-25T18:50:30.000",
    "request_status": "Pending",
    "responsible_agency": "Department of Sanitation",
    "final_address": "5322 Magazine St",
    "address_councildis": "B",
    "status": "Assigned to Contractor",
    "contractor": "IV Waste",
    "rowid": "1088109",
    "final_x": "3667281.83777",
    "final_y": "518586.115063",
    "longitude": "-90.11340113458039",
    "latitude": "29.920355688590877",
    "geocoded_column": {
      "latitude": "29.920355688590877",
      "longitude": "-90.11340113458039"
    }
  },
  {
    "service_request": "2024-1088108",
    "request_type": "Trash/Recycling",
    "request_reason": "Replace Trash Cart",
    "date_created": "2024-04-25T18:38:50.000",
    "date_modified": "2024-04-25T18:38:50.000",
    "request_status": "Pending",
    "responsible_agency": "Department of Sanitation",
    "final_address": "2512 Jefferson Ave",
    "address_councildis": "A",
    "status": "Assigned to Contractor",
    "contractor": "IV Waste",
    "rowid": "1088108",
    "final_x": "3668029.29818",
    "final_y": "524802.00774",
    "longitude": "-90.11083241324195",
    "latitude": "29.9374255132059",
    "geocoded_column": {
      "latitude": "29.9374255132059",
      "longitude": "-90.11083241324195"
    }
  },
  {
    "service_request": "2024-1088107",
    "request_type": "Roads/Drainage",
    "request_reason": "Pothole",
    "date_created": "2024-04-25T18:38:40.000",
    "date_modified": "2024-04-25T18:38:40.000",
    "request_status": "Pending",
    "responsible_agency": "Department of Public Works",
    "final_address": "6070 Chestnut St",
    "address_councildis": "A",
    "status": "Pending",
    "rowid": "1088107",
    "final_x": "3664412.78983",
    "final_y": "519991.592952",
    "longitude": "-90.12241052146828",
    "latitude": "29.92430399204139",
    "geocoded_column": {
      "latitude": "29.92430399204139",
      "longitude": "-90.12241052146828"
    }
  },
  {
    "service_request": "2024-1088106",
    "request_type": "Roads/Drainage",
    "request_reason": "Pothole",
    "date_created": "2024-04-25T18:38:38.000",
    "date_modified": "2024-04-25T18:38:38.000",
    "request_status": "Pending",
    "responsible_agency": "Department of Public Works",
    "final_address": "6070 Chestnut St",
    "address_councildis": "A",
    "status": "Pending",
    "rowid": "1088106",
    "final_x": "3664412.78983",
    "final_y": "519991.592952",
    "longitude": "-90.12241052146828",
    "latitude": "29.92430399204139",
    "geocoded_column": {
      "latitude": "29.92430399204139",
      "longitude": "-90.12241052146828"
    }
  },
  {
    "service_request": "2024-1088105",
    "request_type": "Trash/Recycling",
    "request_reason": "Replace Recycling Cart",
    "date_created": "2024-04-25T18:37:25.000",
    "date_modified": "2024-04-25T18:37:25.000",
    "request_status": "Pending",
    "responsible_agency": "Department of Sanitation",
    "final_address": "2512 Jefferson Ave",
    "address_councildis": "A",
    "status": "Pending",
    "rowid": "1088105",
    "final_x": "3668029.29818",
    "final_y": "524802.00774",
    "longitude": "-90.11083241324195",
    "latitude": "29.9374255132059",
    "geocoded_column": {
      "latitude": "29.9374255132059",
      "longitude": "-90.11083241324195"
    }
  },
  {
    "service_request": "2024-1088104",
    "request_type": "Trash/Recycling",
    "request_reason": "Order Recycling Cart",
    "date_created": "2024-04-25T17:42:40.000",
    "date_modified": "2024-04-25T17:42:40.000",
    "request_status": "Pending",
    "responsible_agency": "Department of Sanitation",
    "final_address": "222 Walnut St",
    "address_councildis": "A",
    "status": "Pending",
    "rowid": "1088104",
    "final_x": "3661301.00986",
    "final_y": "521243.491065",
    "longitude": "-90.13219195846244",
    "latitude": "29.927836378738213",
    "geocoded_column": {
      "latitude": "29.927836378738213",
      "longitude": "-90.13219195846244"
    }
  },
  {
    "service_request": "2024-1088103",
    "request_type": "Abandoned Vehicles",
    "request_reason": "Abandoned/Junk Vehicles",
    "date_created": "2024-04-25T17:35:47.000",
    "date_modified": "2024-04-25T17:35:47.000",
    "request_status": "Pending",
    "responsible_agency": "Department of Public Works",
    "final_address": "1930 Congress St",
    "address_councildis": "D",
    "status": "Pending",
    "rowid": "1088103",
    "final_x": "3691419.54147",
    "final_y": "538818.520521",
    "longitude": "-90.03648726735271",
    "latitude": "29.975259141673863",
    "geocoded_column": {
      "latitude": "29.975259141673863",
      "longitude": "-90.03648726735271"
    }
  },
  {
    "service_request": "2024-1088102",
    "request_type": "Trash/Recycling",
    "request_reason": "Missed Trash Pick-Up",
    "date_created": "2024-04-25T17:23:08.000",
    "date_modified": "2024-04-25T17:23:08.000",
    "request_status": "Pending",
    "responsible_agency": "Department of Sanitation",
    "final_address": "1100 BLK Short St",
    "address_councildis": "A",
    "status": "Assigned to Contractor",
    "contractor": "IV Waste",
    "rowid": "1088102",
    "final_x": "3662177.89805",
    "final_y": "527938.0384",
    "longitude": "-90.12920173232813",
    "latitude": "29.946218961470933",
    "geocoded_column": {
      "latitude": "29.946218961470933",
      "longitude": "-90.12920173232813"
    }
  },
  {
    "service_request": "2024-1088101",
    "request_type": "Trash/Recycling",
    "request_reason": "Missed Trash Pick-Up",
    "date_created": "2024-04-25T17:16:54.000",
    "date_modified": "2024-04-25T17:16:55.000",
    "request_status": "Pending",
    "responsible_agency": "Department of Sanitation",
    "final_address": "1121 Short Street ",
    "address_councildis": "A",
    "status": "Assigned to Contractor",
    "contractor": "IV Waste",
    "rowid": "1088101",
    "final_x": "3662222.74048",
    "final_y": "527929.380543",
    "longitude": "-90.12906043583017",
    "latitude": "29.94619385931158",
    "geocoded_column": {
      "latitude": "29.94619385931158",
      "longitude": "-90.12906043583017"
    }
  },
  {
    "service_request": "2024-1088100",
    "request_type": "Healthy Homes",
    "request_reason": "Healthy Homes",
    "date_created": "2024-04-25T17:02:14.000",
    "date_modified": "2024-04-25T17:02:14.000",
    "request_status": "Pending",
    "responsible_agency": "Department of Code Enforcement",
    "final_address": "221 Chartres St",
    "address_councildis": "C",
    "status": "Pending",
    "rowid": "1088100",
    "final_x": "3681803.58184",
    "final_y": "530954.319554",
    "longitude": "-90.0671314585901",
    "latitude": "29.953931032394514",
    "geocoded_column": {
      "latitude": "29.953931032394514",
      "longitude": "-90.0671314585901"
    }
  },
  {
    "service_request": "2024-1088099",
    "request_type": "Trash/Recycling",
    "request_reason": "Repair Trash Cart",
    "date_created": "2024-04-25T16:57:11.000",
    "date_modified": "2024-04-25T16:57:11.000",
    "request_status": "Pending",
    "responsible_agency": "Department of Sanitation",
    "final_address": "6337 Dover Pl",
    "address_councildis": "C",
    "status": "Assigned to Contractor",
    "contractor": "Richards Disposal",
    "rowid": "1088099",
    "final_x": "3707593.01272",
    "final_y": "519003.794295",
    "longitude": "-89.9861433690033",
    "latitude": "29.920262518845007",
    "geocoded_column": {
      "latitude": "29.920262518845007",
      "longitude": "-89.9861433690033"
    }
  },
  {
    "service_request": "2024-1088098",
    "request_type": "Trash/Recycling",
    "request_reason": "Request a Large Item Pick Up",
    "date_created": "2024-04-25T16:51:41.000",
    "date_modified": "2024-04-25T16:51:42.000",
    "request_status": "Pending",
    "responsible_agency": "Department of Sanitation",
    "final_address": "10710 Dwyer Rd",
    "address_councildis": "E",
    "status": "Assigned to Contractor",
    "contractor": "Waste Pro",
    "rowid": "1088098",
    "final_x": "3715041.3877",
    "final_y": "558231.07478",
    "longitude": "-89.96114984886911",
    "latitude": "30.027879896939474",
    "geocoded_column": {
      "latitude": "30.027879896939474",
      "longitude": "-89.96114984886911"
    }
  },
  {
    "service_request": "2024-1088097",
    "request_type": "Mosquito, Termite & Rodent Control",
    "request_reason": "Rodent Complaint (Rats)",
    "date_created": "2024-04-25T16:46:33.000",
    "date_modified": "2024-04-25T16:46:33.000",
    "request_status": "Pending",
    "responsible_agency": "Mosquito, Termite & Rodent Control Board",
    "final_address": "2441 Second St",
    "address_councildis": "B",
    "status": "Pending",
    "rowid": "1088097",
    "final_x": "3674948.16616",
    "final_y": "525755.779261",
    "longitude": "-90.08895634615924",
    "latitude": "29.939843285159206",
    "geocoded_column": {
      "latitude": "29.939843285159206",
      "longitude": "-90.08895634615924"
    }
  },
  {
    "service_request": "2024-1088096",
    "request_type": "Trash/Recycling",
    "request_reason": "Illegal Dumping",
    "date_created": "2024-04-25T16:46:03.000",
    "date_modified": "2024-04-25T16:46:03.000",
    "request_status": "Pending",
    "responsible_agency": "Department of Sanitation",
    "final_address": "2800 S Rocheblave St",
    "address_councildis": "B",
    "status": "Pending",
    "rowid": "1088096",
    "final_x": "3671658.9995",
    "final_y": "528874.000512",
    "longitude": "-90.09923471502259",
    "latitude": "29.948515183825872",
    "geocoded_column": {
      "latitude": "29.948515183825872",
      "longitude": "-90.09923471502259"
    }
  },
  {
    "service_request": "2024-1088095",
    "request_type": "Trash/Recycling",
    "request_reason": "Request a Large Item Pick Up",
    "date_created": "2024-04-25T16:39:53.000",
    "date_modified": "2024-04-25T16:39:54.000",
    "request_status": "Pending",
    "responsible_agency": "Department of Sanitation",
    "final_address": "5721 Carlisle Ct",
    "address_councildis": "C",
    "status": "Assigned to Contractor",
    "contractor": "Richards Disposal",
    "rowid": "1088095",
    "final_x": "3704719.22417",
    "final_y": "516492.455797",
    "longitude": "-89.99530705016824",
    "latitude": "29.913449796486432",
    "geocoded_column": {
      "latitude": "29.913449796486432",
      "longitude": "-89.99530705016824"
    }
  },
  {
    "service_request": "2024-1088094",
    "request_type": "Trash/Recycling",
    "request_reason": "MIssed Recycling Pick-Up",
    "date_created": "2024-04-25T16:35:03.000",
    "date_modified": "2024-04-25T16:35:04.000",
    "request_status": "Pending",
    "responsible_agency": "Department of Sanitation",
    "final_address": "6125 Hurst St",
    "address_councildis": "A",
    "status": "Assigned to Contractor",
    "contractor": "IV Waste",
    "rowid": "1088094",
    "final_x": "3664895.78183",
    "final_y": "522126.382394",
    "longitude": "-90.1208145673127",
    "latitude": "29.930159946687763",
    "geocoded_column": {
      "latitude": "29.930159946687763",
      "longitude": "-90.1208145673127"
    }
  },
  {
    "service_request": "2024-1088093",
    "request_type": "Trash/Recycling",
    "request_reason": "Replace Trash Cart",
    "date_created": "2024-04-25T16:34:43.000",
    "date_modified": "2024-04-25T16:34:43.000",
    "request_status": "Pending",
    "responsible_agency": "Department of Sanitation",
    "final_address": "0 BLK Architect St",
    "address_councildis": "C",
    "status": "Assigned to Contractor",
    "contractor": "IV Waste",
    "rowid": "1088093",
    "final_x": "3687142.46885",
    "final_y": "534686.498656",
    "longitude": "-90.05014150821198",
    "latitude": "29.964029935213947",
    "geocoded_column": {
      "latitude": "29.964029935213947",
      "longitude": "-90.05014150821198"
    }
  },
  {
    "service_request": "2024-1088092",
    "request_type": "Roads/Drainage",
    "request_reason": "Damaged Sidewalk",
    "date_created": "2024-04-25T16:31:03.000",
    "date_modified": "2024-04-25T16:31:03.000",
    "request_status": "Pending",
    "responsible_agency": "Department of Public Works",
    "final_address": "4100 BLK Chestnut St",
    "address_councildis": "B",
    "status": "Pending",
    "rowid": "1088092",
    "final_x": "3671910.52556",
    "final_y": "519614.053079",
    "longitude": "-90.09875555808374",
    "latitude": "29.923045875380655",
    "geocoded_column": {
      "latitude": "29.923045875380655",
      "longitude": "-90.09875555808374"
    }
  },
  {
    "service_request": "2024-1088091",
    "request_type": "Trash/Recycling",
    "request_reason": "Request a Large Item Pick Up",
    "date_created": "2024-04-25T16:30:28.000",
    "date_modified": "2024-04-25T16:30:29.000",
    "request_status": "Pending",
    "responsible_agency": "Department of Sanitation",
    "final_address": "117 S Scott St",
    "address_councildis": "A",
    "status": "Assigned to Contractor",
    "contractor": "IV Waste",
    "rowid": "1088091",
    "final_x": "3671604.96487",
    "final_y": "537663.590536",
    "longitude": "-90.09910639363603",
    "latitude": "29.972685230521463",
    "geocoded_column": {
      "latitude": "29.972685230521463",
      "longitude": "-90.09910639363603"
    }
  },
  {
    "service_request": "2024-1088090",
    "request_type": "Trash/Recycling",
    "request_reason": "Request a Large Item Pick Up",
    "date_created": "2024-04-25T16:16:50.000",
    "date_modified": "2024-04-25T16:16:51.000",
    "request_status": "Pending",
    "responsible_agency": "Department of Sanitation",
    "final_address": "3029 Robert St",
    "address_councildis": "B",
    "status": "Assigned to Contractor",
    "contractor": "IV Waste",
    "rowid": "1088090",
    "final_x": "3668946.29415",
    "final_y": "526588.075134",
    "longitude": "-90.10787708017402",
    "latitude": "29.94230968873758",
    "geocoded_column": {
      "latitude": "29.94230968873758",
      "longitude": "-90.10787708017402"
    }
  },
  {
    "service_request": "2024-1088089",
    "request_type": "Trash/Recycling",
    "request_reason": "Missed Trash Pick-Up",
    "date_created": "2024-04-25T16:14:41.000",
    "date_modified": "2024-04-25T16:14:50.000",
    "request_status": "Pending",
    "responsible_agency": "Department of Sanitation",
    "final_address": "4111 N Galvez St",
    "address_councildis": "D",
    "contractor": "IV Waste",
    "rowid": "1088089",
    "final_x": "3693224.85001",
    "final_y": "538989.37953",
    "longitude": "-90.03077951434965",
    "latitude": "29.97567263797276",
    "geocoded_column": {
      "latitude": "29.97567263797276",
      "longitude": "-90.03077951434965"
    }
  },
  {
    "service_request": "2024-1088088",
    "request_type": "Abandoned Vehicles",
    "request_reason": "Abandoned/Junk Vehicles",
    "date_created": "2024-04-25T16:13:17.000",
    "date_modified": "2024-04-25T16:13:17.000",
    "request_status": "Pending",
    "responsible_agency": "Department of Public Works",
    "final_address": "1814 Washington Ave",
    "address_councildis": "B",
    "status": "Pending",
    "rowid": "1088088",
    "final_x": "3675404.3931",
    "final_y": "523235.465211",
    "longitude": "-90.08760247665103",
    "latitude": "29.932899613871246",
    "geocoded_column": {
      "latitude": "29.932899613871246",
      "longitude": "-90.08760247665103"
    }
  },
  {
    "service_request": "2024-1088087",
    "request_type": "Abandoned Vehicles",
    "request_reason": "Abandoned/Junk Vehicles",
    "date_created": "2024-04-25T16:06:49.000",
    "date_modified": "2024-04-25T16:06:49.000",
    "request_status": "Pending",
    "responsible_agency": "Department of Public Works",
    "final_address": "1814 Washington Ave",
    "address_councildis": "B",
    "status": "Pending",
    "rowid": "1088087",
    "final_x": "3675404.3931",
    "final_y": "523235.465211",
    "longitude": "-90.08760247665103",
    "latitude": "29.932899613871246",
    "geocoded_column": {
      "latitude": "29.932899613871246",
      "longitude": "-90.08760247665103"
    }
  },
  {
    "service_request": "2024-1088086",
    "request_type": "Trash/Recycling",
    "request_reason": "Repair Recycling Cart",
    "date_created": "2024-04-25T16:03:41.000",
    "date_modified": "2024-04-25T16:03:42.000",
    "request_status": "Pending",
    "responsible_agency": "Department of Sanitation",
    "final_address": "2128 General Pershing St",
    "address_councildis": "B",
    "status": "Pending",
    "rowid": "1088086",
    "final_x": "3671013.24935",
    "final_y": "522850.565755",
    "longitude": "-90.10147808574729",
    "latitude": "29.931971801826666",
    "geocoded_column": {
      "latitude": "29.931971801826666",
      "longitude": "-90.10147808574729"
    }
  },
  {
    "service_request": "2024-1088085",
    "request_type": "Trash/Recycling",
    "request_reason": "Replace Trash Cart",
    "date_created": "2024-04-25T15:58:32.000",
    "date_modified": "2024-04-25T15:58:48.000",
    "request_status": "Pending",
    "responsible_agency": "Department of Sanitation",
    "final_address": "2127 Marigny St",
    "address_councildis": "D",
    "status": "Assigned to Contractor",
    "contractor": "IV Waste",
    "rowid": "1088085",
    "final_x": "3685134.48149",
    "final_y": "540258.132107",
    "longitude": "-90.0562864457301",
    "latitude": "29.97941166389783",
    "geocoded_column": {
      "latitude": "29.97941166389783",
      "longitude": "-90.0562864457301"
    }
  },
  {
    "service_request": "2024-1088084",
    "request_type": "Traffic Signals/Signs/Striping/Streetlights",
    "request_reason": "Street Light Outage/Malfunction",
    "date_created": "2024-04-25T15:58:05.000",
    "date_modified": "2024-04-25T15:58:05.000",
    "request_status": "Pending",
    "responsible_agency": "Department of Public Works",
    "final_address": "938 Lafayette St",
    "address_councildis": "B",
    "status": "Assigned to Contractor",
    "contractor": "Legacy Professional Services",
    "rowid": "1088084",
    "final_x": "3679537.96507",
    "final_y": "529140.656832",
    "longitude": "-90.07434827056733",
    "latitude": "29.949012715299247",
    "geocoded_column": {
      "latitude": "29.949012715299247",
      "longitude": "-90.07434827056733"
    }
  },
  {
    "service_request": "2024-1088083",
    "request_type": "Trash/Recycling",
    "request_reason": "Request a Large Item Pick Up",
    "date_created": "2024-04-25T15:48:56.000",
    "date_modified": "2024-04-25T15:48:57.000",
    "request_status": "Pending",
    "responsible_agency": "Department of Sanitation",
    "final_address": "2930 Eton St",
    "address_councildis": "C",
    "status": "Assigned to Contractor",
    "contractor": "Richards Disposal",
    "rowid": "1088083",
    "final_x": "3703979.92484",
    "final_y": "520117.506808",
    "longitude": "-89.99750710152571",
    "latitude": "29.923441154038656",
    "geocoded_column": {
      "latitude": "29.923441154038656",
      "longitude": "-89.99750710152571"
    }
  },
  {
    "service_request": "2024-1088082",
    "request_type": "Mosquito, Termite & Rodent Control",
    "request_reason": "Mosquito Complaint",
    "date_created": "2024-04-25T15:48:45.000",
    "date_modified": "2024-04-25T15:48:45.000",
    "request_status": "Pending",
    "responsible_agency": "Mosquito, Termite & Rodent Control Board",
    "final_address": "343 28Th St",
    "address_councildis": "A",
    "status": "Pending",
    "rowid": "1088082",
    "final_x": "3664892.16039",
    "final_y": "550302.045012",
    "longitude": "-90.11988405679762",
    "latitude": "30.007633801195333",
    "geocoded_column": {
      "latitude": "30.007633801195333",
      "longitude": "-90.11988405679762"
    }
  },
  {
    "service_request": "2024-1088081",
    "request_type": "Trash/Recycling",
    "request_reason": "Request a Large Item Pick Up",
    "date_created": "2024-04-25T15:42:17.000",
    "date_modified": "2024-04-25T15:42:17.000",
    "request_status": "Pending",
    "responsible_agency": "Department of Sanitation",
    "final_address": "3516 Baronne St",
    "address_councildis": "B",
    "status": "Assigned to Contractor",
    "contractor": "IV Waste",
    "rowid": "1088081",
    "final_x": "3673400.44942",
    "final_y": "521981.786298",
    "longitude": "-90.09397159578957",
    "latitude": "29.92951215557603",
    "geocoded_column": {
      "latitude": "29.92951215557603",
      "longitude": "-90.09397159578957"
    }
  },
  {
    "service_request": "2024-1088080",
    "request_type": "Trash/Recycling",
    "request_reason": "Repair Trash Cart",
    "date_created": "2024-04-25T15:35:52.000",
    "date_modified": "2024-04-25T15:35:53.000",
    "request_status": "Pending",
    "responsible_agency": "Department of Sanitation",
    "final_address": "8414 Spruce St",
    "address_councildis": "A",
    "status": "Assigned to Contractor",
    "contractor": "IV Waste",
    "rowid": "1088080",
    "final_x": "3662952.24525",
    "final_y": "531229.029058",
    "longitude": "-90.12664741244707",
    "latitude": "29.95524572785786",
    "geocoded_column": {
      "latitude": "29.95524572785786",
      "longitude": "-90.12664741244707"
    }
  },
  {
    "service_request": "2024-1088079",
    "request_type": "Parks & Parkways",
    "request_reason": "Request Tree Service (Right of Way/Public Property)",
    "date_created": "2024-04-25T15:35:44.000",
    "date_modified": "2024-04-25T15:35:44.000",
    "request_status": "Pending",
    "responsible_agency": "Department of Parks & Parkway",
    "final_address": "5301 Berkley Dr",
    "address_councildis": "C",
    "status": "Pending",
    "rowid": "1088079",
    "final_x": "3703331.98404",
    "final_y": "518127.196662",
    "longitude": "-89.99962552019942",
    "latitude": "29.917989242162722",
    "geocoded_column": {
      "latitude": "29.917989242162722",
      "longitude": "-89.99962552019942"
    }
  },
  {
    "service_request": "2024-1088078",
    "request_type": "Trash/Recycling",
    "request_reason": "Request a Large Item Pick Up",
    "date_created": "2024-04-25T15:34:13.000",
    "date_modified": "2024-04-25T15:34:13.000",
    "request_status": "Pending",
    "responsible_agency": "Department of Sanitation",
    "final_address": "1410 Jackson Ave",
    "address_councildis": "B",
    "status": "Assigned to Contractor",
    "contractor": "IV Waste",
    "rowid": "1088078",
    "final_x": "3678103.46293",
    "final_y": "522922.013179",
    "longitude": "-90.0790925440959",
    "latitude": "29.93195676211378",
    "geocoded_column": {
      "latitude": "29.93195676211378",
      "longitude": "-90.0790925440959"
    }
  },
  {
    "service_request": "2024-1088077",
    "request_type": "Trash/Recycling",
    "request_reason": "Request a Large Item Pick Up",
    "date_created": "2024-04-25T15:32:36.000",
    "date_modified": "2024-04-25T16:51:13.000",
    "case_close_date": "2024-04-25T11:51:13.000",
    "request_status": "Closed",
    "responsible_agency": "Department of Sanitation",
    "final_address": "2025 Spain St",
    "address_councildis": "D",
    "status": "Assigned to Contractor",
    "contractor": "IV Waste",
    "contractor_action": "Completed",
    "rowid": "1088077",
    "final_x": "3685896.51446",
    "final_y": "539950.232458",
    "longitude": "-90.05389050670242",
    "latitude": "29.97854167369995",
    "geocoded_column": {
      "latitude": "29.97854167369995",
      "longitude": "-90.05389050670242"
    }
  },
  {
    "service_request": "2024-1088076",
    "request_type": "Trash/Recycling",
    "request_reason": "Request a Large Item Pick Up",
    "date_created": "2024-04-25T15:31:36.000",
    "date_modified": "2024-04-25T15:31:37.000",
    "request_status": "Pending",
    "responsible_agency": "Department of Sanitation",
    "final_address": "1900 Elizardi Blvd",
    "address_councildis": "C",
    "status": "Assigned to Contractor",
    "contractor": "Richards Disposal",
    "rowid": "1088076",
    "final_x": "3694774.13674",
    "final_y": "523718.896571",
    "longitude": "-90.02643653083182",
    "latitude": "29.933635638867273",
    "geocoded_column": {
      "latitude": "29.933635638867273",
      "longitude": "-90.02643653083182"
    }
  },
  {
    "service_request": "2024-1088075",
    "request_type": "Trash/Recycling",
    "request_reason": "Repair Trash Cart",
    "date_created": "2024-04-25T15:29:55.000",
    "date_modified": "2024-04-25T15:29:55.000",
    "request_status": "Pending",
    "responsible_agency": "Department of Sanitation",
    "final_address": "520 Upperline St",
    "address_councildis": "B",
    "status": "Assigned to Contractor",
    "contractor": "IV Waste",
    "rowid": "1088075",
    "final_x": "3668924.58324",
    "final_y": "517414.422773",
    "longitude": "-90.10825528830065",
    "latitude": "29.917085710906232",
    "geocoded_column": {
      "latitude": "29.917085710906232",
      "longitude": "-90.10825528830065"
    }
  },
  {
    "service_request": "2024-1088074",
    "request_type": "Trash/Recycling",
    "request_reason": "MIssed Recycling Pick-Up",
    "date_created": "2024-04-25T15:28:38.000",
    "date_modified": "2024-04-25T15:28:58.000",
    "request_status": "Pending",
    "responsible_agency": "Department of Sanitation",
    "final_address": "4634 Cerise Ave",
    "address_councildis": "E",
    "status": "Assigned to Contractor",
    "contractor": "Waste Pro",
    "rowid": "1088074",
    "final_x": "3708602.46072",
    "final_y": "554996.374873",
    "longitude": "-89.98161681106788",
    "latitude": "30.019196182891566",
    "geocoded_column": {
      "latitude": "30.019196182891566",
      "longitude": "-89.98161681106788"
    }
  },
  {
    "service_request": "2024-1088073",
    "request_type": "Trash/Recycling",
    "request_reason": "Request a Large Item Pick Up",
    "date_created": "2024-04-25T15:25:35.000",
    "date_modified": "2024-04-25T15:25:36.000",
    "request_status": "Pending",
    "responsible_agency": "Department of Sanitation",
    "final_address": "6721 Bamberry St",
    "address_councildis": "E",
    "status": "Assigned to Contractor",
    "contractor": "Waste Pro",
    "rowid": "1088073",
    "final_x": "3698314.60855",
    "final_y": "558904.096796",
    "longitude": "-90.01398053266317",
    "latitude": "30.03027061586761",
    "geocoded_column": {
      "latitude": "30.03027061586761",
      "longitude": "-90.01398053266317"
    }
  },
  {
    "service_request": "2024-1088072",
    "request_type": "Abandoned Vehicles",
    "request_reason": "Abandoned/Junk Vehicles",
    "date_created": "2024-04-25T15:25:11.000",
    "date_modified": "2024-04-25T15:25:12.000",
    "request_status": "Pending",
    "responsible_agency": "Department of Public Works",
    "final_address": "CADIZ ST & DANNEEL ST",
    "address_councildis": "B",
    "status": "Pending",
    "rowid": "1088072",
    "final_x": "3669960.1",
    "final_y": "522220.98",
    "longitude": "-90.10482408698599",
    "latitude": "29.930271732736365",
    "geocoded_column": {
      "latitude": "29.930271732736365",
      "longitude": "-90.10482408698599"
    }
  },
  {
    "service_request": "2024-1088071",
    "request_type": "Trash/Recycling",
    "request_reason": "Request a Large Item Pick Up",
    "date_created": "2024-04-25T15:23:40.000",
    "date_modified": "2024-04-25T15:23:41.000",
    "request_status": "Pending",
    "responsible_agency": "Department of Sanitation",
    "final_address": "7821 Allison Rd",
    "address_councildis": "E",
    "status": "Assigned to Contractor",
    "contractor": "Waste Pro",
    "rowid": "1088071",
    "final_x": "3699884.65335",
    "final_y": "561122.84963",
    "longitude": "-90.0089381728576",
    "latitude": "30.036321526039824",
    "geocoded_column": {
      "latitude": "30.036321526039824",
      "longitude": "-90.0089381728576"
    }
  },
  {
    "service_request": "2024-1088070",
    "request_type": "Trash/Recycling",
    "request_reason": "Request a Large Item Pick Up",
    "date_created": "2024-04-25T15:22:59.000",
    "date_modified": "2024-04-25T15:23:00.000",
    "request_status": "Pending",
    "responsible_agency": "Department of Sanitation",
    "final_address": "2327 Prancer St",
    "address_councildis": "C",
    "status": "Assigned to Contractor",
    "contractor": "Richards Disposal",
    "rowid": "1088070",
    "final_x": "3700200.2474",
    "final_y": "522702.528314",
    "longitude": "-90.00934376582717",
    "latitude": "29.93066969187249",
    "geocoded_column": {
      "latitude": "29.93066969187249",
      "longitude": "-90.00934376582717"
    }
  },
  {
    "service_request": "2024-1088069",
    "request_type": "Trash/Recycling",
    "request_reason": "Replace Recycling Cart",
    "date_created": "2024-04-25T15:18:34.000",
    "date_modified": "2024-04-25T15:18:35.000",
    "request_status": "Pending",
    "responsible_agency": "Department of Sanitation",
    "final_address": "4214 DHemecourt St",
    "address_councildis": "A",
    "status": "Pending",
    "rowid": "1088069",
    "final_x": "3669255.6731",
    "final_y": "537207.327496",
    "longitude": "-90.10654133879724",
    "latitude": "29.97150003143497",
    "geocoded_column": {
      "latitude": "29.97150003143497",
      "longitude": "-90.10654133879724"
    }
  },
  {
    "service_request": "2024-1088068",
    "request_type": "Trash/Recycling",
    "request_reason": "Request a Large Item Pick Up",
    "date_created": "2024-04-25T15:14:26.000",
    "date_modified": "2024-04-25T15:14:27.000",
    "request_status": "Pending",
    "responsible_agency": "Department of Sanitation",
    "final_address": "5421 Douglass St",
    "address_councildis": "E",
    "status": "Assigned to Contractor",
    "contractor": "Waste Pro",
    "rowid": "1088068",
    "final_x": "3696752.00336",
    "final_y": "531843.214979",
    "longitude": "-90.01989854839329",
    "latitude": "29.955912509903346",
    "geocoded_column": {
      "latitude": "29.955912509903346",
      "longitude": "-90.01989854839329"
    }
  },
  {
    "service_request": "2024-1088067",
    "request_type": "Parks & Parkways",
    "request_reason": "Request Tree Service (Right of Way/Public Property)",
    "date_created": "2024-04-25T15:07:02.000",
    "date_modified": "2024-04-25T15:07:02.000",
    "request_status": "Pending",
    "responsible_agency": "Department of Parks & Parkway",
    "final_address": "3514 Canal St",
    "address_councildis": "B",
    "status": "Pending",
    "rowid": "1088067",
    "final_x": "3672689.00801",
    "final_y": "537009.475208",
    "longitude": "-90.09570509235388",
    "latitude": "29.970854483280945",
    "geocoded_column": {
      "latitude": "29.970854483280945",
      "longitude": "-90.09570509235388"
    }
  },
  {
    "service_request": "2024-1088066",
    "request_type": "Traffic Signals/Signs/Striping/Streetlights",
    "request_reason": "Street Light Outage/Malfunction",
    "date_created": "2024-04-25T15:04:11.000",
    "date_modified": "2024-04-25T15:04:12.000",
    "request_status": "Pending",
    "responsible_agency": "Department of Public Works",
    "final_address": "3734 Toledano St",
    "address_councildis": "B",
    "status": "Assigned to Contractor",
    "contractor": "Legacy Professional Services",
    "rowid": "1088066",
    "final_x": "3671370.03188",
    "final_y": "529061.451776",
    "longitude": "-90.10014073920289",
    "latitude": "29.949039167785745",
    "geocoded_column": {
      "latitude": "29.949039167785745",
      "longitude": "-90.10014073920289"
    }
  },
  {
    "service_request": "2024-1088065",
    "request_type": "Trash/Recycling",
    "request_reason": "Request a Large Item Pick Up",
    "date_created": "2024-04-25T15:04:01.000",
    "date_modified": "2024-04-25T15:04:02.000",
    "request_status": "Pending",
    "responsible_agency": "Department of Sanitation",
    "final_address": "13625 Explorers Ave",
    "address_councildis": "E",
    "status": "Assigned to Contractor",
    "contractor": "Waste Pro",
    "rowid": "1088065",
    "final_x": "3725975.91801",
    "final_y": "568903.124069",
    "longitude": "-89.92618386456962",
    "latitude": "30.056859023647142",
    "geocoded_column": {
      "latitude": "30.056859023647142",
      "longitude": "-89.92618386456962"
    }
  },
  {
    "service_request": "2024-1088064",
    "request_type": "Trash/Recycling",
    "request_reason": "Request a Large Item Pick Up",
    "date_created": "2024-04-25T15:03:37.000",
    "date_modified": "2024-04-25T15:03:37.000",
    "request_status": "Pending",
    "responsible_agency": "Department of Sanitation",
    "final_address": "13624 Explorers Ave",
    "address_councildis": "E",
    "status": "Assigned to Contractor",
    "contractor": "Waste Pro",
    "rowid": "1088064",
    "final_x": "3726154.0599",
    "final_y": "568910.395173",
    "longitude": "-89.9256205108338",
    "latitude": "30.056872999677648",
    "geocoded_column": {
      "latitude": "30.056872999677648",
      "longitude": "-89.9256205108338"
    }
  },
  {
    "service_request": "2024-1088063",
    "request_type": "Roads/Drainage",
    "request_reason": "Damaged Sidewalk",
    "date_created": "2024-04-25T15:02:42.000",
    "date_modified": "2024-04-25T15:02:42.000",
    "request_status": "Pending",
    "responsible_agency": "Department of Public Works",
    "final_address": "3734 Toledano St",
    "address_councildis": "B",
    "status": "Pending",
    "rowid": "1088063",
    "final_x": "3671370.03188",
    "final_y": "529061.451776",
    "longitude": "-90.10014073920289",
    "latitude": "29.949039167785745",
    "geocoded_column": {
      "latitude": "29.949039167785745",
      "longitude": "-90.10014073920289"
    }
  },
  {
    "service_request": "2024-1088062",
    "request_type": "Property Maintenance",
    "request_reason": "Property Maintenance",
    "date_created": "2024-04-25T15:01:39.000",
    "date_modified": "2024-04-25T16:18:50.000",
    "case_close_date": "2024-04-25T10:28:47.000",
    "request_status": "Closed",
    "responsible_agency": "Department of Code Enforcement",
    "final_address": "2800 S Rocheblave St",
    "address_councildis": "B",
    "status": "Resolved",
    "rowid": "1088062",
    "final_x": "3671658.9995",
    "final_y": "528874.000512",
    "longitude": "-90.09923471502259",
    "latitude": "29.948515183825872",
    "geocoded_column": {
      "latitude": "29.948515183825872",
      "longitude": "-90.09923471502259"
    }
  },
  {
    "service_request": "2024-1088061",
    "request_type": "Roads/Drainage",
    "request_reason": "Damaged Sidewalk",
    "date_created": "2024-04-25T15:01:00.000",
    "date_modified": "2024-04-25T15:01:00.000",
    "request_status": "Pending",
    "responsible_agency": "Department of Public Works",
    "final_address": "632 St Peter St",
    "address_councildis": "C",
    "status": "Pending",
    "rowid": "1088061",
    "final_x": "3682597.23138",
    "final_y": "532366.283971",
    "longitude": "-90.06457607435676",
    "latitude": "29.957789315433562",
    "geocoded_column": {
      "latitude": "29.957789315433562",
      "longitude": "-90.06457607435676"
    }
  },
  {
    "service_request": "2024-1088060",
    "request_type": "Roads/Drainage",
    "request_reason": "Catch Basin - Clogged",
    "date_created": "2024-04-25T15:00:57.000",
    "date_modified": "2024-04-25T15:00:58.000",
    "request_status": "Pending",
    "responsible_agency": "Department of Public Works",
    "final_address": "2210 N Broad St",
    "address_councildis": "D",
    "status": "Pending",
    "rowid": "1088060",
    "final_x": "3681599.27196",
    "final_y": "543285.600206",
    "longitude": "-90.06734638646829",
    "latitude": "29.987844003734356",
    "geocoded_column": {
      "latitude": "29.987844003734356",
      "longitude": "-90.06734638646829"
    }
  },
  {
    "service_request": "2024-1088059",
    "request_type": "Trash/Recycling",
    "request_reason": "Missed Trash Pick-Up",
    "date_created": "2024-04-25T15:00:13.000",
    "date_modified": "2024-04-25T15:00:13.000",
    "request_status": "Pending",
    "responsible_agency": "Department of Sanitation",
    "final_address": "7606 Briarwood Dr",
    "address_councildis": "E",
    "status": "Assigned to Contractor",
    "contractor": "Waste Pro",
    "rowid": "1088059",
    "final_x": "3717601.57119",
    "final_y": "570693.763239",
    "longitude": "-89.95258539685423",
    "latitude": "30.06206265117319",
    "geocoded_column": {
      "latitude": "30.06206265117319",
      "longitude": "-89.95258539685423"
    }
  },
  {
    "service_request": "2024-1088058",
    "request_type": "Trash/Recycling",
    "request_reason": "Replace Trash Cart",
    "date_created": "2024-04-25T14:54:51.000",
    "date_modified": "2024-04-25T14:54:52.000",
    "request_status": "Pending",
    "responsible_agency": "Department of Sanitation",
    "final_address": "2421 Verbena St",
    "address_councildis": "D",
    "status": "Assigned to Contractor",
    "contractor": "IV Waste",
    "rowid": "1088058",
    "final_x": "3685784.85826",
    "final_y": "547747.177554",
    "longitude": "-90.053968205139",
    "latitude": "29.999983923676997",
    "geocoded_column": {
      "latitude": "29.999983923676997",
      "longitude": "-90.053968205139"
    }
  },
  {
    "service_request": "2024-1088057",
    "request_type": "Traffic Signals/Signs/Striping/Streetlights",
    "request_reason": "Street Light Outage/Malfunction",
    "date_created": "2024-04-25T14:50:48.000",
    "date_modified": "2024-04-25T14:50:49.000",
    "request_status": "Pending",
    "responsible_agency": "Department of Public Works",
    "final_address": "10400 Heritage Dr",
    "address_councildis": "E",
    "status": "Assigned to Contractor",
    "contractor": "Legacy Professional Services",
    "rowid": "1088057",
    "final_x": "3709764.74667",
    "final_y": "564363.646881",
    "longitude": "-89.97759423194518",
    "latitude": "30.04491472501537",
    "geocoded_column": {
      "latitude": "30.04491472501537",
      "longitude": "-89.97759423194518"
    }
  },
  {
    "service_request": "2024-1088056",
    "request_type": "Trash/Recycling",
    "request_reason": "Request a Large Item Pick Up",
    "date_created": "2024-04-25T14:45:39.000",
    "date_modified": "2024-04-25T14:45:40.000",
    "request_status": "Pending",
    "responsible_agency": "Department of Sanitation",
    "final_address": "1003 Spain St",
    "address_councildis": "C",
    "status": "Assigned to Contractor",
    "contractor": "IV Waste",
    "rowid": "1088056",
    "final_x": "3686199.24886",
    "final_y": "536078.370951",
    "longitude": "-90.053070995218",
    "latitude": "29.967886111371236",
    "geocoded_column": {
      "latitude": "29.967886111371236",
      "longitude": "-90.053070995218"
    }
  },
  {
    "service_request": "2024-1088055",
    "request_type": "Trash/Recycling",
    "request_reason": "Request a Large Item Pick Up",
    "date_created": "2024-04-25T14:44:26.000",
    "date_modified": "2024-04-25T14:44:27.000",
    "request_status": "Pending",
    "responsible_agency": "Department of Sanitation",
    "final_address": "4663 Pecan St",
    "address_councildis": "E",
    "status": "Assigned to Contractor",
    "contractor": "Waste Pro",
    "rowid": "1088055",
    "final_x": "3701912.20509",
    "final_y": "553885.509335",
    "longitude": "-90.00279633017423",
    "latitude": "30.016357039645857",
    "geocoded_column": {
      "latitude": "30.016357039645857",
      "longitude": "-90.00279633017423"
    }
  },
  {
    "service_request": "2024-1088054",
    "request_type": "Abandoned Vehicles",
    "request_reason": "Abandoned/Junk Vehicles",
    "date_created": "2024-04-25T14:37:27.000",
    "date_modified": "2024-04-25T14:39:46.000",
    "request_status": "Pending",
    "responsible_agency": "Department of Public Works",
    "final_address": "ELYSIAN FIELDS AVE & N DERBIGNY ST",
    "address_councildis": "D",
    "status": "Pending",
    "rowid": "1088054",
    "final_x": "3684782.8",
    "final_y": "538513.18",
    "longitude": "-90.05745856039924",
    "latitude": "29.97462442944888",
    "geocoded_column": {
      "latitude": "29.97462442944888",
      "longitude": "-90.05745856039924"
    }
  },
  {
    "service_request": "2024-1088053",
    "request_type": "Trash/Recycling",
    "request_reason": "Request a Large Item Pick Up",
    "date_created": "2024-04-25T14:34:36.000",
    "date_modified": "2024-04-25T14:34:36.000",
    "request_status": "Pending",
    "responsible_agency": "Department of Sanitation",
    "final_address": "3620 Baudin St",
    "address_councildis": "B",
    "status": "Assigned to Contractor",
    "contractor": "IV Waste",
    "rowid": "1088053",
    "final_x": "3671464.10286",
    "final_y": "535989.440263",
    "longitude": "-90.09960819087065",
    "latitude": "29.968086052008946",
    "geocoded_column": {
      "latitude": "29.968086052008946",
      "longitude": "-90.09960819087065"
    }
  },
  {
    "service_request": "2024-1088052",
    "request_type": "Trash/Recycling",
    "request_reason": "Request a Large Item Pick Up",
    "date_created": "2024-04-25T14:33:58.000",
    "date_modified": "2024-04-25T14:34:34.000",
    "request_status": "Pending",
    "responsible_agency": "Department of Sanitation",
    "final_address": "7313 Heather Ct",
    "address_councildis": "E",
    "status": "Assigned to Contractor",
    "contractor": "Waste Pro",
    "rowid": "1088052",
    "final_x": "3705702.96811",
    "final_y": "562098.315615",
    "longitude": "-89.9905151646596",
    "latitude": "30.038817477942327",
    "geocoded_column": {
      "latitude": "30.038817477942327",
      "longitude": "-89.9905151646596"
    }
  },
  {
    "service_request": "2024-1088051",
    "request_type": "Traffic Signals/Signs/Striping/Streetlights",
    "request_reason": "Traffic Signal Malfunctioning/Damaged",
    "date_created": "2024-04-25T14:33:23.000",
    "date_modified": "2024-04-25T14:33:23.000",
    "request_status": "Pending",
    "responsible_agency": "Department of Public Works",
    "final_address": "ST JOSEPH ST & BARONNE ST",
    "address_councildis": "B",
    "status": "Pending",
    "rowid": "1088051",
    "final_x": "3679471.5",
    "final_y": "527663.18",
    "longitude": "-90.07460937584362",
    "latitude": "29.94495215558132",
    "geocoded_column": {
      "latitude": "29.94495215558132",
      "longitude": "-90.07460937584362"
    }
  },
  {
    "service_request": "2024-1088050",
    "request_type": "Trash/Recycling",
    "request_reason": "Replace Trash Cart",
    "date_created": "2024-04-25T14:32:01.000",
    "date_modified": "2024-04-25T14:32:01.000",
    "request_status": "Pending",
    "responsible_agency": "Department of Sanitation",
    "final_address": "1618 St Charles Ave",
    "address_councildis": "B",
    "status": "Assigned to Contractor",
    "contractor": "IV Waste",
    "rowid": "1088050",
    "final_x": "3679018.54184",
    "final_y": "525074.964093",
    "longitude": "-90.07612916363213",
    "latitude": "29.9378490944103",
    "geocoded_column": {
      "latitude": "29.9378490944103",
      "longitude": "-90.07612916363213"
    }
  },
  {
    "service_request": "2024-1088049",
    "request_type": "Trash/Recycling",
    "request_reason": "Replace Trash Cart",
    "date_created": "2024-04-25T14:31:34.000",
    "date_modified": "2024-04-25T14:31:35.000",
    "request_status": "Pending",
    "responsible_agency": "Department of Sanitation",
    "final_address": "5312 Laurel St",
    "address_councildis": "B",
    "status": "Assigned to Contractor",
    "contractor": "IV Waste",
    "rowid": "1088049",
    "final_x": "3667245.2466",
    "final_y": "517842.24703",
    "longitude": "-90.11354163189372",
    "latitude": "29.918311356270948",
    "geocoded_column": {
      "latitude": "29.918311356270948",
      "longitude": "-90.11354163189372"
    }
  },
  {
    "service_request": "2024-1088048",
    "request_type": "Trash/Recycling",
    "request_reason": "Repair Trash Cart",
    "date_created": "2024-04-25T14:31:16.000",
    "date_modified": "2024-04-25T14:31:17.000",
    "request_status": "Pending",
    "responsible_agency": "Department of Sanitation",
    "final_address": "5314 Laurel St",
    "address_councildis": "B",
    "status": "Assigned to Contractor",
    "contractor": "IV Waste",
    "rowid": "1088048",
    "final_x": "3667225.7154",
    "final_y": "517842.24703",
    "longitude": "-90.11360328163921",
    "latitude": "29.91831192796222",
    "geocoded_column": {
      "latitude": "29.91831192796222",
      "longitude": "-90.11360328163921"
    }
  },
  {
    "service_request": "2024-1088047",
    "request_type": "Trash/Recycling",
    "request_reason": "Replace Trash Cart",
    "date_created": "2024-04-25T14:29:35.000",
    "date_modified": "2024-04-25T14:29:36.000",
    "request_status": "Pending",
    "responsible_agency": "Department of Sanitation",
    "final_address": "2953 Sabine St",
    "address_councildis": "C",
    "status": "Assigned to Contractor",
    "contractor": "Richards Disposal",
    "rowid": "1088047",
    "final_x": "3693379.57449",
    "final_y": "519272.819767",
    "longitude": "-90.03099860269037",
    "latitude": "29.92145409589396",
    "geocoded_column": {
      "latitude": "29.92145409589396",
      "longitude": "-90.03099860269037"
    }
  },
  {
    "service_request": "2024-1088046",
    "request_type": "Traffic Signals/Signs/Striping/Streetlights",
    "request_reason": "Street Light Outage/Malfunction",
    "date_created": "2024-04-25T14:22:36.000",
    "date_modified": "2024-04-25T14:23:18.000",
    "request_status": "Pending",
    "responsible_agency": "Department of Public Works",
    "final_address": "1730 Marengo St",
    "address_councildis": "B",
    "status": "Assigned to Contractor",
    "contractor": "Legacy Professional Services",
    "rowid": "1088046",
    "final_x": "3671788.43207",
    "final_y": "521560.635065",
    "longitude": "-90.09907477332948",
    "latitude": "29.92840196949273",
    "geocoded_column": {
      "latitude": "29.92840196949273",
      "longitude": "-90.09907477332948"
    }
  },
  {
    "service_request": "2024-1088045",
    "request_type": "Trash/Recycling",
    "request_reason": "Request a Large Item Pick Up",
    "date_created": "2024-04-25T14:21:44.000",
    "date_modified": "2024-04-25T14:21:45.000",
    "request_status": "Pending",
    "responsible_agency": "Department of Sanitation",
    "final_address": "1343 Coliseum St",
    "address_councildis": "B",
    "status": "Assigned to Contractor",
    "contractor": "IV Waste",
    "rowid": "1088045",
    "final_x": "3679950.59835",
    "final_y": "524964.806397",
    "longitude": "-90.073190410487",
    "latitude": "29.937518045019342",
    "geocoded_column": {
      "latitude": "29.937518045019342",
      "longitude": "-90.073190410487"
    }
  },
  {
    "service_request": "2024-1088044",
    "request_type": "Abandoned Vehicles",
    "request_reason": "Abandoned/Junk Vehicles",
    "date_created": "2024-04-25T14:19:04.000",
    "date_modified": "2024-04-25T14:19:04.000",
    "request_status": "Pending",
    "responsible_agency": "Department of Public Works",
    "final_address": "BAUDIN ST & S CARROLLTON AVE",
    "address_councildis": "A",
    "status": "Pending",
    "rowid": "1088044",
    "final_x": "3670005.5",
    "final_y": "537151.68",
    "longitude": "-90.1041751543895",
    "latitude": "29.97132492391616",
    "geocoded_column": {
      "latitude": "29.97132492391616",
      "longitude": "-90.1041751543895"
    }
  },
  {
    "service_request": "2024-1088043",
    "request_type": "Trash/Recycling",
    "request_reason": "Repair Trash Cart",
    "date_created": "2024-04-25T14:16:56.000",
    "date_modified": "2024-04-25T14:21:34.000",
    "request_status": "Pending",
    "responsible_agency": "Department of Sanitation",
    "final_address": "1620 N Tonti St",
    "address_councildis": "D",
    "status": "Assigned to Contractor",
    "contractor": "IV Waste",
    "rowid": "1088043",
    "final_x": "3680359.14619",
    "final_y": "539425.854858",
    "longitude": "-90.07139779426748",
    "latitude": "29.977268666647586",
    "geocoded_column": {
      "latitude": "29.977268666647586",
      "longitude": "-90.07139779426748"
    }
  },
  {
    "service_request": "2024-1088042",
    "request_type": "Abandoned Vehicles",
    "request_reason": "Abandoned/Junk Vehicles",
    "date_created": "2024-04-25T14:16:22.000",
    "date_modified": "2024-04-25T14:16:22.000",
    "request_status": "Pending",
    "responsible_agency": "Department of Public Works",
    "final_address": "4034 Baudin St",
    "address_councildis": "A",
    "status": "Pending",
    "rowid": "1088042",
    "final_x": "3670267.73454",
    "final_y": "536906.386888",
    "longitude": "-90.10335529410388",
    "latitude": "29.970642712774605",
    "geocoded_column": {
      "latitude": "29.970642712774605",
      "longitude": "-90.10335529410388"
    }
  },
  {
    "service_request": "2024-1088041",
    "request_type": "Trash/Recycling",
    "request_reason": "Request a Large Item Pick Up",
    "date_created": "2024-04-25T14:15:50.000",
    "date_modified": "2024-04-25T14:15:51.000",
    "request_status": "Pending",
    "responsible_agency": "Department of Sanitation",
    "final_address": "1020 N Rendon St",
    "address_councildis": "A",
    "status": "Assigned to Contractor",
    "contractor": "IV Waste",
    "rowid": "1088041",
    "final_x": "3675834.05307",
    "final_y": "539319.179914",
    "longitude": "-90.08569321001306",
    "latitude": "29.97711160213015",
    "geocoded_column": {
      "latitude": "29.97711160213015",
      "longitude": "-90.08569321001306"
    }
  },
  {
    "service_request": "2024-1088040",
    "request_type": "Trash/Recycling",
    "request_reason": "Repair Trash Cart",
    "date_created": "2024-04-25T14:13:19.000",
    "date_modified": "2024-04-25T14:13:19.000",
    "request_status": "Pending",
    "responsible_agency": "Department of Sanitation",
    "final_address": "5000 Stephen Girard Ave",
    "address_councildis": "D",
    "status": "Assigned to Contractor",
    "contractor": "IV Waste",
    "rowid": "1088040",
    "final_x": "3692642.58409",
    "final_y": "551000.918613",
    "longitude": "-90.03218768983015",
    "latitude": "30.008718194789598",
    "geocoded_column": {
      "latitude": "30.008718194789598",
      "longitude": "-90.03218768983015"
    }
  },
  {
    "service_request": "2024-1088039",
    "request_type": "Safety & Permits",
    "request_reason": "Licenses & Permits",
    "date_created": "2024-04-25T14:12:59.000",
    "date_modified": "2024-04-25T14:13:00.000",
    "request_status": "Pending",
    "responsible_agency": "Safety and Permits",
    "final_address": "2911 Eton St",
    "address_councildis": "C",
    "status": "Pending",
    "rowid": "1088039",
    "final_x": "3703852.18929",
    "final_y": "520217.683768",
    "longitude": "-89.99790662637473",
    "latitude": "29.923720700009476",
    "geocoded_column": {
      "latitude": "29.923720700009476",
      "longitude": "-89.99790662637473"
    }
  },
  {
    "service_request": "2024-1088038",
    "request_type": "Trash/Recycling",
    "request_reason": "Request a Large Item Pick Up",
    "date_created": "2024-04-25T14:09:42.000",
    "date_modified": "2024-04-25T14:09:43.000",
    "request_status": "Pending",
    "responsible_agency": "Department of Sanitation",
    "final_address": "4551 Hickerson Dr",
    "address_councildis": "E",
    "status": "Assigned to Contractor",
    "contractor": "Waste Pro",
    "rowid": "1088038",
    "final_x": "3710570.32709",
    "final_y": "554633.107864",
    "longitude": "-89.97541269257478",
    "latitude": "30.01813336264607",
    "geocoded_column": {
      "latitude": "30.01813336264607",
      "longitude": "-89.97541269257478"
    }
  },
  {
    "service_request": "2024-1088037",
    "request_type": "Trash/Recycling",
    "request_reason": "Missed Trash Pick-Up",
    "date_created": "2024-04-25T14:08:16.000",
    "date_modified": "2024-04-25T14:08:16.000",
    "request_status": "Pending",
    "responsible_agency": "Department of Sanitation",
    "final_address": "6717 Deanne St",
    "address_councildis": "D",
    "status": "Assigned to Contractor",
    "contractor": "Waste Pro",
    "rowid": "1088037",
    "final_x": "3696037.37021",
    "final_y": "555512.119833",
    "longitude": "-90.02129931882062",
    "latitude": "30.021015870409535",
    "geocoded_column": {
      "latitude": "30.021015870409535",
      "longitude": "-90.02129931882062"
    }
  },
  {
    "service_request": "2024-1088036",
    "request_type": "Abandoned Vehicles",
    "request_reason": "Abandoned/Junk Vehicles",
    "date_created": "2024-04-25T14:07:12.000",
    "date_modified": "2024-04-25T14:07:12.000",
    "request_status": "Pending",
    "responsible_agency": "Department of Public Works",
    "final_address": "4877 Laurel St",
    "address_councildis": "B",
    "status": "Pending",
    "rowid": "1088036",
    "final_x": "3669019.95425",
    "final_y": "517892.334326",
    "longitude": "-90.10793812367308",
    "latitude": "29.91839701307734",
    "geocoded_column": {
      "latitude": "29.91839701307734",
      "longitude": "-90.10793812367308"
    }
  },
  {
    "service_request": "2024-1088035",
    "request_type": "Roads/Drainage",
    "request_reason": "Pothole",
    "date_created": "2024-04-25T14:05:08.000",
    "date_modified": "2024-04-25T14:05:30.000",
    "case_close_date": "2024-04-25T09:05:30.000",
    "request_status": "Closed",
    "responsible_agency": "Department of Public Works",
    "final_address": "4100 BLK Dumaine St",
    "address_councildis": "A",
    "status": "Resolved",
    "rowid": "1088035",
    "final_x": "3672446.7384",
    "final_y": "541089.725351",
    "longitude": "-90.09633110039333",
    "latitude": "29.98208097762891",
    "geocoded_column": {
      "latitude": "29.98208097762891",
      "longitude": "-90.09633110039333"
    }
  },
  {
    "service_request": "2024-1088034",
    "request_type": "Trash/Recycling",
    "request_reason": "Repair Trash Cart",
    "date_created": "2024-04-25T14:01:41.000",
    "date_modified": "2024-04-25T14:01:41.000",
    "request_status": "Pending",
    "responsible_agency": "Department of Sanitation",
    "final_address": "3 Trianon Plz",
    "address_councildis": "B",
    "status": "Assigned to Contractor",
    "contractor": "IV Waste",
    "rowid": "1088034",
    "final_x": "3667246.07764",
    "final_y": "530918.154946",
    "longitude": "-90.11309947514152",
    "latitude": "29.95426589167475",
    "geocoded_column": {
      "latitude": "29.95426589167475",
      "longitude": "-90.11309947514152"
    }
  },
  {
    "service_request": "2024-1088033",
    "request_type": "Roads/Drainage",
    "request_reason": "Pothole",
    "date_created": "2024-04-25T14:01:12.000",
    "date_modified": "2024-04-25T14:01:33.000",
    "case_close_date": "2024-04-25T09:01:33.000",
    "request_status": "Closed",
    "responsible_agency": "Department of Public Works",
    "final_address": "1000 BLK N Rendon St",
    "address_councildis": "A",
    "status": "Resolved",
    "rowid": "1088033",
    "final_x": "3675780.84591",
    "final_y": "539337.341389",
    "longitude": "-90.08586063116232",
    "latitude": "29.977163132844716",
    "geocoded_column": {
      "latitude": "29.977163132844716",
      "longitude": "-90.08586063116232"
    }
  },
  {
    "service_request": "2024-1088032",
    "request_type": "Roads/Drainage",
    "request_reason": "Pothole",
    "date_created": "2024-04-25T13:59:58.000",
    "date_modified": "2024-04-25T14:00:16.000",
    "case_close_date": "2024-04-25T09:00:16.000",
    "request_status": "Closed",
    "responsible_agency": "Department of Public Works",
    "final_address": "1160 City Park Ave",
    "address_councildis": "A",
    "status": "Resolved",
    "rowid": "1088032",
    "final_x": "3673563.269",
    "final_y": "541408.29262",
    "longitude": "-90.09279365990783",
    "latitude": "29.982923737813014",
    "geocoded_column": {
      "latitude": "29.982923737813014",
      "longitude": "-90.09279365990783"
    }
  },
  {
    "service_request": "2024-1088031",
    "request_type": "Trash/Recycling",
    "request_reason": "Request a Large Item Pick Up",
    "date_created": "2024-04-25T13:58:48.000",
    "date_modified": "2024-04-25T13:58:49.000",
    "request_status": "Pending",
    "responsible_agency": "Department of Sanitation",
    "final_address": "1552 Tropic Dr",
    "address_councildis": "C",
    "status": "Assigned to Contractor",
    "contractor": "Richards Disposal",
    "rowid": "1088031",
    "final_x": "3699556.94525",
    "final_y": "525113.527805",
    "longitude": "-90.0112867483828",
    "latitude": "29.937319528222837",
    "geocoded_column": {
      "latitude": "29.937319528222837",
      "longitude": "-90.0112867483828"
    }
  },
  {
    "service_request": "2024-1088030",
    "request_type": "Roads/Drainage",
    "request_reason": "Pothole",
    "date_created": "2024-04-25T13:58:31.000",
    "date_modified": "2024-04-25T13:58:56.000",
    "case_close_date": "2024-04-25T08:58:56.000",
    "request_status": "Closed",
    "responsible_agency": "Department of Public Works",
    "final_address": "721 N Rendon St",
    "address_councildis": "A",
    "status": "Resolved",
    "rowid": "1088030",
    "final_x": "3674948.48533",
    "final_y": "538469.362249",
    "longitude": "-90.0885192818052",
    "latitude": "29.97480137757462",
    "geocoded_column": {
      "latitude": "29.97480137757462",
      "longitude": "-90.0885192818052"
    }
  },
  {
    "service_request": "2024-1088029",
    "request_type": "Trash/Recycling",
    "request_reason": "Illegal Dumping",
    "date_created": "2024-04-25T13:58:26.000",
    "date_modified": "2024-04-25T13:58:26.000",
    "request_status": "Pending",
    "responsible_agency": "Department of Sanitation",
    "final_address": "MANSFIELD AVE & KENT DR",
    "address_councildis": "C",
    "status": "Pending",
    "rowid": "1088029",
    "final_x": "3709098.0",
    "final_y": "518496.88",
    "longitude": "-89.98141176144469",
    "latitude": "29.91881994212271",
    "geocoded_column": {
      "latitude": "29.91881994212271",
      "longitude": "-89.98141176144469"
    }
  },
  {
    "service_request": "2024-1088028",
    "request_type": "Trash/Recycling",
    "request_reason": "Order Trash Cart",
    "date_created": "2024-04-25T13:58:15.000",
    "date_modified": "2024-04-25T13:58:25.000",
    "request_status": "Pending",
    "responsible_agency": "Department of Sanitation",
    "final_address": "1118 N Prieur St",
    "address_councildis": "D",
    "status": "Assigned to Contractor",
    "contractor": "IV Waste",
    "rowid": "1088028",
    "final_x": "3679959.45576",
    "final_y": "536580.119431",
    "longitude": "-90.07275902505575",
    "latitude": "29.969455972930458",
    "geocoded_column": {
      "latitude": "29.969455972930458",
      "longitude": "-90.07275902505575"
    }
  },
  {
    "service_request": "2024-1088027",
    "request_type": "Roads/Drainage",
    "request_reason": "Pothole",
    "date_created": "2024-04-25T13:52:04.000",
    "date_modified": "2024-04-25T13:52:21.000",
    "case_close_date": "2024-04-25T08:52:21.000",
    "request_status": "Closed",
    "responsible_agency": "Department of Public Works",
    "final_address": "8700 BLK Cohn St",
    "address_councildis": "A",
    "status": "Resolved",
    "rowid": "1088027",
    "final_x": "3661972.13337",
    "final_y": "531690.118822",
    "longitude": "-90.1297269673188",
    "latitude": "29.956541920128828",
    "geocoded_column": {
      "latitude": "29.956541920128828",
      "longitude": "-90.1297269673188"
    }
  },
  {
    "service_request": "2024-1088026",
    "request_type": "Trash/Recycling",
    "request_reason": "Request a Large Item Pick Up",
    "date_created": "2024-04-25T13:51:34.000",
    "date_modified": "2024-04-25T13:51:34.000",
    "request_status": "Pending",
    "responsible_agency": "Department of Sanitation",
    "final_address": "4646 Bonita Dr",
    "address_councildis": "E",
    "status": "Assigned to Contractor",
    "contractor": "Waste Pro",
    "rowid": "1088026",
    "final_x": "3704488.65585",
    "final_y": "554696.094936",
    "longitude": "-89.99462600448722",
    "latitude": "30.01850332498633",
    "geocoded_column": {
      "latitude": "30.01850332498633",
      "longitude": "-89.99462600448722"
    }
  },
  {
    "service_request": "2024-1088025",
    "request_type": "Trash/Recycling",
    "request_reason": "Request a Large Item Pick Up",
    "date_created": "2024-04-25T13:51:06.000",
    "date_modified": "2024-04-25T15:35:49.000",
    "case_close_date": "2024-04-25T10:35:49.000",
    "request_status": "Closed",
    "responsible_agency": "Department of Sanitation",
    "final_address": "2328 Ursulines Ave",
    "address_councildis": "D",
    "status": "Duplicate Request",
    "contractor": "IV Waste",
    "contractor_action": "Invalid Request",
    "rowid": "1088025",
    "final_x": "3678749.15656",
    "final_y": "537195.416264",
    "longitude": "-90.07655993649146",
    "latitude": "29.971184384275006",
    "geocoded_column": {
      "latitude": "29.971184384275006",
      "longitude": "-90.07655993649146"
    }
  },
  {
    "service_request": "2024-1088024",
    "request_type": "Traffic Signals/Signs/Striping/Streetlights",
    "request_reason": "Street Light Knocked Down/Leaning",
    "date_created": "2024-04-25T13:49:50.000",
    "date_modified": "2024-04-25T13:49:50.000",
    "request_status": "Pending",
    "responsible_agency": "Department of Public Works",
    "final_address": "301 Pacific Ave",
    "address_councildis": "C",
    "status": "Pending",
    "contractor": "Legacy Professional Services",
    "rowid": "1088024",
    "final_x": "3688508.29449",
    "final_y": "530701.61741",
    "longitude": "-90.04596974728538",
    "latitude": "29.95303076322752",
    "geocoded_column": {
      "latitude": "29.95303076322752",
      "longitude": "-90.04596974728538"
    }
  },
  {
    "service_request": "2024-1088023",
    "request_type": "Roads/Drainage",
    "request_reason": "Pothole",
    "date_created": "2024-04-25T13:49:18.000",
    "date_modified": "2024-04-25T13:49:41.000",
    "case_close_date": "2024-04-25T08:49:41.000",
    "request_status": "Closed",
    "responsible_agency": "Department of Public Works",
    "final_address": "1217 N White St",
    "address_councildis": "A",
    "status": "Resolved",
    "rowid": "1088023",
    "final_x": "3677336.84373",
    "final_y": "539340.323914",
    "longitude": "-90.08094617763014",
    "latitude": "29.977124662590764",
    "geocoded_column": {
      "latitude": "29.977124662590764",
      "longitude": "-90.08094617763014"
    }
  },
  {
    "service_request": "2024-1088022",
    "request_type": "Trash/Recycling",
    "request_reason": "Request a Large Item Pick Up",
    "date_created": "2024-04-25T13:48:51.000",
    "date_modified": "2024-04-25T13:48:52.000",
    "request_status": "Pending",
    "responsible_agency": "Department of Sanitation",
    "final_address": "2328 Ursulines Ave",
    "address_councildis": "D",
    "status": "Assigned to Contractor",
    "contractor": "IV Waste",
    "rowid": "1088022",
    "final_x": "3678749.15656",
    "final_y": "537195.416264",
    "longitude": "-90.07655993649146",
    "latitude": "29.971184384275006",
    "geocoded_column": {
      "latitude": "29.971184384275006",
      "longitude": "-90.07655993649146"
    }
  },
  {
    "service_request": "2024-1088021",
    "request_type": "Healthy Homes",
    "request_reason": "Healthy Homes",
    "date_created": "2024-04-25T13:47:08.000",
    "date_modified": "2024-04-25T14:37:26.000",
    "case_close_date": "2024-04-25T09:37:26.000",
    "request_status": "Closed",
    "responsible_agency": "Department of Code Enforcement",
    "final_address": "7227 Zimple St",
    "address_councildis": "A",
    "status": "Referred to Code Enforcement",
    "rowid": "1088021",
    "final_x": "3663786.63335",
    "final_y": "526365.79603",
    "longitude": "-90.12417475879697",
    "latitude": "29.941849215171754",
    "geocoded_column": {
      "latitude": "29.941849215171754",
      "longitude": "-90.12417475879697"
    }
  },
  {
    "service_request": "2024-1088020",
    "request_type": "Roads/Drainage",
    "request_reason": "Pothole",
    "date_created": "2024-04-25T13:43:52.000",
    "date_modified": "2024-04-25T13:43:52.000",
    "request_status": "Pending",
    "responsible_agency": "Department of Public Works",
    "final_address": "MARENGO ST & LAUREL ST",
    "address_councildis": "B",
    "status": "Pending",
    "rowid": "1088020",
    "final_x": "3672237.3",
    "final_y": "518164.48",
    "longitude": "-90.09777339558411",
    "latitude": "29.919050326294983",
    "geocoded_column": {
      "latitude": "29.919050326294983",
      "longitude": "-90.09777339558411"
    }
  },
  {
    "service_request": "2024-1088019",
    "request_type": "Trash/Recycling",
    "request_reason": "Repair Recycling Cart",
    "date_created": "2024-04-25T13:42:20.000",
    "date_modified": "2024-04-25T15:23:31.000",
    "request_status": "Pending",
    "responsible_agency": "Department of Sanitation",
    "final_address": "816 Peniston St",
    "address_councildis": "B",
    "status": "Pending",
    "contractor": "Sanitation Dept. ",
    "rowid": "1088019",
    "final_x": "3673394.47988",
    "final_y": "518828.568951",
    "longitude": "-90.0940980953466",
    "latitude": "29.920841998039396",
    "geocoded_column": {
      "latitude": "29.920841998039396",
      "longitude": "-90.0940980953466"
    }
  },
  {
    "service_request": "2024-1088018",
    "request_type": "Trash/Recycling",
    "request_reason": "Repair Trash Cart",
    "date_created": "2024-04-25T13:42:06.000",
    "date_modified": "2024-04-25T13:42:07.000",
    "request_status": "Pending",
    "responsible_agency": "Department of Sanitation",
    "final_address": "816 Peniston St",
    "address_councildis": "B",
    "status": "Assigned to Contractor",
    "contractor": "IV Waste",
    "rowid": "1088018",
    "final_x": "3673394.47988",
    "final_y": "518828.568951",
    "longitude": "-90.0940980953466",
    "latitude": "29.920841998039396",
    "geocoded_column": {
      "latitude": "29.920841998039396",
      "longitude": "-90.0940980953466"
    }
  },
  {
    "service_request": "2024-1088017",
    "request_type": "Trash/Recycling",
    "request_reason": "Order Trash Cart",
    "date_created": "2024-04-25T13:40:24.000",
    "date_modified": "2024-04-25T13:40:24.000",
    "request_status": "Pending",
    "responsible_agency": "Department of Sanitation",
    "final_address": "619 Flood St",
    "address_councildis": "E",
    "status": "Assigned to Contractor",
    "contractor": "Waste Pro",
    "rowid": "1088017",
    "final_x": "3697289.70039",
    "final_y": "532157.502019",
    "longitude": "-90.01818930680145",
    "latitude": "29.956759730102235",
    "geocoded_column": {
      "latitude": "29.956759730102235",
      "longitude": "-90.01818930680145"
    }
  },
  {
    "service_request": "2024-1088016",
    "request_type": "Roads/Drainage",
    "request_reason": "Street Subsidence (Sinking)",
    "date_created": "2024-04-25T13:38:30.000",
    "date_modified": "2024-04-25T13:38:30.000",
    "request_status": "Pending",
    "responsible_agency": "Department of Public Works",
    "final_address": "ST CHARLES AVE & WASHINGTON AVE",
    "address_councildis": "B",
    "status": "Pending",
    "rowid": "1088016",
    "final_x": "3675940.1",
    "final_y": "522504.88",
    "longitude": "-90.08593639663825",
    "latitude": "29.930874717273824",
    "geocoded_column": {
      "latitude": "29.930874717273824",
      "longitude": "-90.08593639663825"
    }
  },
  {
    "service_request": "2024-1088015",
    "request_type": "Traffic Signals/Signs/Striping/Streetlights",
    "request_reason": "Traffic Signal Malfunctioning/Damaged",
    "date_created": "2024-04-25T13:36:39.000",
    "date_modified": "2024-04-25T13:36:39.000",
    "request_status": "Pending",
    "responsible_agency": "Department of Public Works",
    "final_address": "1000 BLK Howard Ave",
    "address_councildis": "B",
    "status": "Pending",
    "rowid": "1088015",
    "final_x": "3678952.66798",
    "final_y": "527979.317845",
    "longitude": "-90.07623653699031",
    "latitude": "29.945837090736312",
    "geocoded_column": {
      "latitude": "29.945837090736312",
      "longitude": "-90.07623653699031"
    }
  },
  {
    "service_request": "2024-1088014",
    "request_type": "Roads/Drainage",
    "request_reason": "Pothole",
    "date_created": "2024-04-25T13:34:16.000",
    "date_modified": "2024-04-25T13:34:36.000",
    "case_close_date": "2024-04-25T08:34:36.000",
    "request_status": "Closed",
    "responsible_agency": "Department of Public Works",
    "final_address": "1500 BLK Leda St",
    "address_councildis": "A",
    "status": "Resolved",
    "rowid": "1088014",
    "final_x": "3675688.34019",
    "final_y": "541685.672978",
    "longitude": "-90.08607206190293",
    "latitude": "29.983623005629624",
    "geocoded_column": {
      "latitude": "29.983623005629624",
      "longitude": "-90.08607206190293"
    }
  },
  {
    "service_request": "2024-1088013",
    "request_type": "Parks & Parkways",
    "request_reason": "Request Tree Service (Right of Way/Public Property)",
    "date_created": "2024-04-25T13:31:47.000",
    "date_modified": "2024-04-25T13:31:47.000",
    "request_status": "Pending",
    "responsible_agency": "Department of Parks & Parkway",
    "final_address": "2601 Andry St",
    "address_councildis": "E",
    "status": "Pending",
    "rowid": "1088013",
    "final_x": "3698767.59485",
    "final_y": "539636.084042",
    "longitude": "-90.0132505583566",
    "latitude": "29.977276426819735",
    "geocoded_column": {
      "latitude": "29.977276426819735",
      "longitude": "-90.0132505583566"
    }
  },
  {
    "service_request": "2024-1088012",
    "request_type": "Roads/Drainage",
    "request_reason": "Pothole",
    "date_created": "2024-04-25T13:31:20.000",
    "date_modified": "2024-04-25T13:31:42.000",
    "case_close_date": "2024-04-25T08:31:42.000",
    "request_status": "Closed",
    "responsible_agency": "Department of Public Works",
    "final_address": "1400 BLK Verna St",
    "address_councildis": "A",
    "status": "Resolved",
    "rowid": "1088012",
    "final_x": "3675788.2432",
    "final_y": "541153.640906",
    "longitude": "-90.08577481106212",
    "latitude": "29.982157110555313",
    "geocoded_column": {
      "latitude": "29.982157110555313",
      "longitude": "-90.08577481106212"
    }
  },
  {
    "service_request": "2024-1088011",
    "request_type": "Trash/Recycling",
    "request_reason": "Missed Trash Pick-Up",
    "date_created": "2024-04-25T13:29:13.000",
    "date_modified": "2024-04-25T13:29:14.000",
    "request_status": "Pending",
    "responsible_agency": "Department of Sanitation",
    "final_address": "6014 St Claude Ave",
    "address_councildis": "E",
    "status": "Assigned to Contractor",
    "contractor": "Waste Pro",
    "rowid": "1088011",
    "final_x": "3699291.71901",
    "final_y": "533343.082372",
    "longitude": "-90.01182443609409",
    "latitude": "29.959956320525333",
    "geocoded_column": {
      "latitude": "29.959956320525333",
      "longitude": "-90.01182443609409"
    }
  },
  {
    "service_request": "2024-1088010",
    "request_type": "Roads/Drainage",
    "request_reason": "Pothole",
    "date_created": "2024-04-25T13:24:40.000",
    "date_modified": "2024-04-25T13:24:40.000",
    "request_status": "Pending",
    "responsible_agency": "Department of Public Works",
    "final_address": "4757 Mandeville St",
    "address_councildis": "D",
    "status": "Pending",
    "rowid": "1088010",
    "final_x": "3684771.56021",
    "final_y": "550578.416596",
    "longitude": "-90.05706963652352",
    "latitude": "30.007799877834394",
    "geocoded_column": {
      "latitude": "30.007799877834394",
      "longitude": "-90.05706963652352"
    }
  },
  {
    "service_request": "2024-1088009",
    "request_type": "Trash/Recycling",
    "request_reason": "Order Recycling Cart",
    "date_created": "2024-04-25T13:24:07.000",
    "date_modified": "2024-04-25T13:24:07.000",
    "request_status": "Pending",
    "responsible_agency": "Department of Sanitation",
    "final_address": "4436 Perlita St",
    "address_councildis": "D",
    "status": "Pending",
    "rowid": "1088009",
    "final_x": "3678687.02517",
    "final_y": "548926.057683",
    "longitude": "-90.07634975178946",
    "latitude": "30.003441423249143",
    "geocoded_column": {
      "latitude": "30.003441423249143",
      "longitude": "-90.07634975178946"
    }
  },
  {
    "service_request": "2024-1088008",
    "request_type": "Trash/Recycling",
    "request_reason": "Request a Large Item Pick Up",
    "date_created": "2024-04-25T13:23:51.000",
    "date_modified": "2024-04-25T13:23:51.000",
    "request_status": "Pending",
    "responsible_agency": "Department of Sanitation",
    "final_address": "2369 Laurel St",
    "address_councildis": "B",
    "status": "Assigned to Contractor",
    "contractor": "IV Waste",
    "rowid": "1088008",
    "final_x": "3678529.28885",
    "final_y": "520956.374457",
    "longitude": "-90.07781624868781",
    "latitude": "29.926539074691995",
    "geocoded_column": {
      "latitude": "29.926539074691995",
      "longitude": "-90.07781624868781"
    }
  },
  {
    "service_request": "2024-1088007",
    "request_type": "Traffic Signals/Signs/Striping/Streetlights",
    "request_reason": "Traffic Signal Malfunctioning/Damaged",
    "date_created": "2024-04-25T13:20:32.000",
    "date_modified": "2024-04-25T14:10:35.000",
    "request_status": "Pending",
    "responsible_agency": "Department of Public Works",
    "final_address": "HOWARD AVE & BARONNE ST",
    "address_councildis": "B",
    "status": "Pending",
    "rowid": "1088007",
    "final_x": "3679451.6",
    "final_y": "527618.28",
    "longitude": "-90.0746737634448",
    "latitude": "29.94482929662393",
    "geocoded_column": {
      "latitude": "29.94482929662393",
      "longitude": "-90.0746737634448"
    }
  },
  {
    "service_request": "2024-1088006",
    "request_type": "Trash/Recycling",
    "request_reason": "Request a Large Item Pick Up",
    "date_created": "2024-04-25T13:14:04.000",
    "date_modified": "2024-04-25T13:14:05.000",
    "request_status": "Pending",
    "responsible_agency": "Department of Sanitation",
    "final_address": "1736 Congress St",
    "address_councildis": "D",
    "status": "Assigned to Contractor",
    "contractor": "IV Waste",
    "rowid": "1088006",
    "final_x": "3691305.05161",
    "final_y": "538114.291209",
    "longitude": "-90.03687402036758",
    "latitude": "29.973326323333282",
    "geocoded_column": {
      "latitude": "29.973326323333282",
      "longitude": "-90.03687402036758"
    }
  },
  {
    "service_request": "2024-1088005",
    "request_type": "Trash/Recycling",
    "request_reason": "Request a Large Item Pick Up",
    "date_created": "2024-04-25T13:07:45.000",
    "date_modified": "2024-04-25T13:07:45.000",
    "request_status": "Pending",
    "responsible_agency": "Department of Sanitation",
    "final_address": "5857 Louisville St",
    "address_councildis": "A",
    "status": "Assigned to Contractor",
    "contractor": "IV Waste",
    "rowid": "1088005",
    "final_x": "3667709.73921",
    "final_y": "546386.92712",
    "longitude": "-90.11111441111679",
    "latitude": "29.99678623815592",
    "geocoded_column": {
      "latitude": "29.99678623815592",
      "longitude": "-90.11111441111679"
    }
  },
  {
    "service_request": "2024-1088004",
    "request_type": "Roads/Drainage",
    "request_reason": "Damaged Sidewalk",
    "date_created": "2024-04-25T12:55:37.000",
    "date_modified": "2024-04-25T12:55:37.000",
    "request_status": "Pending",
    "responsible_agency": "Department of Public Works",
    "final_address": "3028 Second St",
    "address_councildis": "B",
    "status": "Pending",
    "rowid": "1088004",
    "final_x": "3673740.6715",
    "final_y": "527457.585407",
    "longitude": "-90.09271041492256",
    "latitude": "29.944558696583016",
    "geocoded_column": {
      "latitude": "29.944558696583016",
      "longitude": "-90.09271041492256"
    }
  },
  {
    "service_request": "2024-1088003",
    "request_type": "Abandoned Vehicles",
    "request_reason": "Abandoned/Junk Vehicles",
    "date_created": "2024-04-25T12:55:25.000",
    "date_modified": "2024-04-25T12:57:35.000",
    "request_status": "Pending",
    "responsible_agency": "Department of Public Works",
    "final_address": "625 Montegut St",
    "address_councildis": "C",
    "status": "Pending",
    "rowid": "1088003",
    "final_x": "3688065.54633",
    "final_y": "534487.574917",
    "longitude": "-90.04723357131545",
    "latitude": "29.963454507902664",
    "geocoded_column": {
      "latitude": "29.963454507902664",
      "longitude": "-90.04723357131545"
    }
  },
  {
    "service_request": "2024-1088002",
    "request_type": "Trash/Recycling",
    "request_reason": "Missed Trash Pick-Up",
    "date_created": "2024-04-25T12:50:35.000",
    "date_modified": "2024-04-25T15:20:04.000",
    "case_close_date": "2024-04-25T10:20:04.000",
    "request_status": "Closed",
    "responsible_agency": "Department of Sanitation",
    "final_address": "2512 Broadway St",
    "address_councildis": "A",
    "status": "Invalid Request",
    "contractor": "IV Waste",
    "contractor_action": "Invalid",
    "rowid": "1088002",
    "final_x": "3666812.69895",
    "final_y": "530549.710338",
    "longitude": "-90.11448029251594",
    "latitude": "29.953265472274552",
    "geocoded_column": {
      "latitude": "29.953265472274552",
      "longitude": "-90.11448029251594"
    }
  },
  {
    "service_request": "2024-1088000",
    "request_type": "Trash/Recycling",
    "request_reason": "Replace Trash Cart",
    "date_created": "2024-04-25T12:45:01.000",
    "date_modified": "2024-04-25T12:46:31.000",
    "request_status": "Pending",
    "responsible_agency": "Department of Sanitation",
    "final_address": "33 Winners Cir",
    "address_councildis": "E",
    "status": "Assigned to Contractor",
    "contractor": "Waste Pro",
    "rowid": "1088000",
    "final_x": "3715714.61394",
    "final_y": "570293.969383",
    "longitude": "-89.95856519113663",
    "latitude": "30.06102576925881",
    "geocoded_column": {
      "latitude": "30.06102576925881",
      "longitude": "-89.95856519113663"
    }
  },
  {
    "service_request": "2024-1087999",
    "request_type": "Trash/Recycling",
    "request_reason": "Replace Trash Cart",
    "date_created": "2024-04-25T12:43:33.000",
    "date_modified": "2024-04-25T12:43:33.000",
    "request_status": "Pending",
    "responsible_agency": "Department of Sanitation",
    "final_address": "4431 Tchoupitoulas St",
    "address_councildis": "B",
    "status": "Assigned to Contractor",
    "contractor": "IV Waste",
    "rowid": "1087999",
    "final_x": "3670893.28283",
    "final_y": "517466.115766",
    "longitude": "-90.10203946683183",
    "latitude": "29.917169827157387",
    "geocoded_column": {
      "latitude": "29.917169827157387",
      "longitude": "-90.10203946683183"
    }
  },
  {
    "service_request": "2024-1087998",
    "request_type": "Parks & Parkways",
    "request_reason": "Request Tree Service (Right of Way/Public Property)",
    "date_created": "2024-04-25T12:37:54.000",
    "date_modified": "2024-04-25T12:37:54.000",
    "request_status": "Pending",
    "responsible_agency": "Department of Parks & Parkway",
    "final_address": "3340 Canal St",
    "address_councildis": "B",
    "status": "Pending",
    "rowid": "1087998",
    "final_x": "3673278.36596",
    "final_y": "536573.990471",
    "longitude": "-90.09385869942997",
    "latitude": "29.96963953082865",
    "geocoded_column": {
      "latitude": "29.96963953082865",
      "longitude": "-90.09385869942997"
    }
  },
  {
    "service_request": "2024-1087997",
    "request_type": "Abandoned Vehicles",
    "request_reason": "Abandoned/Junk Vehicles",
    "date_created": "2024-04-25T12:32:18.000",
    "date_modified": "2024-04-25T12:32:18.000",
    "request_status": "Pending",
    "responsible_agency": "Department of Public Works",
    "final_address": "3501 Octavia St",
    "address_councildis": "A",
    "status": "Pending",
    "rowid": "1087997",
    "final_x": "3668632.47297",
    "final_y": "528378.351104",
    "longitude": "-90.10880748213752",
    "latitude": "29.947241591717965",
    "geocoded_column": {
      "latitude": "29.947241591717965",
      "longitude": "-90.10880748213752"
    }
  },
  {
    "service_request": "2024-1087996",
    "request_type": "Parks & Parkways",
    "request_reason": "Request Tree Service (Right of Way/Public Property)",
    "date_created": "2024-04-25T12:32:10.000",
    "date_modified": "2024-04-25T12:32:10.000",
    "request_status": "Pending",
    "responsible_agency": "Department of Parks & Parkway",
    "final_address": "FONTAINEBLEAU DR & OCTAVIA ST",
    "address_councildis": "A",
    "status": "Pending",
    "rowid": "1087996",
    "final_x": "3668836.5",
    "final_y": "529676.08",
    "longitude": "-90.10811947695427",
    "latitude": "29.950803925985483",
    "geocoded_column": {
      "latitude": "29.950803925985483",
      "longitude": "-90.10811947695427"
    }
  },
  {
    "service_request": "2024-1087995",
    "request_type": "Trash/Recycling",
    "request_reason": "Missed Trash Pick-Up",
    "date_created": "2024-04-25T12:29:34.000",
    "date_modified": "2024-04-25T12:29:34.000",
    "request_status": "Pending",
    "responsible_agency": "Department of Sanitation",
    "final_address": "2953 Sabine St",
    "address_councildis": "C",
    "status": "Assigned to Contractor",
    "contractor": "Richards Disposal",
    "rowid": "1087995",
    "final_x": "3693379.57449",
    "final_y": "519272.819767",
    "longitude": "-90.03099860269037",
    "latitude": "29.92145409589396",
    "geocoded_column": {
      "latitude": "29.92145409589396",
      "longitude": "-90.03099860269037"
    }
  },
  {
    "service_request": "2024-1087994",
    "request_type": "Trash/Recycling",
    "request_reason": "Request a Large Item Pick Up",
    "date_created": "2024-04-25T12:29:02.000",
    "date_modified": "2024-04-25T12:29:03.000",
    "request_status": "Pending",
    "responsible_agency": "Department of Sanitation",
    "final_address": "2816 Chippewa St",
    "address_councildis": "B",
    "status": "Assigned to Contractor",
    "contractor": "IV Waste",
    "rowid": "1087994",
    "final_x": "3677763.05224",
    "final_y": "519449.952375",
    "longitude": "-90.08028704995783",
    "latitude": "29.92241996622636",
    "geocoded_column": {
      "latitude": "29.92241996622636",
      "longitude": "-90.08028704995783"
    }
  },
  {
    "service_request": "2024-1087993",
    "request_type": "Property Maintenance",
    "request_reason": "Property Maintenance",
    "date_created": "2024-04-25T12:27:10.000",
    "date_modified": "2024-04-25T14:34:05.000",
    "case_close_date": "2024-04-25T09:34:05.000",
    "request_status": "Closed",
    "responsible_agency": "Department of Code Enforcement",
    "final_address": "2667 Mendez St",
    "address_councildis": "D",
    "status": "Referred to Code Enforcement",
    "rowid": "1087993",
    "final_x": "3687117.94441",
    "final_y": "553739.425815",
    "longitude": "-90.04954484454643",
    "latitude": "30.016419424206013",
    "geocoded_column": {
      "latitude": "30.016419424206013",
      "longitude": "-90.04954484454643"
    }
  },
  {
    "service_request": "2024-1087992",
    "request_type": "Trash/Recycling",
    "request_reason": "MIssed Recycling Pick-Up",
    "date_created": "2024-04-25T12:24:29.000",
    "date_modified": "2024-04-25T15:22:41.000",
    "case_close_date": "2024-04-25T10:22:41.000",
    "request_status": "Closed",
    "responsible_agency": "Department of Sanitation",
    "final_address": "5516 S Rocheblave St",
    "address_councildis": "A",
    "status": "Invalid Request",
    "contractor": "IV Waste",
    "contractor_action": "Invalid",
    "rowid": "1087992",
    "final_x": "3668355.31022",
    "final_y": "528310.018688",
    "longitude": "-90.10968489677035",
    "latitude": "29.947061841277797",
    "geocoded_column": {
      "latitude": "29.947061841277797",
      "longitude": "-90.10968489677035"
    }
  },
  {
    "service_request": "2024-1087991",
    "request_type": "Traffic Signals/Signs/Striping/Streetlights",
    "request_reason": "Traffic Sign Missing/Damaged",
    "date_created": "2024-04-25T12:20:28.000",
    "date_modified": "2024-04-25T12:20:29.000",
    "request_status": "Pending",
    "responsible_agency": "Department of Public Works",
    "final_address": "GRAVIER ST & S CLAIBORNE AVE & S CLAIBORNE AV OVERPASS",
    "address_councildis": "B",
    "status": "Pending",
    "rowid": "1087991",
    "final_x": "3677409.4",
    "final_y": "531610.08",
    "longitude": "-90.0809838615513",
    "latitude": "29.955866939021757",
    "geocoded_column": {
      "latitude": "29.955866939021757",
      "longitude": "-90.0809838615513"
    }
  },
  {
    "service_request": "2024-1087990",
    "request_type": "Safety & Permits",
    "request_reason": "Licenses & Permits",
    "date_created": "2024-04-25T12:14:38.000",
    "date_modified": "2024-04-25T12:14:38.000",
    "request_status": "Pending",
    "responsible_agency": "Safety and Permits",
    "final_address": "1523 N Dorgenois St",
    "address_councildis": "D",
    "status": "Pending",
    "rowid": "1087990",
    "final_x": "3679187.44226",
    "final_y": "539399.228682",
    "longitude": "-90.07509934418835",
    "latitude": "29.97723088391478",
    "geocoded_column": {
      "latitude": "29.97723088391478",
      "longitude": "-90.07509934418835"
    }
  },