[
  {
    "service_request": "2022-877120",
    "request_type": "Abandoned Vehicles",
    "request_reason": "Abandoned/Junk Vehicles",
    "date_created": "2022-04-24T00:49:45.000",
    "date_modified": "2022-04-24T00:49:45.000",
    "request_status": "Pending",
    "responsible_agency": "Department of Public Works",
    "final_address": "7701 Scottwood Dr",
    "address_councildis": "E",
    "status": "Pending",
    "rowid": "877120",
    "final_x": "3717158.68255",
    "final_y": "571082.123111",
    "longitude": "-89.9539705798683",
    "latitude": "30.063145145978154",
    "geocoded_column": {
      "latitude": "30.063145145978154",
      "longitude": "-89.9539705798683"
    }
  },
  {
    "service_request": "2022-877119",
    "request_type": "Trash/Recycling",
    "request_reason": "Illegal Dumping",
    "date_created": "2022-04-23T22:30:48.000",
    "date_modified": "2022-04-23T22:30:48.000",
    "request_status": "Pending",
    "responsible_agency": "Department of Sanitation",
    "final_address": "2128 St Andrew St",
    "address_councildis": "B",
    "status": "Pending",
    "rowid": "877119",
    "final_x": "3676851.91688",
    "final_y": "525814.340861",
    "longitude": "-90.08294390778713",
    "latitude": "29.939947324561064",
    "geocoded_column": {
      "latitude": "29.939947324561064",
      "longitude": "-90.08294390778713"
    }
  },
  {
    "service_request": "2022-877118",
    "request_type": "Trash/Recycling",
    "request_reason": "MIssed Recycling Pick-Up",
    "date_created": "2022-04-23T22:04:22.000",
    "date_modified": "2022-04-23T22:04:23.000",
    "request_status": "Pending",
    "responsible_agency": "Department of Sanitation",
    "final_address": "1729 Terpsichore St",
    "address_councildis": "B",
    "status": "Assigned to Contractor",
    "contractor": "Richards Disposal",
    "rowid": "877118",
    "final_x": "3678449.5229",
    "final_y": "525680.650173",
    "longitude": "-90.07790465245449",
    "latitude": "29.939531685636776",
    "geocoded_column": {
      "latitude": "29.939531685636776",
      "longitude": "-90.07790465245449"
    }
  },
  {
    "service_request": "2022-877117",
    "request_type": "Trash/Recycling",
    "request_reason": "Missed Trash Pick-Up",
    "date_created": "2022-04-23T21:38:15.000",
    "date_modified": "2022-04-23T21:38:16.000",
    "request_status": "Pending",
    "responsible_agency": "Department of Sanitation",
    "final_address": "1227 Leonidas St",
    "address_councildis": "A",
    "status": "Assigned to Contractor",
    "contractor": "Richards Disposal",
    "rowid": "877117",
    "final_x": "3660847.15021",
    "final_y": "529727.962049",
    "longitude": "-90.13334420214194",
    "latitude": "29.951179064887057",
    "geocoded_column": {
      "latitude": "29.951179064887057",
      "longitude": "-90.13334420214194"
    }
  },
  {
    "service_request": "2022-877116",
    "request_type": "Abandoned Vehicles",
    "request_reason": "Abandoned/Junk Vehicles",
    "date_created": "2022-04-23T21:17:06.000",
    "date_modified": "2022-04-23T21:17:06.000",
    "request_status": "Pending",
    "responsible_agency": "Department of Public Works",
    "final_address": "1013 Teche St",
    "address_councildis": "C",
    "status": "Pending",
    "rowid": "877116",
    "final_x": "3686527.9437",
    "final_y": "527778.514687",
    "longitude": "-90.05232600014226",
    "latitude": "29.945054257006774",
    "geocoded_column": {
      "latitude": "29.945054257006774",
      "longitude": "-90.05232600014226"
    }
  },
  {
    "service_request": "2022-877115",
    "request_type": "Trash/Recycling",
    "request_reason": "Order Recycling Cart",
    "date_created": "2022-04-23T21:16:55.000",
    "date_modified": "2022-04-23T21:16:55.000",
    "request_status": "Pending",
    "responsible_agency": "Department of Sanitation",
    "final_address": "1847 S Chippewa St",
    "address_councildis": "B",
    "status": "Pending",
    "rowid": "877115",
    "final_x": "3680784.2868",
    "final_y": "521863.399802",
    "longitude": "-90.07066629453007",
    "latitude": "29.928964964109387",
    "geocoded_column": {
      "latitude": "29.928964964109387",
      "longitude": "-90.07066629453007"
    }
  },
  {
    "service_request": "2022-877113",
    "request_type": "Roads/Drainage",
    "request_reason": "Accessibility Ramps, Curbs and Sidewalk Repair",
    "date_created": "2022-04-23T20:32:27.000",
    "date_modified": "2022-04-23T20:32:27.000",
    "request_status": "Pending",
    "responsible_agency": "Department of Public Works",
    "final_address": "1540 Canal St",
    "address_councildis": "B",
    "status": "Pending",
    "rowid": "877113",
    "final_x": "3678861.602",
    "final_y": "532330.713987",
    "longitude": "-90.07637335122413",
    "latitude": "29.957804717129143",
    "geocoded_column": {
      "latitude": "29.957804717129143",
      "longitude": "-90.07637335122413"
    }
  },
  {
    "service_request": "2022-877112",
    "request_type": "Trash/Recycling",
    "request_reason": "Order Recycling Cart",
    "date_created": "2022-04-23T20:31:33.000",
    "date_modified": "2022-04-23T20:31:34.000",
    "request_status": "Pending",
    "responsible_agency": "Department of Sanitation",
    "final_address": "9100 Dixon St",
    "address_councildis": "A",
    "status": "Pending",
    "rowid": "877112",
    "final_x": "3665762.52672",
    "final_y": "537841.438857",
    "longitude": "-90.11755200194045",
    "latitude": "29.973345999648412",
    "geocoded_column": {
      "latitude": "29.973345999648412",
      "longitude": "-90.11755200194045"
    }
  },
  {
    "service_request": "2022-877111",
    "request_type": "Trash/Recycling",
    "request_reason": "Missed Trash Pick-Up",
    "date_created": "2022-04-23T20:30:26.000",
    "date_modified": "2022-04-23T20:30:27.000",
    "request_status": "Pending",
    "responsible_agency": "Department of Sanitation",
    "final_address": "9100 Dixon St",
    "address_councildis": "A",
    "status": "Assigned to Contractor",
    "contractor": "Richards Disposal",
    "rowid": "877111",
    "final_x": "3665762.52672",
    "final_y": "537841.438857",
    "longitude": "-90.11755200194045",
    "latitude": "29.973345999648412",
    "geocoded_column": {
      "latitude": "29.973345999648412",
      "longitude": "-90.11755200194045"
    }
  },
  {
    "service_request": "2022-877110",
    "request_type": "Traffic Signals/Signs/Striping/Streetlights",
    "request_reason": "Street Light Outage/Malfunction",
    "date_created": "2022-04-23T20:25:47.000",
    "date_modified": "2022-04-23T20:25:48.000",
    "request_status": "Pending",
    "responsible_agency": "Department of Public Works",
    "final_address": "3403 Martin Luther King, Jr. Blvd",
    "address_councildis": "B",
    "status": "Pending",
    "contractor": "Royal Engineering",
    "rowid": "877110",
    "final_x": "3673531.36667",
    "final_y": "529203.917632",
    "longitude": "-90.09331158410964",
    "latitude": "29.949366764824887",
    "geocoded_column": {
      "latitude": "29.949366764824887",
      "longitude": "-90.09331158410964"
    }
  },
  {
    "service_request": "2022-877109",
    "request_type": "Roads/Drainage",
    "request_reason": "Damaged Sidewalk",
    "date_created": "2022-04-23T20:19:38.000",
    "date_modified": "2022-04-23T20:19:38.000",
    "request_status": "Pending",
    "responsible_agency": "Department of Public Works",
    "final_address": "6667 Argonne Blvd",
    "address_councildis": "A",
    "status": "Pending",
    "rowid": "877109",
    "final_x": "3670638.92187",
    "final_y": "551798.088214",
    "longitude": "-90.10167751721767",
    "latitude": "30.01157880242389",
    "geocoded_column": {
      "latitude": "30.01157880242389",
      "longitude": "-90.10167751721767"
    }
  },
  {
    "service_request": "2022-877108",
    "request_type": "Traffic Signals/Signs/Striping/Streetlights",
    "request_reason": "Street Light Outage/Malfunction",
    "date_created": "2022-04-23T20:17:06.000",
    "date_modified": "2022-04-23T20:17:07.000",
    "request_status": "Pending",
    "responsible_agency": "Department of Public Works",
    "final_address": "4007 Vendome Pl",
    "address_councildis": "B",
    "status": "Pending",
    "contractor": "Royal Engineering",
    "rowid": "877108",
    "final_x": "3668754.87822",
    "final_y": "529870.132225",
    "longitude": "-90.10837064754975",
    "latitude": "29.951339905710167",
    "geocoded_column": {
      "latitude": "29.951339905710167",
      "longitude": "-90.10837064754975"
    }
  },
  {
    "service_request": "2022-877107",
    "request_type": "Roads/Drainage",
    "request_reason": "Accessibility Ramps, Curbs and Sidewalk Repair",
    "date_created": "2022-04-23T20:02:54.000",
    "date_modified": "2022-04-23T20:02:54.000",
    "request_status": "Pending",
    "responsible_agency": "Department of Public Works",
    "final_address": "700 Canal St",
    "address_councildis": "B",
    "status": "Pending",
    "rowid": "877107",
    "final_x": "3681088.32981",
    "final_y": "530625.904002",
    "longitude": "-90.06940136900302",
    "latitude": "29.95304971412305",
    "geocoded_column": {
      "latitude": "29.95304971412305",
      "longitude": "-90.06940136900302"
    }
  },
  {
    "service_request": "2022-877106",
    "request_type": "Roads/Drainage",
    "request_reason": "Accessibility Ramps, Curbs and Sidewalk Repair",
    "date_created": "2022-04-23T20:00:23.000",
    "date_modified": "2022-04-23T20:00:23.000",
    "request_status": "Pending",
    "responsible_agency": "Department of Public Works",
    "final_address": "700 Canal St",
    "address_councildis": "B",
    "status": "Pending",
    "rowid": "877106",
    "final_x": "3681088.32981",
    "final_y": "530625.904002",
    "longitude": "-90.06940136900302",
    "latitude": "29.95304971412305",
    "geocoded_column": {
      "latitude": "29.95304971412305",
      "longitude": "-90.06940136900302"
    }
  },
  {
    "service_request": "2022-877105",
    "request_type": "Roads/Drainage",
    "request_reason": "Accessibility Ramps, Curbs and Sidewalk Repair",
    "date_created": "2022-04-23T19:57:31.000",
    "date_modified": "2022-04-23T19:57:31.000",
    "request_status": "Pending",
    "responsible_agency": "Department of Public Works",
    "final_address": "801 Canal St",
    "address_councildis": "C",
    "status": "Pending",
    "rowid": "877105",
    "final_x": "3680951.89391",
    "final_y": "530998.395906",
    "longitude": "-90.0698192041145",
    "latitude": "29.954078078458494",
    "geocoded_column": {
      "latitude": "29.954078078458494",
      "longitude": "-90.0698192041145"
    }
  },
  {
    "service_request": "2022-877104",
    "request_type": "Trash/Recycling",
    "request_reason": "Repair Trash Cart",
    "date_created": "2022-04-23T19:47:40.000",
    "date_modified": "2022-04-23T19:47:40.000",
    "request_status": "Pending",
    "responsible_agency": "Department of Sanitation",
    "final_address": "3320 Cherry St",
    "address_councildis": "A",
    "status": "Assigned to Contractor",
    "contractor": "Richards Disposal",
    "rowid": "877104",
    "final_x": "3663961.34637",
    "final_y": "536903.721992",
    "longitude": "-90.12327179904695",
    "latitude": "29.970820015275294",
    "geocoded_column": {
      "latitude": "29.970820015275294",
      "longitude": "-90.12327179904695"
    }
  },
  {
    "service_request": "2022-877103",
    "request_type": "Trash/Recycling",
    "request_reason": "Repair Trash Cart",
    "date_created": "2022-04-23T19:47:03.000",
    "date_modified": "2022-04-23T19:47:04.000",
    "request_status": "Pending",
    "responsible_agency": "Department of Sanitation",
    "final_address": "9235 Olive St",
    "address_councildis": "A",
    "status": "Assigned to Contractor",
    "contractor": "Richards Disposal",
    "rowid": "877103",
    "final_x": "3664209.91296",
    "final_y": "536996.97108",
    "longitude": "-90.12248367921805",
    "latitude": "29.971069199260093",
    "geocoded_column": {
      "latitude": "29.971069199260093",
      "longitude": "-90.12248367921805"
    }
  },
  {
    "service_request": "2022-877102",
    "request_type": "Trash/Recycling",
    "request_reason": "Missed Trash Pick-Up",
    "date_created": "2022-04-23T19:43:56.000",
    "date_modified": "2022-04-23T19:43:56.000",
    "request_status": "Pending",
    "responsible_agency": "Department of Sanitation",
    "final_address": "3320 Cherry St",
    "address_councildis": "A",
    "status": "Assigned to Contractor",
    "contractor": "Richards Disposal",
    "rowid": "877102",
    "final_x": "3663961.34637",
    "final_y": "536903.721992",
    "longitude": "-90.12327179904695",
    "latitude": "29.970820015275294",
    "geocoded_column": {
      "latitude": "29.970820015275294",
      "longitude": "-90.12327179904695"
    }
  },
  {
    "service_request": "2022-877101",
    "request_type": "Trash/Recycling",
    "request_reason": "Missed Trash Pick-Up",
    "date_created": "2022-04-23T19:25:52.000",
    "date_modified": "2022-04-23T19:25:53.000",
    "request_status": "Pending",
    "responsible_agency": "Department of Sanitation",
    "final_address": "5425 Constance St",
    "address_councildis": "A",
    "status": "Assigned to Contractor",
    "contractor": "Richards Disposal",
    "rowid": "877101",
    "final_x": "3666472.53761",
    "final_y": "518540.172791",
    "longitude": "-90.11595726393784",
    "latitude": "29.92025302903185",
    "geocoded_column": {
      "latitude": "29.92025302903185",
      "longitude": "-90.11595726393784"
    }
  },
  {
    "service_request": "2022-877100",
    "request_type": "Roads/Drainage",
    "request_reason": "Pothole",
    "date_created": "2022-04-23T19:25:30.000",
    "date_modified": "2022-04-23T19:25:30.000",
    "request_status": "Pending",
    "responsible_agency": "Department of Public Works",
    "final_address": "930 Poydras St Ste B",
    "address_councildis": "B",
    "status": "Pending",
    "rowid": "877100",
    "final_x": "3679647.53986",
    "final_y": "529540.000449",
    "longitude": "-90.07398843732577",
    "latitude": "29.95010746545257",
    "geocoded_column": {
      "latitude": "29.95010746545257",
      "longitude": "-90.07398843732577"
    }
  },
  {
    "service_request": "2022-877099",
    "request_type": "Traffic Signals/Signs/Striping/Streetlights",
    "request_reason": "Striping/Road Surface Markings",
    "date_created": "2022-04-23T19:23:03.000",
    "date_modified": "2022-04-23T19:23:03.000",
    "request_status": "Pending",
    "responsible_agency": "Department of Public Works",
    "final_address": "909 Poydras St",
    "address_councildis": "B",
    "status": "Pending",
    "rowid": "877099",
    "final_x": "3679711.14754",
    "final_y": "529714.482369",
    "longitude": "-90.07378154211392",
    "latitude": "29.950585309768933",
    "geocoded_column": {
      "latitude": "29.950585309768933",
      "longitude": "-90.07378154211392"
    }
  },
  {
    "service_request": "2022-877097",
    "request_type": "Trash/Recycling",
    "request_reason": "Missed Trash Pick-Up",
    "date_created": "2022-04-23T18:46:35.000",
    "date_modified": "2022-04-23T18:46:36.000",
    "request_status": "Pending",
    "responsible_agency": "Department of Sanitation",
    "final_address": "5906 Patton St",
    "address_councildis": "A",
    "status": "Assigned to Contractor",
    "contractor": "Richards Disposal",
    "rowid": "877097",
    "final_x": "3664961.02407",
    "final_y": "518352.97823",
    "longitude": "-90.12073466778232",
    "latitude": "29.91978237246042",
    "geocoded_column": {
      "latitude": "29.91978237246042",
      "longitude": "-90.12073466778232"
    }
  },
  {
    "service_request": "2022-877096",
    "request_type": "Trash/Recycling",
    "request_reason": "Replace Trash Cart",
    "date_created": "2022-04-23T18:46:05.000",
    "date_modified": "2022-04-23T18:46:05.000",
    "request_status": "Pending",
    "responsible_agency": "Department of Sanitation",
    "final_address": "5910 Tchoupitoulas St",
    "address_councildis": "A",
    "status": "Assigned to Contractor",
    "contractor": "Richards Disposal",
    "rowid": "877096",
    "final_x": "3664718.77581",
    "final_y": "517304.760693",
    "longitude": "-90.12153432195213",
    "latitude": "29.916907147861043",
    "geocoded_column": {
      "latitude": "29.916907147861043",
      "longitude": "-90.12153432195213"
    }
  },
  {
    "service_request": "2022-877095",
    "request_type": "Trash/Recycling",
    "request_reason": "Missed Trash Pick-Up",
    "date_created": "2022-04-23T18:44:24.000",
    "date_modified": "2022-04-23T18:44:24.000",
    "request_status": "Pending",
    "responsible_agency": "Department of Sanitation",
    "final_address": "5910 Tchoupitoulas St",
    "address_councildis": "A",
    "status": "Assigned to Contractor",
    "contractor": "Richards Disposal",
    "rowid": "877095",
    "final_x": "3664718.77581",
    "final_y": "517304.760693",
    "longitude": "-90.12153432195213",
    "latitude": "29.916907147861043",
    "geocoded_column": {
      "latitude": "29.916907147861043",
      "longitude": "-90.12153432195213"
    }
  },
  {
    "service_request": "2022-877094",
    "request_type": "Trash/Recycling",
    "request_reason": "Missed Trash Pick-Up",
    "date_created": "2022-04-23T18:37:28.000",
    "date_modified": "2022-04-23T18:37:29.000",
    "request_status": "Pending",
    "responsible_agency": "Department of Sanitation",
    "final_address": "6033 Constance St",
    "address_councildis": "A",
    "status": "Assigned to Contractor",
    "contractor": "Richards Disposal",
    "rowid": "877094",
    "final_x": "3664363.58964",
    "final_y": "519071.465143",
    "longitude": "-90.12259652040207",
    "latitude": "29.92177535821986",
    "geocoded_column": {
      "latitude": "29.92177535821986",
      "longitude": "-90.12259652040207"
    }
  },
  {
    "service_request": "2022-877093",
    "request_type": "Property Maintenance",
    "request_reason": "Property Maintenance",
    "date_created": "2022-04-23T18:35:16.000",
    "date_modified": "2022-04-23T18:35:16.000",
    "request_status": "Pending",
    "responsible_agency": "Department of Code Enforcement",
    "final_address": "1412 Hendee St",
    "address_councildis": "C",
    "status": "Pending",
    "rowid": "877093",
    "final_x": "3690769.26396",
    "final_y": "526083.276542",
    "longitude": "-90.03899534694618",
    "latitude": "29.940261871342354",
    "geocoded_column": {
      "latitude": "29.940261871342354",
      "longitude": "-90.03899534694618"
    }
  },
  {
    "service_request": "2022-877091",
    "request_type": "Health Related Questions",
    "request_reason": "Noise Ordinance Complaint",
    "date_created": "2022-04-23T18:19:42.000",
    "date_modified": "2022-04-23T18:19:42.000",
    "request_status": "Pending",
    "responsible_agency": "Health Department",
    "final_address": "4500 Louisa Dr, New Orleans, Louisiana, 70126",
    "status": "Pending",
    "rowid": "877091",
    "longitude": "0.0",
    "latitude": "0.0",
    "geocoded_column": {
      "latitude": "0.0",
      "longitude": "0.0"
    }
  },
  {
    "service_request": "2022-877090",
    "request_type": "Trash/Recycling",
    "request_reason": "Missed Trash Pick-Up",
    "date_created": "2022-04-23T17:17:13.000",
    "date_modified": "2022-04-23T17:17:13.000",
    "request_status": "Pending",
    "responsible_agency": "Department of Sanitation",
    "final_address": "3621 Live Oak St",
    "address_councildis": "A",
    "status": "Assigned to Contractor",
    "contractor": "Richards Disposal",
    "rowid": "877090",
    "final_x": "3664551.72941",
    "final_y": "537873.627401",
    "longitude": "-90.12137488923305",
    "latitude": "29.973469776860757",
    "geocoded_column": {
      "latitude": "29.973469776860757",
      "longitude": "-90.12137488923305"
    }
  },
  {
    "service_request": "2022-877089",
    "request_type": "Trash/Recycling",
    "request_reason": "Dead Animal Pick Up",
    "date_created": "2022-04-23T17:04:48.000",
    "date_modified": "2022-04-23T17:04:49.000",
    "request_status": "Pending",
    "responsible_agency": "Department of Sanitation",
    "final_address": "501 Emerald St",
    "address_councildis": "D",
    "status": "Assigned to Contractor",
    "contractor": "Metro Disposal",
    "rowid": "877089",
    "final_x": "3668182.66503",
    "final_y": "555159.506521",
    "longitude": "-90.10932443220793",
    "latitude": "30.020893884047855",
    "geocoded_column": {
      "latitude": "30.020893884047855",
      "longitude": "-90.10932443220793"
    }
  },
  {
    "service_request": "2022-877088",
    "request_type": "Trash/Recycling",
    "request_reason": "Replace Trash Cart",
    "date_created": "2022-04-23T17:03:27.000",
    "date_modified": "2022-04-23T17:04:06.000",
    "request_status": "Pending",
    "responsible_agency": "Department of Sanitation",
    "final_address": "7739 Jeannette St",
    "address_councildis": "A",
    "status": "Assigned to Contractor",
    "contractor": "Richards Disposal",
    "rowid": "877088",
    "final_x": "3663571.44064",
    "final_y": "528397.424192",
    "longitude": "-90.12478651706756",
    "latitude": "29.94744178417641",
    "geocoded_column": {
      "latitude": "29.94744178417641",
      "longitude": "-90.12478651706756"
    }
  },
  {
    "service_request": "2022-877087",
    "request_type": "Trash/Recycling",
    "request_reason": "Replace Trash Cart",
    "date_created": "2022-04-23T17:00:41.000",
    "date_modified": "2022-04-23T17:00:42.000",
    "request_status": "Pending",
    "responsible_agency": "Department of Sanitation",
    "final_address": "7739 Jeannette St",
    "address_councildis": "A",
    "status": "Assigned to Contractor",
    "contractor": "Richards Disposal",
    "rowid": "877087",
    "final_x": "3663571.44064",
    "final_y": "528397.424192",
    "longitude": "-90.12478651706756",
    "latitude": "29.94744178417641",
    "geocoded_column": {
      "latitude": "29.94744178417641",
      "longitude": "-90.12478651706756"
    }
  },
  {
    "service_request": "2022-877086",
    "request_type": "Trash/Recycling",
    "request_reason": "Replace Trash Cart",
    "date_created": "2022-04-23T16:48:10.000",
    "date_modified": "2022-04-23T16:48:11.000",
    "request_status": "Pending",
    "responsible_agency": "Department of Sanitation",
    "final_address": "14562 Beekman Rd",
    "address_councildis": "E",
    "status": "Assigned to Contractor",
    "contractor": "Metro Disposal",
    "rowid": "877086",
    "final_x": "3721062.69049",
    "final_y": "572942.667305",
    "longitude": "-89.94155854593055",
    "latitude": "30.068131059149795",
    "geocoded_column": {
      "latitude": "30.068131059149795",
      "longitude": "-89.94155854593055"
    }
  },
  {
    "service_request": "2022-877085",
    "request_type": "Trash/Recycling",
    "request_reason": "Missed Trash Pick-Up",
    "date_created": "2022-04-23T16:47:09.000",
    "date_modified": "2022-04-23T16:47:10.000",
    "request_status": "Pending",
    "responsible_agency": "Department of Sanitation",
    "final_address": "6100 Block of Patton St, New Orleans, Louisiana, 70118",
    "status": "Assigned to Contractor",
    "rowid": "877085",
    "longitude": "0.0",
    "latitude": "0.0",
    "geocoded_column": {
      "latitude": "0.0",
      "longitude": "0.0"
    }
  },
  {
    "service_request": "2022-877084",
    "request_type": "Roads/Drainage",
    "request_reason": "Damaged Sidewalk",
    "date_created": "2022-04-23T16:43:10.000",
    "date_modified": "2022-04-23T16:43:11.000",
    "request_status": "Pending",
    "responsible_agency": "Department of Public Works",
    "final_address": "1836 Desire St",
    "address_councildis": "D",
    "status": "Pending",
    "rowid": "877084",
    "final_x": "3690869.49225",
    "final_y": "538632.959561",
    "longitude": "-90.0382310864434",
    "latitude": "29.974766021005358",
    "geocoded_column": {
      "latitude": "29.974766021005358",
      "longitude": "-90.0382310864434"
    }
  },
  {
    "service_request": "2022-877083",
    "request_type": "Trash/Recycling",
    "request_reason": "Replace Trash Cart",
    "date_created": "2022-04-23T16:39:30.000",
    "date_modified": "2022-04-23T16:39:31.000",
    "request_status": "Pending",
    "responsible_agency": "Department of Sanitation",
    "final_address": "7739 Jeannette St, New Orleans, Louisiana, 70118",
    "address_councildis": "A",
    "status": "Assigned to Contractor",
    "contractor": "Richards Disposal",
    "rowid": "877083",
    "final_x": "3663571.44064",
    "final_y": "528397.424192",
    "longitude": "-90.12478651706756",
    "latitude": "29.94744178417641",
    "geocoded_column": {
      "latitude": "29.94744178417641",
      "longitude": "-90.12478651706756"
    }
  },
  {
    "service_request": "2022-877082",
    "request_type": "Trash/Recycling",
    "request_reason": "Replace Trash Cart",
    "date_created": "2022-04-23T16:33:05.000",
    "date_modified": "2022-04-23T16:33:06.000",
    "request_status": "Pending",
    "responsible_agency": "Department of Sanitation",
    "final_address": "8906 Olive St",
    "address_councildis": "A",
    "status": "Assigned to Contractor",
    "contractor": "Richards Disposal",
    "rowid": "877082",
    "final_x": "3665075.80647",
    "final_y": "536105.140103",
    "longitude": "-90.11977889076181",
    "latitude": "29.96859177108511",
    "geocoded_column": {
      "latitude": "29.96859177108511",
      "longitude": "-90.11977889076181"
    }
  },
  {
    "service_request": "2022-877081",
    "request_type": "Traffic Signals/Signs/Striping/Streetlights",
    "request_reason": "Traffic Signal Malfunctioning/Damaged",
    "date_created": "2022-04-23T16:29:05.000",
    "date_modified": "2022-04-23T16:29:05.000",
    "request_status": "Pending",
    "responsible_agency": "Department of Public Works",
    "final_address": "3401 St Charles Ave",
    "address_councildis": "B",
    "status": "Pending",
    "rowid": "877081",
    "final_x": "3674073.72033",
    "final_y": "521615.398329",
    "longitude": "-90.09185873034882",
    "latitude": "29.92848466612907",
    "geocoded_column": {
      "latitude": "29.92848466612907",
      "longitude": "-90.09185873034882"
    }
  },
  {
    "service_request": "2022-877080",
    "request_type": "Trash/Recycling",
    "request_reason": "Request a Large Item Pick Up",
    "date_created": "2022-04-23T16:28:33.000",
    "date_modified": "2022-04-23T16:28:34.000",
    "request_status": "Pending",
    "responsible_agency": "Department of Sanitation",
    "final_address": "8906 Olive St",
    "address_councildis": "A",
    "status": "Assigned to Contractor",
    "contractor": "Richards Disposal",
    "rowid": "877080",
    "final_x": "3665075.80647",
    "final_y": "536105.140103",
    "longitude": "-90.11977889076181",
    "latitude": "29.96859177108511",
    "geocoded_column": {
      "latitude": "29.96859177108511",
      "longitude": "-90.11977889076181"
    }
  },
  {
    "service_request": "2022-877078",
    "request_type": "Trash/Recycling",
    "request_reason": "Repair Trash Cart",
    "date_created": "2022-04-23T16:20:42.000",
    "date_modified": "2022-04-23T16:20:43.000",
    "request_status": "Pending",
    "responsible_agency": "Department of Sanitation",
    "final_address": "2755 Orchid St Apt A",
    "address_councildis": "A",
    "status": "Assigned to Contractor",
    "contractor": "Richards Disposal",
    "rowid": "877078",
    "final_x": "3677444.79778",
    "final_y": "538770.311305",
    "longitude": "-90.08062490544113",
    "latitude": "29.97555407910805",
    "geocoded_column": {
      "latitude": "29.97555407910805",
      "longitude": "-90.08062490544113"
    }
  },
  {
    "service_request": "2022-877077",
    "request_type": "Trash/Recycling",
    "request_reason": "Request a Large Item Pick Up",
    "date_created": "2022-04-23T15:52:24.000",
    "date_modified": "2022-04-23T15:52:24.000",
    "request_status": "Pending",
    "responsible_agency": "Department of Sanitation",
    "final_address": "5521 Woodlawn Pl",
    "address_councildis": "A",
    "status": "Assigned to Contractor",
    "contractor": "Metro Disposal",
    "rowid": "877077",
    "final_x": "3667518.23949",
    "final_y": "544194.835022",
    "longitude": "-90.11179317258552",
    "latitude": "29.990764351650533",
    "geocoded_column": {
      "latitude": "29.990764351650533",
      "longitude": "-90.11179317258552"
    }
  },
  {
    "service_request": "2022-877076",
    "request_type": "Traffic Signals/Signs/Striping/Streetlights",
    "request_reason": "Street Light Outage/Malfunction",
    "date_created": "2022-04-23T15:51:12.000",
    "date_modified": "2022-04-23T15:51:13.000",
    "request_status": "Pending",
    "responsible_agency": "Department of Public Works",
    "final_address": "5022 Chestnut St",
    "address_councildis": "B",
    "status": "Pending",
    "contractor": "Royal Engineering",
    "rowid": "877076",
    "final_x": "3668536.48519",
    "final_y": "519303.228983",
    "longitude": "-90.10941661342329",
    "latitude": "29.92229073626848",
    "geocoded_column": {
      "latitude": "29.92229073626848",
      "longitude": "-90.10941661342329"
    }
  },
  {
    "service_request": "2022-877073",
    "request_type": "Property Maintenance",
    "request_reason": "Property Maintenance",
    "date_created": "2022-04-23T15:19:22.000",
    "date_modified": "2022-04-23T15:19:22.000",
    "request_status": "Pending",
    "responsible_agency": "Department of Code Enforcement",
    "final_address": "3400 Octavia St",
    "address_councildis": "A",
    "status": "Pending",
    "rowid": "877073",
    "final_x": "3668420.15118",
    "final_y": "528066.626495",
    "longitude": "-90.10948837697084",
    "latitude": "29.94639068770748",
    "geocoded_column": {
      "latitude": "29.94639068770748",
      "longitude": "-90.10948837697084"
    }
  },
  {
    "service_request": "2022-877072",
    "request_type": "Property Maintenance",
    "request_reason": "Property Maintenance",
    "date_created": "2022-04-23T15:08:06.000",
    "date_modified": "2022-04-23T15:08:06.000",
    "request_status": "Pending",
    "responsible_agency": "Department of Code Enforcement",
    "final_address": "901 Piety St",
    "address_councildis": "C",
    "status": "Pending",
    "rowid": "877072",
    "final_x": "3689679.88809",
    "final_y": "535029.022342",
    "longitude": "-90.04211640355143",
    "latitude": "29.96489337804015",
    "geocoded_column": {
      "latitude": "29.96489337804015",
      "longitude": "-90.04211640355143"
    }
  },
  {
    "service_request": "2022-877071",
    "request_type": "Trash/Recycling",
    "request_reason": "Missed Trash Pick-Up",
    "date_created": "2022-04-23T15:03:27.000",
    "date_modified": "2022-04-23T15:03:28.000",
    "request_status": "Pending",
    "responsible_agency": "Department of Sanitation",
    "final_address": "3528 Hamilton St",
    "address_councildis": "A",
    "status": "Assigned to Contractor",
    "contractor": "Richards Disposal",
    "rowid": "877071",
    "final_x": "3665011.62765",
    "final_y": "537017.824456",
    "longitude": "-90.11995104972398",
    "latitude": "29.971103219648956",
    "geocoded_column": {
      "latitude": "29.971103219648956",
      "longitude": "-90.11995104972398"
    }
  },
  {
    "service_request": "2022-877069",
    "request_type": "Roads/Drainage",
    "request_reason": "Pothole",
    "date_created": "2022-04-23T14:53:32.000",
    "date_modified": "2022-04-23T14:53:32.000",
    "request_status": "Pending",
    "responsible_agency": "Department of Public Works",
    "final_address": "610 OKeefe Ave",
    "address_councildis": "B",
    "status": "Pending",
    "rowid": "877069",
    "final_x": "3679470.16706",
    "final_y": "529059.818688",
    "longitude": "-90.07456514230866",
    "latitude": "29.948792485598336",
    "geocoded_column": {
      "latitude": "29.948792485598336",
      "longitude": "-90.07456514230866"
    }
  },
  {
    "service_request": "2022-877068",
    "request_type": "Trash/Recycling",
    "request_reason": "Missed Trash Pick-Up",
    "date_created": "2022-04-23T14:50:09.000",
    "date_modified": "2022-04-23T14:50:10.000",
    "request_status": "Pending",
    "responsible_agency": "Department of Sanitation",
    "final_address": "3122 Hamilton St",
    "address_councildis": "A",
    "status": "Assigned to Contractor",
    "contractor": "Richards Disposal",
    "rowid": "877068",
    "final_x": "3664036.48359",
    "final_y": "535942.806919",
    "longitude": "-90.12306655849386",
    "latitude": "29.96817563412154",
    "geocoded_column": {
      "latitude": "29.96817563412154",
      "longitude": "-90.12306655849386"
    }
  },
  {
    "service_request": "2022-877067",
    "request_type": "Trash/Recycling",
    "request_reason": "Missed Trash Pick-Up",
    "date_created": "2022-04-23T14:40:54.000",
    "date_modified": "2022-04-23T14:40:54.000",
    "request_status": "Pending",
    "responsible_agency": "Department of Sanitation",
    "final_address": "3359 Huntlee Dr",
    "address_councildis": "C",
    "status": "Assigned to Contractor",
    "contractor": "Richards Disposal",
    "rowid": "877067",
    "final_x": "3701679.52183",
    "final_y": "518794.379127",
    "longitude": "-90.0048169874126",
    "latitude": "29.91987654868609",
    "geocoded_column": {
      "latitude": "29.91987654868609",
      "longitude": "-90.0048169874126"
    }
  },
  {
    "service_request": "2022-877066",
    "request_type": "Trash/Recycling",
    "request_reason": "MIssed Recycling Pick-Up",
    "date_created": "2022-04-23T14:40:18.000",
    "date_modified": "2022-04-23T14:40:18.000",
    "request_status": "Pending",
    "responsible_agency": "Department of Sanitation",
    "final_address": "7224 Walmsley Ave",
    "address_councildis": "B",
    "status": "Assigned to Contractor",
    "contractor": "Richards Disposal",
    "rowid": "877066",
    "final_x": "3667133.42746",
    "final_y": "531347.688962",
    "longitude": "-90.11344074122005",
    "latitude": "29.955450267875644",
    "geocoded_column": {
      "latitude": "29.955450267875644",
      "longitude": "-90.11344074122005"
    }
  },
  {
    "service_request": "2022-877065",
    "request_type": "Trash/Recycling",
    "request_reason": "Missed Trash Pick-Up",
    "date_created": "2022-04-23T14:31:42.000",
    "date_modified": "2022-04-23T14:31:43.000",
    "request_status": "Pending",
    "responsible_agency": "Department of Sanitation",
    "final_address": "636 State St, New Orleans, Louisiana, 70118",
    "address_councildis": "A",
    "status": "Assigned to Contractor",
    "contractor": "Richards Disposal",
    "rowid": "877065",
    "final_x": "3664529.68775",
    "final_y": "518875.585079",
    "longitude": "-90.1220787533461",
    "latitude": "29.92123192240745",
    "geocoded_column": {
      "latitude": "29.92123192240745",
      "longitude": "-90.1220787533461"
    }
  },
  {
    "service_request": "2022-877063",
    "request_type": "Property Maintenance",
    "request_reason": "Property Maintenance",
    "date_created": "2022-04-23T14:07:02.000",
    "date_modified": "2022-04-23T14:07:02.000",
    "request_status": "Pending",
    "responsible_agency": "Department of Code Enforcement",
    "final_address": "4001 N Roman St",
    "address_councildis": "D",
    "status": "Pending",
    "rowid": "877063",
    "final_x": "3692503.06544",
    "final_y": "537962.343945",
    "longitude": "-90.03309590897264",
    "latitude": "29.9728711966727",
    "geocoded_column": {
      "latitude": "29.9728711966727",
      "longitude": "-90.03309590897264"
    }
  },
  {
    "service_request": "2022-877062",
    "request_type": "Trash/Recycling",
    "request_reason": "Missed Trash Pick-Up",
    "date_created": "2022-04-23T13:59:38.000",
    "date_modified": "2022-04-23T13:59:39.000",
    "request_status": "Pending",
    "responsible_agency": "Department of Sanitation",
    "final_address": "1017 Jefferson Ave",
    "address_councildis": "B",
    "status": "Assigned to Contractor",
    "contractor": "Richards Disposal",
    "rowid": "877062",
    "final_x": "3666999.41729",
    "final_y": "519291.241655",
    "longitude": "-90.11426892619464",
    "latitude": "29.922302829678884",
    "geocoded_column": {
      "latitude": "29.922302829678884",
      "longitude": "-90.11426892619464"
    }
  },
  {
    "service_request": "2022-877061",
    "request_type": "Trash/Recycling",
    "request_reason": "Missed Trash Pick-Up",
    "date_created": "2022-04-23T13:59:16.000",
    "date_modified": "2022-04-23T13:59:17.000",
    "request_status": "Pending",
    "responsible_agency": "Department of Sanitation",
    "final_address": "8637 Pritchard Pl",
    "address_councildis": "A",
    "status": "Assigned to Contractor",
    "contractor": "Richards Disposal",
    "rowid": "877061",
    "final_x": "3664537.21421",
    "final_y": "534321.345669",
    "longitude": "-90.12153937757216",
    "latitude": "29.9637025974737",
    "geocoded_column": {
      "latitude": "29.9637025974737",
      "longitude": "-90.12153937757216"
    }
  },
  {
    "service_request": "2022-877060",
    "request_type": "Trash/Recycling",
    "request_reason": "MIssed Recycling Pick-Up",
    "date_created": "2022-04-23T13:48:39.000",
    "date_modified": "2022-04-23T13:48:40.000",
    "request_status": "Pending",
    "responsible_agency": "Department of Sanitation",
    "final_address": "2830 Broadway St",
    "address_councildis": "B",
    "status": "Assigned to Contractor",
    "contractor": "Richards Disposal",
    "rowid": "877060",
    "final_x": "3667412.55341",
    "final_y": "531530.738115",
    "longitude": "-90.11255320122584",
    "latitude": "29.955945419086795",
    "geocoded_column": {
      "latitude": "29.955945419086795",
      "longitude": "-90.11255320122584"
    }
  },
  {
    "service_request": "2022-877059",
    "request_type": "Trash/Recycling",
    "request_reason": "Dead Animal Pick Up",
    "date_created": "2022-04-23T13:34:36.000",
    "date_modified": "2022-04-23T13:34:36.000",
    "request_status": "Pending",
    "responsible_agency": "Department of Sanitation",
    "final_address": "4630 Magnolia St",
    "address_councildis": "B",
    "status": "Assigned to Contractor",
    "contractor": "Richards Disposal",
    "rowid": "877059",
    "final_x": "3669456.14958",
    "final_y": "524605.948028",
    "longitude": "-90.1063343610286",
    "latitude": "29.936844476454404",
    "geocoded_column": {
      "latitude": "29.936844476454404",
      "longitude": "-90.1063343610286"
    }
  },
  {
    "service_request": "2022-877058",
    "request_type": "Trash/Recycling",
    "request_reason": "MIssed Recycling Pick-Up",
    "date_created": "2022-04-23T13:24:50.000",
    "date_modified": "2022-04-23T13:24:51.000",
    "request_status": "Pending",
    "responsible_agency": "Department of Sanitation",
    "final_address": "6026 Benjamin St",
    "address_councildis": "A",
    "status": "Assigned to Contractor",
    "contractor": "Richards Disposal",
    "rowid": "877058",
    "final_x": "3665360.39456",
    "final_y": "522127.85913",
    "longitude": "-90.11934780455478",
    "latitude": "29.930150480305272",
    "geocoded_column": {
      "latitude": "29.930150480305272",
      "longitude": "-90.11934780455478"
    }
  },
  {
    "service_request": "2022-877057",
    "request_type": "Traffic Signals/Signs/Striping/Streetlights",
    "request_reason": "Street Light Outage/Malfunction",
    "date_created": "2022-04-23T13:20:52.000",
    "date_modified": "2022-04-23T13:20:53.000",
    "request_status": "Pending",
    "responsible_agency": "Department of Public Works",
    "final_address": "2401 Killdeer St",
    "address_councildis": "D",
    "status": "Pending",
    "contractor": "Royal Engineering",
    "rowid": "877057",
    "final_x": "3684710.62364",
    "final_y": "557714.174555",
    "longitude": "-90.05701104148092",
    "latitude": "30.027422457904432",
    "geocoded_column": {
      "latitude": "30.027422457904432",
      "longitude": "-90.05701104148092"
    }
  },
  {
    "service_request": "2022-877056",
    "request_type": "Traffic Signals/Signs/Striping/Streetlights",
    "request_reason": "Traffic Sign Missing/Damaged",
    "date_created": "2022-04-23T12:56:44.000",
    "date_modified": "2022-04-23T12:56:44.000",
    "request_status": "Pending",
    "responsible_agency": "Department of Public Works",
    "final_address": "500 S Pierce St",
    "address_councildis": "B",
    "status": "Pending",
    "rowid": "877056",
    "final_x": "3670548.94759",
    "final_y": "536689.686599",
    "longitude": "-90.1024745388979",
    "latitude": "29.970038556574593",
    "geocoded_column": {
      "latitude": "29.970038556574593",
      "longitude": "-90.1024745388979"
    }
  },
  {
    "service_request": "2022-877055",
    "request_type": "Property Maintenance",
    "request_reason": "Property Maintenance",
    "date_created": "2022-04-23T12:56:01.000",
    "date_modified": "2022-04-23T12:56:01.000",
    "request_status": "Pending",
    "responsible_agency": "Department of Code Enforcement",
    "final_address": "2300 Joseph St",
    "address_councildis": "A",
    "status": "Pending",
    "rowid": "877055",
    "final_x": "3667285.61133",
    "final_y": "524503.825532",
    "longitude": "-90.11319031599152",
    "latitude": "29.936627403798468",
    "geocoded_column": {
      "latitude": "29.936627403798468",
      "longitude": "-90.11319031599152"
    }
  },
  {
    "service_request": "2022-877054",
    "request_type": "Trash/Recycling",
    "request_reason": "Illegal Dumping",
    "date_created": "2022-04-23T12:54:26.000",
    "date_modified": "2022-04-23T12:54:26.000",
    "request_status": "Pending",
    "responsible_agency": "Department of Sanitation",
    "final_address": "1213 Belleville St",
    "address_councildis": "C",
    "status": "Pending",
    "rowid": "877054",
    "final_x": "3687682.48207",
    "final_y": "527045.07539",
    "longitude": "-90.04870673628453",
    "latitude": "29.94300200699452",
    "geocoded_column": {
      "latitude": "29.94300200699452",
      "longitude": "-90.04870673628453"
    }
  },
  {
    "service_request": "2022-877053",
    "request_type": "Trash/Recycling",
    "request_reason": "Replace Recycling Cart",
    "date_created": "2022-04-23T12:52:25.000",
    "date_modified": "2022-04-23T12:52:25.000",
    "request_status": "Pending",
    "responsible_agency": "Department of Sanitation",
    "final_address": "1209 Belleville St",
    "address_councildis": "C",
    "status": "Pending",
    "rowid": "877053",
    "final_x": "3687677.91926",
    "final_y": "527083.414399",
    "longitude": "-90.04871978510079",
    "latitude": "29.943107566907223",
    "geocoded_column": {
      "latitude": "29.943107566907223",
      "longitude": "-90.04871978510079"
    }
  },
  {
    "service_request": "2022-877051",
    "request_type": "Trash/Recycling",
    "request_reason": "Repair Recycling Cart",
    "date_created": "2022-04-23T12:43:22.000",
    "date_modified": "2022-04-23T12:43:22.000",
    "request_status": "Pending",
    "responsible_agency": "Department of Sanitation",
    "final_address": "523 Lane St",
    "address_councildis": "A",
    "status": "Pending",
    "rowid": "877051",
    "final_x": "3668255.99617",
    "final_y": "550809.849877",
    "longitude": "-90.1092395490052",
    "latitude": "30.00893170713037",
    "geocoded_column": {
      "latitude": "30.00893170713037",
      "longitude": "-90.1092395490052"
    }
  },
  {
    "service_request": "2022-877050",
    "request_type": "Trash/Recycling",
    "request_reason": "Missed Trash Pick-Up",
    "date_created": "2022-04-23T12:32:00.000",
    "date_modified": "2022-04-23T12:32:01.000",
    "request_status": "Pending",
    "responsible_agency": "Department of Sanitation",
    "final_address": "1124 St Charles Ave Apt 2A",
    "address_councildis": "B",
    "status": "Assigned to Contractor",
    "contractor": "Richards Disposal",
    "rowid": "877050",
    "final_x": "3679894.45135",
    "final_y": "526439.825918",
    "longitude": "-90.0733164629379",
    "latitude": "29.941575557127855",
    "geocoded_column": {
      "latitude": "29.941575557127855",
      "longitude": "-90.0733164629379"
    }
  },
  {
    "service_request": "2022-877049",
    "request_type": "Traffic Signals/Signs/Striping/Streetlights",
    "request_reason": "Traffic Signal Malfunctioning/Damaged",
    "date_created": "2022-04-23T12:16:01.000",
    "date_modified": "2022-04-23T12:16:01.000",
    "request_status": "Pending",
    "responsible_agency": "Department of Public Works",
    "final_address": "2301 S Galvez St",
    "address_councildis": "B",
    "status": "Pending",
    "rowid": "877049",
    "final_x": "3673464.75662",
    "final_y": "529045.689792",
    "longitude": "-90.09352730776668",
    "latitude": "29.94893367241105",
    "geocoded_column": {
      "latitude": "29.94893367241105",
      "longitude": "-90.09352730776668"
    }
  },
  {
    "service_request": "2022-877048",
    "request_type": "Trash/Recycling",
    "request_reason": "Repair Trash Cart",
    "date_created": "2022-04-23T12:05:44.000",
    "date_modified": "2022-04-23T12:05:45.000",
    "request_status": "Pending",
    "responsible_agency": "Department of Sanitation",
    "final_address": "2914 OReilly St",
    "address_councildis": "D",
    "status": "Assigned to Contractor",
    "contractor": "Metro Disposal",
    "rowid": "877048",
    "final_x": "3679005.76494",
    "final_y": "542056.276748",
    "longitude": "-90.07558102633087",
    "latitude": "29.984542328335415",
    "geocoded_column": {
      "latitude": "29.984542328335415",
      "longitude": "-90.07558102633087"
    }
  },
  {
    "service_request": "2022-877047",
    "request_type": "Abandoned Vehicles",
    "request_reason": "Abandoned/Junk Vehicles",
    "date_created": "2022-04-23T11:54:44.000",
    "date_modified": "2022-04-23T11:54:44.000",
    "request_status": "Pending",
    "responsible_agency": "Department of Public Works",
    "final_address": "3960 Laurel St",
    "address_councildis": "B",
    "status": "Pending",
    "rowid": "877047",
    "final_x": "3672759.85486",
    "final_y": "518125.341302",
    "longitude": "-90.09612528861126",
    "latitude": "29.918927203358678",
    "geocoded_column": {
      "latitude": "29.918927203358678",
      "longitude": "-90.09612528861126"
    }
  },
  {
    "service_request": "2022-877046",
    "request_type": "Property Maintenance",
    "request_reason": "Property Maintenance",
    "date_created": "2022-04-23T11:48:41.000",
    "date_modified": "2022-04-23T11:48:41.000",
    "request_status": "Pending",
    "responsible_agency": "Department of Code Enforcement",
    "final_address": "931 Homer St",
    "address_councildis": "C",
    "status": "Pending",
    "rowid": "877046",
    "final_x": "3688400.48297",
    "final_y": "528271.039936",
    "longitude": "-90.04639636525725",
    "latitude": "29.94635083827525",
    "geocoded_column": {
      "latitude": "29.94635083827525",
      "longitude": "-90.04639636525725"
    }
  },
  {
    "service_request": "2022-877045",
    "request_type": "Health Related Questions",
    "request_reason": "Noise Ordinance Complaint",
    "date_created": "2022-04-23T11:47:21.000",
    "date_modified": "2022-04-23T11:47:21.000",
    "request_status": "Pending",
    "responsible_agency": "Health Department",
    "final_address": "4500 Louisa Dr, New Orleans, Louisiana, 70126",
    "status": "Pending",
    "rowid": "877045",
    "longitude": "0.0",
    "latitude": "0.0",
    "geocoded_column": {
      "latitude": "0.0",
      "longitude": "0.0"
    }
  },
  {
    "service_request": "2022-877044",
    "request_type": "Trash/Recycling",
    "request_reason": "Order Trash Cart",
    "date_created": "2022-04-23T11:38:40.000",
    "date_modified": "2022-04-23T11:38:41.000",
    "request_status": "Pending",
    "responsible_agency": "Department of Sanitation",
    "final_address": "3103 St Claude Ave",
    "address_councildis": "C",
    "status": "Assigned to Contractor",
    "contractor": "Metro Disposal",
    "rowid": "877044",
    "final_x": "3689071.10051",
    "final_y": "536090.690823",
    "longitude": "-90.04400118543452",
    "latitude": "29.967831444427496",
    "geocoded_column": {
      "latitude": "29.967831444427496",
      "longitude": "-90.04400118543452"
    }
  },
  {
    "service_request": "2022-877042",
    "request_type": "Parks & Parkways",
    "request_reason": "Request Tree Service (Right of Way/Public Property)",
    "date_created": "2022-04-23T11:35:51.000",
    "date_modified": "2022-04-23T11:35:51.000",
    "request_status": "Pending",
    "responsible_agency": "Department of Parks & Parkway",
    "final_address": "3740 Rue Denise",
    "address_councildis": "C",
    "status": "Pending",
    "rowid": "877042",
    "final_x": "3704298.7185",
    "final_y": "516663.573813",
    "longitude": "-89.9966279854128",
    "latitude": "29.913933807414786",
    "geocoded_column": {
      "latitude": "29.913933807414786",
      "longitude": "-89.9966279854128"
    }
  },
  {
    "service_request": "2022-877041",
    "request_type": "Trash/Recycling",
    "request_reason": "Missed Trash Pick-Up",
    "date_created": "2022-04-23T11:35:39.000",
    "date_modified": "2022-04-23T11:35:40.000",
    "request_status": "Pending",
    "responsible_agency": "Department of Sanitation",
    "final_address": "5610 Holley Ln",
    "address_councildis": "E",
    "status": "Assigned to Contractor",
    "contractor": "Metro Disposal",
    "rowid": "877041",
    "final_x": "3703293.48471",
    "final_y": "556549.351194",
    "longitude": "-89.99833405781315",
    "latitude": "30.02363740665339",
    "geocoded_column": {
      "latitude": "30.02363740665339",
      "longitude": "-89.99833405781315"
    }
  },
  {
    "service_request": "2022-877040",
    "request_type": "Abandoned Vehicles",
    "request_reason": "Abandoned/Junk Vehicles",
    "date_created": "2022-04-23T11:35:08.000",
    "date_modified": "2022-04-23T11:35:08.000",
    "request_status": "Pending",
    "responsible_agency": "Department of Public Works",
    "final_address": "3132 Chippewa St",
    "address_councildis": "B",
    "status": "Pending",
    "rowid": "877040",
    "final_x": "3676736.954",
    "final_y": "518784.361911",
    "longitude": "-90.08354894350713",
    "latitude": "29.920620621420454",
    "geocoded_column": {
      "latitude": "29.920620621420454",
      "longitude": "-90.08354894350713"
    }
  },
  {
    "service_request": "2022-877039",
    "request_type": "Trash/Recycling",
    "request_reason": "Missed Trash Pick-Up",
    "date_created": "2022-04-23T11:32:47.000",
    "date_modified": "2022-04-23T11:32:48.000",
    "request_status": "Pending",
    "responsible_agency": "Department of Sanitation",
    "final_address": "2910 Robert St",
    "address_councildis": "B",
    "status": "Assigned to Contractor",
    "contractor": "Richards Disposal",
    "rowid": "877039",
    "final_x": "3668849.87783",
    "final_y": "526192.444734",
    "longitude": "-90.10819484429626",
    "latitude": "29.941224668103985",
    "geocoded_column": {
      "latitude": "29.941224668103985",
      "longitude": "-90.10819484429626"
    }
  },
  {
    "service_request": "2022-877038",
    "request_type": "Safety & Permits",
    "request_reason": "School Bus Complaints",
    "date_created": "2022-04-23T11:29:24.000",
    "date_modified": "2022-04-23T11:29:25.000",
    "request_status": "Pending",
    "responsible_agency": "Safety and Permits",
    "final_address": "5121 Eastern St",
    "address_councildis": "D",
    "status": "Pending",
    "rowid": "877038",
    "final_x": "3687960.39689",
    "final_y": "551882.806934",
    "longitude": "-90.04694892133348",
    "latitude": "30.011288426089006",
    "geocoded_column": {
      "latitude": "30.011288426089006",
      "longitude": "-90.04694892133348"
    }
  },
  {
    "service_request": "2022-877037",
    "request_type": "Health Related Questions",
    "request_reason": "Noise Ordinance Complaint",
    "date_created": "2022-04-23T11:23:08.000",
    "date_modified": "2022-04-23T11:23:08.000",
    "request_status": "Pending",
    "responsible_agency": "Health Department",
    "final_address": "4500 Louisa Dr, New Orleans, Louisiana, 70126",
    "status": "Pending",
    "rowid": "877037",
    "longitude": "0.0",
    "latitude": "0.0",
    "geocoded_column": {
      "latitude": "0.0",
      "longitude": "0.0"
    }
  },
  {
    "service_request": "2022-877036",
    "request_type": "Abandoned Vehicles",
    "request_reason": "Abandoned/Junk Vehicles",
    "date_created": "2022-04-23T11:18:30.000",
    "date_modified": "2022-04-23T11:18:30.000",
    "request_status": "Pending",
    "responsible_agency": "Department of Public Works",
    "final_address": "920 Vallette St",
    "address_councildis": "C",
    "status": "Pending",
    "rowid": "877036",
    "final_x": "3687512.65097",
    "final_y": "528156.678272",
    "longitude": "-90.04920360159124",
    "latitude": "29.946063771281814",
    "geocoded_column": {
      "latitude": "29.946063771281814",
      "longitude": "-90.04920360159124"
    }
  },
  {
    "service_request": "2022-877035",
    "request_type": "Property Maintenance",
    "request_reason": "Property Maintenance",
    "date_created": "2022-04-23T11:17:41.000",
    "date_modified": "2022-04-23T11:17:41.000",
    "request_status": "Pending",
    "responsible_agency": "Department of Code Enforcement",
    "final_address": "622 Homer St",
    "address_councildis": "C",
    "status": "Pending",
    "rowid": "877035",
    "final_x": "3687365.42972",
    "final_y": "528404.394752",
    "longitude": "-90.04965966612599",
    "latitude": "29.946749443060174",
    "geocoded_column": {
      "latitude": "29.946749443060174",
      "longitude": "-90.04965966612599"
    }
  },
  {
    "service_request": "2022-877034",
    "request_type": "Abandoned Vehicles",
    "request_reason": "Abandoned/Junk Vehicles",
    "date_created": "2022-04-23T11:15:43.000",
    "date_modified": "2022-04-23T11:15:43.000",
    "request_status": "Pending",
    "responsible_agency": "Department of Public Works",
    "final_address": "920 Vallette St",
    "address_councildis": "C",
    "status": "Pending",
    "rowid": "877034",
    "final_x": "3687512.65097",
    "final_y": "528156.678272",
    "longitude": "-90.04920360159124",
    "latitude": "29.946063771281814",
    "geocoded_column": {
      "latitude": "29.946063771281814",
      "longitude": "-90.04920360159124"
    }
  },
  {
    "service_request": "2022-877033",
    "request_type": "Abandoned Vehicles",
    "request_reason": "Abandoned/Junk Vehicles",
    "date_created": "2022-04-23T11:14:56.000",
    "date_modified": "2022-04-23T11:14:56.000",
    "request_status": "Pending",
    "responsible_agency": "Department of Public Works",
    "final_address": "920 Vallette St",
    "address_councildis": "C",
    "status": "Pending",
    "rowid": "877033",
    "final_x": "3687512.65097",
    "final_y": "528156.678272",
    "longitude": "-90.04920360159124",
    "latitude": "29.946063771281814",
    "geocoded_column": {
      "latitude": "29.946063771281814",
      "longitude": "-90.04920360159124"
    }
  },
  {
    "service_request": "2022-877032",
    "request_type": "Abandoned Vehicles",
    "request_reason": "Abandoned/Junk Vehicles",
    "date_created": "2022-04-23T11:13:34.000",
    "date_modified": "2022-04-23T11:13:34.000",
    "request_status": "Pending",
    "responsible_agency": "Department of Public Works",
    "final_address": "920 Vallette St",
    "address_councildis": "C",
    "status": "Pending",
    "rowid": "877032",
    "final_x": "3687512.65097",
    "final_y": "528156.678272",
    "longitude": "-90.04920360159124",
    "latitude": "29.946063771281814",
    "geocoded_column": {
      "latitude": "29.946063771281814",
      "longitude": "-90.04920360159124"
    }
  },
  {
    "service_request": "2022-877031",
    "request_type": "Abandoned Vehicles",
    "request_reason": "Abandoned/Junk Vehicles",
    "date_created": "2022-04-23T11:11:06.000",
    "date_modified": "2022-04-23T11:11:06.000",
    "request_status": "Pending",
    "responsible_agency": "Department of Public Works",
    "final_address": "428 Park Blvd",
    "address_councildis": "C",
    "status": "Pending",
    "rowid": "877031",
    "final_x": "3687039.59535",
    "final_y": "525891.166909",
    "longitude": "-90.05077726060355",
    "latitude": "29.939848951875543",
    "geocoded_column": {
      "latitude": "29.939848951875543",
      "longitude": "-90.05077726060355"
    }
  },
  {
    "service_request": "2022-877030",
    "request_type": "Trash/Recycling",
    "request_reason": "Request a Large Item Pick Up",
    "date_created": "2022-04-23T11:08:18.000",
    "date_modified": "2022-04-23T11:08:19.000",
    "request_status": "Pending",
    "responsible_agency": "Department of Sanitation",
    "final_address": "2820 Eagle St",
    "address_councildis": "A",
    "status": "Assigned to Contractor",
    "contractor": "Richards Disposal",
    "rowid": "877030",
    "final_x": "3664087.22208",
    "final_y": "534442.685253",
    "longitude": "-90.12295636631288",
    "latitude": "29.964049319313503",
    "geocoded_column": {
      "latitude": "29.964049319313503",
      "longitude": "-90.12295636631288"
    }
  },
  {
    "service_request": "2022-877029",
    "request_type": "Trash/Recycling",
    "request_reason": "Order Trash Cart",
    "date_created": "2022-04-23T11:00:29.000",
    "date_modified": "2022-04-23T11:00:30.000",
    "request_status": "Pending",
    "responsible_agency": "Department of Sanitation",
    "final_address": "524 S Cortez St, New Orleans, Louisiana, 70119",
    "address_councildis": "B",
    "status": "Assigned to Contractor",
    "contractor": "Richards Disposal",
    "rowid": "877029",
    "final_x": "3671003.79355",
    "final_y": "536123.419783",
    "longitude": "-90.10105731858384",
    "latitude": "29.96846807044097",
    "geocoded_column": {
      "latitude": "29.96846807044097",
      "longitude": "-90.10105731858384"
    }
  },
  {
    "service_request": "2022-877028",
    "request_type": "Trash/Recycling",
    "request_reason": "Repair Trash Cart",
    "date_created": "2022-04-23T11:00:25.000",
    "date_modified": "2022-04-23T11:00:26.000",
    "request_status": "Pending",
    "responsible_agency": "Department of Sanitation",
    "final_address": "3 Versailles Blvd",
    "address_councildis": "A",
    "status": "Assigned to Contractor",
    "contractor": "Richards Disposal",
    "rowid": "877028",
    "final_x": "3667014.14618",
    "final_y": "528615.721024",
    "longitude": "-90.11390919534612",
    "latitude": "29.947941737200434",
    "geocoded_column": {
      "latitude": "29.947941737200434",
      "longitude": "-90.11390919534612"
    }
  },
  {
    "service_request": "2022-877027",
    "request_type": "Trash/Recycling",
    "request_reason": "Replace Trash Cart",
    "date_created": "2022-04-23T10:57:33.000",
    "date_modified": "2022-04-23T10:57:34.000",
    "request_status": "Pending",
    "responsible_agency": "Department of Sanitation",
    "final_address": "1830 Jena St",
    "address_councildis": "B",
    "status": "Assigned to Contractor",
    "contractor": "Richards Disposal",
    "rowid": "877027",
    "final_x": "3670307.78503",
    "final_y": "521801.784954",
    "longitude": "-90.10374069795427",
    "latitude": "29.929108826078185",
    "geocoded_column": {
      "latitude": "29.929108826078185",
      "longitude": "-90.10374069795427"
    }
  },
  {
    "service_request": "2022-877026",
    "request_type": "Trash/Recycling",
    "request_reason": "Repair Trash Cart",
    "date_created": "2022-04-23T10:44:12.000",
    "date_modified": "2022-04-23T10:44:13.000",
    "request_status": "Pending",
    "responsible_agency": "Department of Sanitation",
    "final_address": "3426 Chestnut St",
    "address_councildis": "B",
    "status": "Assigned to Contractor",
    "contractor": "Richards Disposal",
    "rowid": "877026",
    "final_x": "3674532.26683",
    "final_y": "520154.643768",
    "longitude": "-90.09046121320247",
    "latitude": "29.924454393396296",
    "geocoded_column": {
      "latitude": "29.924454393396296",
      "longitude": "-90.09046121320247"
    }
  },
  {
    "service_request": "2022-877025",
    "request_type": "Trash/Recycling",
    "request_reason": "Missed Trash Pick-Up",
    "date_created": "2022-04-23T10:37:27.000",
    "date_modified": "2022-04-23T10:37:28.000",
    "request_status": "Pending",
    "responsible_agency": "Department of Sanitation",
    "final_address": "6013 Tchoupitoulas St",
    "address_councildis": "A",
    "status": "Assigned to Contractor",
    "contractor": "Richards Disposal",
    "rowid": "877025",
    "final_x": "3664039.94202",
    "final_y": "517613.087158",
    "longitude": "-90.12366674153442",
    "latitude": "29.917774672590753",
    "geocoded_column": {
      "latitude": "29.917774672590753",
      "longitude": "-90.12366674153442"
    }
  },
  {
    "service_request": "2022-877024",
    "request_type": "Roads/Drainage",
    "request_reason": "Pothole",
    "date_created": "2022-04-23T10:33:48.000",
    "date_modified": "2022-04-23T10:33:48.000",
    "request_status": "Pending",
    "responsible_agency": "Department of Public Works",
    "final_address": "7300 Washington Ave",
    "address_councildis": "B",
    "status": "Pending",
    "rowid": "877024",
    "final_x": "3668867.05626",
    "final_y": "534222.189061",
    "longitude": "-90.10786947769664",
    "latitude": "29.963303330527975",
    "geocoded_column": {
      "latitude": "29.963303330527975",
      "longitude": "-90.10786947769664"
    }
  },
  {
    "service_request": "2022-877023",
    "request_type": "Trash/Recycling",
    "request_reason": "Replace Trash Cart",
    "date_created": "2022-04-23T10:33:22.000",
    "date_modified": "2022-04-23T10:33:23.000",
    "request_status": "Pending",
    "responsible_agency": "Department of Sanitation",
    "final_address": "1020 Mandeville St",
    "address_councildis": "C",
    "status": "Assigned to Contractor",
    "contractor": "Metro Disposal",
    "rowid": "877023",
    "final_x": "3685762.6463",
    "final_y": "536174.717127",
    "longitude": "-90.05444640138332",
    "latitude": "29.968164436066907",
    "geocoded_column": {
      "latitude": "29.968164436066907",
      "longitude": "-90.05444640138332"
    }
  },
  {
    "service_request": "2022-877022",
    "request_type": "Trash/Recycling",
    "request_reason": "Order Recycling Cart",
    "date_created": "2022-04-23T10:31:32.000",
    "date_modified": "2022-04-23T10:31:32.000",
    "request_status": "Pending",
    "responsible_agency": "Department of Sanitation",
    "final_address": "4823 Camp St",
    "address_councildis": "B",
    "status": "Pending",
    "rowid": "877022",
    "final_x": "3669362.03994",
    "final_y": "519030.462903",
    "longitude": "-90.10681988452248",
    "latitude": "29.92151644326117",
    "geocoded_column": {
      "latitude": "29.92151644326117",
      "longitude": "-90.10681988452248"
    }
  },
  {
    "service_request": "2022-877021",
    "request_type": "Trash/Recycling",
    "request_reason": "Request a Large Item Pick Up",
    "date_created": "2022-04-23T10:26:26.000",
    "date_modified": "2022-04-23T10:26:27.000",
    "request_status": "Pending",
    "responsible_agency": "Department of Sanitation",
    "final_address": "12930 Mcraven Ct",
    "address_councildis": "E",
    "status": "Assigned to Contractor",
    "contractor": "Metro Disposal",
    "rowid": "877021",
    "final_x": "3716487.34981",
    "final_y": "568210.974437",
    "longitude": "-89.95620174883621",
    "latitude": "30.055272879584454",
    "geocoded_column": {
      "latitude": "30.055272879584454",
      "longitude": "-89.95620174883621"
    }
  },
  {
    "service_request": "2022-877020",
    "request_type": "Trash/Recycling",
    "request_reason": "Missed Trash Pick-Up",
    "date_created": "2022-04-23T10:02:12.000",
    "date_modified": "2022-04-23T10:02:12.000",
    "request_status": "Pending",
    "responsible_agency": "Department of Sanitation",
    "final_address": "430 Pacific Ave",
    "address_councildis": "C",
    "status": "Assigned to Contractor",
    "contractor": "Richards Disposal",
    "rowid": "877020",
    "final_x": "3688562.97244",
    "final_y": "530040.079617",
    "longitude": "-90.0458205698706",
    "latitude": "29.951210072438908",
    "geocoded_column": {
      "latitude": "29.951210072438908",
      "longitude": "-90.0458205698706"
    }
  },
  {
    "service_request": "2022-877019",
    "request_type": "Trash/Recycling",
    "request_reason": "MIssed Recycling Pick-Up",
    "date_created": "2022-04-23T09:49:53.000",
    "date_modified": "2022-04-23T09:49:55.000",
    "request_status": "Pending",
    "responsible_agency": "Department of Sanitation",
    "final_address": "4815 Walmsley Ave",
    "address_councildis": "B",
    "status": "Assigned to Contractor",
    "contractor": "Richards Disposal",
    "rowid": "877019",
    "final_x": "3668173.76909",
    "final_y": "530634.130626",
    "longitude": "-90.11017975954138",
    "latitude": "29.95345772065518",
    "geocoded_column": {
      "latitude": "29.95345772065518",
      "longitude": "-90.11017975954138"
    }
  },
  {
    "service_request": "2022-877018",
    "request_type": "Trash/Recycling",
    "request_reason": "Illegal Dumping",
    "date_created": "2022-04-23T09:45:39.000",
    "date_modified": "2022-04-23T09:45:39.000",
    "request_status": "Pending",
    "responsible_agency": "Department of Sanitation",
    "final_address": "9033 Green St",
    "address_councildis": "A",
    "status": "Pending",
    "rowid": "877018",
    "final_x": "3660629.78995",
    "final_y": "532019.996291",
    "longitude": "-90.133954768997",
    "latitude": "29.95748767920171",
    "geocoded_column": {
      "latitude": "29.95748767920171",
      "longitude": "-90.133954768997"
    }
  },
  {
    "service_request": "2022-877017",
    "request_type": "Abandoned Vehicles",
    "request_reason": "Vehicle Blocking Your Driveway",
    "date_created": "2022-04-23T09:44:26.000",
    "date_modified": "2022-04-23T09:44:26.000",
    "request_status": "Pending",
    "responsible_agency": "Department of Public Works",
    "final_address": "2615 Magazine St",
    "address_councildis": "B",
    "status": "Pending",
    "rowid": "877017",
    "final_x": "3677405.89666",
    "final_y": "521117.626169",
    "longitude": "-90.08135692787272",
    "latitude": "29.927016262978352",
    "geocoded_column": {
      "latitude": "29.927016262978352",
      "longitude": "-90.08135692787272"
    }
  },
  {
    "service_request": "2022-877016",
    "request_type": "Trash/Recycling",
    "request_reason": "Missed Trash Pick-Up",
    "date_created": "2022-04-23T09:42:37.000",
    "date_modified": "2022-04-23T09:42:37.000",
    "request_status": "Pending",
    "responsible_agency": "Department of Sanitation",
    "final_address": "2012 Third St",
    "address_councildis": "B",
    "status": "Assigned to Contractor",
    "contractor": "Richards Disposal",
    "rowid": "877016",
    "final_x": "3675544.32225",
    "final_y": "524164.835068",
    "longitude": "-90.08712882095386",
    "latitude": "29.935450894103326",
    "geocoded_column": {
      "latitude": "29.935450894103326",
      "longitude": "-90.08712882095386"
    }
  },
  {
    "service_request": "2022-877015",
    "request_type": "Trash/Recycling",
    "request_reason": "Request a Large Item Pick Up",
    "date_created": "2022-04-23T09:37:34.000",
    "date_modified": "2022-04-23T09:37:35.000",
    "request_status": "Pending",
    "responsible_agency": "Department of Sanitation",
    "final_address": "308 S Murat St",
    "address_councildis": "A",
    "status": "Assigned to Contractor",
    "contractor": "Richards Disposal",
    "rowid": "877015",
    "final_x": "3669195.01658",
    "final_y": "538670.377737",
    "longitude": "-90.1066834376331",
    "latitude": "29.975524713578526",
    "geocoded_column": {
      "latitude": "29.975524713578526",
      "longitude": "-90.1066834376331"
    }
  },
  {
    "service_request": "2022-877014",
    "request_type": "Trash/Recycling",
    "request_reason": "Missed Trash Pick-Up",
    "date_created": "2022-04-23T09:37:06.000",
    "date_modified": "2022-04-23T09:37:07.000",
    "request_status": "Pending",
    "responsible_agency": "Department of Sanitation",
    "final_address": "4221 Freret St",
    "address_councildis": "B",
    "status": "Assigned to Contractor",
    "contractor": "Richards Disposal",
    "rowid": "877014",
    "final_x": "3671094.7003",
    "final_y": "524135.623356",
    "longitude": "-90.10117732904259",
    "latitude": "29.935502887979567",
    "geocoded_column": {
      "latitude": "29.935502887979567",
      "longitude": "-90.10117732904259"
    }
  },
  {
    "service_request": "2022-877013",
    "request_type": "Trash/Recycling",
    "request_reason": "Request a Large Item Pick Up",
    "date_created": "2022-04-23T09:27:36.000",
    "date_modified": "2022-04-23T09:27:37.000",
    "request_status": "Pending",
    "responsible_agency": "Department of Sanitation",
    "final_address": "3305 First St",
    "address_councildis": "B",
    "status": "Assigned to Contractor",
    "contractor": "Richards Disposal",
    "rowid": "877013",
    "final_x": "3673598.13768",
    "final_y": "528350.228544",
    "longitude": "-90.09312993247971",
    "latitude": "29.94701741428841",
    "geocoded_column": {
      "latitude": "29.94701741428841",
      "longitude": "-90.09312993247971"
    }
  },
  {
    "service_request": "2022-877012",
    "request_type": "Trash/Recycling",
    "request_reason": "Missed Trash Pick-Up",
    "date_created": "2022-04-23T09:26:29.000",
    "date_modified": "2022-04-23T09:26:30.000",
    "request_status": "Pending",
    "responsible_agency": "Department of Sanitation",
    "final_address": "2611 Chelsea Dr",
    "address_councildis": "C",
    "status": "Assigned to Contractor",
    "contractor": "Richards Disposal",
    "rowid": "877012",
    "final_x": "3704169.61482",
    "final_y": "521513.776121",
    "longitude": "-89.99685691815226",
    "latitude": "29.927274327557303",
    "geocoded_column": {
      "latitude": "29.927274327557303",
      "longitude": "-89.99685691815226"
    }
  },
  {
    "service_request": "2022-877011",
    "request_type": "Trash/Recycling",
    "request_reason": "Missed Trash Pick-Up",
    "date_created": "2022-04-23T09:22:39.000",
    "date_modified": "2022-04-23T09:22:40.000",
    "request_status": "Pending",
    "responsible_agency": "Department of Sanitation",
    "final_address": "1866 Lauradale Dr",
    "address_councildis": "C",
    "status": "Assigned to Contractor",
    "contractor": "Richards Disposal",
    "rowid": "877011",
    "final_x": "3692765.29872",
    "final_y": "524184.94086",
    "longitude": "-90.03276160277204",
    "latitude": "29.934979949247094",
    "geocoded_column": {
      "latitude": "29.934979949247094",
      "longitude": "-90.03276160277204"
    }
  },
  {
    "service_request": "2022-877009",
    "request_type": "Trash/Recycling",
    "request_reason": "Replace Trash Cart",
    "date_created": "2022-04-23T09:16:07.000",
    "date_modified": "2022-04-23T09:16:08.000",
    "request_status": "Pending",
    "responsible_agency": "Department of Sanitation",
    "final_address": "2770 N Dorgenois St",
    "address_councildis": "D",
    "status": "Assigned to Contractor",
    "contractor": "Metro Disposal",
    "rowid": "877009",
    "final_x": "3687837.57481",
    "final_y": "541685.334732",
    "longitude": "-90.0476984508776",
    "latitude": "29.983252851715015",
    "geocoded_column": {
      "latitude": "29.983252851715015",
      "longitude": "-90.0476984508776"
    }
  },
  {
    "service_request": "2022-877007",
    "request_type": "Trash/Recycling",
    "request_reason": "Dead Animal Pick Up",
    "date_created": "2022-04-23T09:06:48.000",
    "date_modified": "2022-04-23T09:06:49.000",
    "request_status": "Pending",
    "responsible_agency": "Department of Sanitation",
    "final_address": "1944 Delery St",
    "address_councildis": "E",
    "status": "Assigned to Contractor",
    "contractor": "Metro Disposal",
    "rowid": "877007",
    "final_x": "3701676.96919",
    "final_y": "536114.615239",
    "longitude": "-90.00419087176493",
    "latitude": "29.967501182660612",
    "geocoded_column": {
      "latitude": "29.967501182660612",
      "longitude": "-90.00419087176493"
    }
  },
  {
    "service_request": "2022-877006",
    "request_type": "Trash/Recycling",
    "request_reason": "Request a Large Item Pick Up",
    "date_created": "2022-04-23T09:04:30.000",
    "date_modified": "2022-04-23T09:04:31.000",
    "request_status": "Pending",
    "responsible_agency": "Department of Sanitation",
    "final_address": "5228 Tchoupitoulas St",
    "address_councildis": "B",
    "status": "Assigned to Contractor",
    "contractor": "Richards Disposal",
    "rowid": "877006",
    "final_x": "3667752.83194",
    "final_y": "517145.730485",
    "longitude": "-90.11196288619225",
    "latitude": "29.91638128682531",
    "geocoded_column": {
      "latitude": "29.91638128682531",
      "longitude": "-90.11196288619225"
    }
  },
  {
    "service_request": "2022-877005",
    "request_type": "Trash/Recycling",
    "request_reason": "Request a Large Item Pick Up",
    "date_created": "2022-04-23T08:53:04.000",
    "date_modified": "2022-04-23T08:53:05.000",
    "request_status": "Pending",
    "responsible_agency": "Department of Sanitation",
    "final_address": "431 S Scott St",
    "address_councildis": "B",
    "status": "Assigned to Contractor",
    "contractor": "Richards Disposal",
    "rowid": "877005",
    "final_x": "3670842.55815",
    "final_y": "536668.443271",
    "longitude": "-90.10154800623685",
    "latitude": "29.969971468984664",
    "geocoded_column": {
      "latitude": "29.969971468984664",
      "longitude": "-90.10154800623685"
    }
  },
  {
    "service_request": "2022-877004",
    "request_type": "Trash/Recycling",
    "request_reason": "Missed Trash Pick-Up",
    "date_created": "2022-04-23T08:53:00.000",
    "date_modified": "2022-04-23T08:53:01.000",
    "request_status": "Pending",
    "responsible_agency": "Department of Sanitation",
    "final_address": "5627 Laurel St",
    "address_councildis": "A",
    "status": "Assigned to Contractor",
    "contractor": "Richards Disposal",
    "rowid": "877004",
    "final_x": "3665677.34144",
    "final_y": "517956.930742",
    "longitude": "-90.11848684969445",
    "latitude": "29.91867250233013",
    "geocoded_column": {
      "latitude": "29.91867250233013",
      "longitude": "-90.11848684969445"
    }
  },
  {
    "service_request": "2022-877003",
    "request_type": "Trash/Recycling",
    "request_reason": "MIssed Recycling Pick-Up",
    "date_created": "2022-04-23T08:27:00.000",
    "date_modified": "2022-04-23T08:27:01.000",
    "request_status": "Pending",
    "responsible_agency": "Department of Sanitation",
    "final_address": "2233 Washington Ave",
    "address_councildis": "B",
    "status": "Assigned to Contractor",
    "contractor": "Richards Disposal",
    "rowid": "877003",
    "final_x": "3674625.65736",
    "final_y": "524567.716476",
    "longitude": "-90.09001525431059",
    "latitude": "29.936586127445302",
    "geocoded_column": {
      "latitude": "29.936586127445302",
      "longitude": "-90.09001525431059"
    }
  },
  {
    "service_request": "2022-877002",
    "request_type": "Roads/Drainage",
    "request_reason": "Catch Basin - Clogged",
    "date_created": "2022-04-23T08:24:23.000",
    "date_modified": "2022-04-23T08:24:23.000",
    "request_status": "Pending",
    "responsible_agency": "Department of Public Works",
    "final_address": "2233 Washington Ave",
    "address_councildis": "B",
    "status": "Pending",
    "rowid": "877002",
    "final_x": "3674625.65736",
    "final_y": "524567.716476",
    "longitude": "-90.09001525431059",
    "latitude": "29.936586127445302",
    "geocoded_column": {
      "latitude": "29.936586127445302",
      "longitude": "-90.09001525431059"
    }
  },
  {
    "service_request": "2022-877001",
    "request_type": "Traffic Signals/Signs/Striping/Streetlights",
    "request_reason": "Traffic Signal Malfunctioning/Damaged",
    "date_created": "2022-04-23T08:07:57.000",
    "date_modified": "2022-04-23T08:07:57.000",
    "request_status": "Pending",
    "responsible_agency": "Department of Public Works",
    "final_address": "700 Poydras St",
    "address_councildis": "B",
    "status": "Pending",
    "rowid": "877001",
    "final_x": "3680478.44219",
    "final_y": "529309.795265",
    "longitude": "-90.07137289490277",
    "latitude": "29.949449342196797",
    "geocoded_column": {
      "latitude": "29.949449342196797",
      "longitude": "-90.07137289490277"
    }
  },
  {
    "service_request": "2022-876999",
    "request_type": "Trash/Recycling",
    "request_reason": "Missed Trash Pick-Up",
    "date_created": "2022-04-23T07:16:25.000",
    "date_modified": "2022-04-23T07:16:26.000",
    "request_status": "Pending",
    "responsible_agency": "Department of Sanitation",
    "final_address": "815 Charbonnet St",
    "address_councildis": "E",
    "status": "Assigned to Contractor",
    "contractor": "Metro Disposal",
    "rowid": "876999",
    "final_x": "3698413.38333",
    "final_y": "532609.944516",
    "longitude": "-90.01462465486915",
    "latitude": "29.957968276181454",
    "geocoded_column": {
      "latitude": "29.957968276181454",
      "longitude": "-90.01462465486915"
    }
  },
  {
    "service_request": "2022-876998",
    "request_type": "Trash/Recycling",
    "request_reason": "Request a Large Item Pick Up",
    "date_created": "2022-04-23T06:14:37.000",
    "date_modified": "2022-04-23T06:14:37.000",
    "request_status": "Pending",
    "responsible_agency": "Department of Sanitation",
    "final_address": "2217 First St",
    "address_councildis": "B",
    "status": "Assigned to Contractor",
    "contractor": "Richards Disposal",
    "rowid": "876998",
    "final_x": "3675709.60942",
    "final_y": "525138.436733",
    "longitude": "-90.08657356406614",
    "latitude": "29.9381230360994",
    "geocoded_column": {
      "latitude": "29.9381230360994",
      "longitude": "-90.08657356406614"
    }
  },
  {
    "service_request": "2022-876995",
    "request_type": "Trash/Recycling",
    "request_reason": "Missed Trash Pick-Up",
    "date_created": "2022-04-22T22:45:35.000",
    "date_modified": "2022-04-22T22:45:36.000",
    "request_status": "Pending",
    "responsible_agency": "Department of Sanitation",
    "final_address": "5916 Patton St",
    "address_councildis": "A",
    "status": "Assigned to Contractor",
    "contractor": "Richards Disposal",
    "rowid": "876995",
    "final_x": "3664902.60308",
    "final_y": "518367.29951",
    "longitude": "-90.12091859670412",
    "latitude": "29.91982345135853",
    "geocoded_column": {
      "latitude": "29.91982345135853",
      "longitude": "-90.12091859670412"
    }
  },
  {
    "service_request": "2022-876994",
    "request_type": "Traffic Signals/Signs/Striping/Streetlights",
    "request_reason": "Street Light Outage/Malfunction",
    "date_created": "2022-04-22T22:32:40.000",
    "date_modified": "2022-04-22T22:32:42.000",
    "request_status": "Pending",
    "responsible_agency": "Department of Public Works",
    "final_address": "1300 Canal St",
    "address_councildis": "B",
    "status": "Pending",
    "contractor": "Royal Engineering",
    "rowid": "876994",
    "final_x": "3679515.34165",
    "final_y": "531836.453187",
    "longitude": "-90.07432617801176",
    "latitude": "29.956425931975325",
    "geocoded_column": {
      "latitude": "29.956425931975325",
      "longitude": "-90.07432617801176"
    }
  },
  {
    "service_request": "2022-876993",
    "request_type": "Roads/Drainage",
    "request_reason": "Damaged Sidewalk",
    "date_created": "2022-04-22T22:29:08.000",
    "date_modified": "2022-04-22T22:29:08.000",
    "request_status": "Pending",
    "responsible_agency": "Department of Public Works",
    "final_address": "1112 Canal St",
    "address_councildis": "B",
    "status": "Pending",
    "rowid": "876993",
    "final_x": "3679831.05135",
    "final_y": "531595.706051",
    "longitude": "-90.07333763071406",
    "latitude": "29.955754416618987",
    "geocoded_column": {
      "latitude": "29.955754416618987",
      "longitude": "-90.07333763071406"
    }
  },
  {
    "service_request": "2022-876992",
    "request_type": "Trash/Recycling",
    "request_reason": "Replace Trash Cart",
    "date_created": "2022-04-22T22:16:21.000",
    "date_modified": "2022-04-22T22:16:22.000",
    "request_status": "Pending",
    "responsible_agency": "Department of Sanitation",
    "final_address": "537 Bienville St",
    "address_councildis": "C",
    "status": "Assigned to Contractor",
    "contractor": "Empire Services",
    "rowid": "876992",
    "final_x": "3682049.71765",
    "final_y": "531036.073346",
    "longitude": "-90.06635140882497",
    "latitude": "29.954148346495234",
    "geocoded_column": {
      "latitude": "29.954148346495234",
      "longitude": "-90.06635140882497"
    }
  },
  {
    "service_request": "2022-876991",
    "request_type": "Traffic Signals/Signs/Striping/Streetlights",
    "request_reason": "Street Name Sign Damaged or Missing",
    "date_created": "2022-04-22T22:12:33.000",
    "date_modified": "2022-04-22T22:12:33.000",
    "request_status": "Pending",
    "responsible_agency": "Department of Public Works",
    "final_address": "116 Roosevelt Way",
    "address_councildis": "B",
    "status": "Pending",
    "rowid": "876991",
    "final_x": "3680233.02479",
    "final_y": "531169.328514",
    "longitude": "-90.07208315999544",
    "latitude": "29.95456986227239",
    "geocoded_column": {
      "latitude": "29.95456986227239",
      "longitude": "-90.07208315999544"
    }
  },
  {
    "service_request": "2022-876990",
    "request_type": "Traffic Signals/Signs/Striping/Streetlights",
    "request_reason": "Street Name Sign Damaged or Missing",
    "date_created": "2022-04-22T22:07:34.000",
    "date_modified": "2022-04-22T22:07:34.000",
    "request_status": "Pending",
    "responsible_agency": "Department of Public Works",
    "final_address": "110 S Rampart St",
    "address_councildis": "B",
    "status": "Pending",
    "rowid": "876990",
    "final_x": "3679954.00136",
    "final_y": "531375.006018",
    "longitude": "-90.07295706346721",
    "latitude": "29.955143847985482",
    "geocoded_column": {
      "latitude": "29.955143847985482",
      "longitude": "-90.07295706346721"
    }
  },
  {
    "service_request": "2022-876989",
    "request_type": "Traffic Signals/Signs/Striping/Streetlights",
    "request_reason": "Street Name Sign Damaged or Missing",
    "date_created": "2022-04-22T22:05:45.000",
    "date_modified": "2022-04-22T22:05:45.000",
    "request_status": "Pending",
    "responsible_agency": "Department of Public Works",
    "final_address": "110 S Rampart St",
    "address_councildis": "B",
    "status": "Pending",
    "rowid": "876989",
    "final_x": "3679954.00136",
    "final_y": "531375.006018",
    "longitude": "-90.07295706346721",
    "latitude": "29.955143847985482",
    "geocoded_column": {
      "latitude": "29.955143847985482",
      "longitude": "-90.07295706346721"
    }
  },
  {
    "service_request": "2022-876988",
    "request_type": "Traffic Signals/Signs/Striping/Streetlights",
    "request_reason": "Street Light Outage/Malfunction",
    "date_created": "2022-04-22T22:03:16.000",
    "date_modified": "2022-04-22T22:03:16.000",
    "request_status": "Pending",
    "responsible_agency": "Department of Public Works",
    "final_address": "110 S Rampart St",
    "address_councildis": "B",
    "status": "Pending",
    "contractor": "Royal Engineering",
    "rowid": "876988",
    "final_x": "3679954.00136",
    "final_y": "531375.006018",
    "longitude": "-90.07295706346721",
    "latitude": "29.955143847985482",
    "geocoded_column": {
      "latitude": "29.955143847985482",
      "longitude": "-90.07295706346721"
    }
  },
  {
    "service_request": "2022-876987",
    "request_type": "Roads/Drainage",
    "request_reason": "Bicycle Hazardous Incident Reporting",
    "date_created": "2022-04-22T21:57:42.000",
    "date_modified": "2022-04-22T21:57:42.000",
    "request_status": "Pending",
    "responsible_agency": "Health Department",
    "final_address": "110 S Rampart St",
    "address_councildis": "B",
    "status": "Pending",
    "rowid": "876987",
    "final_x": "3679954.00136",
    "final_y": "531375.006018",
    "longitude": "-90.07295706346721",
    "latitude": "29.955143847985482",
    "geocoded_column": {
      "latitude": "29.955143847985482",
      "longitude": "-90.07295706346721"
    }
  },
  {
    "service_request": "2022-876986",
    "request_type": "Roads/Drainage",
    "request_reason": "Bicycle Hazardous Incident Reporting",
    "date_created": "2022-04-22T21:57:41.000",
    "date_modified": "2022-04-22T21:57:41.000",
    "request_status": "Pending",
    "responsible_agency": "Health Department",
    "final_address": "110 S Rampart St",
    "address_councildis": "B",
    "status": "Pending",
    "rowid": "876986",
    "final_x": "3679954.00136",
    "final_y": "531375.006018",
    "longitude": "-90.07295706346721",
    "latitude": "29.955143847985482",
    "geocoded_column": {
      "latitude": "29.955143847985482",
      "longitude": "-90.07295706346721"
    }
  },
  {
    "service_request": "2022-876985",
    "request_type": "Roads/Drainage",
    "request_reason": "Street Flooding / Drainage",
    "date_created": "2022-04-22T21:52:50.000",
    "date_modified": "2022-04-22T21:52:50.000",
    "request_status": "Pending",
    "responsible_agency": "Department of Public Works",
    "final_address": "1026 Canal St",
    "address_councildis": "B",
    "status": "Pending",
    "rowid": "876985",
    "final_x": "3680076.90562",
    "final_y": "531395.265795",
    "longitude": "-90.07256827365106",
    "latitude": "29.95519583770125",
    "geocoded_column": {
      "latitude": "29.95519583770125",
      "longitude": "-90.07256827365106"
    }
  },
  {
    "service_request": "2022-876983",
    "request_type": "Traffic Signals/Signs/Striping/Streetlights",
    "request_reason": "Street Light Outage/Malfunction",
    "date_created": "2022-04-22T21:10:10.000",
    "date_modified": "2022-04-22T21:10:11.000",
    "request_status": "Pending",
    "responsible_agency": "Department of Public Works",
    "final_address": "4125 Danneel St",
    "address_councildis": "B",
    "status": "Pending",
    "contractor": "Royal Engineering",
    "rowid": "876983",
    "final_x": "3671512.15553",
    "final_y": "522413.595514",
    "longitude": "-90.09991793632832",
    "latitude": "29.930755516781158",
    "geocoded_column": {
      "latitude": "29.930755516781158",
      "longitude": "-90.09991793632832"
    }
  },
  {
    "service_request": "2022-876982",
    "request_type": "Trash/Recycling",
    "request_reason": "Order Trash Cart",
    "date_created": "2022-04-22T20:52:53.000",
    "date_modified": "2022-04-22T20:52:53.000",
    "request_status": "Pending",
    "responsible_agency": "Department of Sanitation",
    "final_address": "New Orleans,LA",
    "status": "Assigned to Contractor",
    "rowid": "876982",
    "longitude": "0.0",
    "latitude": "0.0",
    "geocoded_column": {
      "latitude": "0.0",
      "longitude": "0.0"
    }
  },
  {
    "service_request": "2022-876981",
    "request_type": "Trash/Recycling",
    "request_reason": "Missed Trash Pick-Up",
    "date_created": "2022-04-22T19:58:25.000",
    "date_modified": "2022-04-22T19:58:26.000",
    "request_status": "Pending",
    "responsible_agency": "Department of Sanitation",
    "final_address": "528 Octavia St",
    "address_councildis": "A",
    "status": "Assigned to Contractor",
    "contractor": "Richards Disposal",
    "rowid": "876981",
    "final_x": "3666239.92679",
    "final_y": "518130.552758",
    "longitude": "-90.11670523723116",
    "latitude": "29.91913349562136",
    "geocoded_column": {
      "latitude": "29.91913349562136",
      "longitude": "-90.11670523723116"
    }
  },
  {
    "service_request": "2022-876980",
    "request_type": "Roads/Drainage",
    "request_reason": "Damaged Sidewalk",
    "date_created": "2022-04-22T19:43:36.000",
    "date_modified": "2022-04-22T19:43:36.000",
    "request_status": "Pending",
    "responsible_agency": "Department of Public Works",
    "final_address": "4100 St Charles Ave",
    "address_councildis": "B",
    "status": "Pending",
    "rowid": "876980",
    "final_x": "3671889.68308",
    "final_y": "520870.924729",
    "longitude": "-90.09877860355118",
    "latitude": "29.92650248798185",
    "geocoded_column": {
      "latitude": "29.92650248798185",
      "longitude": "-90.09877860355118"
    }
  },
  {
    "service_request": "2022-876979",
    "request_type": "Trash/Recycling",
    "request_reason": "Missed Trash Pick-Up",
    "date_created": "2022-04-22T19:40:04.000",
    "date_modified": "2022-04-22T19:40:05.000",
    "request_status": "Pending",
    "responsible_agency": "Department of Sanitation",
    "final_address": "2011 State St, New Orleans, Louisiana, 70118",
    "address_councildis": "A",
    "status": "Assigned to Contractor",
    "contractor": "Richards Disposal",
    "rowid": "876979",
    "final_x": "3666380.05626",
    "final_y": "524107.855484",
    "longitude": "-90.11606248345879",
    "latitude": "29.93556509602188",
    "geocoded_column": {
      "latitude": "29.93556509602188",
      "longitude": "-90.11606248345879"
    }
  },
  {
    "service_request": "2022-876978",
    "request_type": "Traffic Signals/Signs/Striping/Streetlights",
    "request_reason": "Street Light Outage/Malfunction",
    "date_created": "2022-04-22T19:37:53.000",
    "date_modified": "2022-04-22T19:37:54.000",
    "request_status": "Pending",
    "responsible_agency": "Department of Public Works",
    "final_address": "339 Camp St",
    "address_councildis": "B",
    "status": "Pending",
    "contractor": "Royal Engineering",
    "rowid": "876978",
    "final_x": "3681142.57634",
    "final_y": "529644.734273",
    "longitude": "-90.06926425998013",
    "latitude": "29.950350182916043",
    "geocoded_column": {
      "latitude": "29.950350182916043",
      "longitude": "-90.06926425998013"
    }
  },
  {
    "service_request": "2022-876977",
    "request_type": "Trash/Recycling",
    "request_reason": "Missed Trash Pick-Up",
    "date_created": "2022-04-22T19:36:06.000",
    "date_modified": "2022-04-22T19:36:07.000",
    "request_status": "Pending",
    "responsible_agency": "Department of Sanitation",
    "final_address": "1930 State St",
    "address_councildis": "A",
    "status": "Assigned to Contractor",
    "contractor": "Richards Disposal",
    "rowid": "876977",
    "final_x": "3666180.63591",
    "final_y": "524024.275388",
    "longitude": "-90.11669485948651",
    "latitude": "29.935341101152154",
    "geocoded_column": {
      "latitude": "29.935341101152154",
      "longitude": "-90.11669485948651"
    }
  },
  {
    "service_request": "2022-876976",
    "request_type": "Trash/Recycling",
    "request_reason": "Missed Trash Pick-Up",
    "date_created": "2022-04-22T19:35:45.000",
    "date_modified": "2022-04-22T19:35:46.000",
    "request_status": "Pending",
    "responsible_agency": "Department of Sanitation",
    "final_address": "5973 Laurel St",
    "address_councildis": "A",
    "status": "Assigned to Contractor",
    "contractor": "Richards Disposal",
    "rowid": "876976",
    "final_x": "3664479.1849",
    "final_y": "518248.924918",
    "longitude": "-90.12225907617788",
    "latitude": "29.91951027046028",
    "geocoded_column": {
      "latitude": "29.91951027046028",
      "longitude": "-90.12225907617788"
    }
  },
  {
    "service_request": "2022-876975",
    "request_type": "Roads/Drainage",
    "request_reason": "Ditch Issue",
    "date_created": "2022-04-22T19:34:13.000",
    "date_modified": "2022-04-22T19:34:13.000",
    "request_status": "Pending",
    "responsible_agency": "Department of Public Works",
    "final_address": "322 Lafayette St",
    "address_councildis": "B",
    "status": "Pending",
    "rowid": "876975",
    "final_x": "3681973.35426",
    "final_y": "528564.886976",
    "longitude": "-90.0666787908127",
    "latitude": "29.94735573993066",
    "geocoded_column": {
      "latitude": "29.94735573993066",
      "longitude": "-90.0666787908127"
    }
  },
  {
    "service_request": "2022-876974",
    "request_type": "Roads/Drainage",
    "request_reason": "Damaged Sidewalk",
    "date_created": "2022-04-22T19:27:42.000",
    "date_modified": "2022-04-22T19:27:42.000",
    "request_status": "Pending",
    "responsible_agency": "Department of Public Works",
    "final_address": "700 Carondelet St",
    "address_councildis": "B",
    "status": "Pending",
    "rowid": "876974",
    "final_x": "3680161.29013",
    "final_y": "528605.420864",
    "longitude": "-90.07239876012606",
    "latitude": "29.947522149329476",
    "geocoded_column": {
      "latitude": "29.947522149329476",
      "longitude": "-90.07239876012606"
    }
  },
  {
    "service_request": "2022-876973",
    "request_type": "Traffic Signals/Signs/Striping/Streetlights",
    "request_reason": "Street Light Outage/Malfunction",
    "date_created": "2022-04-22T19:23:40.000",
    "date_modified": "2022-04-22T19:23:40.000",
    "request_status": "Pending",
    "responsible_agency": "Department of Public Works",
    "final_address": "3302 Magnolia St",
    "address_councildis": "B",
    "status": "Pending",
    "contractor": "Royal Engineering",
    "rowid": "876973",
    "final_x": "3672902.8676",
    "final_y": "525237.612221",
    "longitude": "-90.09543133560153",
    "latitude": "29.938479411399875",
    "geocoded_column": {
      "latitude": "29.938479411399875",
      "longitude": "-90.09543133560153"
    }
  },
  {
    "service_request": "2022-876971",
    "request_type": "Trash/Recycling",
    "request_reason": "Illegal Dumping",
    "date_created": "2022-04-22T19:16:38.000",
    "date_modified": "2022-04-22T19:16:38.000",
    "request_status": "Pending",
    "responsible_agency": "Department of Sanitation",
    "final_address": "2348 Port St",
    "address_councildis": "D",
    "status": "Pending",
    "rowid": "876971",
    "final_x": "3688621.42166",
    "final_y": "541255.70926",
    "longitude": "-90.04523791776677",
    "latitude": "29.9820473287005",
    "geocoded_column": {
      "latitude": "29.9820473287005",
      "longitude": "-90.04523791776677"
    }
  },
  {
    "service_request": "2022-876970",
    "request_type": "Property Maintenance",
    "request_reason": "Property Maintenance",
    "date_created": "2022-04-22T18:58:46.000",
    "date_modified": "2022-04-22T18:58:46.000",
    "request_status": "Pending",
    "responsible_agency": "Department of Code Enforcement",
    "final_address": "9000 BLK Wendy Ln",
    "address_councildis": "E",
    "status": "Pending",
    "rowid": "876970",
    "final_x": "3707220.85389",
    "final_y": "559128.233565",
    "longitude": "-89.98582864705826",
    "latitude": "30.030601925294434",
    "geocoded_column": {
      "latitude": "30.030601925294434",
      "longitude": "-89.98582864705826"
    }
  },
  {
    "service_request": "2022-876969",
    "request_type": "Property Maintenance",
    "request_reason": "Property Maintenance",
    "date_created": "2022-04-22T18:56:38.000",
    "date_modified": "2022-04-22T18:56:38.000",
    "request_status": "Pending",
    "responsible_agency": "Department of Code Enforcement",
    "final_address": "4941 Werner Dr",
    "address_councildis": "E",
    "status": "Pending",
    "rowid": "876969",
    "final_x": "3704706.01066",
    "final_y": "556359.281242",
    "longitude": "-89.99387781810563",
    "latitude": "30.02306946130372",
    "geocoded_column": {
      "latitude": "30.02306946130372",
      "longitude": "-89.99387781810563"
    }
  },
  {
    "service_request": "2022-876968",
    "request_type": "Roads/Drainage",
    "request_reason": "Man hole cover issue",
    "date_created": "2022-04-22T18:49:34.000",
    "date_modified": "2022-04-22T18:49:35.000",
    "request_status": "Pending",
    "responsible_agency": "Department of Public Works",
    "final_address": "900 BLK Conti St",
    "address_councildis": "C",
    "status": "Pending",
    "rowid": "876968",
    "final_x": "3681172.64024",
    "final_y": "532131.409934",
    "longitude": "-90.06908270396765",
    "latitude": "29.957186788133153",
    "geocoded_column": {
      "latitude": "29.957186788133153",
      "longitude": "-90.06908270396765"
    }
  },
  {
    "service_request": "2022-876966",
    "request_type": "Trash/Recycling",
    "request_reason": "Missed Trash Pick-Up",
    "date_created": "2022-04-22T18:46:45.000",
    "date_modified": "2022-04-22T18:46:46.000",
    "request_status": "Pending",
    "responsible_agency": "Department of Sanitation",
    "final_address": "6128 Benjamin St, New Orleans, Louisiana, 70118",
    "address_councildis": "A",
    "status": "Assigned to Contractor",
    "contractor": "Richards Disposal",
    "rowid": "876966",
    "final_x": "3665062.43994",
    "final_y": "522312.49625",
    "longitude": "-90.12028223242636",
    "latitude": "29.93066685065344",
    "geocoded_column": {
      "latitude": "29.93066685065344",
      "longitude": "-90.12028223242636"
    }
  },
  {
    "service_request": "2022-876965",
    "request_type": "Trash/Recycling",
    "request_reason": "Missed Trash Pick-Up",
    "date_created": "2022-04-22T18:37:08.000",
    "date_modified": "2022-04-22T18:37:08.000",
    "request_status": "Pending",
    "responsible_agency": "Department of Sanitation",
    "final_address": "5929 Camp St",
    "address_councildis": "A",
    "status": "Assigned to Contractor",
    "contractor": "Richards Disposal",
    "rowid": "876965",
    "final_x": "3665096.5856",
    "final_y": "519547.234807",
    "longitude": "-90.12026685608063",
    "latitude": "29.923062258781435",
    "geocoded_column": {
      "latitude": "29.923062258781435",
      "longitude": "-90.12026685608063"
    }
  },
  {
    "service_request": "2022-876964",
    "request_type": "Trash/Recycling",
    "request_reason": "MIssed Recycling Pick-Up",
    "date_created": "2022-04-22T18:33:33.000",
    "date_modified": "2022-04-22T18:33:34.000",
    "request_status": "Pending",
    "responsible_agency": "Department of Sanitation",
    "final_address": "2831 Audubon St",
    "address_councildis": "B",
    "status": "Assigned to Contractor",
    "contractor": "Richards Disposal",
    "rowid": "876964",
    "final_x": "3667694.17434",
    "final_y": "531295.870018",
    "longitude": "-90.11167184375363",
    "latitude": "29.955291355719048",
    "geocoded_column": {
      "latitude": "29.955291355719048",
      "longitude": "-90.11167184375363"
    }
  },