[
  {
    "service_request": "2025-1172410",
    "request_type": "Trash/Recycling",
    "request_reason": "Replace Trash Cart",
    "date_created": "2025-03-01T21:52:07.000",
    "date_modified": "2025-03-01T21:52:09.000",
    "request_status": "Pending",
    "responsible_agency": "Department of Sanitation",
    "final_address": "7100 E Hermes St",
    "address_councildis": "D",
    "status": "Assigned to Contractor",
    "contractor": "Waste Pro",
    "rowid": "1172410",
    "final_x": "3697316.5089",
    "final_y": "557071.755418",
    "longitude": "-90.0172010247824",
    "latitude": "30.02526393998562",
    "geocoded_column": {
      "latitude": "30.02526393998562",
      "longitude": "-90.0172010247824"
    }
  },
  {
    "service_request": "2025-1172409",
    "request_type": "General Services",
    "request_reason": "General Service Request",
    "date_created": "2025-03-01T19:13:50.000",
    "date_modified": "2025-03-01T19:13:53.000",
    "request_status": "Pending",
    "responsible_agency": "Orleans Parish Communication District",
    "final_address": "734 Dauphine St",
    "address_councildis": "C",
    "status": "Pending",
    "rowid": "1172409",
    "final_x": "3682190.49192",
    "final_y": "533121.82426",
    "longitude": "-90.06583404859006",
    "latitude": "29.959879171045422",
    "geocoded_column": {
      "latitude": "29.959879171045422",
      "longitude": "-90.06583404859006"
    }
  },
  {
    "service_request": "2025-1172408",
    "request_type": "Trash/Recycling",
    "request_reason": "Request a Large Item Pick Up",
    "date_created": "2025-03-01T19:07:56.000",
    "date_modified": "2025-03-01T19:07:59.000",
    "request_status": "Pending",
    "responsible_agency": "Department of Sanitation",
    "final_address": "1373 Madrid St",
    "address_councildis": "D",
    "status": "Assigned to Contractor",
    "contractor": "IV Waste",
    "rowid": "1172408",
    "final_x": "3677335.40546",
    "final_y": "554722.11484",
    "longitude": "-90.08041951685529",
    "latitude": "30.01941920358103",
    "geocoded_column": {
      "latitude": "30.01941920358103",
      "longitude": "-90.08041951685529"
    }
  },
  {
    "service_request": "2025-1172407",
    "request_type": "Trash/Recycling",
    "request_reason": "Request a Large Item Pick Up",
    "date_created": "2025-03-01T19:06:28.000",
    "date_modified": "2025-03-01T19:06:31.000",
    "request_status": "Pending",
    "responsible_agency": "Department of Sanitation",
    "final_address": "1373 Madrid St",
    "address_councildis": "D",
    "status": "Assigned to Contractor",
    "contractor": "IV Waste",
    "rowid": "1172407",
    "final_x": "3677335.40546",
    "final_y": "554722.11484",
    "longitude": "-90.08041951685529",
    "latitude": "30.01941920358103",
    "geocoded_column": {
      "latitude": "30.01941920358103",
      "longitude": "-90.08041951685529"
    }
  },
  {
    "service_request": "2025-1172406",
    "request_type": "Streetlights",
    "request_reason": "Streetlight Outage/Malfunction",
    "date_created": "2025-03-01T18:22:55.000",
    "date_modified": "2025-03-01T18:22:55.000",
    "request_status": "Pending",
    "responsible_agency": "Department of Public Works",
    "final_address": "424 35Th St",
    "address_councildis": "A",
    "status": "Pending",
    "contractor": "Legacy Professional Services",
    "rowid": "1172406",
    "final_x": "3664709.87264",
    "final_y": "551673.304469",
    "longitude": "-90.12041410097171",
    "latitude": "30.01140959528731",
    "geocoded_column": {
      "latitude": "30.01140959528731",
      "longitude": "-90.12041410097171"
    }
  },
  {
    "service_request": "2025-1172404",
    "request_type": "Trash/Recycling",
    "request_reason": "Replace Recycling Cart",
    "date_created": "2025-03-01T18:03:15.000",
    "date_modified": "2025-03-01T18:03:17.000",
    "request_status": "Pending",
    "responsible_agency": "Department of Sanitation",
    "final_address": "61 Eugenie Ct",
    "address_councildis": "C",
    "status": "Pending",
    "rowid": "1172404",
    "final_x": "3700543.59517",
    "final_y": "511645.89112",
    "longitude": "-90.00866338946454",
    "latitude": "29.900256793877304",
    "geocoded_column": {
      "latitude": "29.900256793877304",
      "longitude": "-90.00866338946454"
    }
  },
  {
    "service_request": "2025-1172402",
    "request_type": "General Services",
    "request_reason": "General Service Request",
    "date_created": "2025-03-01T17:17:52.000",
    "date_modified": "2025-03-01T17:17:54.000",
    "request_status": "Pending",
    "responsible_agency": "Orleans Parish Communication District",
    "final_address": "2908 St Charles Ave",
    "address_councildis": "B",
    "status": "Pending",
    "rowid": "1172402",
    "final_x": "3675446.11835",
    "final_y": "522126.488186",
    "longitude": "-90.08750881747476",
    "latitude": "29.92984904014123",
    "geocoded_column": {
      "latitude": "29.92984904014123",
      "longitude": "-90.08750881747476"
    }
  },
  {
    "service_request": "2025-1172401",
    "request_type": "Abandoned Vehicles",
    "request_reason": "Vehicle Blocking Your Driveway",
    "date_created": "2025-03-01T16:43:29.000",
    "date_modified": "2025-03-01T16:43:31.000",
    "request_status": "Pending",
    "responsible_agency": "Department of Public Works",
    "final_address": "1318 Moss St",
    "address_councildis": "A",
    "status": "Pending",
    "rowid": "1172401",
    "final_x": "3675389.64347",
    "final_y": "540492.545227",
    "longitude": "-90.08705649412845",
    "latitude": "29.98035125199552",
    "geocoded_column": {
      "latitude": "29.98035125199552",
      "longitude": "-90.08705649412845"
    }
  },
  {
    "service_request": "2025-1172400",
    "request_type": "Roads and Streets",
    "request_reason": "Pothole",
    "date_created": "2025-03-01T16:38:37.000",
    "date_modified": "2025-03-01T16:38:39.000",
    "request_status": "Pending",
    "responsible_agency": "Department of Public Works",
    "final_address": "4709 Iberville St",
    "address_councildis": "A",
    "status": "Pending",
    "rowid": "1172400",
    "final_x": "3669351.6866",
    "final_y": "540323.492043",
    "longitude": "-90.10613271228141",
    "latitude": "29.980065606834067",
    "geocoded_column": {
      "latitude": "29.980065606834067",
      "longitude": "-90.10613271228141"
    }
  },
  {
    "service_request": "2025-1172399",
    "request_type": "Roads and Streets",
    "request_reason": "Curb Damage",
    "date_created": "2025-03-01T15:43:03.000",
    "date_modified": "2025-03-01T15:43:06.000",
    "request_status": "Pending",
    "responsible_agency": "Department of Public Works",
    "final_address": "100 Iberville St",
    "address_councildis": "C",
    "status": "Pending",
    "rowid": "1172399",
    "final_x": "3682746.02844",
    "final_y": "529908.779201",
    "longitude": "-90.06419216785",
    "latitude": "29.951027481006758",
    "geocoded_column": {
      "latitude": "29.951027481006758",
      "longitude": "-90.06419216785"
    }
  },
  {
    "service_request": "2025-1172398",
    "request_type": "Street and Traffic Signs",
    "request_reason": "Additional Signage Request",
    "date_created": "2025-03-01T15:36:34.000",
    "date_modified": "2025-03-01T15:36:36.000",
    "request_status": "Pending",
    "responsible_agency": "Department of Public Works",
    "final_address": "100 Iberville St",
    "address_councildis": "C",
    "status": "Pending",
    "rowid": "1172398",
    "final_x": "3682746.02844",
    "final_y": "529908.779201",
    "longitude": "-90.06419216785",
    "latitude": "29.951027481006758",
    "geocoded_column": {
      "latitude": "29.951027481006758",
      "longitude": "-90.06419216785"
    }
  },
  {
    "service_request": "2025-1172397",
    "request_type": "Streetlights",
    "request_reason": "Streetlight Outage/Malfunction",
    "date_created": "2025-03-01T15:09:14.000",
    "date_modified": "2025-03-01T15:09:15.000",
    "request_status": "Pending",
    "responsible_agency": "Department of Public Works",
    "final_address": "1723 N Villere St",
    "address_councildis": "C",
    "status": "Pending",
    "contractor": "Legacy Professional Services",
    "rowid": "1172397",
    "final_x": "3683247.111",
    "final_y": "537300.158408",
    "longitude": "-90.0623511311688",
    "latitude": "29.9713359702068",
    "geocoded_column": {
      "latitude": "29.9713359702068",
      "longitude": "-90.0623511311688"
    }
  },
  {
    "service_request": "2025-1172396",
    "request_type": "Trash/Recycling",
    "request_reason": "Repair Trash Cart",
    "date_created": "2025-03-01T15:08:36.000",
    "date_modified": "2025-03-01T15:08:38.000",
    "request_status": "Pending",
    "responsible_agency": "Department of Sanitation",
    "final_address": "1432 Chartres St",
    "address_councildis": "C",
    "status": "Assigned to Contractor",
    "contractor": "IV Waste",
    "rowid": "1172396",
    "final_x": "3684565.83516",
    "final_y": "534395.091845",
    "longitude": "-90.0582885121374",
    "latitude": "29.96330775661264",
    "geocoded_column": {
      "latitude": "29.96330775661264",
      "longitude": "-90.0582885121374"
    }
  },
  {
    "service_request": "2025-1172395",
    "request_type": "Trash/Recycling",
    "request_reason": "Missed Trash Pick-Up",
    "date_created": "2025-03-01T15:06:57.000",
    "date_modified": "2025-03-01T15:06:59.000",
    "request_status": "Pending",
    "responsible_agency": "Department of Sanitation",
    "final_address": "2812 Spain St",
    "address_councildis": "D",
    "status": "Assigned to Contractor",
    "contractor": "IV Waste",
    "rowid": "1172395",
    "final_x": "3685549.99337",
    "final_y": "543126.567565",
    "longitude": "-90.05487301470698",
    "latitude": "29.98728610751823",
    "geocoded_column": {
      "latitude": "29.98728610751823",
      "longitude": "-90.05487301470698"
    }
  },
  {
    "service_request": "2025-1172394",
    "request_type": "Trash/Recycling",
    "request_reason": "Replace Trash Cart",
    "date_created": "2025-03-01T15:01:47.000",
    "date_modified": "2025-03-01T15:01:49.000",
    "request_status": "Pending",
    "responsible_agency": "Department of Sanitation",
    "final_address": "1226 Dauphine St",
    "address_councildis": "C",
    "status": "Assigned to Contractor",
    "contractor": "IV Waste",
    "rowid": "1172394",
    "final_x": "3683260.32143",
    "final_y": "534504.932485",
    "longitude": "-90.06240732472712",
    "latitude": "29.963649660962602",
    "geocoded_column": {
      "latitude": "29.963649660962602",
      "longitude": "-90.06240732472712"
    }
  },
  {
    "service_request": "2025-1172393",
    "request_type": "EMS",
    "request_reason": "EMS Lost & Found",
    "date_created": "2025-03-01T14:52:39.000",
    "date_modified": "2025-03-01T14:52:41.000",
    "request_status": "Pending",
    "responsible_agency": "Emergency Medical Services",
    "final_address": "600 Royal St",
    "address_councildis": "C",
    "status": "Pending",
    "rowid": "1172393",
    "final_x": "3682357.20104",
    "final_y": "532161.195011",
    "longitude": "-90.06534118693126",
    "latitude": "29.957232696478084",
    "geocoded_column": {
      "latitude": "29.957232696478084",
      "longitude": "-90.06534118693126"
    }
  },
  {
    "service_request": "2025-1172392",
    "request_type": "Abandoned Vehicles",
    "request_reason": "Abandoned/Junk Vehicles",
    "date_created": "2025-03-01T14:42:06.000",
    "date_modified": "2025-03-01T14:42:07.000",
    "request_status": "Pending",
    "responsible_agency": "Department of Public Works",
    "final_address": "3401 Gentilly Blvd",
    "address_councildis": "D",
    "status": "Pending",
    "rowid": "1172392",
    "final_x": "3684913.40297",
    "final_y": "548498.127506",
    "longitude": "-90.05669473876532",
    "latitude": "30.002075490897855",
    "geocoded_column": {
      "latitude": "30.002075490897855",
      "longitude": "-90.05669473876532"
    }
  },
  {
    "service_request": "2025-1172391",
    "request_type": "Abandoned Vehicles",
    "request_reason": "Abandoned/Junk Vehicles",
    "date_created": "2025-03-01T14:35:54.000",
    "date_modified": "2025-03-01T14:35:55.000",
    "request_status": "Pending",
    "responsible_agency": "Department of Public Works",
    "final_address": "3401 Gentilly Blvd",
    "address_councildis": "D",
    "status": "Pending",
    "rowid": "1172391",
    "final_x": "3684913.40297",
    "final_y": "548498.127506",
    "longitude": "-90.05669473876532",
    "latitude": "30.002075490897855",
    "geocoded_column": {
      "latitude": "30.002075490897855",
      "longitude": "-90.05669473876532"
    }
  },
  {
    "service_request": "2025-1172390",
    "request_type": "Roads and Streets",
    "request_reason": "Street Subsidence (Sinking)",
    "date_created": "2025-03-01T13:58:15.000",
    "date_modified": "2025-03-01T13:58:17.000",
    "request_status": "Pending",
    "responsible_agency": "Department of Public Works",
    "final_address": "101 Conti St",
    "address_councildis": "C",
    "status": "Pending",
    "rowid": "1172390",
    "final_x": "3683045.93653",
    "final_y": "530886.15181",
    "longitude": "-90.06321100185313",
    "latitude": "29.953705786925752",
    "geocoded_column": {
      "latitude": "29.953705786925752",
      "longitude": "-90.06321100185313"
    }
  },
  {
    "service_request": "2025-1172389",
    "request_type": "Abandoned Vehicles",
    "request_reason": "Vehicle Blocking Your Driveway",
    "date_created": "2025-03-01T13:40:13.000",
    "date_modified": "2025-03-01T13:40:15.000",
    "request_status": "Pending",
    "responsible_agency": "Department of Public Works",
    "final_address": "1716 Peniston St",
    "address_councildis": "B",
    "status": "Pending",
    "rowid": "1172389",
    "final_x": "3672703.25512",
    "final_y": "521676.042169",
    "longitude": "-90.09618293650352",
    "latitude": "29.928692174491566",
    "geocoded_column": {
      "latitude": "29.928692174491566",
      "longitude": "-90.09618293650352"
    }
  },
  {
    "service_request": "2025-1172388",
    "request_type": "Property Maintenance",
    "request_reason": "Property Maintenance",
    "date_created": "2025-03-01T13:36:45.000",
    "date_modified": "2025-03-01T13:36:47.000",
    "request_status": "Pending",
    "responsible_agency": "Department of Code Enforcement",
    "final_address": "500 Amethyst St",
    "address_councildis": "D",
    "status": "Pending",
    "rowid": "1172388",
    "final_x": "3668383.75713",
    "final_y": "556749.545562",
    "longitude": "-90.10863533904195",
    "latitude": "30.025260017164104",
    "geocoded_column": {
      "latitude": "30.025260017164104",
      "longitude": "-90.10863533904195"
    }
  },
  {
    "service_request": "2025-1172387",
    "request_type": "Trash/Recycling",
    "request_reason": "Illegal Dumping",
    "date_created": "2025-03-01T13:17:58.000",
    "date_modified": "2025-03-01T13:17:59.000",
    "request_status": "Pending",
    "responsible_agency": "Department of Sanitation",
    "final_address": "4624 Laine Ave",
    "address_councildis": "E",
    "status": "Pending",
    "rowid": "1172387",
    "final_x": "3705734.1962",
    "final_y": "554656.457304",
    "longitude": "-89.99069205203567",
    "latitude": "30.018354265678546",
    "geocoded_column": {
      "latitude": "30.018354265678546",
      "longitude": "-89.99069205203567"
    }
  },
  {
    "service_request": "2025-1172386",
    "request_type": "Property Maintenance",
    "request_reason": "Property Maintenance",
    "date_created": "2025-03-01T13:14:38.000",
    "date_modified": "2025-03-01T13:14:40.000",
    "request_status": "Pending",
    "responsible_agency": "Department of Code Enforcement",
    "final_address": "811 Jewel St",
    "address_councildis": "D",
    "status": "Pending",
    "rowid": "1172386",
    "final_x": "3670495.59553",
    "final_y": "556050.141209",
    "longitude": "-90.10198598074199",
    "latitude": "30.02327467255748",
    "geocoded_column": {
      "latitude": "30.02327467255748",
      "longitude": "-90.10198598074199"
    }
  },
  {
    "service_request": "2025-1172385",
    "request_type": "Utility Poles",
    "request_reason": "Wires Sagging/Hanging Low",
    "date_created": "2025-03-01T13:03:22.000",
    "date_modified": "2025-03-01T13:03:24.000",
    "request_status": "Pending",
    "responsible_agency": "Utility Company Collective",
    "final_address": "6047 Milne Blvd",
    "address_councildis": "A",
    "status": "Pending",
    "rowid": "1172385",
    "final_x": "3667134.29012",
    "final_y": "547858.099602",
    "longitude": "-90.11288273109304",
    "latitude": "30.0008483204112",
    "geocoded_column": {
      "latitude": "30.0008483204112",
      "longitude": "-90.11288273109304"
    }
  },
  {
    "service_request": "2025-1172384",
    "request_type": "Drainage",
    "request_reason": "Drainage Manhole Cover Missing or Damaged",
    "date_created": "2025-03-01T12:58:09.000",
    "date_modified": "2025-03-01T12:58:11.000",
    "request_status": "Pending",
    "responsible_agency": "Sewerage & Water Board ",
    "final_address": "4624 Laine Ave",
    "address_councildis": "E",
    "status": "Pending",
    "rowid": "1172384",
    "final_x": "3705734.1962",
    "final_y": "554656.457304",
    "longitude": "-89.99069205203567",
    "latitude": "30.018354265678546",
    "geocoded_column": {
      "latitude": "30.018354265678546",
      "longitude": "-89.99069205203567"
    }
  },
  {
    "service_request": "2025-1172383",
    "request_type": "Drainage",
    "request_reason": "Street Flooding",
    "date_created": "2025-03-01T12:50:06.000",
    "date_modified": "2025-03-01T12:50:08.000",
    "request_status": "Pending",
    "responsible_agency": "Sewerage & Water Board ",
    "final_address": "4574 Flake Ave",
    "address_councildis": "E",
    "status": "Pending",
    "rowid": "1172383",
    "final_x": "3706155.75358",
    "final_y": "554414.823",
    "longitude": "-89.9893690527265",
    "latitude": "30.017676275776964",
    "geocoded_column": {
      "latitude": "30.017676275776964",
      "longitude": "-89.9893690527265"
    }
  },
  {
    "service_request": "2025-1172382",
    "request_type": "Drainage",
    "request_reason": "Street Flooding",
    "date_created": "2025-03-01T12:40:36.000",
    "date_modified": "2025-03-01T12:40:37.000",
    "request_status": "Pending",
    "responsible_agency": "Sewerage & Water Board ",
    "final_address": "4643 Flake Ave",
    "address_councildis": "E",
    "status": "Pending",
    "rowid": "1172382",
    "final_x": "3706215.3466",
    "final_y": "554794.189848",
    "longitude": "-89.98916670256516",
    "latitude": "30.01871746608602",
    "geocoded_column": {
      "latitude": "30.01871746608602",
      "longitude": "-89.98916670256516"
    }
  },
  {
    "service_request": "2025-1172381",
    "request_type": "Trash/Recycling",
    "request_reason": "Illegal Dumping",
    "date_created": "2025-03-01T12:31:48.000",
    "date_modified": "2025-03-01T12:31:50.000",
    "request_status": "Pending",
    "responsible_agency": "Department of Sanitation",
    "final_address": "4701 Flake Ave",
    "address_councildis": "E",
    "status": "Pending",
    "rowid": "1172381",
    "final_x": "3706178.60023",
    "final_y": "555160.186457",
    "longitude": "-89.98926924226443",
    "latitude": "30.019725000512892",
    "geocoded_column": {
      "latitude": "30.019725000512892",
      "longitude": "-89.98926924226443"
    }
  },
  {
    "service_request": "2025-1172380",
    "request_type": "Trash/Recycling",
    "request_reason": "Request a Large Item Pick Up",
    "date_created": "2025-03-01T12:13:45.000",
    "date_modified": "2025-03-01T12:13:47.000",
    "request_status": "Pending",
    "responsible_agency": "Department of Sanitation",
    "final_address": "6000 Brighton Pl",
    "address_councildis": "C",
    "status": "Assigned to Contractor",
    "contractor": "Richards Disposal",
    "rowid": "1172380",
    "final_x": "3706101.24727",
    "final_y": "520148.176056",
    "longitude": "-89.99080980202216",
    "latitude": "29.923457312767276",
    "geocoded_column": {
      "latitude": "29.923457312767276",
      "longitude": "-89.99080980202216"
    }
  },
  {
    "service_request": "2025-1172379",
    "request_type": "Trash/Recycling",
    "request_reason": "Order Recycling Cart",
    "date_created": "2025-03-01T12:05:48.000",
    "date_modified": "2025-03-01T12:05:50.000",
    "request_status": "Pending",
    "responsible_agency": "Department of Sanitation",
    "final_address": "4410 N Rampart St",
    "address_councildis": "C",
    "status": "Pending",
    "rowid": "1172379",
    "final_x": "3693059.61014",
    "final_y": "534498.738373",
    "longitude": "-90.03146252510824",
    "latitude": "29.9633301299521",
    "geocoded_column": {
      "latitude": "29.9633301299521",
      "longitude": "-90.03146252510824"
    }
  },
  {
    "service_request": "2025-1172378",
    "request_type": "Trash/Recycling",
    "request_reason": "Order Trash Cart",
    "date_created": "2025-03-01T12:03:57.000",
    "date_modified": "2025-03-01T12:03:58.000",
    "request_status": "Pending",
    "responsible_agency": "Department of Sanitation",
    "final_address": "4410 N Rampart St",
    "address_councildis": "C",
    "status": "Assigned to Contractor",
    "contractor": "IV Waste",
    "rowid": "1172378",
    "final_x": "3693059.61014",
    "final_y": "534498.738373",
    "longitude": "-90.03146252510824",
    "latitude": "29.9633301299521",
    "geocoded_column": {
      "latitude": "29.9633301299521",
      "longitude": "-90.03146252510824"
    }
  },
  {
    "service_request": "2025-1172377",
    "request_type": "Trash/Recycling",
    "request_reason": "Order Trash Cart",
    "date_created": "2025-03-01T12:03:28.000",
    "date_modified": "2025-03-01T12:03:29.000",
    "request_status": "Pending",
    "responsible_agency": "Department of Sanitation",
    "final_address": "439 Elmira Ave",
    "address_councildis": "C",
    "status": "Assigned to Contractor",
    "contractor": "Richards Disposal",
    "rowid": "1172377",
    "final_x": "3688171.63747",
    "final_y": "530015.633985",
    "longitude": "-90.04705707480643",
    "latitude": "29.951154940343958",
    "geocoded_column": {
      "latitude": "29.951154940343958",
      "longitude": "-90.04705707480643"
    }
  },
  {
    "service_request": "2025-1172376",
    "request_type": "Mosquito, Termite & Rodent Control",
    "request_reason": "Non-Rodent Complaint (Possums & Snakes)",
    "date_created": "2025-03-01T12:02:27.000",
    "date_modified": "2025-03-01T12:02:29.000",
    "request_status": "Pending",
    "responsible_agency": "Mosquito, Termite & Rodent Control Board",
    "final_address": "7008 Catina St",
    "address_councildis": "A",
    "status": "Pending",
    "rowid": "1172376",
    "final_x": "3667089.74906",
    "final_y": "554198.89404",
    "longitude": "-90.11281007372499",
    "latitude": "30.018284595362697",
    "geocoded_column": {
      "latitude": "30.018284595362697",
      "longitude": "-90.11281007372499"
    }
  },
  {
    "service_request": "2025-1172375",
    "request_type": "Abandoned Vehicles",
    "request_reason": "Vehicle Blocking Your Driveway",
    "date_created": "2025-03-01T11:55:02.000",
    "date_modified": "2025-03-01T11:55:04.000",
    "request_status": "Pending",
    "responsible_agency": "Department of Public Works",
    "final_address": "606 Chartres St",
    "address_councildis": "C",
    "status": "Pending",
    "rowid": "1172375",
    "final_x": "3682670.72668",
    "final_y": "531997.090563",
    "longitude": "-90.06435690845281",
    "latitude": "29.956771921503737",
    "geocoded_column": {
      "latitude": "29.956771921503737",
      "longitude": "-90.06435690845281"
    }
  },
  {
    "service_request": "2025-1172374",
    "request_type": "Drainage",
    "request_reason": "Street Flooding",
    "date_created": "2025-03-01T11:54:06.000",
    "date_modified": "2025-03-01T11:54:08.000",
    "request_status": "Pending",
    "responsible_agency": "Sewerage & Water Board ",
    "final_address": "4848 Laine Ave",
    "address_councildis": "E",
    "status": "Pending",
    "rowid": "1172374",
    "final_x": "3705552.22199",
    "final_y": "556108.09097",
    "longitude": "-89.99121329559699",
    "latitude": "30.02235155899645",
    "geocoded_column": {
      "latitude": "30.02235155899645",
      "longitude": "-89.99121329559699"
    }
  },
  {
    "service_request": "2025-1172373",
    "request_type": "Trash/Recycling",
    "request_reason": "Illegal Dumping",
    "date_created": "2025-03-01T11:47:51.000",
    "date_modified": "2025-03-01T11:47:52.000",
    "request_status": "Pending",
    "responsible_agency": "Department of Sanitation",
    "final_address": "1418 Egania St",
    "address_councildis": "E",
    "status": "Pending",
    "rowid": "1172373",
    "final_x": "3697115.90935",
    "final_y": "535333.602502",
    "longitude": "-90.0186230088138",
    "latitude": "29.965498363830843",
    "geocoded_column": {
      "latitude": "29.965498363830843",
      "longitude": "-90.0186230088138"
    }
  },
  {
    "service_request": "2025-1172372",
    "request_type": "Trash/Recycling",
    "request_reason": "Illegal Dumping",
    "date_created": "2025-03-01T11:46:36.000",
    "date_modified": "2025-03-01T11:46:38.000",
    "request_status": "Pending",
    "responsible_agency": "Department of Sanitation",
    "final_address": "4828 Laine Ave",
    "address_councildis": "E",
    "status": "Pending",
    "rowid": "1172372",
    "final_x": "3705566.97387",
    "final_y": "555959.223577",
    "longitude": "-89.99117219338805",
    "latitude": "30.021941756204818",
    "geocoded_column": {
      "latitude": "30.021941756204818",
      "longitude": "-89.99117219338805"
    }
  },
  {
    "service_request": "2025-1172371",
    "request_type": "Trash/Recycling",
    "request_reason": "Request a Large Item Pick Up",
    "date_created": "2025-03-01T11:46:05.000",
    "date_modified": "2025-03-01T11:46:07.000",
    "request_status": "Pending",
    "responsible_agency": "Department of Sanitation",
    "final_address": "7680 Avon Park Blvd",
    "address_councildis": "E",
    "status": "Assigned to Contractor",
    "contractor": "Waste Pro",
    "rowid": "1172371",
    "final_x": "3719255.63871",
    "final_y": "572818.909865",
    "longitude": "-89.94727567174952",
    "latitude": "30.067851005521064",
    "geocoded_column": {
      "latitude": "30.067851005521064",
      "longitude": "-89.94727567174952"
    }
  },
  {
    "service_request": "2025-1172370",
    "request_type": "Trash/Recycling",
    "request_reason": "Request a Large Item Pick Up",
    "date_created": "2025-03-01T11:41:04.000",
    "date_modified": "2025-03-01T11:41:06.000",
    "request_status": "Pending",
    "responsible_agency": "Department of Sanitation",
    "final_address": "1226 Dauphine St",
    "address_councildis": "C",
    "status": "Assigned to Contractor",
    "contractor": "IV Waste",
    "rowid": "1172370",
    "final_x": "3683260.32143",
    "final_y": "534504.932485",
    "longitude": "-90.06240732472712",
    "latitude": "29.963649660962602",
    "geocoded_column": {
      "latitude": "29.963649660962602",
      "longitude": "-90.06240732472712"
    }
  },
  {
    "service_request": "2025-1172369",
    "request_type": "Drainage",
    "request_reason": "Street Flooding",
    "date_created": "2025-03-01T11:37:17.000",
    "date_modified": "2025-03-01T11:37:20.000",
    "request_status": "Pending",
    "responsible_agency": "Sewerage & Water Board ",
    "final_address": "4806 Laine Ave",
    "address_councildis": "E",
    "status": "Pending",
    "rowid": "1172369",
    "final_x": "3705581.39883",
    "final_y": "555810.313113",
    "longitude": "-89.99113212608172",
    "latitude": "30.021531845474726",
    "geocoded_column": {
      "latitude": "30.021531845474726",
      "longitude": "-89.99113212608172"
    }
  },
  {
    "service_request": "2025-1172368",
    "request_type": "Trash/Recycling",
    "request_reason": "Illegal Dumping",
    "date_created": "2025-03-01T11:33:56.000",
    "date_modified": "2025-03-01T11:33:58.000",
    "request_status": "Pending",
    "responsible_agency": "Department of Sanitation",
    "final_address": "4800 Laine Ave",
    "address_councildis": "E",
    "status": "Pending",
    "rowid": "1172368",
    "final_x": "3705587.35851",
    "final_y": "555754.736217",
    "longitude": "-89.99111535228997",
    "latitude": "30.0213788385655",
    "geocoded_column": {
      "latitude": "30.0213788385655",
      "longitude": "-89.99111535228997"
    }
  },
  {
    "service_request": "2025-1172367",
    "request_type": "Abandoned Vehicles",
    "request_reason": "Abandoned/Junk Vehicles",
    "date_created": "2025-03-01T11:29:57.000",
    "date_modified": "2025-03-01T11:29:58.000",
    "request_status": "Pending",
    "responsible_agency": "Department of Public Works",
    "final_address": "606 Chartres St",
    "address_councildis": "C",
    "status": "Pending",
    "rowid": "1172367",
    "final_x": "3682670.72668",
    "final_y": "531997.090563",
    "longitude": "-90.06435690845281",
    "latitude": "29.956771921503737",
    "geocoded_column": {
      "latitude": "29.956771921503737",
      "longitude": "-90.06435690845281"
    }
  },
  {
    "service_request": "2025-1172366",
    "request_type": "Abandoned Vehicles",
    "request_reason": "Abandoned/Junk Vehicles",
    "date_created": "2025-03-01T11:29:56.000",
    "date_modified": "2025-03-01T11:29:57.000",
    "request_status": "Pending",
    "responsible_agency": "Department of Public Works",
    "final_address": "606 Chartres St",
    "address_councildis": "C",
    "status": "Pending",
    "rowid": "1172366",
    "final_x": "3682670.72668",
    "final_y": "531997.090563",
    "longitude": "-90.06435690845281",
    "latitude": "29.956771921503737",
    "geocoded_column": {
      "latitude": "29.956771921503737",
      "longitude": "-90.06435690845281"
    }
  },
  {
    "service_request": "2025-1172365",
    "request_type": "Abandoned Vehicles",
    "request_reason": "Abandoned/Junk Vehicles",
    "date_created": "2025-03-01T11:29:48.000",
    "date_modified": "2025-03-01T11:29:49.000",
    "request_status": "Pending",
    "responsible_agency": "Department of Public Works",
    "final_address": "606 Chartres St",
    "address_councildis": "C",
    "status": "Pending",
    "rowid": "1172365",
    "final_x": "3682670.72668",
    "final_y": "531997.090563",
    "longitude": "-90.06435690845281",
    "latitude": "29.956771921503737",
    "geocoded_column": {
      "latitude": "29.956771921503737",
      "longitude": "-90.06435690845281"
    }
  },
  {
    "service_request": "2025-1172364",
    "request_type": "Abandoned Vehicles",
    "request_reason": "Abandoned/Junk Vehicles",
    "date_created": "2025-03-01T11:29:31.000",
    "date_modified": "2025-03-01T11:29:33.000",
    "request_status": "Pending",
    "responsible_agency": "Department of Public Works",
    "final_address": "606 Chartres St",
    "address_councildis": "C",
    "status": "Pending",
    "rowid": "1172364",
    "final_x": "3682670.72668",
    "final_y": "531997.090563",
    "longitude": "-90.06435690845281",
    "latitude": "29.956771921503737",
    "geocoded_column": {
      "latitude": "29.956771921503737",
      "longitude": "-90.06435690845281"
    }
  },
  {
    "service_request": "2025-1172363",
    "request_type": "Abandoned Vehicles",
    "request_reason": "Abandoned/Junk Vehicles",
    "date_created": "2025-03-01T11:19:22.000",
    "date_modified": "2025-03-01T11:19:24.000",
    "request_status": "Pending",
    "responsible_agency": "Department of Public Works",
    "final_address": "2133 Broadway St",
    "address_councildis": "A",
    "status": "Pending",
    "rowid": "1172363",
    "final_x": "3666157.65421",
    "final_y": "529366.974081",
    "longitude": "-90.11658830646017",
    "latitude": "29.95003247497146",
    "geocoded_column": {
      "latitude": "29.95003247497146",
      "longitude": "-90.11658830646017"
    }
  },
  {
    "service_request": "2025-1172362",
    "request_type": "Drainage",
    "request_reason": "Street Flooding",
    "date_created": "2025-03-01T11:18:58.000",
    "date_modified": "2025-03-01T11:18:59.000",
    "request_status": "Pending",
    "responsible_agency": "Sewerage & Water Board ",
    "final_address": "4714 Laine Ave",
    "address_councildis": "E",
    "status": "Pending",
    "rowid": "1172362",
    "final_x": "3705684.25015",
    "final_y": "555216.650009",
    "longitude": "-89.99082912390584",
    "latitude": "30.019896188467367",
    "geocoded_column": {
      "latitude": "30.019896188467367",
      "longitude": "-89.99082912390584"
    }
  },
  {
    "service_request": "2025-1172361",
    "request_type": "Drainage",
    "request_reason": "Street Flooding",
    "date_created": "2025-03-01T11:18:48.000",
    "date_modified": "2025-03-01T11:18:50.000",
    "request_status": "Pending",
    "responsible_agency": "Sewerage & Water Board ",
    "final_address": "4714 Laine Ave",
    "address_councildis": "E",
    "status": "Pending",
    "rowid": "1172361",
    "final_x": "3705684.25015",
    "final_y": "555216.650009",
    "longitude": "-89.99082912390584",
    "latitude": "30.019896188467367",
    "geocoded_column": {
      "latitude": "30.019896188467367",
      "longitude": "-89.99082912390584"
    }
  },
  {
    "service_request": "2025-1172360",
    "request_type": "Trash/Recycling",
    "request_reason": "Replace Trash Cart",
    "date_created": "2025-03-01T11:04:21.000",
    "date_modified": "2025-03-01T11:04:22.000",
    "request_status": "Pending",
    "responsible_agency": "Department of Sanitation",
    "final_address": "2506 St Thomas St",
    "address_councildis": "B",
    "status": "Assigned to Contractor",
    "contractor": "IV Waste",
    "rowid": "1172360",
    "final_x": "3678780.87694",
    "final_y": "519731.91948",
    "longitude": "-90.07706443218284",
    "latitude": "29.923164639616722",
    "geocoded_column": {
      "latitude": "29.923164639616722",
      "longitude": "-90.07706443218284"
    }
  },
  {
    "service_request": "2025-1172359",
    "request_type": "Property Maintenance",
    "request_reason": "Property Maintenance",
    "date_created": "2025-03-01T10:59:32.000",
    "date_modified": "2025-03-01T10:59:34.000",
    "request_status": "Pending",
    "responsible_agency": "Department of Code Enforcement",
    "final_address": "3509 Red Oak Ct",
    "address_councildis": "C",
    "status": "Pending",
    "rowid": "1172359",
    "final_x": "3703523.48305",
    "final_y": "513625.180978",
    "longitude": "-89.99918652388612",
    "latitude": "29.905604108690156",
    "geocoded_column": {
      "latitude": "29.905604108690156",
      "longitude": "-89.99918652388612"
    }
  },
  {
    "service_request": "2025-1172358",
    "request_type": "Trash/Recycling",
    "request_reason": "Request a Large Item Pick Up",
    "date_created": "2025-03-01T10:55:55.000",
    "date_modified": "2025-03-01T10:55:58.000",
    "request_status": "Pending",
    "responsible_agency": "Department of Sanitation",
    "final_address": "2447 Odin St",
    "address_councildis": "D",
    "status": "Assigned to Contractor",
    "contractor": "IV Waste",
    "rowid": "1172358",
    "final_x": "3685649.96758",
    "final_y": "553243.563799",
    "longitude": "-90.05420049879214",
    "latitude": "30.01510112750866",
    "geocoded_column": {
      "latitude": "30.01510112750866",
      "longitude": "-90.05420049879214"
    }
  },
  {
    "service_request": "2025-1172357",
    "request_type": "Trash/Recycling",
    "request_reason": "Request a Large Item Pick Up",
    "date_created": "2025-03-01T10:51:41.000",
    "date_modified": "2025-03-01T10:51:43.000",
    "request_status": "Pending",
    "responsible_agency": "Department of Sanitation",
    "final_address": "2447 Odin St",
    "address_councildis": "D",
    "status": "Assigned to Contractor",
    "contractor": "IV Waste",
    "rowid": "1172357",
    "final_x": "3685649.96758",
    "final_y": "553243.563799",
    "longitude": "-90.05420049879214",
    "latitude": "30.01510112750866",
    "geocoded_column": {
      "latitude": "30.01510112750866",
      "longitude": "-90.05420049879214"
    }
  },
  {
    "service_request": "2025-1172356",
    "request_type": "Traffic Signals",
    "request_reason": "Traffic Signal Malfunctioning or Damaged",
    "date_created": "2025-03-01T09:51:02.000",
    "date_modified": "2025-03-01T09:51:03.000",
    "request_status": "Pending",
    "responsible_agency": "Department of Public Works",
    "final_address": "700 Magazine St",
    "address_councildis": "B",
    "status": "Pending",
    "rowid": "1172356",
    "final_x": "3681333.99368",
    "final_y": "528291.429888",
    "longitude": "-90.0687070244851",
    "latitude": "29.94662324314497",
    "geocoded_column": {
      "latitude": "29.94662324314497",
      "longitude": "-90.0687070244851"
    }
  },
  {
    "service_request": "2025-1172355",
    "request_type": "Trash/Recycling",
    "request_reason": "Request a Large Item Pick Up",
    "date_created": "2025-03-01T09:45:44.000",
    "date_modified": "2025-03-01T09:45:46.000",
    "request_status": "Pending",
    "responsible_agency": "Department of Sanitation",
    "final_address": "4913 S Robertson St",
    "address_councildis": "B",
    "status": "Assigned to Contractor",
    "contractor": "IV Waste",
    "rowid": "1172355",
    "final_x": "3669064.87655",
    "final_y": "524293.93094",
    "longitude": "-90.10758017077487",
    "latitude": "29.93599804478946",
    "geocoded_column": {
      "latitude": "29.93599804478946",
      "longitude": "-90.10758017077487"
    }
  },
  {
    "service_request": "2025-1172354",
    "request_type": "Property Maintenance",
    "request_reason": "Property Maintenance",
    "date_created": "2025-03-01T09:24:27.000",
    "date_modified": "2025-03-01T09:24:29.000",
    "request_status": "Pending",
    "responsible_agency": "Department of Code Enforcement",
    "final_address": "2024 Burdette St",
    "address_councildis": "A",
    "status": "Pending",
    "rowid": "1172354",
    "final_x": "3664805.45882",
    "final_y": "529873.872193",
    "longitude": "-90.12084090094403",
    "latitude": "29.95146569312057",
    "geocoded_column": {
      "latitude": "29.95146569312057",
      "longitude": "-90.12084090094403"
    }
  },
  {
    "service_request": "2025-1172353",
    "request_type": "Abandoned Vehicles",
    "request_reason": "Vehicle Blocking Your Driveway",
    "date_created": "2025-03-01T09:20:19.000",
    "date_modified": "2025-03-01T09:20:20.000",
    "request_status": "Pending",
    "responsible_agency": "Department of Public Works",
    "final_address": "1631 N.Galvez St",
    "status": "Pending",
    "rowid": "1172353",
    "longitude": "0.0",
    "latitude": "0.0",
    "geocoded_column": {
      "latitude": "0.0",
      "longitude": "0.0"
    }
  },
  {
    "service_request": "2025-1172352",
    "request_type": "Abandoned Vehicles",
    "request_reason": "Vehicle Blocking Your Driveway",
    "date_created": "2025-03-01T09:18:47.000",
    "date_modified": "2025-03-01T09:18:49.000",
    "request_status": "Pending",
    "responsible_agency": "Department of Public Works",
    "final_address": "1921 Prytania St",
    "address_councildis": "B",
    "status": "Pending",
    "rowid": "1172352",
    "final_x": "3678583.00603",
    "final_y": "523848.028411",
    "longitude": "-90.0775466381238",
    "latitude": "29.934488557973467",
    "geocoded_column": {
      "latitude": "29.934488557973467",
      "longitude": "-90.0775466381238"
    }
  },
  {
    "service_request": "2025-1172351",
    "request_type": "Drainage",
    "request_reason": "Street Flooding",
    "date_created": "2025-03-01T09:09:26.000",
    "date_modified": "2025-03-01T09:09:28.000",
    "request_status": "Pending",
    "responsible_agency": "Sewerage & Water Board ",
    "final_address": "1714 Audubon St",
    "address_councildis": "A",
    "status": "Pending",
    "rowid": "1172351",
    "final_x": "3665468.74132",
    "final_y": "527969.694527",
    "longitude": "-90.11881029831396",
    "latitude": "29.94621050473401",
    "geocoded_column": {
      "latitude": "29.94621050473401",
      "longitude": "-90.11881029831396"
    }
  },
  {
    "service_request": "2025-1172350",
    "request_type": "Trash/Recycling",
    "request_reason": "Illegal Dumping",
    "date_created": "2025-03-01T09:05:25.000",
    "date_modified": "2025-03-01T09:08:15.000",
    "request_status": "Pending",
    "responsible_agency": "Department of Sanitation",
    "final_address": "2038 Lauradale Dr",
    "address_councildis": "C",
    "status": "Pending",
    "rowid": "1172350",
    "final_x": "3692739.87888",
    "final_y": "523640.969659",
    "longitude": "-90.0328613432534",
    "latitude": "29.933485007073628",
    "geocoded_column": {
      "latitude": "29.933485007073628",
      "longitude": "-90.0328613432534"
    }
  },
  {
    "service_request": "2025-1172349",
    "request_type": "Property Maintenance",
    "request_reason": "Property Maintenance",
    "date_created": "2025-03-01T08:47:20.000",
    "date_modified": "2025-03-01T08:47:21.000",
    "request_status": "Pending",
    "responsible_agency": "Department of Code Enforcement",
    "final_address": "2815 Conti St",
    "address_councildis": "B",
    "status": "Pending",
    "rowid": "1172349",
    "final_x": "3675500.41121",
    "final_y": "536511.343367",
    "longitude": "-90.08684343051635",
    "latitude": "29.969400994037915",
    "geocoded_column": {
      "latitude": "29.969400994037915",
      "longitude": "-90.08684343051635"
    }
  },
  {
    "service_request": "2025-1172348",
    "request_type": "Abandoned Vehicles",
    "request_reason": "Abandoned/Junk Vehicles",
    "date_created": "2025-03-01T08:33:31.000",
    "date_modified": "2025-03-01T08:33:33.000",
    "request_status": "Pending",
    "responsible_agency": "Department of Public Works",
    "final_address": "4023 Tchoupitoulas St",
    "address_councildis": "B",
    "status": "Pending",
    "rowid": "1172348",
    "final_x": "3672456.92334",
    "final_y": "517628.933814",
    "longitude": "-90.09709839396619",
    "latitude": "29.917571230941423",
    "geocoded_column": {
      "latitude": "29.917571230941423",
      "longitude": "-90.09709839396619"
    }
  },
  {
    "service_request": "2025-1172347",
    "request_type": "Safety & Permits",
    "request_reason": "Zoning Enforcement",
    "date_created": "2025-03-01T07:57:18.000",
    "date_modified": "2025-03-01T07:57:20.000",
    "request_status": "Pending",
    "responsible_agency": "Safety and Permits",
    "final_address": "2063 Treasure St",
    "address_councildis": "D",
    "status": "Pending",
    "rowid": "1172347",
    "final_x": "3683463.67407",
    "final_y": "544007.955726",
    "longitude": "-90.06143204772752",
    "latitude": "29.989773454169274",
    "geocoded_column": {
      "latitude": "29.989773454169274",
      "longitude": "-90.06143204772752"
    }
  },
  {
    "service_request": "2025-1172346",
    "request_type": "General Services",
    "request_reason": "General Service Request",
    "date_created": "2025-03-01T07:36:33.000",
    "date_modified": "2025-03-01T07:36:35.000",
    "request_status": "Pending",
    "responsible_agency": "Orleans Parish Communication District",
    "final_address": "7039 Magazine St",
    "address_councildis": "A",
    "status": "Pending",
    "rowid": "1172346",
    "final_x": "3661065.01338",
    "final_y": "521112.614329",
    "longitude": "-90.13294127604975",
    "latitude": "29.9274833087737",
    "geocoded_column": {
      "latitude": "29.9274833087737",
      "longitude": "-90.13294127604975"
    }
  },
  {
    "service_request": "2025-1172345",
    "request_type": "General Services",
    "request_reason": "General Service Request",
    "date_created": "2025-03-01T07:23:15.000",
    "date_modified": "2025-03-01T07:23:17.000",
    "request_status": "Pending",
    "responsible_agency": "Orleans Parish Communication District",
    "final_address": "5725 General Diaz St",
    "address_councildis": "A",
    "status": "Pending",
    "rowid": "1172345",
    "final_x": "3669398.32666",
    "final_y": "545538.721616",
    "longitude": "-90.10580894181041",
    "latitude": "29.99440433255263",
    "geocoded_column": {
      "latitude": "29.99440433255263",
      "longitude": "-90.10580894181041"
    }
  },
  {
    "service_request": "2025-1172344",
    "request_type": "Trash/Recycling",
    "request_reason": "Repair Trash Cart",
    "date_created": "2025-03-01T07:07:11.000",
    "date_modified": "2025-03-01T07:07:13.000",
    "request_status": "Pending",
    "responsible_agency": "Department of Sanitation",
    "final_address": "3301 Grand-Route St John St",
    "address_councildis": "A",
    "status": "Assigned to Contractor",
    "contractor": "IV Waste",
    "rowid": "1172344",
    "final_x": "3675632.59259",
    "final_y": "540373.920331",
    "longitude": "-90.08629323393475",
    "latitude": "29.98001780628698",
    "geocoded_column": {
      "latitude": "29.98001780628698",
      "longitude": "-90.08629323393475"
    }
  },
  {
    "service_request": "2025-1172342",
    "request_type": "Abandoned Vehicles",
    "request_reason": "Vehicle Blocking Your Driveway",
    "date_created": "2025-03-01T01:10:37.000",
    "date_modified": "2025-03-01T01:10:39.000",
    "request_status": "Pending",
    "responsible_agency": "Department of Public Works",
    "final_address": "713 Julia St",
    "address_councildis": "B",
    "status": "Pending",
    "rowid": "1172342",
    "final_x": "3680230.48091",
    "final_y": "528113.552127",
    "longitude": "-90.07219739094404",
    "latitude": "29.946167581154427",
    "geocoded_column": {
      "latitude": "29.946167581154427",
      "longitude": "-90.07219739094404"
    }
  },
  {
    "service_request": "2025-1172341",
    "request_type": "Trash/Recycling",
    "request_reason": "Request a Large Item Pick Up",
    "date_created": "2025-03-01T00:57:15.000",
    "date_modified": "2025-03-01T00:57:17.000",
    "request_status": "Pending",
    "responsible_agency": "Department of Sanitation",
    "final_address": "4624 Cleveland Ave",
    "address_councildis": "A",
    "status": "Assigned to Contractor",
    "contractor": "IV Waste",
    "rowid": "1172341",
    "final_x": "3668953.49556",
    "final_y": "539399.402314",
    "longitude": "-90.10742159589572",
    "latitude": "29.97753639263195",
    "geocoded_column": {
      "latitude": "29.97753639263195",
      "longitude": "-90.10742159589572"
    }
  },
  {
    "service_request": "2025-1172340",
    "request_type": "Health Related Request",
    "request_reason": "Noise Ordinance Complaint",
    "date_created": "2025-02-28T23:10:43.000",
    "date_modified": "2025-02-28T23:10:45.000",
    "request_status": "Pending",
    "responsible_agency": "Health Department",
    "final_address": "3005 Dauphine St, New Orleans, Louisiana, 70117",
    "address_councildis": "C",
    "status": "Pending",
    "rowid": "1172340",
    "final_x": "3688208.94243",
    "final_y": "535011.52871",
    "longitude": "-90.0467621651806",
    "latitude": "29.964890772124892",
    "geocoded_column": {
      "latitude": "29.964890772124892",
      "longitude": "-90.0467621651806"
    }
  },
  {
    "service_request": "2025-1172339",
    "request_type": "Trash/Recycling",
    "request_reason": "Repair Recycling Cart",
    "date_created": "2025-02-28T22:05:57.000",
    "date_modified": "2025-02-28T22:05:58.000",
    "request_status": "Pending",
    "responsible_agency": "Department of Sanitation",
    "final_address": "5833 Lafaye St",
    "address_councildis": "D",
    "status": "Pending",
    "rowid": "1172339",
    "final_x": "3687209.32194",
    "final_y": "554761.716888",
    "longitude": "-90.04921993393896",
    "latitude": "30.019227531649854",
    "geocoded_column": {
      "latitude": "30.019227531649854",
      "longitude": "-90.04921993393896"
    }
  },
  {
    "service_request": "2025-1172338",
    "request_type": "Trash/Recycling",
    "request_reason": "Replace Trash Cart",
    "date_created": "2025-02-28T22:03:13.000",
    "date_modified": "2025-02-28T22:03:16.000",
    "request_status": "Pending",
    "responsible_agency": "Department of Sanitation",
    "final_address": "5833 Lafaye St",
    "address_councildis": "D",
    "status": "Assigned to Contractor",
    "contractor": "IV Waste",
    "rowid": "1172338",
    "final_x": "3687209.32194",
    "final_y": "554761.716888",
    "longitude": "-90.04921993393896",
    "latitude": "30.019227531649854",
    "geocoded_column": {
      "latitude": "30.019227531649854",
      "longitude": "-90.04921993393896"
    }
  },
  {
    "service_request": "2025-1172337",
    "request_type": "Street and Traffic Signs",
    "request_reason": "Street Name Sign Damaged or Missing",
    "date_created": "2025-02-28T21:46:10.000",
    "date_modified": "2025-02-28T21:46:13.000",
    "request_status": "Pending",
    "responsible_agency": "Department of Public Works",
    "final_address": "2660 Athis St",
    "address_councildis": "D",
    "status": "Pending",
    "rowid": "1172337",
    "final_x": "3687157.37135",
    "final_y": "554461.827352",
    "longitude": "-90.04939469709608",
    "latitude": "30.01840454705359",
    "geocoded_column": {
      "latitude": "30.01840454705359",
      "longitude": "-90.04939469709608"
    }
  },
  {
    "service_request": "2025-1172336",
    "request_type": "Street and Traffic Signs",
    "request_reason": "Street Name Sign Damaged or Missing",
    "date_created": "2025-02-28T21:30:59.000",
    "date_modified": "2025-02-28T21:31:01.000",
    "request_status": "Pending",
    "responsible_agency": "Department of Public Works",
    "final_address": "5800 Lafaye St",
    "address_councildis": "D",
    "status": "Pending",
    "rowid": "1172336",
    "final_x": "3687147.98966",
    "final_y": "554562.2406",
    "longitude": "-90.04942078471852",
    "latitude": "30.01868093541346",
    "geocoded_column": {
      "latitude": "30.01868093541346",
      "longitude": "-90.04942078471852"
    }
  },
  {
    "service_request": "2025-1172335",
    "request_type": "Trash/Recycling",
    "request_reason": "Order Recycling Cart",
    "date_created": "2025-02-28T21:07:24.000",
    "date_modified": "2025-02-28T21:07:26.000",
    "request_status": "Pending",
    "responsible_agency": "Department of Sanitation",
    "final_address": "2722 Banks St",
    "address_councildis": "B",
    "status": "Pending",
    "rowid": "1172335",
    "final_x": "3674397.71912",
    "final_y": "534232.450245",
    "longitude": "-90.09040389273228",
    "latitude": "29.963167744302833",
    "geocoded_column": {
      "latitude": "29.963167744302833",
      "longitude": "-90.09040389273228"
    }
  },
  {
    "service_request": "2025-1172334",
    "request_type": "Trash/Recycling",
    "request_reason": "Order Trash Cart",
    "date_created": "2025-02-28T21:06:08.000",
    "date_modified": "2025-02-28T21:06:10.000",
    "request_status": "Pending",
    "responsible_agency": "Department of Sanitation",
    "final_address": "2722 Banks St",
    "address_councildis": "B",
    "status": "Assigned to Contractor",
    "contractor": "IV Waste",
    "rowid": "1172334",
    "final_x": "3674397.71912",
    "final_y": "534232.450245",
    "longitude": "-90.09040389273228",
    "latitude": "29.963167744302833",
    "geocoded_column": {
      "latitude": "29.963167744302833",
      "longitude": "-90.09040389273228"
    }
  },
  {
    "service_request": "2025-1172333",
    "request_type": "Trash/Recycling",
    "request_reason": "Replace Trash Cart",
    "date_created": "2025-02-28T20:52:40.000",
    "date_modified": "2025-02-28T20:52:42.000",
    "request_status": "Pending",
    "responsible_agency": "Department of Sanitation",
    "final_address": "433 Elmira Ave",
    "address_councildis": "C",
    "status": "Assigned to Contractor",
    "contractor": "Richards Disposal",
    "rowid": "1172333",
    "final_x": "3688164.38108",
    "final_y": "530045.648001",
    "longitude": "-90.04707892298876",
    "latitude": "29.951237692569638",
    "geocoded_column": {
      "latitude": "29.951237692569638",
      "longitude": "-90.04707892298876"
    }
  },
  {
    "service_request": "2025-1172332",
    "request_type": "Streetlights",
    "request_reason": "Streetlight Outage/Malfunction",
    "date_created": "2025-02-28T20:42:44.000",
    "date_modified": "2025-02-28T20:42:45.000",
    "request_status": "Pending",
    "responsible_agency": "Department of Public Works",
    "final_address": "3344 Vincennes Pl",
    "address_councildis": "A",
    "status": "Pending",
    "contractor": "Legacy Professional Services",
    "rowid": "1172332",
    "final_x": "3667912.26381",
    "final_y": "528536.94432",
    "longitude": "-90.11107612155568",
    "latitude": "29.947698815164422",
    "geocoded_column": {
      "latitude": "29.947698815164422",
      "longitude": "-90.11107612155568"
    }
  },
  {
    "service_request": "2025-1172331",
    "request_type": "Streetlights",
    "request_reason": "Streetlight Outage/Malfunction",
    "date_created": "2025-02-28T20:39:01.000",
    "date_modified": "2025-02-28T20:39:02.000",
    "request_status": "Pending",
    "responsible_agency": "Department of Public Works",
    "final_address": "8300 Edinburgh St",
    "address_councildis": "A",
    "status": "Pending",
    "contractor": "Legacy Professional Services",
    "rowid": "1172331",
    "final_x": "3666871.12116",
    "final_y": "534924.379142",
    "longitude": "-90.1141488445242",
    "latitude": "29.96529266539811",
    "geocoded_column": {
      "latitude": "29.96529266539811",
      "longitude": "-90.1141488445242"
    }
  },
  {
    "service_request": "2025-1172330",
    "request_type": "Trash/Recycling",
    "request_reason": "Return Recycling Cart",
    "date_created": "2025-02-28T20:19:53.000",
    "date_modified": "2025-02-28T20:19:55.000",
    "request_status": "Pending",
    "responsible_agency": "Department of Sanitation",
    "final_address": "2856 Dryades St",
    "address_councildis": "B",
    "status": "Pending",
    "rowid": "1172330",
    "final_x": "3674949.22542",
    "final_y": "523155.483003",
    "longitude": "-90.08904215069043",
    "latitude": "29.93269328764725",
    "geocoded_column": {
      "latitude": "29.93269328764725",
      "longitude": "-90.08904215069043"
    }
  },
  {
    "service_request": "2025-1172329",
    "request_type": "Trash/Recycling",
    "request_reason": "Replace Trash Cart",
    "date_created": "2025-02-28T20:14:11.000",
    "date_modified": "2025-02-28T20:14:14.000",
    "request_status": "Pending",
    "responsible_agency": "Department of Sanitation",
    "final_address": "132 S Olympia St",
    "address_councildis": "A",
    "status": "Assigned to Contractor",
    "contractor": "IV Waste",
    "rowid": "1172329",
    "final_x": "3669245.12353",
    "final_y": "539341.370506",
    "longitude": "-90.1065024960056",
    "latitude": "29.97736824240832",
    "geocoded_column": {
      "latitude": "29.97736824240832",
      "longitude": "-90.1065024960056"
    }
  },
  {
    "service_request": "2025-1172328",
    "request_type": "Trash/Recycling",
    "request_reason": "Order Recycling Cart",
    "date_created": "2025-02-28T20:11:58.000",
    "date_modified": "2025-02-28T20:12:00.000",
    "request_status": "Pending",
    "responsible_agency": "Department of Sanitation",
    "final_address": "132 S Olympia St",
    "address_councildis": "A",
    "status": "Pending",
    "rowid": "1172328",
    "final_x": "3669245.12353",
    "final_y": "539341.370506",
    "longitude": "-90.1065024960056",
    "latitude": "29.97736824240832",
    "geocoded_column": {
      "latitude": "29.97736824240832",
      "longitude": "-90.1065024960056"
    }
  },
  {
    "service_request": "2025-1172327",
    "request_type": "Trash/Recycling",
    "request_reason": "Replace Trash Cart",
    "date_created": "2025-02-28T20:02:22.000",
    "date_modified": "2025-02-28T20:02:25.000",
    "request_status": "Pending",
    "responsible_agency": "Department of Sanitation",
    "final_address": "8319 Belfast St",
    "address_councildis": "A",
    "status": "Assigned to Contractor",
    "contractor": "IV Waste",
    "rowid": "1172327",
    "final_x": "3664963.36039",
    "final_y": "532995.460036",
    "longitude": "-90.1202379727792",
    "latitude": "29.960044447935914",
    "geocoded_column": {
      "latitude": "29.960044447935914",
      "longitude": "-90.1202379727792"
    }
  },
  {
    "service_request": "2025-1172326",
    "request_type": "Trash/Recycling",
    "request_reason": "Illegal Dumping",
    "date_created": "2025-02-28T19:31:10.000",
    "date_modified": "2025-03-01T07:55:07.000",
    "request_status": "Pending",
    "responsible_agency": "Department of Code Enforcement",
    "final_address": "718 Homer St",
    "address_councildis": "C",
    "status": "Pending",
    "rowid": "1172326",
    "final_x": "3687642.92918",
    "final_y": "528404.123648",
    "longitude": "-90.04878351140326",
    "latitude": "29.94674014654779",
    "geocoded_column": {
      "latitude": "29.94674014654779",
      "longitude": "-90.04878351140326"
    }
  },
  {
    "service_request": "2025-1172325",
    "request_type": "Roads and Streets",
    "request_reason": "Street Subsidence (Sinking)",
    "date_created": "2025-02-28T18:31:46.000",
    "date_modified": "2025-02-28T18:31:48.000",
    "request_status": "Pending",
    "responsible_agency": "Department of Public Works",
    "final_address": "7358 Newcastle St",
    "address_councildis": "E",
    "status": "Pending",
    "rowid": "1172325",
    "final_x": "3697348.65405",
    "final_y": "558656.393372",
    "longitude": "-90.01704193092431",
    "latitude": "30.029620073160416",
    "geocoded_column": {
      "latitude": "30.029620073160416",
      "longitude": "-90.01704193092431"
    }
  },
  {
    "service_request": "2025-1172324",
    "request_type": "Trash/Recycling",
    "request_reason": "Replace Trash Cart",
    "date_created": "2025-02-28T17:47:31.000",
    "date_modified": "2025-02-28T17:47:33.000",
    "request_status": "Pending",
    "responsible_agency": "Department of Sanitation",
    "final_address": "2721 Danbury Dr",
    "address_councildis": "C",
    "status": "Assigned to Contractor",
    "contractor": "Richards Disposal",
    "rowid": "1172324",
    "final_x": "3703591.5226",
    "final_y": "520783.086969",
    "longitude": "-89.99870866149085",
    "latitude": "29.925283713642234",
    "geocoded_column": {
      "latitude": "29.925283713642234",
      "longitude": "-89.99870866149085"
    }
  },
  {
    "service_request": "2025-1172323",
    "request_type": "Abandoned Vehicles",
    "request_reason": "Abandoned/Junk Vehicles",
    "date_created": "2025-02-28T17:04:55.000",
    "date_modified": "2025-02-28T17:04:57.000",
    "request_status": "Pending",
    "responsible_agency": "Department of Public Works",
    "final_address": "5476 Patio Way",
    "address_councildis": "E",
    "status": "Pending",
    "rowid": "1172323",
    "final_x": "3725662.78176",
    "final_y": "563741.496801",
    "longitude": "-89.9273738142669",
    "latitude": "30.042677276158518",
    "geocoded_column": {
      "latitude": "30.042677276158518",
      "longitude": "-89.9273738142669"
    }
  },
  {
    "service_request": "2025-1172322",
    "request_type": "Abandoned Vehicles",
    "request_reason": "Abandoned/Junk Vehicles",
    "date_created": "2025-02-28T17:01:17.000",
    "date_modified": "2025-02-28T17:01:19.000",
    "request_status": "Pending",
    "responsible_agency": "Department of Public Works",
    "final_address": "5476 Patio Way",
    "address_councildis": "E",
    "status": "Pending",
    "rowid": "1172322",
    "final_x": "3725662.78176",
    "final_y": "563741.496801",
    "longitude": "-89.9273738142669",
    "latitude": "30.042677276158518",
    "geocoded_column": {
      "latitude": "30.042677276158518",
      "longitude": "-89.9273738142669"
    }
  },
  {
    "service_request": "2025-1172321",
    "request_type": "Property Maintenance",
    "request_reason": "Property Maintenance",
    "date_created": "2025-02-28T16:55:37.000",
    "date_modified": "2025-02-28T16:55:38.000",
    "request_status": "Pending",
    "responsible_agency": "Department of Code Enforcement",
    "final_address": "4500 Lancelot Dr",
    "address_councildis": "E",
    "status": "Pending",
    "rowid": "1172321",
    "final_x": "3707525.34673",
    "final_y": "553938.301592",
    "longitude": "-89.98505942898117",
    "latitude": "30.01632178489064",
    "geocoded_column": {
      "latitude": "30.01632178489064",
      "longitude": "-89.98505942898117"
    }
  },
  {
    "service_request": "2025-1172320",
    "request_type": "Abandoned Vehicles",
    "request_reason": "Abandoned/Junk Vehicles",
    "date_created": "2025-02-28T16:53:08.000",
    "date_modified": "2025-02-28T16:53:10.000",
    "request_status": "Pending",
    "responsible_agency": "Department of Public Works",
    "final_address": "4500 Lancelot Dr",
    "address_councildis": "E",
    "status": "Pending",
    "rowid": "1172320",
    "final_x": "3707525.34673",
    "final_y": "553938.301592",
    "longitude": "-89.98505942898117",
    "latitude": "30.01632178489064",
    "geocoded_column": {
      "latitude": "30.01632178489064",
      "longitude": "-89.98505942898117"
    }
  },
  {
    "service_request": "2025-1172319",
    "request_type": "Trash/Recycling",
    "request_reason": "Request a Large Item Pick Up",
    "date_created": "2025-02-28T16:43:04.000",
    "date_modified": "2025-03-01T06:32:27.000",
    "request_status": "Pending",
    "responsible_agency": "Department of Sanitation",
    "final_address": "2730 Dumaine St",
    "address_councildis": "A",
    "status": "Assigned to Contractor",
    "contractor": "IV Waste",
    "rowid": "1172319",
    "final_x": "3676881.44475",
    "final_y": "537684.479624",
    "longitude": "-90.08244156792533",
    "latitude": "29.97258533684468",
    "geocoded_column": {
      "latitude": "29.97258533684468",
      "longitude": "-90.08244156792533"
    }
  },
  {
    "service_request": "2025-1172318",
    "request_type": "Trash/Recycling",
    "request_reason": "Order Second Trash Cart",
    "date_created": "2025-02-28T16:41:59.000",
    "date_modified": "2025-02-28T16:42:01.000",
    "request_status": "Pending",
    "responsible_agency": "Department of Sanitation",
    "final_address": "833 St Andrew St",
    "address_councildis": "B",
    "status": "Assigned to Contractor",
    "contractor": "IV Waste",
    "rowid": "1172318",
    "final_x": "3680112.88187",
    "final_y": "521919.940474",
    "longitude": "-90.07278382191792",
    "latitude": "29.929140759042546",
    "geocoded_column": {
      "latitude": "29.929140759042546",
      "longitude": "-90.07278382191792"
    }
  },
  {
    "service_request": "2025-1172317",
    "request_type": "General Services",
    "request_reason": "General Service Request",
    "date_created": "2025-02-28T16:34:04.000",
    "date_modified": "2025-02-28T16:36:05.000",
    "case_close_date": "2025-02-28T10:36:04.000",
    "request_status": "Closed",
    "responsible_agency": "Orleans Parish Communication District",
    "final_address": "MAPLE ST & S CARROLLTON AVE",
    "address_councildis": "A",
    "status": "Referred to Risk Management",
    "rowid": "1172317",
    "final_x": "3661040.4",
    "final_y": "527309.98",
    "longitude": "-90.13281400328965",
    "latitude": "29.944524820534618",
    "geocoded_column": {
      "latitude": "29.944524820534618",
      "longitude": "-90.13281400328965"
    }
  },
  {
    "service_request": "2025-1172316",
    "request_type": "Abandoned Vehicles",
    "request_reason": "Abandoned/Junk Vehicles",
    "date_created": "2025-02-28T16:34:01.000",
    "date_modified": "2025-02-28T16:34:02.000",
    "request_status": "Pending",
    "responsible_agency": "Department of Public Works",
    "final_address": "3332 Vincennes Pl",
    "address_councildis": "A",
    "status": "Pending",
    "rowid": "1172316",
    "final_x": "3667895.15981",
    "final_y": "528457.6144",
    "longitude": "-90.11113279747177",
    "latitude": "29.9474811853149",
    "geocoded_column": {
      "latitude": "29.9474811853149",
      "longitude": "-90.11113279747177"
    }
  },
  {
    "service_request": "2025-1172315",
    "request_type": "Trash/Recycling",
    "request_reason": "Order Second Trash Cart",
    "date_created": "2025-02-28T16:33:08.000",
    "date_modified": "2025-02-28T16:33:10.000",
    "request_status": "Pending",
    "responsible_agency": "Department of Sanitation",
    "final_address": "7161 Bunker Hill Rd",
    "address_councildis": "E",
    "status": "Assigned to Contractor",
    "contractor": "Waste Pro",
    "rowid": "1172315",
    "final_x": "3705648.29534",
    "final_y": "561058.241246",
    "longitude": "-89.99072645793701",
    "latitude": "30.035959444968075",
    "geocoded_column": {
      "latitude": "30.035959444968075",
      "longitude": "-89.99072645793701"
    }
  },
  {
    "service_request": "2025-1172314",
    "request_type": "Utility Poles",
    "request_reason": "Utility Pole Leaning",
    "date_created": "2025-02-28T16:30:38.000",
    "date_modified": "2025-02-28T16:30:41.000",
    "request_status": "Pending",
    "responsible_agency": "Utility Company Collective",
    "final_address": "103 Maumus Ave",
    "address_councildis": "C",
    "status": "Pending",
    "rowid": "1172314",
    "final_x": "3705627.97233",
    "final_y": "516710.162101",
    "longitude": "-89.99243074162817",
    "latitude": "29.914019203911696",
    "geocoded_column": {
      "latitude": "29.914019203911696",
      "longitude": "-89.99243074162817"
    }
  },
  {
    "service_request": "2025-1172313",
    "request_type": "Trash/Recycling",
    "request_reason": "Request a Large Item Pick Up",
    "date_created": "2025-02-28T16:23:43.000",
    "date_modified": "2025-02-28T16:23:45.000",
    "request_status": "Pending",
    "responsible_agency": "Department of Sanitation",
    "final_address": "8050 Driftwood Dr",
    "address_councildis": "E",
    "status": "Assigned to Contractor",
    "contractor": "Waste Pro",
    "rowid": "1172313",
    "final_x": "3702287.5041",
    "final_y": "561861.579743",
    "longitude": "-90.0013176015962",
    "latitude": "30.038276161180363",
    "geocoded_column": {
      "latitude": "30.038276161180363",
      "longitude": "-90.0013176015962"
    }
  },
  {
    "service_request": "2025-1172312",
    "request_type": "Streetlights",
    "request_reason": "Streetlight Outage/Malfunction",
    "date_created": "2025-02-28T16:22:47.000",
    "date_modified": "2025-02-28T16:22:48.000",
    "request_status": "Pending",
    "responsible_agency": "Department of Public Works",
    "final_address": "5163 General De Gaulle Dr",
    "address_councildis": "C",
    "status": "Pending",
    "contractor": "Legacy Professional Services",
    "rowid": "1172312",
    "final_x": "3703270.68497",
    "final_y": "515726.661748",
    "longitude": "-89.99990718257494",
    "latitude": "29.911390555885003",
    "geocoded_column": {
      "latitude": "29.911390555885003",
      "longitude": "-89.99990718257494"
    }
  },
  {
    "service_request": "2025-1172311",
    "request_type": "Trash/Recycling",
    "request_reason": "Request a Large Item Pick Up",
    "date_created": "2025-02-28T16:03:53.000",
    "date_modified": "2025-02-28T16:03:55.000",
    "request_status": "Pending",
    "responsible_agency": "Department of Sanitation",
    "final_address": "7520 Means Ave",
    "address_councildis": "E",
    "status": "Assigned to Contractor",
    "contractor": "Waste Pro",
    "rowid": "1172311",
    "final_x": "3708179.41041",
    "final_y": "564444.076193",
    "longitude": "-89.98260160037424",
    "latitude": "30.045187353903884",
    "geocoded_column": {
      "latitude": "30.045187353903884",
      "longitude": "-89.98260160037424"
    }
  },
  {
    "service_request": "2025-1172310",
    "request_type": "Roads and Streets",
    "request_reason": "Street Subsidence (Sinking)",
    "date_created": "2025-02-28T16:02:37.000",
    "date_modified": "2025-02-28T16:02:39.000",
    "request_status": "Pending",
    "responsible_agency": "Department of Public Works",
    "final_address": "7100 BLK Milne Blvd",
    "address_councildis": "A",
    "status": "Pending",
    "rowid": "1172310",
    "final_x": "3667780.90751",
    "final_y": "554635.368207",
    "longitude": "-90.11061154647987",
    "latitude": "30.019464483779117",
    "geocoded_column": {
      "latitude": "30.019464483779117",
      "longitude": "-90.11061154647987"
    }
  },
  {
    "service_request": "2025-1172309",
    "request_type": "Trash/Recycling",
    "request_reason": "Request a Large Item Pick Up",
    "date_created": "2025-02-28T16:00:39.000",
    "date_modified": "2025-02-28T16:00:41.000",
    "request_status": "Pending",
    "responsible_agency": "Department of Sanitation",
    "final_address": "2536 Milan St",
    "address_councildis": "B",
    "status": "Assigned to Contractor",
    "contractor": "IV Waste",
    "rowid": "1172309",
    "final_x": "3671207.1947",
    "final_y": "524415.973436",
    "longitude": "-90.10081266232187",
    "latitude": "29.936270433364296",
    "geocoded_column": {
      "latitude": "29.936270433364296",
      "longitude": "-90.10081266232187"
    }
  },
  {
    "service_request": "2025-1172308",
    "request_type": "Trash/Recycling",
    "request_reason": "Missed Trash Pick-Up",
    "date_created": "2025-02-28T16:00:15.000",
    "date_modified": "2025-02-28T16:47:47.000",
    "case_close_date": "2025-02-28T10:47:46.000",
    "request_status": "Closed",
    "responsible_agency": "Department of Sanitation",
    "final_address": "1446 Camp St",
    "address_councildis": "B",
    "status": "Invalid Request",
    "contractor": "IV Waste",
    "contractor_action": "Invalid Request",
    "rowid": "1172308",
    "final_x": "3679915.15509",
    "final_y": "524182.474044",
    "longitude": "-90.07332946695621",
    "latitude": "29.935367961437784",
    "geocoded_column": {
      "latitude": "29.935367961437784",
      "longitude": "-90.07332946695621"
    }
  },
  {
    "service_request": "2025-1172307",
    "request_type": "Roads and Streets",
    "request_reason": "Street Subsidence (Sinking)",
    "date_created": "2025-02-28T15:58:57.000",
    "date_modified": "2025-02-28T15:59:03.000",
    "request_status": "Pending",
    "responsible_agency": "Department of Public Works",
    "final_address": "6652 Manchester St",
    "address_councildis": "E",
    "status": "Pending",
    "rowid": "1172307",
    "final_x": "3697787.16656",
    "final_y": "559586.014621",
    "longitude": "-90.01562246297765",
    "latitude": "30.03216231597736",
    "geocoded_column": {
      "latitude": "30.03216231597736",
      "longitude": "-90.01562246297765"
    }
  },
  {
    "service_request": "2025-1172306",
    "request_type": "Trash/Recycling",
    "request_reason": "Order Recycling Cart",
    "date_created": "2025-02-28T15:57:23.000",
    "date_modified": "2025-02-28T15:57:25.000",
    "request_status": "Pending",
    "responsible_agency": "Department of Sanitation",
    "final_address": "2728 Broadway St",
    "address_councildis": "B",
    "status": "Pending",
    "rowid": "1172306",
    "final_x": "3667190.42164",
    "final_y": "531238.897794",
    "longitude": "-90.11326443133369",
    "latitude": "29.955149459212365",
    "geocoded_column": {
      "latitude": "29.955149459212365",
      "longitude": "-90.11326443133369"
    }
  },
  {
    "service_request": "2025-1172305",
    "request_type": "Trash/Recycling",
    "request_reason": "Request a Large Item Pick Up",
    "date_created": "2025-02-28T15:53:59.000",
    "date_modified": "2025-02-28T15:54:01.000",
    "request_status": "Pending",
    "responsible_agency": "Department of Sanitation",
    "final_address": "847 Behrman Ave",
    "address_councildis": "C",
    "status": "Assigned to Contractor",
    "contractor": "Richards Disposal",
    "rowid": "1172305",
    "final_x": "3691399.20937",
    "final_y": "528158.693951",
    "longitude": "-90.036932383419",
    "latitude": "29.945948976585704",
    "geocoded_column": {
      "latitude": "29.945948976585704",
      "longitude": "-90.036932383419"
    }
  },
  {
    "service_request": "2025-1172304",
    "request_type": "Roads and Streets",
    "request_reason": "Street Subsidence (Sinking)",
    "date_created": "2025-02-28T15:49:44.000",
    "date_modified": "2025-02-28T15:49:45.000",
    "request_status": "Pending",
    "responsible_agency": "Department of Public Works",
    "final_address": "6652 Manchester St",
    "address_councildis": "E",
    "status": "Pending",
    "rowid": "1172304",
    "final_x": "3697787.16656",
    "final_y": "559586.014621",
    "longitude": "-90.01562246297765",
    "latitude": "30.03216231597736",
    "geocoded_column": {
      "latitude": "30.03216231597736",
      "longitude": "-90.01562246297765"
    }
  },
  {
    "service_request": "2025-1172303",
    "request_type": "Roads and Streets",
    "request_reason": "Street Subsidence (Sinking)",
    "date_created": "2025-02-28T15:49:43.000",
    "date_modified": "2025-02-28T15:49:45.000",
    "request_status": "Pending",
    "responsible_agency": "Department of Public Works",
    "final_address": "6652 Manchester St",
    "address_councildis": "E",
    "status": "Pending",
    "rowid": "1172303",
    "final_x": "3697787.16656",
    "final_y": "559586.014621",
    "longitude": "-90.01562246297765",
    "latitude": "30.03216231597736",
    "geocoded_column": {
      "latitude": "30.03216231597736",
      "longitude": "-90.01562246297765"
    }
  },
  {
    "service_request": "2025-1172302",
    "request_type": "Abandoned Vehicles",
    "request_reason": "Abandoned/Junk Vehicles",
    "date_created": "2025-02-28T15:47:26.000",
    "date_modified": "2025-02-28T15:48:14.000",
    "request_status": "Pending",
    "responsible_agency": "Department of Public Works",
    "final_address": "10909 Vienna St",
    "address_councildis": "E",
    "status": "Inspected",
    "rowid": "1172302",
    "final_x": "3715578.91583",
    "final_y": "558015.014555",
    "longitude": "-89.95945950219705",
    "latitude": "30.027268106947055",
    "geocoded_column": {
      "latitude": "30.027268106947055",
      "longitude": "-89.95945950219705"
    }
  },
  {
    "service_request": "2025-1172301",
    "request_type": "Trash/Recycling",
    "request_reason": "Repair Trash Cart",
    "date_created": "2025-02-28T15:39:12.000",
    "date_modified": "2025-02-28T15:39:14.000",
    "request_status": "Pending",
    "responsible_agency": "Department of Sanitation",
    "final_address": "1836 Harmony St",
    "address_councildis": "B",
    "status": "Assigned to Contractor",
    "contractor": "IV Waste",
    "rowid": "1172301",
    "final_x": "3674361.98625",
    "final_y": "522760.82585",
    "longitude": "-90.09090952882057",
    "latitude": "29.931625629981127",
    "geocoded_column": {
      "latitude": "29.931625629981127",
      "longitude": "-90.09090952882057"
    }
  },
  {
    "service_request": "2025-1172300",
    "request_type": "Trash/Recycling",
    "request_reason": "Request a Large Item Pick Up",
    "date_created": "2025-02-28T15:34:06.000",
    "date_modified": "2025-02-28T15:44:22.000",
    "request_status": "Pending",
    "responsible_agency": "Department of Sanitation",
    "final_address": "824 Sumner St",
    "address_councildis": "C",
    "status": "Pending",
    "rowid": "1172300",
    "final_x": "3691201.48912",
    "final_y": "528276.990144",
    "longitude": "-90.03755242699559",
    "latitude": "29.946280399973634",
    "geocoded_column": {
      "latitude": "29.946280399973634",
      "longitude": "-90.03755242699559"
    }
  },
  {
    "service_request": "2025-1172299",
    "request_type": "Trash/Recycling",
    "request_reason": "Illegal Dumping",
    "date_created": "2025-02-28T15:28:39.000",
    "date_modified": "2025-03-01T07:52:43.000",
    "request_status": "Pending",
    "responsible_agency": "Department of Sanitation",
    "final_address": "FRANCE RD & TURNAROUND",
    "address_councildis": "D",
    "status": "Pending",
    "rowid": "1172299",
    "final_x": "3693779.3",
    "final_y": "549595.58",
    "longitude": "-90.02864700528353",
    "latitude": "30.00481849309406",
    "geocoded_column": {
      "latitude": "30.00481849309406",
      "longitude": "-90.02864700528353"
    }
  },
  {
    "service_request": "2025-1172298",
    "request_type": "Trash/Recycling",
    "request_reason": "MIssed Recycling Pick-Up",
    "date_created": "2025-02-28T15:25:18.000",
    "date_modified": "2025-02-28T17:54:26.000",
    "case_close_date": "2025-02-28T11:54:26.000",
    "request_status": "Closed",
    "responsible_agency": "Department of Sanitation",
    "final_address": "4709 Crowder Blvd",
    "address_councildis": "E",
    "status": "Invalid Request",
    "contractor": "Waste Pro",
    "contractor_action": "Invalid Request",
    "rowid": "1172298",
    "final_x": "3706530.36222",
    "final_y": "555421.785305",
    "longitude": "-89.98814809510012",
    "latitude": "30.0204329459861",
    "geocoded_column": {
      "latitude": "30.0204329459861",
      "longitude": "-89.98814809510012"
    }
  },
  {
    "service_request": "2025-1172297",
    "request_type": "Trash/Recycling",
    "request_reason": "Illegal Dumping",
    "date_created": "2025-02-28T15:20:30.000",
    "date_modified": "2025-02-28T15:20:31.000",
    "request_status": "Pending",
    "responsible_agency": "Department of Sanitation",
    "final_address": "FRANCE RD & TURNAROUND",
    "address_councildis": "D",
    "status": "Pending",
    "rowid": "1172297",
    "final_x": "3693779.3",
    "final_y": "549595.58",
    "longitude": "-90.02864700528353",
    "latitude": "30.00481849309406",
    "geocoded_column": {
      "latitude": "30.00481849309406",
      "longitude": "-90.02864700528353"
    }
  },
  {
    "service_request": "2025-1172296",
    "request_type": "Property Maintenance",
    "request_reason": "Property Maintenance",
    "date_created": "2025-02-28T15:19:45.000",
    "date_modified": "2025-02-28T15:19:47.000",
    "request_status": "Pending",
    "responsible_agency": "Department of Code Enforcement",
    "final_address": "0 BLK Canal St",
    "address_councildis": "C",
    "status": "Pending",
    "rowid": "1172296",
    "final_x": "3683101.85784",
    "final_y": "529482.228553",
    "longitude": "-90.06308356901691",
    "latitude": "29.949843769360704",
    "geocoded_column": {
      "latitude": "29.949843769360704",
      "longitude": "-90.06308356901691"
    }
  },
  {
    "service_request": "2025-1172295",
    "request_type": "Trash/Recycling",
    "request_reason": "Request a Large Item Pick Up",
    "date_created": "2025-02-28T15:18:41.000",
    "date_modified": "2025-02-28T15:18:43.000",
    "request_status": "Pending",
    "responsible_agency": "Department of Sanitation",
    "final_address": "11950 Lakeland Ct",
    "address_councildis": "E",
    "status": "Assigned to Contractor",
    "contractor": "Waste Pro",
    "rowid": "1172295",
    "final_x": "3712531.13189",
    "final_y": "568580.983589",
    "longitude": "-89.96869250295619",
    "latitude": "30.056420398155236",
    "geocoded_column": {
      "latitude": "30.056420398155236",
      "longitude": "-89.96869250295619"
    }
  },
  {
    "service_request": "2025-1172294",
    "request_type": "Traffic Safety",
    "request_reason": "Request for Traffic Calming due to Speeding",
    "date_created": "2025-02-28T15:16:19.000",
    "date_modified": "2025-02-28T15:16:20.000",
    "request_status": "Pending",
    "responsible_agency": "Department of Public Works",
    "final_address": "1040 N Rampart St",
    "address_councildis": "C",
    "status": "Pending",
    "rowid": "1172294",
    "final_x": "3682295.679",
    "final_y": "534468.570181",
    "longitude": "-90.06545483477667",
    "latitude": "29.96357906174183",
    "geocoded_column": {
      "latitude": "29.96357906174183",
      "longitude": "-90.06545483477667"
    }
  },
  {
    "service_request": "2025-1172293",
    "request_type": "Streetlights",
    "request_reason": "Streetlight Outage/Malfunction",
    "date_created": "2025-02-28T15:11:46.000",
    "date_modified": "2025-02-28T15:11:47.000",
    "request_status": "Pending",
    "responsible_agency": "Department of Public Works",
    "final_address": "HICKORY ST & HOLLYGROVE ST",
    "address_councildis": "A",
    "status": "Pending",
    "contractor": "Legacy Professional Services",
    "rowid": "1172293",
    "final_x": "3661029.0",
    "final_y": "532070.08",
    "longitude": "-90.1326925183436",
    "latitude": "29.9576138973449",
    "geocoded_column": {
      "latitude": "29.9576138973449",
      "longitude": "-90.1326925183436"
    }
  },
  {
    "service_request": "2025-1172292",
    "request_type": "Trash/Recycling",
    "request_reason": "Request a Large Item Pick Up",
    "date_created": "2025-02-28T15:06:31.000",
    "date_modified": "2025-02-28T15:06:32.000",
    "request_status": "Pending",
    "responsible_agency": "Department of Sanitation",
    "final_address": "5744 Wildair Dr",
    "address_councildis": "D",
    "status": "Assigned to Contractor",
    "contractor": "IV Waste",
    "rowid": "1172292",
    "final_x": "3681486.00444",
    "final_y": "554240.435992",
    "longitude": "-90.06732184404956",
    "latitude": "30.017969318465823",
    "geocoded_column": {
      "latitude": "30.017969318465823",
      "longitude": "-90.06732184404956"
    }
  },
  {
    "service_request": "2025-1172291",
    "request_type": "Trash/Recycling",
    "request_reason": "Order Trash Cart",
    "date_created": "2025-02-28T15:04:12.000",
    "date_modified": "2025-02-28T15:04:13.000",
    "request_status": "Pending",
    "responsible_agency": "Department of Sanitation",
    "final_address": "6321 Canal Blvd",
    "address_councildis": "A",
    "status": "Assigned to Contractor",
    "contractor": "IV Waste",
    "rowid": "1172291",
    "final_x": "3668810.81991",
    "final_y": "549508.865747",
    "longitude": "-90.10753064215496",
    "latitude": "30.0053381462966",
    "geocoded_column": {
      "latitude": "30.0053381462966",
      "longitude": "-90.10753064215496"
    }
  },
  {
    "service_request": "2025-1172290",
    "request_type": "Abandoned Vehicles",
    "request_reason": "Abandoned/Junk Vehicles",
    "date_created": "2025-02-28T15:03:35.000",
    "date_modified": "2025-02-28T15:03:36.000",
    "request_status": "Pending",
    "responsible_agency": "Department of Public Works",
    "final_address": "2557 Verbena St",
    "address_councildis": "D",
    "status": "Pending",
    "rowid": "1172290",
    "final_x": "3686774.12105",
    "final_y": "547819.782738",
    "longitude": "-90.05084051637515",
    "latitude": "30.000153153648856",
    "geocoded_column": {
      "latitude": "30.000153153648856",
      "longitude": "-90.05084051637515"
    }
  },
  {
    "service_request": "2025-1172289",
    "request_type": "Trash/Recycling",
    "request_reason": "Start Trash Service",
    "date_created": "2025-02-28T15:03:21.000",
    "date_modified": "2025-02-28T15:03:23.000",
    "request_status": "Pending",
    "responsible_agency": "Department of Sanitation",
    "final_address": "6321 Canal Blvd",
    "address_councildis": "A",
    "status": "Assigned to Contractor",
    "contractor": "IV Waste",
    "rowid": "1172289",
    "final_x": "3668810.81991",
    "final_y": "549508.865747",
    "longitude": "-90.10753064215496",
    "latitude": "30.0053381462966",
    "geocoded_column": {
      "latitude": "30.0053381462966",
      "longitude": "-90.10753064215496"
    }
  },
  {
    "service_request": "2025-1172288",
    "request_type": "Streetlights",
    "request_reason": "Streetlight Outage/Malfunction",
    "date_created": "2025-02-28T15:02:09.000",
    "date_modified": "2025-02-28T15:02:10.000",
    "request_status": "Pending",
    "responsible_agency": "Department of Public Works",
    "final_address": "9303 Palm St",
    "address_councildis": "A",
    "status": "Pending",
    "contractor": "Legacy Professional Services",
    "rowid": "1172288",
    "final_x": "3664610.07002",
    "final_y": "537632.462728",
    "longitude": "-90.12119869376794",
    "latitude": "29.972804957246773",
    "geocoded_column": {
      "latitude": "29.972804957246773",
      "longitude": "-90.12119869376794"
    }
  },
  {
    "service_request": "2025-1172287",
    "request_type": "Streetlights",
    "request_reason": "Streetlight Outage/Malfunction",
    "date_created": "2025-02-28T15:00:42.000",
    "date_modified": "2025-02-28T15:00:43.000",
    "request_status": "Pending",
    "responsible_agency": "Department of Public Works",
    "final_address": "3620 Cherry St",
    "address_councildis": "A",
    "status": "Pending",
    "contractor": "Legacy Professional Services",
    "rowid": "1172287",
    "final_x": "3664714.87706",
    "final_y": "537785.736328",
    "longitude": "-90.12086256988124",
    "latitude": "29.97322335974801",
    "geocoded_column": {
      "latitude": "29.97322335974801",
      "longitude": "-90.12086256988124"
    }
  },
  {
    "service_request": "2025-1172286",
    "request_type": "Trash/Recycling",
    "request_reason": "Request a Large Item Pick Up",
    "date_created": "2025-02-28T14:59:21.000",
    "date_modified": "2025-02-28T14:59:22.000",
    "request_status": "Pending",
    "responsible_agency": "Department of Sanitation",
    "final_address": "10948 Chaucer St",
    "address_councildis": "E",
    "status": "Assigned to Contractor",
    "contractor": "Waste Pro",
    "rowid": "1172286",
    "final_x": "3713005.36734",
    "final_y": "561908.874975",
    "longitude": "-89.96744493207348",
    "latitude": "30.038059265187563",
    "geocoded_column": {
      "latitude": "30.038059265187563",
      "longitude": "-89.96744493207348"
    }
  },
  {
    "service_request": "2025-1172285",
    "request_type": "Trash/Recycling",
    "request_reason": "Repair Trash Cart",
    "date_created": "2025-02-28T14:58:26.000",
    "date_modified": "2025-02-28T15:39:27.000",
    "request_status": "Pending",
    "responsible_agency": "Department of Sanitation",
    "final_address": "1916 Louisa St",
    "address_councildis": "D",
    "status": "Assigned to Contractor",
    "contractor": "IV Waste",
    "rowid": "1172285",
    "final_x": "3690314.80009",
    "final_y": "539023.759946",
    "longitude": "-90.03996900535223",
    "latitude": "29.975857810847604",
    "geocoded_column": {
      "latitude": "29.975857810847604",
      "longitude": "-90.03996900535223"
    }
  },
  {
    "service_request": "2025-1172284",
    "request_type": "Roads and Streets",
    "request_reason": "Street Subsidence (Sinking)",
    "date_created": "2025-02-28T14:58:13.000",
    "date_modified": "2025-02-28T15:22:48.000",
    "request_status": "Pending",
    "responsible_agency": "Department of Public Works",
    "final_address": "N GALVEZ ST & ST ROCH AVE",
    "address_councildis": "D",
    "status": "Pending",
    "rowid": "1172284",
    "final_x": "3686156.8",
    "final_y": "540102.58",
    "longitude": "-90.05306305439461",
    "latitude": "29.97895258179575",
    "geocoded_column": {
      "latitude": "29.97895258179575",
      "longitude": "-90.05306305439461"
    }
  },
  {
    "service_request": "2025-1172283",
    "request_type": "Streetlights",
    "request_reason": "Streetlight Outage/Malfunction",
    "date_created": "2025-02-28T14:56:22.000",
    "date_modified": "2025-02-28T14:56:23.000",
    "request_status": "Pending",
    "responsible_agency": "Department of Public Works",
    "final_address": "5212 Magazine St",
    "address_councildis": "B",
    "status": "Pending",
    "contractor": "Legacy Professional Services",
    "rowid": "1172283",
    "final_x": "3667906.28801",
    "final_y": "518567.879927",
    "longitude": "-90.11143064681478",
    "latitude": "29.920287252303403",
    "geocoded_column": {
      "latitude": "29.920287252303403",
      "longitude": "-90.11143064681478"
    }
  },
  {
    "service_request": "2025-1172282",
    "request_type": "Trash/Recycling",
    "request_reason": "Request a Large Item Pick Up",
    "date_created": "2025-02-28T14:54:48.000",
    "date_modified": "2025-03-01T06:31:39.000",
    "request_status": "Pending",
    "responsible_agency": "Department of Sanitation",
    "final_address": "1721 St Ann St",
    "address_councildis": "D",
    "status": "Assigned to Contractor",
    "contractor": "IV Waste",
    "rowid": "1172282",
    "final_x": "3679827.94479",
    "final_y": "535067.36615",
    "longitude": "-90.07322688548359",
    "latitude": "29.965300396750646",
    "geocoded_column": {
      "latitude": "29.965300396750646",
      "longitude": "-90.07322688548359"
    }
  },
  {
    "service_request": "2025-1172281",
    "request_type": "Abandoned Vehicles",
    "request_reason": "Abandoned/Junk Vehicles",
    "date_created": "2025-02-28T14:53:04.000",
    "date_modified": "2025-02-28T14:53:08.000",
    "request_status": "Pending",
    "responsible_agency": "Department of Public Works",
    "final_address": "3919 Ford St",
    "address_councildis": "D",
    "status": "Pending",
    "rowid": "1172281",
    "final_x": "3688930.05705",
    "final_y": "547762.600402",
    "longitude": "-90.04403185198228",
    "latitude": "29.999929396519413",
    "geocoded_column": {
      "latitude": "29.999929396519413",
      "longitude": "-90.04403185198228"
    }
  },
  {
    "service_request": "2025-1172280",
    "request_type": "Roads and Streets",
    "request_reason": "Abandoned Service Cut",
    "date_created": "2025-02-28T14:52:07.000",
    "date_modified": "2025-02-28T15:16:44.000",
    "request_status": "Pending",
    "responsible_agency": "Department of Public Works",
    "final_address": "2306 N Roman St",
    "address_councildis": "D",
    "status": "Pending",
    "rowid": "1172280",
    "final_x": "3685662.4301",
    "final_y": "538920.881866",
    "longitude": "-90.05466610943324",
    "latitude": "29.975718505860424",
    "geocoded_column": {
      "latitude": "29.975718505860424",
      "longitude": "-90.05466610943324"
    }
  },
  {
    "service_request": "2025-1172279",
    "request_type": "Property Maintenance",
    "request_reason": "Property Maintenance",
    "date_created": "2025-02-28T14:51:46.000",
    "date_modified": "2025-02-28T14:51:48.000",
    "request_status": "Pending",
    "responsible_agency": "Department of Code Enforcement",
    "final_address": "2100 BLK Bienville Ave",
    "address_councildis": "B",
    "status": "Pending",
    "rowid": "1172279",
    "final_x": "3677616.00661",
    "final_y": "534386.292236",
    "longitude": "-90.08023560064338",
    "latitude": "29.963494375147192",
    "geocoded_column": {
      "latitude": "29.963494375147192",
      "longitude": "-90.08023560064338"
    }
  },
  {
    "service_request": "2025-1172278",
    "request_type": "Trash/Recycling",
    "request_reason": "Request a Large Item Pick Up",
    "date_created": "2025-02-28T14:46:35.000",
    "date_modified": "2025-02-28T14:46:44.000",
    "request_status": "Pending",
    "responsible_agency": "Department of Sanitation",
    "final_address": "4674 Nottingham Dr",
    "address_councildis": "E",
    "status": "Assigned to Contractor",
    "contractor": "Waste Pro",
    "rowid": "1172278",
    "final_x": "3716349.64421",
    "final_y": "556564.402842",
    "longitude": "-89.95707915191436",
    "latitude": "30.023254070482793",
    "geocoded_column": {
      "latitude": "30.023254070482793",
      "longitude": "-89.95707915191436"
    }
  },
  {
    "service_request": "2025-1172277",
    "request_type": "Roads and Streets",
    "request_reason": "Pothole",
    "date_created": "2025-02-28T14:45:05.000",
    "date_modified": "2025-02-28T14:45:07.000",
    "request_status": "Pending",
    "responsible_agency": "Department of Public Works",
    "final_address": "4905 St Charles Ave",
    "address_councildis": "B",
    "status": "Pending",
    "rowid": "1172277",
    "final_x": "3668993.71322",
    "final_y": "520885.017145",
    "longitude": "-90.1079199297384",
    "latitude": "29.92662671494274",
    "geocoded_column": {
      "latitude": "29.92662671494274",
      "longitude": "-90.1079199297384"
    }
  },
  {
    "service_request": "2025-1172276",
    "request_type": "Roads and Streets",
    "request_reason": "Pothole",
    "date_created": "2025-02-28T14:43:16.000",
    "date_modified": "2025-02-28T14:43:18.000",
    "request_status": "Pending",
    "responsible_agency": "Department of Public Works",
    "final_address": "8100 BLK Burthe St",
    "address_councildis": "A",
    "status": "Pending",
    "rowid": "1172276",
    "final_x": "3661136.34403",
    "final_y": "527700.908953",
    "longitude": "-90.13249814308865",
    "latitude": "29.945596986249434",
    "geocoded_column": {
      "latitude": "29.945596986249434",
      "longitude": "-90.13249814308865"
    }
  },
  {
    "service_request": "2025-1172275",
    "request_type": "Graffiti Removal",
    "request_reason": "Graffiti Removal",
    "date_created": "2025-02-28T14:41:02.000",
    "date_modified": "2025-02-28T14:41:04.000",
    "request_status": "Pending",
    "responsible_agency": "Department of Code Enforcement",
    "final_address": "1775 St Roch Ave",
    "address_councildis": "D",
    "status": "Pending",
    "rowid": "1172275",
    "final_x": "3686340.31817",
    "final_y": "538967.591818",
    "longitude": "-90.05252350483144",
    "latitude": "29.975826124130958",
    "geocoded_column": {
      "latitude": "29.975826124130958",
      "longitude": "-90.05252350483144"
    }
  },
  {
    "service_request": "2025-1172274",
    "request_type": "Roads and Streets",
    "request_reason": "Pothole",
    "date_created": "2025-02-28T14:39:55.000",
    "date_modified": "2025-02-28T14:39:57.000",
    "request_status": "Pending",
    "responsible_agency": "Department of Public Works",
    "final_address": "8100 BLK Maple St",
    "address_councildis": "A",
    "status": "Pending",
    "rowid": "1172274",
    "final_x": "3660920.79131",
    "final_y": "527422.739562",
    "longitude": "-90.13318791610446",
    "latitude": "29.944838318695094",
    "geocoded_column": {
      "latitude": "29.944838318695094",
      "longitude": "-90.13318791610446"
    }
  },
  {
    "service_request": "2025-1172273",
    "request_type": "Trash/Recycling",
    "request_reason": "Request a Large Item Pick Up",
    "date_created": "2025-02-28T14:38:34.000",
    "date_modified": "2025-02-28T14:38:36.000",
    "request_status": "Pending",
    "responsible_agency": "Department of Sanitation",
    "final_address": "6910 Yorktown Dr",
    "address_councildis": "E",
    "status": "Assigned to Contractor",
    "contractor": "Waste Pro",
    "rowid": "1172273",
    "final_x": "3706348.65003",
    "final_y": "560067.179677",
    "longitude": "-89.98854998135302",
    "latitude": "30.033211833049165",
    "geocoded_column": {
      "latitude": "30.033211833049165",
      "longitude": "-89.98854998135302"
    }
  },
  {
    "service_request": "2025-1172272",
    "request_type": "Trash/Recycling",
    "request_reason": "Request a Large Item Pick Up",
    "date_created": "2025-02-28T14:31:48.000",
    "date_modified": "2025-02-28T14:31:49.000",
    "request_status": "Pending",
    "responsible_agency": "Department of Sanitation",
    "final_address": "3824 Prytania St",
    "address_councildis": "B",
    "status": "Assigned to Contractor",
    "contractor": "IV Waste",
    "rowid": "1172272",
    "final_x": "3672807.37851",
    "final_y": "520469.417208",
    "longitude": "-90.09589537558165",
    "latitude": "29.925371251948263",
    "geocoded_column": {
      "latitude": "29.925371251948263",
      "longitude": "-90.09589537558165"
    }
  },
  {
    "service_request": "2025-1172271",
    "request_type": "Trash/Recycling",
    "request_reason": "Replace Trash Cart",
    "date_created": "2025-02-28T14:13:43.000",
    "date_modified": "2025-02-28T14:13:44.000",
    "request_status": "Pending",
    "responsible_agency": "Department of Sanitation",
    "final_address": "7932 Alabama St Apt A",
    "address_councildis": "D",
    "status": "Assigned to Contractor",
    "contractor": "Waste Pro",
    "rowid": "1172271",
    "final_x": "3694465.92688",
    "final_y": "559542.350429",
    "longitude": "-90.02611932956371",
    "latitude": "30.032146857380766",
    "geocoded_column": {
      "latitude": "30.032146857380766",
      "longitude": "-90.02611932956371"
    }
  },
  {
    "service_request": "2025-1172270",
    "request_type": "Trash/Recycling",
    "request_reason": "Request a Large Item Pick Up",
    "date_created": "2025-02-28T14:08:45.000",
    "date_modified": "2025-02-28T14:09:38.000",
    "request_status": "Pending",
    "responsible_agency": "Department of Sanitation",
    "final_address": "7855 Star St",
    "address_councildis": "E",
    "status": "Assigned to Contractor",
    "contractor": "Waste Pro",
    "rowid": "1172270",
    "final_x": "3720497.58783",
    "final_y": "574761.093803",
    "longitude": "-89.94327519356926",
    "latitude": "30.073149823589453",
    "geocoded_column": {
      "latitude": "30.073149823589453",
      "longitude": "-89.94327519356926"
    }
  },
  {
    "service_request": "2025-1172269",
    "request_type": "Trash/Recycling",
    "request_reason": "Request a Large Item Pick Up",
    "date_created": "2025-02-28T14:01:17.000",
    "date_modified": "2025-02-28T14:01:19.000",
    "request_status": "Pending",
    "responsible_agency": "Department of Sanitation",
    "final_address": "8626 Apple St",
    "address_councildis": "A",
    "status": "Assigned to Contractor",
    "contractor": "IV Waste",
    "rowid": "1172269",
    "final_x": "3663864.43296",
    "final_y": "533408.954564",
    "longitude": "-90.12369437955853",
    "latitude": "29.961213367466232",
    "geocoded_column": {
      "latitude": "29.961213367466232",
      "longitude": "-90.12369437955853"
    }
  },
  {
    "service_request": "2025-1172268",
    "request_type": "Trash/Recycling",
    "request_reason": "Request a Large Item Pick Up",
    "date_created": "2025-02-28T14:00:44.000",
    "date_modified": "2025-02-28T14:00:47.000",
    "request_status": "Pending",
    "responsible_agency": "Department of Sanitation",
    "final_address": "2831 Kent Dr",
    "address_councildis": "C",
    "status": "Assigned to Contractor",
    "contractor": "Richards Disposal",
    "rowid": "1172268",
    "final_x": "3708908.39966",
    "final_y": "519589.675256",
    "longitude": "-89.98196954480785",
    "latitude": "29.921830896439076",
    "geocoded_column": {
      "latitude": "29.921830896439076",
      "longitude": "-89.98196954480785"
    }
  },