[
  {
    "service_request": "2024-1073245",
    "request_type": "Traffic Signals/Signs/Striping/Streetlights",
    "request_reason": "Street Light Outage/Malfunction",
    "date_created": "2024-03-06T23:12:21.000",
    "date_modified": "2024-03-06T23:12:22.000",
    "request_status": "Pending",
    "responsible_agency": "Department of Public Works",
    "final_address": "1025 Alvar St",
    "address_councildis": "C",
    "status": "Assigned to Contractor",
    "contractor": "Legacy Professional Services",
    "rowid": "1073245",
    "final_x": "3691467.57654",
    "final_y": "535150.43239",
    "longitude": "-90.03646667742628",
    "latitude": "29.96517170016954",
    "geocoded_column": {
      "latitude": "29.96517170016954",
      "longitude": "-90.03646667742628"
    }
  },
  {
    "service_request": "2024-1073244",
    "request_type": "Trash/Recycling",
    "request_reason": "Replace Trash Cart",
    "date_created": "2024-03-06T23:04:30.000",
    "date_modified": "2024-03-06T23:04:31.000",
    "request_status": "Pending",
    "responsible_agency": "Department of Sanitation",
    "final_address": "8321 Zimple St",
    "address_councildis": "A",
    "status": "Assigned to Contractor",
    "contractor": "Richards Disposal",
    "rowid": "1073244",
    "final_x": "3661079.28966",
    "final_y": "528757.691712",
    "longitude": "-90.13264332001316",
    "latitude": "29.948504445463435",
    "geocoded_column": {
      "latitude": "29.948504445463435",
      "longitude": "-90.13264332001316"
    }
  },
  {
    "service_request": "2024-1073243",
    "request_type": "Trash/Recycling",
    "request_reason": "Replace Recycling Cart",
    "date_created": "2024-03-06T22:43:36.000",
    "date_modified": "2024-03-06T22:43:36.000",
    "request_status": "Pending",
    "responsible_agency": "Department of Sanitation",
    "final_address": "2735 Ap Tureaud Ave",
    "address_councildis": "D",
    "status": "Pending",
    "rowid": "1073243",
    "final_x": "3681568.37519",
    "final_y": "542531.005197",
    "longitude": "-90.06747031066075",
    "latitude": "29.98577007133452",
    "geocoded_column": {
      "latitude": "29.98577007133452",
      "longitude": "-90.06747031066075"
    }
  },
  {
    "service_request": "2024-1073242",
    "request_type": "Trash/Recycling",
    "request_reason": "Request a Large Item Pick Up",
    "date_created": "2024-03-06T22:42:55.000",
    "date_modified": "2024-03-06T22:42:55.000",
    "request_status": "Pending",
    "responsible_agency": "Department of Sanitation",
    "final_address": "210 S Murat St",
    "address_councildis": "A",
    "status": "Assigned to Contractor",
    "contractor": "Richards Disposal",
    "rowid": "1073242",
    "final_x": "3669410.65018",
    "final_y": "538958.885194",
    "longitude": "-90.10599264573241",
    "latitude": "29.976311662726314",
    "geocoded_column": {
      "latitude": "29.976311662726314",
      "longitude": "-90.10599264573241"
    }
  },
  {
    "service_request": "2024-1073241",
    "request_type": "Traffic Signals/Signs/Striping/Streetlights",
    "request_reason": "Street Light Outage/Malfunction",
    "date_created": "2024-03-06T22:31:45.000",
    "date_modified": "2024-03-06T22:31:45.000",
    "request_status": "Pending",
    "responsible_agency": "Department of Public Works",
    "final_address": "97 S Wren St",
    "address_councildis": "D",
    "status": "Assigned to Contractor",
    "contractor": "Legacy Professional Services",
    "rowid": "1073241",
    "final_x": "3673177.13339",
    "final_y": "555872.931097",
    "longitude": "-90.09351893834943",
    "latitude": "30.022707901163436",
    "geocoded_column": {
      "latitude": "30.022707901163436",
      "longitude": "-90.09351893834943"
    }
  },
  {
    "service_request": "2024-1073240",
    "request_type": "Trash/Recycling",
    "request_reason": "Request a Large Item Pick Up",
    "date_created": "2024-03-06T22:14:06.000",
    "date_modified": "2024-03-06T22:14:07.000",
    "request_status": "Pending",
    "responsible_agency": "Department of Sanitation",
    "final_address": "1118 Brooklyn Ave",
    "address_councildis": "C",
    "status": "Assigned to Contractor",
    "contractor": "Richards Disposal",
    "rowid": "1073240",
    "final_x": "3686262.99222",
    "final_y": "527337.423807",
    "longitude": "-90.0531780912437",
    "latitude": "29.943849548588773",
    "geocoded_column": {
      "latitude": "29.943849548588773",
      "longitude": "-90.0531780912437"
    }
  },
  {
    "service_request": "2024-1073239",
    "request_type": "Trash/Recycling",
    "request_reason": "Request a Large Item Pick Up",
    "date_created": "2024-03-06T21:59:31.000",
    "date_modified": "2024-03-06T21:59:31.000",
    "request_status": "Pending",
    "responsible_agency": "Department of Sanitation",
    "final_address": "4321 Trieste St",
    "address_councildis": "E",
    "status": "Assigned to Contractor",
    "contractor": "Waste Pro",
    "rowid": "1073239",
    "final_x": "3760220.06697",
    "final_y": "573504.147946",
    "longitude": "-89.81775378901686",
    "latitude": "30.06830896010249",
    "geocoded_column": {
      "latitude": "30.06830896010249",
      "longitude": "-89.81775378901686"
    }
  },
  {
    "service_request": "2024-1073237",
    "request_type": "Trash/Recycling",
    "request_reason": "Request a Large Item Pick Up",
    "date_created": "2024-03-06T21:46:48.000",
    "date_modified": "2024-03-06T21:46:48.000",
    "request_status": "Pending",
    "responsible_agency": "Department of Sanitation",
    "final_address": "4321 Trieste St",
    "address_councildis": "E",
    "status": "Assigned to Contractor",
    "contractor": "Waste Pro",
    "rowid": "1073237",
    "final_x": "3760220.06697",
    "final_y": "573504.147946",
    "longitude": "-89.81775378901686",
    "latitude": "30.06830896010249",
    "geocoded_column": {
      "latitude": "30.06830896010249",
      "longitude": "-89.81775378901686"
    }
  },
  {
    "service_request": "2024-1073236",
    "request_type": "Trash/Recycling",
    "request_reason": "Request a Large Item Pick Up",
    "date_created": "2024-03-06T21:38:37.000",
    "date_modified": "2024-03-06T21:38:37.000",
    "request_status": "Pending",
    "responsible_agency": "Department of Sanitation",
    "final_address": "4831 Shalimar Dr, New Orleans, Louisiana, 70126",
    "address_councildis": "D",
    "status": "Assigned to Contractor",
    "contractor": "Waste Pro",
    "rowid": "1073236",
    "final_x": "3697175.68739",
    "final_y": "554713.850008",
    "longitude": "-90.01773154154311",
    "latitude": "30.018785042496074",
    "geocoded_column": {
      "latitude": "30.018785042496074",
      "longitude": "-90.01773154154311"
    }
  },
  {
    "service_request": "2024-1073235",
    "request_type": "Trash/Recycling",
    "request_reason": "Request a Large Item Pick Up",
    "date_created": "2024-03-06T21:14:58.000",
    "date_modified": "2024-03-06T21:14:58.000",
    "request_status": "Pending",
    "responsible_agency": "Department of Sanitation",
    "final_address": "4831 Shalimar Dr",
    "address_councildis": "D",
    "status": "Assigned to Contractor",
    "contractor": "Waste Pro",
    "rowid": "1073235",
    "final_x": "3697175.68739",
    "final_y": "554713.850008",
    "longitude": "-90.01773154154311",
    "latitude": "30.018785042496074",
    "geocoded_column": {
      "latitude": "30.018785042496074",
      "longitude": "-90.01773154154311"
    }
  },
  {
    "service_request": "2024-1073234",
    "request_type": "Trash/Recycling",
    "request_reason": "Replace Trash Cart",
    "date_created": "2024-03-06T21:04:09.000",
    "date_modified": "2024-03-06T21:04:09.000",
    "request_status": "Pending",
    "responsible_agency": "Department of Sanitation",
    "final_address": "416 S Broad St",
    "address_councildis": "B",
    "status": "Assigned to Contractor",
    "contractor": "Richards Disposal",
    "rowid": "1073234",
    "final_x": "3674590.79611",
    "final_y": "533911.850117",
    "longitude": "-90.08980516471337",
    "latitude": "29.962280441504564",
    "geocoded_column": {
      "latitude": "29.962280441504564",
      "longitude": "-90.08980516471337"
    }
  },
  {
    "service_request": "2024-1073233",
    "request_type": "Trash/Recycling",
    "request_reason": "Missed Trash Pick-Up",
    "date_created": "2024-03-06T20:30:32.000",
    "date_modified": "2024-03-06T20:30:33.000",
    "request_status": "Pending",
    "responsible_agency": "Department of Sanitation",
    "final_address": "7811 Parry St",
    "address_councildis": "E",
    "status": "Assigned to Contractor",
    "contractor": "Waste Pro",
    "rowid": "1073233",
    "final_x": "3714007.34655",
    "final_y": "569076.332326",
    "longitude": "-89.96400777025312",
    "latitude": "30.057733980181503",
    "geocoded_column": {
      "latitude": "30.057733980181503",
      "longitude": "-89.96400777025312"
    }
  },
  {
    "service_request": "2024-1073232",
    "request_type": "Trash/Recycling",
    "request_reason": "Request a Large Item Pick Up",
    "date_created": "2024-03-06T20:14:45.000",
    "date_modified": "2024-03-06T20:14:46.000",
    "request_status": "Pending",
    "responsible_agency": "Department of Sanitation",
    "final_address": "521 Elmira Ave",
    "address_councildis": "C",
    "status": "Assigned to Contractor",
    "contractor": "Richards Disposal",
    "rowid": "1073232",
    "final_x": "3688154.87369",
    "final_y": "529724.433921",
    "longitude": "-90.04712032738122",
    "latitude": "29.950354757448036",
    "geocoded_column": {
      "latitude": "29.950354757448036",
      "longitude": "-90.04712032738122"
    }
  },
  {
    "service_request": "2024-1073231",
    "request_type": "Trash/Recycling",
    "request_reason": "Missed Trash Pick-Up",
    "date_created": "2024-03-06T20:00:15.000",
    "date_modified": "2024-03-06T20:00:16.000",
    "request_status": "Pending",
    "responsible_agency": "Department of Sanitation",
    "final_address": "4100 Vendome Pl",
    "address_councildis": "B",
    "status": "Assigned to Contractor",
    "contractor": "Richards Disposal",
    "rowid": "1073231",
    "final_x": "3668740.99476",
    "final_y": "530462.336834",
    "longitude": "-90.10839449509521",
    "latitude": "29.952968682658483",
    "geocoded_column": {
      "latitude": "29.952968682658483",
      "longitude": "-90.10839449509521"
    }
  },
  {
    "service_request": "2024-1073230",
    "request_type": "Trash/Recycling",
    "request_reason": "Request a Large Item Pick Up",
    "date_created": "2024-03-06T19:53:04.000",
    "date_modified": "2024-03-06T19:53:04.000",
    "request_status": "Pending",
    "responsible_agency": "Department of Sanitation",
    "final_address": "900 Bartholomew St",
    "address_councildis": "C",
    "status": "Assigned to Contractor",
    "contractor": "IV Waste",
    "rowid": "1073230",
    "final_x": "3691580.30179",
    "final_y": "534565.215429",
    "longitude": "-90.03613162057597",
    "latitude": "29.963559050399382",
    "geocoded_column": {
      "latitude": "29.963559050399382",
      "longitude": "-90.03613162057597"
    }
  },
  {
    "service_request": "2024-1073229",
    "request_type": "Trash/Recycling",
    "request_reason": "Order Trash Cart",
    "date_created": "2024-03-06T19:43:57.000",
    "date_modified": "2024-03-06T19:43:58.000",
    "request_status": "Pending",
    "responsible_agency": "Department of Sanitation",
    "final_address": "8921 Dwyer Rd",
    "address_councildis": "E",
    "status": "Assigned to Contractor",
    "contractor": "Waste Pro",
    "rowid": "1073229",
    "final_x": "3707986.08318",
    "final_y": "557092.930714",
    "longitude": "-89.98348629703534",
    "latitude": "30.02498087385105",
    "geocoded_column": {
      "latitude": "30.02498087385105",
      "longitude": "-89.98348629703534"
    }
  },
  {
    "service_request": "2024-1073228",
    "request_type": "Property Maintenance",
    "request_reason": "Property Maintenance",
    "date_created": "2024-03-06T19:41:19.000",
    "date_modified": "2024-03-06T19:41:19.000",
    "request_status": "Pending",
    "responsible_agency": "Department of Code Enforcement",
    "final_address": "3900 Royal St",
    "address_councildis": "C",
    "status": "Pending",
    "rowid": "1073228",
    "final_x": "3691164.58742",
    "final_y": "533837.384325",
    "longitude": "-90.03747039148654",
    "latitude": "29.96157070372754",
    "geocoded_column": {
      "latitude": "29.96157070372754",
      "longitude": "-90.03747039148654"
    }
  },
  {
    "service_request": "2024-1073227",
    "request_type": "Trash/Recycling",
    "request_reason": "Request a Large Item Pick Up",
    "date_created": "2024-03-06T19:39:42.000",
    "date_modified": "2024-03-06T19:39:43.000",
    "request_status": "Pending",
    "responsible_agency": "Department of Sanitation",
    "final_address": "757 French St, New Orleans, Louisiana, 70124",
    "address_councildis": "A",
    "status": "Assigned to Contractor",
    "contractor": "IV Waste",
    "rowid": "1073227",
    "final_x": "3669074.96801",
    "final_y": "548605.633875",
    "longitude": "-90.1067266846821",
    "latitude": "30.002846800744027",
    "geocoded_column": {
      "latitude": "30.002846800744027",
      "longitude": "-90.1067266846821"
    }
  },
  {
    "service_request": "2024-1073226",
    "request_type": "Trash/Recycling",
    "request_reason": "Request a Large Item Pick Up",
    "date_created": "2024-03-06T19:39:00.000",
    "date_modified": "2024-03-06T19:39:01.000",
    "request_status": "Pending",
    "responsible_agency": "Department of Sanitation",
    "final_address": "3211 Upperline St",
    "address_councildis": "B",
    "status": "Assigned to Contractor",
    "contractor": "Richards Disposal",
    "rowid": "1073226",
    "final_x": "3669332.83207",
    "final_y": "526582.592318",
    "longitude": "-90.10665687558176",
    "latitude": "29.942283240095687",
    "geocoded_column": {
      "latitude": "29.942283240095687",
      "longitude": "-90.10665687558176"
    }
  },
  {
    "service_request": "2024-1073225",
    "request_type": "Trash/Recycling",
    "request_reason": "Missed Trash Pick-Up",
    "date_created": "2024-03-06T19:13:18.000",
    "date_modified": "2024-03-06T19:13:18.000",
    "request_status": "Pending",
    "responsible_agency": "Department of Sanitation",
    "final_address": "1117 Verret St",
    "address_councildis": "C",
    "status": "Assigned to Contractor",
    "contractor": "Richards Disposal",
    "rowid": "1073225",
    "final_x": "3687252.59158",
    "final_y": "527444.221567",
    "longitude": "-90.0500498887739",
    "latitude": "29.944112768778087",
    "geocoded_column": {
      "latitude": "29.944112768778087",
      "longitude": "-90.0500498887739"
    }
  },
  {
    "service_request": "2024-1073224",
    "request_type": "Abandoned Vehicles",
    "request_reason": "Abandoned/Junk Vehicles",
    "date_created": "2024-03-06T19:08:37.000",
    "date_modified": "2024-03-06T19:08:37.000",
    "request_status": "Pending",
    "responsible_agency": "Department of Public Works",
    "final_address": "1224 Kerlerec St",
    "address_councildis": "C",
    "status": "Pending",
    "rowid": "1073224",
    "final_x": "3682622.28597",
    "final_y": "535947.950471",
    "longitude": "-90.0643717080448",
    "latitude": "29.967636907624925",
    "geocoded_column": {
      "latitude": "29.967636907624925",
      "longitude": "-90.0643717080448"
    }
  },
  {
    "service_request": "2024-1073223",
    "request_type": "Trash/Recycling",
    "request_reason": "Request a Large Item Pick Up",
    "date_created": "2024-03-06T19:07:33.000",
    "date_modified": "2024-03-06T19:07:34.000",
    "request_status": "Pending",
    "responsible_agency": "Department of Sanitation",
    "final_address": "2268 Allen Toussaint Blvd",
    "address_councildis": "D",
    "status": "Assigned to Contractor",
    "contractor": "IV Waste",
    "rowid": "1073223",
    "final_x": "3684142.33948",
    "final_y": "555708.110233",
    "longitude": "-90.05887727498666",
    "latitude": "30.021923915774792",
    "geocoded_column": {
      "latitude": "30.021923915774792",
      "longitude": "-90.05887727498666"
    }
  },
  {
    "service_request": "2024-1073222",
    "request_type": "Abandoned Vehicles",
    "request_reason": "Abandoned/Junk Vehicles",
    "date_created": "2024-03-06T19:05:34.000",
    "date_modified": "2024-03-06T19:05:34.000",
    "request_status": "Pending",
    "responsible_agency": "Department of Public Works",
    "final_address": "1224 Kerlerec St",
    "address_councildis": "C",
    "status": "Pending",
    "rowid": "1073222",
    "final_x": "3682622.28597",
    "final_y": "535947.950471",
    "longitude": "-90.0643717080448",
    "latitude": "29.967636907624925",
    "geocoded_column": {
      "latitude": "29.967636907624925",
      "longitude": "-90.0643717080448"
    }
  },
  {
    "service_request": "2024-1073221",
    "request_type": "Traffic Signals/Signs/Striping/Streetlights",
    "request_reason": "Street Light Outage/Malfunction",
    "date_created": "2024-03-06T19:00:57.000",
    "date_modified": "2024-03-06T19:00:57.000",
    "request_status": "Pending",
    "responsible_agency": "Department of Public Works",
    "final_address": "1810 Old St Bernard St",
    "address_councildis": "D",
    "status": "Assigned to Contractor",
    "contractor": "Legacy Professional Services",
    "rowid": "1073221",
    "final_x": "3682419.83042",
    "final_y": "538811.964745",
    "longitude": "-90.06491094475942",
    "latitude": "29.97551811900382",
    "geocoded_column": {
      "latitude": "29.97551811900382",
      "longitude": "-90.06491094475942"
    }
  },
  {
    "service_request": "2024-1073220",
    "request_type": "Property Maintenance",
    "request_reason": "Property Maintenance",
    "date_created": "2024-03-06T18:50:57.000",
    "date_modified": "2024-03-06T18:50:57.000",
    "request_status": "Pending",
    "responsible_agency": "Department of Code Enforcement",
    "final_address": "3719 Fairmont Dr",
    "address_councildis": "D",
    "status": "Pending",
    "rowid": "1073220",
    "final_x": "3685296.57941",
    "final_y": "546237.386384",
    "longitude": "-90.05556388517431",
    "latitude": "29.995847521829912",
    "geocoded_column": {
      "latitude": "29.995847521829912",
      "longitude": "-90.05556388517431"
    }
  },
  {
    "service_request": "2024-1073219",
    "request_type": "Trash/Recycling",
    "request_reason": "Replace Trash Cart",
    "date_created": "2024-03-06T18:44:19.000",
    "date_modified": "2024-03-06T18:44:19.000",
    "request_status": "Pending",
    "responsible_agency": "Department of Sanitation",
    "final_address": "4211 Cadillac St",
    "address_councildis": "D",
    "status": "Assigned to Contractor",
    "contractor": "IV Waste",
    "rowid": "1073219",
    "final_x": "3676920.97448",
    "final_y": "547675.426514",
    "longitude": "-90.08197213613924",
    "latitude": "30.000055782209785",
    "geocoded_column": {
      "latitude": "30.000055782209785",
      "longitude": "-90.08197213613924"
    }
  },
  {
    "service_request": "2024-1073217",
    "request_type": "Traffic Signals/Signs/Striping/Streetlights",
    "request_reason": "Street Light Outage/Malfunction",
    "date_created": "2024-03-06T18:40:12.000",
    "date_modified": "2024-03-06T18:40:13.000",
    "request_status": "Pending",
    "responsible_agency": "Department of Public Works",
    "final_address": "6868 General Haig St",
    "address_councildis": "A",
    "status": "Assigned to Contractor",
    "contractor": "Legacy Professional Services",
    "rowid": "1073217",
    "final_x": "3670962.95105",
    "final_y": "553002.658775",
    "longitude": "-90.10061282888314",
    "latitude": "30.01488136427897",
    "geocoded_column": {
      "latitude": "30.01488136427897",
      "longitude": "-90.10061282888314"
    }
  },
  {
    "service_request": "2024-1073216",
    "request_type": "Trash/Recycling",
    "request_reason": "MIssed Recycling Pick-Up",
    "date_created": "2024-03-06T18:39:33.000",
    "date_modified": "2024-03-06T18:39:33.000",
    "request_status": "Pending",
    "responsible_agency": "Department of Sanitation",
    "final_address": "2703 Dryades St",
    "address_councildis": "B",
    "status": "Assigned to Contractor",
    "contractor": "Richards Disposal",
    "rowid": "1073216",
    "final_x": "3675528.32865",
    "final_y": "523617.028155",
    "longitude": "-90.08719812095978",
    "latitude": "29.933945082142554",
    "geocoded_column": {
      "latitude": "29.933945082142554",
      "longitude": "-90.08719812095978"
    }
  },
  {
    "service_request": "2024-1073215",
    "request_type": "Trash/Recycling",
    "request_reason": "Replace Trash Cart",
    "date_created": "2024-03-06T18:35:10.000",
    "date_modified": "2024-03-06T18:35:11.000",
    "request_status": "Pending",
    "responsible_agency": "Department of Sanitation",
    "final_address": "2703 Dryades St",
    "address_councildis": "B",
    "status": "Assigned to Contractor",
    "contractor": "Richards Disposal",
    "rowid": "1073215",
    "final_x": "3675528.32865",
    "final_y": "523617.028155",
    "longitude": "-90.08719812095978",
    "latitude": "29.933945082142554",
    "geocoded_column": {
      "latitude": "29.933945082142554",
      "longitude": "-90.08719812095978"
    }
  },
  {
    "service_request": "2024-1073214",
    "request_type": "Traffic Signals/Signs/Striping/Streetlights",
    "request_reason": "Street Light Outage/Malfunction",
    "date_created": "2024-03-06T18:29:55.000",
    "date_modified": "2024-03-06T18:29:56.000",
    "request_status": "Pending",
    "responsible_agency": "Department of Public Works",
    "final_address": "1335 Hillary St",
    "address_councildis": "A",
    "status": "Assigned to Contractor",
    "contractor": "Legacy Professional Services",
    "rowid": "1073214",
    "final_x": "3663786.20519",
    "final_y": "527571.897663",
    "longitude": "-90.12413592588416",
    "latitude": "29.945165621065474",
    "geocoded_column": {
      "latitude": "29.945165621065474",
      "longitude": "-90.12413592588416"
    }
  },
  {
    "service_request": "2024-1073213",
    "request_type": "Trash/Recycling",
    "request_reason": "Illegal Dumping",
    "date_created": "2024-03-06T18:27:25.000",
    "date_modified": "2024-03-06T18:27:25.000",
    "request_status": "Pending",
    "responsible_agency": "Department of Sanitation",
    "final_address": "2315 St Roch Ave",
    "address_councildis": "D",
    "status": "Pending",
    "rowid": "1073213",
    "final_x": "3686204.47106",
    "final_y": "540974.112459",
    "longitude": "-90.05288173124053",
    "latitude": "29.981347523971692",
    "geocoded_column": {
      "latitude": "29.981347523971692",
      "longitude": "-90.05288173124053"
    }
  },
  {
    "service_request": "2024-1073212",
    "request_type": "Abandoned Vehicles",
    "request_reason": "Abandoned/Junk Vehicles",
    "date_created": "2024-03-06T18:25:02.000",
    "date_modified": "2024-03-06T18:25:02.000",
    "request_status": "Pending",
    "responsible_agency": "Department of Public Works",
    "final_address": "MARENGO ST & CAMP ST",
    "address_councildis": "B",
    "status": "Pending",
    "rowid": "1073212",
    "final_x": "3672126.6",
    "final_y": "519255.68",
    "longitude": "-90.09808568828878",
    "latitude": "29.922054060560587",
    "geocoded_column": {
      "latitude": "29.922054060560587",
      "longitude": "-90.09808568828878"
    }
  },
  {
    "service_request": "2024-1073211",
    "request_type": "Abandoned Vehicles",
    "request_reason": "Abandoned/Junk Vehicles",
    "date_created": "2024-03-06T18:19:32.000",
    "date_modified": "2024-03-06T18:19:32.000",
    "request_status": "Pending",
    "responsible_agency": "Department of Public Works",
    "final_address": "2035 Mirabeau Ave",
    "address_councildis": "D",
    "status": "Pending",
    "rowid": "1073211",
    "final_x": "3682652.47893",
    "final_y": "550693.138197",
    "longitude": "-90.06376041819077",
    "latitude": "30.00818004983145",
    "geocoded_column": {
      "latitude": "30.00818004983145",
      "longitude": "-90.06376041819077"
    }
  },
  {
    "service_request": "2024-1073210",
    "request_type": "Abandoned Vehicles",
    "request_reason": "Abandoned/Junk Vehicles",
    "date_created": "2024-03-06T18:18:26.000",
    "date_modified": "2024-03-06T18:18:26.000",
    "request_status": "Pending",
    "responsible_agency": "Department of Public Works",
    "final_address": "1000 BLK Marengo St",
    "address_councildis": "B",
    "status": "Pending",
    "rowid": "1073210",
    "final_x": "3672107.75713",
    "final_y": "519444.188918",
    "longitude": "-90.0981387530159",
    "latitude": "29.922572958470447",
    "geocoded_column": {
      "latitude": "29.922572958470447",
      "longitude": "-90.0981387530159"
    }
  },
  {
    "service_request": "2024-1073209",
    "request_type": "Trash/Recycling",
    "request_reason": "Missed Trash Pick-Up",
    "date_created": "2024-03-06T18:17:12.000",
    "date_modified": "2024-03-06T18:17:13.000",
    "request_status": "Pending",
    "responsible_agency": "Department of Sanitation",
    "final_address": "1922 Adams St, New Orleans, Louisiana, 70118",
    "address_councildis": "A",
    "status": "Assigned to Contractor",
    "contractor": "Richards Disposal",
    "rowid": "1073209",
    "final_x": "3664814.87687",
    "final_y": "529368.983105",
    "longitude": "-90.12082803266622",
    "latitude": "29.95007713748382",
    "geocoded_column": {
      "latitude": "29.95007713748382",
      "longitude": "-90.12082803266622"
    }
  },
  {
    "service_request": "2024-1073208",
    "request_type": "Trash/Recycling",
    "request_reason": "Missed Trash Pick-Up",
    "date_created": "2024-03-06T18:15:25.000",
    "date_modified": "2024-03-06T18:15:26.000",
    "request_status": "Pending",
    "responsible_agency": "Department of Sanitation",
    "final_address": "3310 Jena St",
    "address_councildis": "B",
    "status": "Assigned to Contractor",
    "contractor": "Richards Disposal",
    "rowid": "1073208",
    "final_x": "3669791.15796",
    "final_y": "526965.954814",
    "longitude": "-90.10519686205792",
    "latitude": "29.943323863030148",
    "geocoded_column": {
      "latitude": "29.943323863030148",
      "longitude": "-90.10519686205792"
    }
  },
  {
    "service_request": "2024-1073207",
    "request_type": "Trash/Recycling",
    "request_reason": "Missed Trash Pick-Up",
    "date_created": "2024-03-06T18:14:05.000",
    "date_modified": "2024-03-06T18:14:06.000",
    "request_status": "Pending",
    "responsible_agency": "Department of Sanitation",
    "final_address": "1922 Adams St, New Orleans, Louisiana, 70118",
    "address_councildis": "A",
    "status": "Assigned to Contractor",
    "contractor": "Richards Disposal",
    "rowid": "1073207",
    "final_x": "3664814.87687",
    "final_y": "529368.983105",
    "longitude": "-90.12082803266622",
    "latitude": "29.95007713748382",
    "geocoded_column": {
      "latitude": "29.95007713748382",
      "longitude": "-90.12082803266622"
    }
  },
  {
    "service_request": "2024-1073206",
    "request_type": "Abandoned Vehicles",
    "request_reason": "Abandoned/Junk Vehicles",
    "date_created": "2024-03-06T18:09:12.000",
    "date_modified": "2024-03-06T18:09:12.000",
    "request_status": "Pending",
    "responsible_agency": "Department of Public Works",
    "final_address": "238 S Norman C Francis Prkwy",
    "address_councildis": "B",
    "status": "Pending",
    "rowid": "1073206",
    "final_x": "3672863.90152",
    "final_y": "536053.301703",
    "longitude": "-90.09518538539922",
    "latitude": "29.9682201333922",
    "geocoded_column": {
      "latitude": "29.9682201333922",
      "longitude": "-90.09518538539922"
    }
  },
  {
    "service_request": "2024-1073204",
    "request_type": "Trash/Recycling",
    "request_reason": "Request a Large Item Pick Up",
    "date_created": "2024-03-06T17:59:35.000",
    "date_modified": "2024-03-06T17:59:36.000",
    "request_status": "Pending",
    "responsible_agency": "Department of Sanitation",
    "final_address": "1608 Mirabeau Ave, New Orleans, Louisiana, 70122",
    "address_councildis": "D",
    "status": "Assigned to Contractor",
    "contractor": "IV Waste",
    "rowid": "1073204",
    "final_x": "3679740.79887",
    "final_y": "550240.952916",
    "longitude": "-90.07297502387908",
    "latitude": "30.007025087189586",
    "geocoded_column": {
      "latitude": "30.007025087189586",
      "longitude": "-90.07297502387908"
    }
  },
  {
    "service_request": "2024-1073203",
    "request_type": "Trash/Recycling",
    "request_reason": "Request a Large Item Pick Up",
    "date_created": "2024-03-06T17:44:51.000",
    "date_modified": "2024-03-06T17:44:51.000",
    "request_status": "Pending",
    "responsible_agency": "Department of Sanitation",
    "final_address": "126 N Solomon St",
    "address_councildis": "A",
    "status": "Assigned to Contractor",
    "contractor": "Richards Disposal",
    "rowid": "1073203",
    "final_x": "3670776.78951",
    "final_y": "538931.177226",
    "longitude": "-90.10167889943484",
    "latitude": "29.976195168490353",
    "geocoded_column": {
      "latitude": "29.976195168490353",
      "longitude": "-90.10167889943484"
    }
  },
  {
    "service_request": "2024-1073202",
    "request_type": "Roads/Drainage",
    "request_reason": "Street Subsidence (Sinking)",
    "date_created": "2024-03-06T17:32:25.000",
    "date_modified": "2024-03-06T17:32:25.000",
    "request_status": "Pending",
    "responsible_agency": "Department of Public Works",
    "final_address": "1815 S White St",
    "address_councildis": "B",
    "status": "Pending",
    "rowid": "1073202",
    "final_x": "3670777.07188",
    "final_y": "529606.818625",
    "longitude": "-90.10199447246403",
    "latitude": "29.950556281767483",
    "geocoded_column": {
      "latitude": "29.950556281767483",
      "longitude": "-90.10199447246403"
    }
  },
  {
    "service_request": "2024-1073201",
    "request_type": "Roads/Drainage",
    "request_reason": "Pothole",
    "date_created": "2024-03-06T17:28:11.000",
    "date_modified": "2024-03-06T17:28:11.000",
    "request_status": "Pending",
    "responsible_agency": "Department of Public Works",
    "final_address": "7000 BLK Washington Ave",
    "address_councildis": "B",
    "status": "Pending",
    "rowid": "1073201",
    "final_x": "3669356.32595",
    "final_y": "533804.499436",
    "longitude": "-90.1063385391464",
    "latitude": "29.962140425483266",
    "geocoded_column": {
      "latitude": "29.962140425483266",
      "longitude": "-90.1063385391464"
    }
  },
  {
    "service_request": "2024-1073200",
    "request_type": "Traffic Signals/Signs/Striping/Streetlights",
    "request_reason": "Traffic Signal Malfunctioning/Damaged",
    "date_created": "2024-03-06T17:25:38.000",
    "date_modified": "2024-03-06T17:25:38.000",
    "request_status": "Pending",
    "responsible_agency": "Department of Public Works",
    "final_address": "WASHINGTON AVE & PINE ST",
    "address_councildis": "B",
    "status": "Pending",
    "rowid": "1073200",
    "final_x": "3669059.4",
    "final_y": "534199.78",
    "longitude": "-90.10726283326873",
    "latitude": "29.963236055326554",
    "geocoded_column": {
      "latitude": "29.963236055326554",
      "longitude": "-90.10726283326873"
    }
  },
  {
    "service_request": "2024-1073199",
    "request_type": "Trash/Recycling",
    "request_reason": "Order Trash Cart",
    "date_created": "2024-03-06T17:25:35.000",
    "date_modified": "2024-03-06T17:25:36.000",
    "request_status": "Pending",
    "responsible_agency": "Department of Sanitation",
    "final_address": "1631 Painters St",
    "address_councildis": "D",
    "status": "Assigned to Contractor",
    "contractor": "IV Waste",
    "rowid": "1073199",
    "final_x": "3687428.14166",
    "final_y": "538623.626185",
    "longitude": "-90.04910003415748",
    "latitude": "29.9748468601697",
    "geocoded_column": {
      "latitude": "29.9748468601697",
      "longitude": "-90.04910003415748"
    }
  },
  {
    "service_request": "2024-1073198",
    "request_type": "Traffic Signals/Signs/Striping/Streetlights",
    "request_reason": "Street Light Outage/Malfunction",
    "date_created": "2024-03-06T17:24:26.000",
    "date_modified": "2024-03-06T17:24:27.000",
    "request_status": "Pending",
    "responsible_agency": "Department of Public Works",
    "final_address": "4120 Vincennes Pl",
    "address_councildis": "B",
    "status": "Assigned to Contractor",
    "contractor": "Legacy Professional Services",
    "rowid": "1073198",
    "final_x": "3668524.89614",
    "final_y": "530727.500354",
    "longitude": "-90.10906789585637",
    "latitude": "29.95370414588068",
    "geocoded_column": {
      "latitude": "29.95370414588068",
      "longitude": "-90.10906789585637"
    }
  },
  {
    "service_request": "2024-1073197",
    "request_type": "Traffic Signals/Signs/Striping/Streetlights",
    "request_reason": "Crosswalks and Signage",
    "date_created": "2024-03-06T17:09:56.000",
    "date_modified": "2024-03-06T17:09:56.000",
    "request_status": "Pending",
    "responsible_agency": "Department of Public Works",
    "final_address": "2000 S Liberty St",
    "address_councildis": "B",
    "status": "Pending",
    "rowid": "1073197",
    "final_x": "3676548.02561",
    "final_y": "526177.790398",
    "longitude": "-90.08389082614192",
    "latitude": "29.94095580603209",
    "geocoded_column": {
      "latitude": "29.94095580603209",
      "longitude": "-90.08389082614192"
    }
  },
  {
    "service_request": "2024-1073196",
    "request_type": "Healthy Homes",
    "request_reason": "Healthy Homes",
    "date_created": "2024-03-06T16:57:22.000",
    "date_modified": "2024-03-06T16:57:22.000",
    "request_status": "Pending",
    "responsible_agency": "Department of Code Enforcement",
    "final_address": "2831 Baronne St",
    "address_councildis": "B",
    "status": "Pending",
    "rowid": "1073196",
    "final_x": "3675267.97032",
    "final_y": "523023.602555",
    "longitude": "-90.0880404225184",
    "latitude": "29.93232113798806",
    "geocoded_column": {
      "latitude": "29.93232113798806",
      "longitude": "-90.0880404225184"
    }
  },
  {
    "service_request": "2024-1073195",
    "request_type": "Trash/Recycling",
    "request_reason": "Request a Large Item Pick Up",
    "date_created": "2024-03-06T16:56:42.000",
    "date_modified": "2024-03-06T16:56:43.000",
    "request_status": "Pending",
    "responsible_agency": "Department of Sanitation",
    "final_address": "1505 Bodenger Blvd",
    "address_councildis": "C",
    "status": "Assigned to Contractor",
    "contractor": "Richards Disposal",
    "rowid": "1073195",
    "final_x": "3688443.93724",
    "final_y": "526188.519102",
    "longitude": "-90.04633301795738",
    "latitude": "29.94062327282339",
    "geocoded_column": {
      "latitude": "29.94062327282339",
      "longitude": "-90.04633301795738"
    }
  },
  {
    "service_request": "2024-1073194",
    "request_type": "Trash/Recycling",
    "request_reason": "Order Recycling Cart",
    "date_created": "2024-03-06T16:56:02.000",
    "date_modified": "2024-03-06T16:56:03.000",
    "request_status": "Pending",
    "responsible_agency": "Department of Sanitation",
    "final_address": "1505 Bodenger Blvd",
    "address_councildis": "C",
    "status": "Pending",
    "rowid": "1073194",
    "final_x": "3688443.93724",
    "final_y": "526188.519102",
    "longitude": "-90.04633301795738",
    "latitude": "29.94062327282339",
    "geocoded_column": {
      "latitude": "29.94062327282339",
      "longitude": "-90.04633301795738"
    }
  },
  {
    "service_request": "2024-1073193",
    "request_type": "Abandoned Vehicles",
    "request_reason": "Abandoned/Junk Vehicles",
    "date_created": "2024-03-06T16:49:13.000",
    "date_modified": "2024-03-06T16:49:13.000",
    "request_status": "Pending",
    "responsible_agency": "Department of Public Works",
    "final_address": "1715 Pauger St",
    "address_councildis": "C",
    "status": "Pending",
    "rowid": "1073193",
    "final_x": "3683933.11868",
    "final_y": "535989.968903",
    "longitude": "-90.06023059837126",
    "latitude": "29.967712462387034",
    "geocoded_column": {
      "latitude": "29.967712462387034",
      "longitude": "-90.06023059837126"
    }
  },
  {
    "service_request": "2024-1073192",
    "request_type": "Trash/Recycling",
    "request_reason": "Illegal Dumping",
    "date_created": "2024-03-06T16:47:46.000",
    "date_modified": "2024-03-06T16:47:46.000",
    "request_status": "Pending",
    "responsible_agency": "Department of Sanitation",
    "final_address": "MONROE ST & GREEN ST",
    "address_councildis": "A",
    "status": "Pending",
    "rowid": "1073192",
    "final_x": "3661567.5",
    "final_y": "531107.48",
    "longitude": "-90.13102397839607",
    "latitude": "29.954951532284035",
    "geocoded_column": {
      "latitude": "29.954951532284035",
      "longitude": "-90.13102397839607"
    }
  },
  {
    "service_request": "2024-1073191",
    "request_type": "Parks & Parkways",
    "request_reason": "Request Tree Service (Right of Way/Public Property)",
    "date_created": "2024-03-06T16:44:54.000",
    "date_modified": "2024-03-06T16:44:54.000",
    "request_status": "Pending",
    "responsible_agency": "Department of Parks & Parkway",
    "final_address": "4241 Hamilton St",
    "address_councildis": "A",
    "status": "Pending",
    "rowid": "1073191",
    "final_x": "3666761.09261",
    "final_y": "538803.253961",
    "longitude": "-90.11436599994686",
    "latitude": "29.97596149859271",
    "geocoded_column": {
      "latitude": "29.97596149859271",
      "longitude": "-90.11436599994686"
    }
  },
  {
    "service_request": "2024-1073190",
    "request_type": "Abandoned Vehicles",
    "request_reason": "Abandoned/Junk Vehicles",
    "date_created": "2024-03-06T16:43:06.000",
    "date_modified": "2024-03-06T16:43:06.000",
    "request_status": "Pending",
    "responsible_agency": "Department of Public Works",
    "final_address": "615 Pleasant St",
    "address_councildis": "B",
    "status": "Pending",
    "rowid": "1073190",
    "final_x": "3676321.54881",
    "final_y": "518410.129526",
    "longitude": "-90.08487305714047",
    "latitude": "29.919604054696656",
    "geocoded_column": {
      "latitude": "29.919604054696656",
      "longitude": "-90.08487305714047"
    }
  },
  {
    "service_request": "2024-1073189",
    "request_type": "Trash/Recycling",
    "request_reason": "Replace Recycling Cart",
    "date_created": "2024-03-06T16:41:47.000",
    "date_modified": "2024-03-06T16:41:47.000",
    "request_status": "Pending",
    "responsible_agency": "Department of Sanitation",
    "final_address": "405 Huntlee Dr",
    "address_councildis": "C",
    "status": "Pending",
    "rowid": "1073189",
    "final_x": "3701816.63274",
    "final_y": "522297.491386",
    "longitude": "-90.004255939376",
    "latitude": "29.929504526623553",
    "geocoded_column": {
      "latitude": "29.929504526623553",
      "longitude": "-90.004255939376"
    }
  },
  {
    "service_request": "2024-1073188",
    "request_type": "Abandoned Vehicles",
    "request_reason": "Abandoned/Junk Vehicles",
    "date_created": "2024-03-06T16:41:39.000",
    "date_modified": "2024-03-06T16:41:39.000",
    "request_status": "Pending",
    "responsible_agency": "Department of Public Works",
    "final_address": "8700 BLK Green St",
    "address_councildis": "A",
    "status": "Pending",
    "rowid": "1073188",
    "final_x": "3661438.64067",
    "final_y": "531224.488848",
    "longitude": "-90.13142699419195",
    "latitude": "29.95527698606181",
    "geocoded_column": {
      "latitude": "29.95527698606181",
      "longitude": "-90.13142699419195"
    }
  },
  {
    "service_request": "2024-1073187",
    "request_type": "Trash/Recycling",
    "request_reason": "Request a Large Item Pick Up",
    "date_created": "2024-03-06T16:41:04.000",
    "date_modified": "2024-03-06T16:41:04.000",
    "request_status": "Pending",
    "responsible_agency": "Department of Sanitation",
    "final_address": "4121 Hollygrove St",
    "address_councildis": "A",
    "status": "Assigned to Contractor",
    "contractor": "Richards Disposal",
    "rowid": "1073187",
    "final_x": "3666703.62586",
    "final_y": "538240.451401",
    "longitude": "-90.11456640337053",
    "latitude": "29.974415660743603",
    "geocoded_column": {
      "latitude": "29.974415660743603",
      "longitude": "-90.11456640337053"
    }
  },
  {
    "service_request": "2024-1073186",
    "request_type": "Trash/Recycling",
    "request_reason": "Request a Large Item Pick Up",
    "date_created": "2024-03-06T16:40:50.000",
    "date_modified": "2024-03-06T16:40:51.000",
    "request_status": "Pending",
    "responsible_agency": "Department of Sanitation",
    "final_address": "1524 Euterpe St Unit C",
    "address_councildis": "B",
    "status": "Assigned to Contractor",
    "contractor": "Richards Disposal",
    "rowid": "1073186",
    "final_x": "3679091.93787",
    "final_y": "524802.441916",
    "longitude": "-90.0759068879758",
    "latitude": "29.937097533943128",
    "geocoded_column": {
      "latitude": "29.937097533943128",
      "longitude": "-90.0759068879758"
    }
  },
  {
    "service_request": "2024-1073185",
    "request_type": "Trash/Recycling",
    "request_reason": "Request a Large Item Pick Up",
    "date_created": "2024-03-06T16:37:16.000",
    "date_modified": "2024-03-06T16:37:16.000",
    "request_status": "Pending",
    "responsible_agency": "Department of Sanitation",
    "final_address": "208 N Lopez St",
    "address_councildis": "B",
    "status": "Assigned to Contractor",
    "contractor": "Richards Disposal",
    "rowid": "1073185",
    "final_x": "3674191.01742",
    "final_y": "536599.323015",
    "longitude": "-90.09097559451003",
    "latitude": "29.96968200972407",
    "geocoded_column": {
      "latitude": "29.96968200972407",
      "longitude": "-90.09097559451003"
    }
  },
  {
    "service_request": "2024-1073183",
    "request_type": "Trash/Recycling",
    "request_reason": "MIssed Recycling Pick-Up",
    "date_created": "2024-03-06T16:34:38.000",
    "date_modified": "2024-03-06T17:47:46.000",
    "case_close_date": "2024-03-06T11:47:46.000",
    "request_status": "Closed",
    "responsible_agency": "Department of Sanitation",
    "final_address": "7809 Primrose Dr",
    "address_councildis": "E",
    "status": "Assigned to Contractor",
    "contractor": "Waste Pro",
    "contractor_action": "Completed",
    "rowid": "1073183",
    "final_x": "3701615.74199",
    "final_y": "561789.042527",
    "longitude": "-90.00344319117895",
    "latitude": "30.038098167141584",
    "geocoded_column": {
      "latitude": "30.038098167141584",
      "longitude": "-90.00344319117895"
    }
  },
  {
    "service_request": "2024-1073182",
    "request_type": "Roads/Drainage",
    "request_reason": "Catch Basin - Clogged",
    "date_created": "2024-03-06T16:33:47.000",
    "date_modified": "2024-03-06T16:33:47.000",
    "request_status": "Pending",
    "responsible_agency": "Department of Public Works",
    "final_address": "8021 Branch Dr",
    "address_councildis": "E",
    "status": "Pending",
    "rowid": "1073182",
    "final_x": "3713922.89579",
    "final_y": "569855.012262",
    "longitude": "-89.96424529741597",
    "latitude": "30.059877804306744",
    "geocoded_column": {
      "latitude": "30.059877804306744",
      "longitude": "-89.96424529741597"
    }
  },
  {
    "service_request": "2024-1073181",
    "request_type": "Property Maintenance",
    "request_reason": "Property Maintenance",
    "date_created": "2024-03-06T16:33:12.000",
    "date_modified": "2024-03-06T16:33:13.000",
    "request_status": "Pending",
    "responsible_agency": "Department of Code Enforcement",
    "final_address": "4121 Hollygrove St",
    "address_councildis": "A",
    "status": "Pending",
    "rowid": "1073181",
    "final_x": "3666703.62586",
    "final_y": "538240.451401",
    "longitude": "-90.11456640337053",
    "latitude": "29.974415660743603",
    "geocoded_column": {
      "latitude": "29.974415660743603",
      "longitude": "-90.11456640337053"
    }
  },
  {
    "service_request": "2024-1073180",
    "request_type": "Trash/Recycling",
    "request_reason": "Illegal Dumping",
    "date_created": "2024-03-06T16:32:05.000",
    "date_modified": "2024-03-06T16:32:05.000",
    "request_status": "Pending",
    "responsible_agency": "Department of Sanitation",
    "final_address": "1600 BLK S Liberty St",
    "address_councildis": "B",
    "status": "Pending",
    "rowid": "1073180",
    "final_x": "3676716.41982",
    "final_y": "526553.913215",
    "longitude": "-90.08334622072981",
    "latitude": "29.941984969721496",
    "geocoded_column": {
      "latitude": "29.941984969721496",
      "longitude": "-90.08334622072981"
    }
  },
  {
    "service_request": "2024-1073179",
    "request_type": "Traffic Signals/Signs/Striping/Streetlights",
    "request_reason": "Street Light Outage/Malfunction",
    "date_created": "2024-03-06T16:30:25.000",
    "date_modified": "2024-03-06T16:30:25.000",
    "request_status": "Pending",
    "responsible_agency": "Department of Public Works",
    "final_address": "6020 Marshal Foch St",
    "address_councildis": "A",
    "status": "Assigned to Contractor",
    "contractor": "Legacy Professional Services",
    "rowid": "1073179",
    "final_x": "3669750.2361",
    "final_y": "547345.159057",
    "longitude": "-90.10463611259566",
    "latitude": "29.99936103978108",
    "geocoded_column": {
      "latitude": "29.99936103978108",
      "longitude": "-90.10463611259566"
    }
  },
  {
    "service_request": "2024-1073178",
    "request_type": "Health Related Request",
    "request_reason": "Noise Ordinance Complaint",
    "date_created": "2024-03-06T16:28:23.000",
    "date_modified": "2024-03-06T16:28:23.000",
    "request_status": "Pending",
    "responsible_agency": "Health Department",
    "final_address": "4808 Saint Claude Ave, New Orleans, Louisiana, 70117",
    "status": "Pending",
    "rowid": "1073178",
    "longitude": "0.0",
    "latitude": "0.0",
    "geocoded_column": {
      "latitude": "0.0",
      "longitude": "0.0"
    }
  },
  {
    "service_request": "2024-1073177",
    "request_type": "Property Maintenance",
    "request_reason": "Property Maintenance",
    "date_created": "2024-03-06T16:27:39.000",
    "date_modified": "2024-03-06T16:27:39.000",
    "request_status": "Pending",
    "responsible_agency": "Department of Code Enforcement",
    "final_address": "4808 Saint Claude Ave, New Orleans, Louisiana, 70117",
    "status": "Pending",
    "rowid": "1073177",
    "longitude": "0.0",
    "latitude": "0.0",
    "geocoded_column": {
      "latitude": "0.0",
      "longitude": "0.0"
    }
  },
  {
    "service_request": "2024-1073176",
    "request_type": "Roads/Drainage",
    "request_reason": "Street Subsidence (Sinking)",
    "date_created": "2024-03-06T16:27:22.000",
    "date_modified": "2024-03-06T16:27:22.000",
    "request_status": "Pending",
    "responsible_agency": "Department of Public Works",
    "final_address": "2015 Octavia St",
    "address_councildis": "A",
    "status": "Pending",
    "rowid": "1073176",
    "final_x": "3667442.90855",
    "final_y": "523165.633979",
    "longitude": "-90.11273872369051",
    "latitude": "29.93294319838149",
    "geocoded_column": {
      "latitude": "29.93294319838149",
      "longitude": "-90.11273872369051"
    }
  },
  {
    "service_request": "2024-1073175",
    "request_type": "Property Maintenance",
    "request_reason": "Property Maintenance",
    "date_created": "2024-03-06T16:25:26.000",
    "date_modified": "2024-03-06T16:25:26.000",
    "request_status": "Pending",
    "responsible_agency": "Department of Code Enforcement",
    "final_address": "1032 Deslonde St, New Orleans, Louisiana, 70117",
    "address_councildis": "E",
    "status": "Pending",
    "rowid": "1073175",
    "final_x": "3695293.28048",
    "final_y": "534245.183173",
    "longitude": "-90.02441802631043",
    "latitude": "29.96256297216016",
    "geocoded_column": {
      "latitude": "29.96256297216016",
      "longitude": "-90.02441802631043"
    }
  },
  {
    "service_request": "2024-1073174",
    "request_type": "Property Maintenance",
    "request_reason": "Property Maintenance",
    "date_created": "2024-03-06T16:24:05.000",
    "date_modified": "2024-03-06T16:24:05.000",
    "request_status": "Pending",
    "responsible_agency": "Department of Code Enforcement",
    "final_address": "1032 Deslonde St, New Orleans, Louisiana, 70117",
    "address_councildis": "E",
    "status": "Pending",
    "rowid": "1073174",
    "final_x": "3695293.28048",
    "final_y": "534245.183173",
    "longitude": "-90.02441802631043",
    "latitude": "29.96256297216016",
    "geocoded_column": {
      "latitude": "29.96256297216016",
      "longitude": "-90.02441802631043"
    }
  },
  {
    "service_request": "2024-1073173",
    "request_type": "Roads/Drainage",
    "request_reason": "Pothole",
    "date_created": "2024-03-06T16:23:28.000",
    "date_modified": "2024-03-06T16:23:28.000",
    "request_status": "Pending",
    "responsible_agency": "Department of Public Works",
    "final_address": "4216 Chestnut St",
    "address_councildis": "B",
    "status": "Pending",
    "rowid": "1073173",
    "final_x": "3671574.31393",
    "final_y": "519539.203703",
    "longitude": "-90.09981939416457",
    "latitude": "29.922850019854593",
    "geocoded_column": {
      "latitude": "29.922850019854593",
      "longitude": "-90.09981939416457"
    }
  },
  {
    "service_request": "2024-1073172",
    "request_type": "Abandoned Vehicles",
    "request_reason": "Abandoned/Junk Vehicles",
    "date_created": "2024-03-06T16:22:46.000",
    "date_modified": "2024-03-06T16:22:46.000",
    "request_status": "Pending",
    "responsible_agency": "Department of Public Works",
    "final_address": "1806 S Liberty St",
    "address_councildis": "B",
    "status": "Pending",
    "rowid": "1073172",
    "final_x": "3676652.94037",
    "final_y": "526304.010686",
    "longitude": "-90.08355524463786",
    "latitude": "29.941299724160206",
    "geocoded_column": {
      "latitude": "29.941299724160206",
      "longitude": "-90.08355524463786"
    }
  },
  {
    "service_request": "2024-1073171",
    "request_type": "Trash/Recycling",
    "request_reason": "Request a Large Item Pick Up",
    "date_created": "2024-03-06T16:17:23.000",
    "date_modified": "2024-03-06T16:17:24.000",
    "request_status": "Pending",
    "responsible_agency": "Department of Sanitation",
    "final_address": "4801 Pratt Dr",
    "address_councildis": "D",
    "status": "Assigned to Contractor",
    "contractor": "IV Waste",
    "rowid": "1073171",
    "final_x": "3680660.73019",
    "final_y": "550151.063828",
    "longitude": "-90.07007184349334",
    "latitude": "30.00675006956877",
    "geocoded_column": {
      "latitude": "30.00675006956877",
      "longitude": "-90.07007184349334"
    }
  },
  {
    "service_request": "2024-1073170",
    "request_type": "Property Maintenance",
    "request_reason": "Property Maintenance",
    "date_created": "2024-03-06T16:16:32.000",
    "date_modified": "2024-03-06T16:16:33.000",
    "request_status": "Pending",
    "responsible_agency": "Department of Code Enforcement",
    "final_address": "4139 Hamilton St",
    "address_councildis": "A",
    "status": "Pending",
    "rowid": "1073170",
    "final_x": "3666528.44839",
    "final_y": "538555.927305",
    "longitude": "-90.11510906482027",
    "latitude": "29.975288236179072",
    "geocoded_column": {
      "latitude": "29.975288236179072",
      "longitude": "-90.11510906482027"
    }
  },
  {
    "service_request": "2024-1073169",
    "request_type": "Trash/Recycling",
    "request_reason": "Missed Trash Pick-Up",
    "date_created": "2024-03-06T16:15:20.000",
    "date_modified": "2024-03-06T16:15:21.000",
    "request_status": "Pending",
    "responsible_agency": "Department of Sanitation",
    "final_address": "12931 Mcraven Ct",
    "address_councildis": "E",
    "status": "Assigned to Contractor",
    "contractor": "Waste Pro",
    "rowid": "1073169",
    "final_x": "3716582.6133",
    "final_y": "568112.811493",
    "longitude": "-89.95590437337623",
    "latitude": "30.054999823499724",
    "geocoded_column": {
      "latitude": "30.054999823499724",
      "longitude": "-89.95590437337623"
    }
  },
  {
    "service_request": "2024-1073168",
    "request_type": "Health Related Request",
    "request_reason": "Noise Ordinance Complaint",
    "date_created": "2024-03-06T16:10:00.000",
    "date_modified": "2024-03-06T16:10:00.000",
    "request_status": "Pending",
    "responsible_agency": "Health Department",
    "final_address": "2901 Conti St",
    "address_councildis": "B",
    "status": "Pending",
    "rowid": "1073168",
    "final_x": "3675312.07413",
    "final_y": "536638.524871",
    "longitude": "-90.08743384753795",
    "latitude": "29.96975633217312",
    "geocoded_column": {
      "latitude": "29.96975633217312",
      "longitude": "-90.08743384753795"
    }
  },
  {
    "service_request": "2024-1073167",
    "request_type": "Property Maintenance",
    "request_reason": "Property Maintenance",
    "date_created": "2024-03-06T16:09:32.000",
    "date_modified": "2024-03-06T16:09:33.000",
    "request_status": "Pending",
    "responsible_agency": "Department of Code Enforcement",
    "final_address": "8923 Marks St",
    "address_councildis": "A",
    "status": "Pending",
    "rowid": "1073167",
    "final_x": "3666681.46081",
    "final_y": "538045.193289",
    "longitude": "-90.11464296494081",
    "latitude": "29.97387941442471",
    "geocoded_column": {
      "latitude": "29.97387941442471",
      "longitude": "-90.11464296494081"
    }
  },
  {
    "service_request": "2024-1073166",
    "request_type": "Trash/Recycling",
    "request_reason": "Missed Trash Pick-Up",
    "date_created": "2024-03-06T16:09:00.000",
    "date_modified": "2024-03-06T16:09:01.000",
    "request_status": "Pending",
    "responsible_agency": "Department of Sanitation",
    "final_address": "3216 Upperline St",
    "address_councildis": "B",
    "status": "Assigned to Contractor",
    "contractor": "Richards Disposal",
    "rowid": "1073166",
    "final_x": "3669154.66682",
    "final_y": "526854.291198",
    "longitude": "-90.10721020533121",
    "latitude": "29.943035567331187",
    "geocoded_column": {
      "latitude": "29.943035567331187",
      "longitude": "-90.10721020533121"
    }
  },
  {
    "service_request": "2024-1073165",
    "request_type": "Roads/Drainage",
    "request_reason": "Damaged Sidewalk",
    "date_created": "2024-03-06T16:00:39.000",
    "date_modified": "2024-03-06T16:00:40.000",
    "request_status": "Pending",
    "responsible_agency": "Department of Public Works",
    "final_address": "4100 BLK Hollygrove St",
    "address_councildis": "A",
    "status": "Pending",
    "rowid": "1073165",
    "final_x": "3666665.74504",
    "final_y": "538256.223472",
    "longitude": "-90.11468551071674",
    "latitude": "29.97446013649686",
    "geocoded_column": {
      "latitude": "29.97446013649686",
      "longitude": "-90.11468551071674"
    }
  },
  {
    "service_request": "2024-1073164",
    "request_type": "Roads/Drainage",
    "request_reason": "Catch Basin - Clogged",
    "date_created": "2024-03-06T16:00:35.000",
    "date_modified": "2024-03-06T16:02:19.000",
    "case_close_date": "2024-03-06T10:02:19.000",
    "request_status": "Closed",
    "responsible_agency": "Department of Public Works",
    "final_address": "1200 BLK Josephine St",
    "address_councildis": "B",
    "status": "Duplicate Request",
    "rowid": "1073164",
    "final_x": "3678825.38542",
    "final_y": "522752.495293",
    "longitude": "-90.07681937851994",
    "latitude": "29.931468895361153",
    "geocoded_column": {
      "latitude": "29.931468895361153",
      "longitude": "-90.07681937851994"
    }
  },
  {
    "service_request": "2024-1073163",
    "request_type": "Traffic Signals/Signs/Striping/Streetlights",
    "request_reason": "Traffic Signal Malfunctioning/Damaged",
    "date_created": "2024-03-06T15:59:51.000",
    "date_modified": "2024-03-06T15:59:52.000",
    "request_status": "Pending",
    "responsible_agency": "Department of Public Works",
    "final_address": "N BROAD ST & BAYOU RD",
    "address_councildis": "D",
    "status": "Pending",
    "rowid": "1073163",
    "final_x": "3678555.4",
    "final_y": "539480.98",
    "longitude": "-90.07709271046242",
    "latitude": "29.977474740332134",
    "geocoded_column": {
      "latitude": "29.977474740332134",
      "longitude": "-90.07709271046242"
    }
  },
  {
    "service_request": "2024-1073162",
    "request_type": "Property Maintenance",
    "request_reason": "Property Maintenance",
    "date_created": "2024-03-06T15:59:43.000",
    "date_modified": "2024-03-06T15:59:43.000",
    "request_status": "Pending",
    "responsible_agency": "Department of Code Enforcement",
    "final_address": "22 Charlotte Dr",
    "address_councildis": "D",
    "status": "Pending",
    "rowid": "1073162",
    "final_x": "3680034.85135",
    "final_y": "551720.595221",
    "longitude": "-90.07199457478698",
    "latitude": "30.011084674726764",
    "geocoded_column": {
      "latitude": "30.011084674726764",
      "longitude": "-90.07199457478698"
    }
  },
  {
    "service_request": "2024-1073161",
    "request_type": "Trash/Recycling",
    "request_reason": "MIssed Recycling Pick-Up",
    "date_created": "2024-03-06T15:58:23.000",
    "date_modified": "2024-03-06T17:11:06.000",
    "case_close_date": "2024-03-06T11:11:06.000",
    "request_status": "Closed",
    "responsible_agency": "Department of Sanitation",
    "final_address": "4951 Robin Hood Dr",
    "address_councildis": "E",
    "status": "Invalid Request",
    "contractor": "Waste Pro",
    "contractor_action": "Invalid Request",
    "rowid": "1073161",
    "final_x": "3717467.8908",
    "final_y": "558023.229019",
    "longitude": "-89.9534902665117",
    "latitude": "30.02722828197267",
    "geocoded_column": {
      "latitude": "30.02722828197267",
      "longitude": "-89.9534902665117"
    }
  },
  {
    "service_request": "2024-1073160",
    "request_type": "Roads/Drainage",
    "request_reason": "Pothole",
    "date_created": "2024-03-06T15:50:27.000",
    "date_modified": "2024-03-06T15:50:27.000",
    "request_status": "Pending",
    "responsible_agency": "Department of Public Works",
    "final_address": "3116 Jackson Ave, New Orleans, Louisiana, 70125",
    "address_councildis": "B",
    "status": "Pending",
    "rowid": "1073160",
    "final_x": "3674012.74139",
    "final_y": "528335.15008",
    "longitude": "-90.09182138826537",
    "latitude": "29.946963607909375",
    "geocoded_column": {
      "latitude": "29.946963607909375",
      "longitude": "-90.09182138826537"
    }
  },
  {
    "service_request": "2024-1073159",
    "request_type": "Trash/Recycling",
    "request_reason": "Replace Recycling Cart",
    "date_created": "2024-03-06T15:38:40.000",
    "date_modified": "2024-03-06T15:38:40.000",
    "request_status": "Pending",
    "responsible_agency": "Department of Sanitation",
    "final_address": "1722 Cambronne St",
    "address_councildis": "A",
    "status": "Pending",
    "rowid": "1073159",
    "final_x": "3662443.52173",
    "final_y": "530572.542466",
    "longitude": "-90.12827558285605",
    "latitude": "29.95345532301672",
    "geocoded_column": {
      "latitude": "29.95345532301672",
      "longitude": "-90.12827558285605"
    }
  },
  {
    "service_request": "2024-1073158",
    "request_type": "Trash/Recycling",
    "request_reason": "Replace Trash Cart",
    "date_created": "2024-03-06T15:35:18.000",
    "date_modified": "2024-03-06T15:35:19.000",
    "request_status": "Pending",
    "responsible_agency": "Department of Sanitation",
    "final_address": "428 Thayer St",
    "address_councildis": "C",
    "status": "Assigned to Contractor",
    "contractor": "Richards Disposal",
    "rowid": "1073158",
    "final_x": "3689590.66556",
    "final_y": "530006.475265",
    "longitude": "-90.04257682999845",
    "latitude": "29.95108588009921",
    "geocoded_column": {
      "latitude": "29.95108588009921",
      "longitude": "-90.04257682999845"
    }
  },
  {
    "service_request": "2024-1073157",
    "request_type": "Roads/Drainage",
    "request_reason": "Pothole",
    "date_created": "2024-03-06T15:35:05.000",
    "date_modified": "2024-03-06T15:35:05.000",
    "request_status": "Pending",
    "responsible_agency": "Department of Public Works",
    "final_address": "1301 Constantinople St",
    "address_councildis": "B",
    "status": "Pending",
    "rowid": "1073157",
    "final_x": "3672430.66305",
    "final_y": "520250.7726",
    "longitude": "-90.09709199725775",
    "latitude": "29.924781230435865",
    "geocoded_column": {
      "latitude": "29.924781230435865",
      "longitude": "-90.09709199725775"
    }
  },
  {
    "service_request": "2024-1073156",
    "request_type": "Traffic Signals/Signs/Striping/Streetlights",
    "request_reason": "Traffic Signal Malfunctioning/Damaged",
    "date_created": "2024-03-06T15:33:03.000",
    "date_modified": "2024-03-06T15:33:03.000",
    "request_status": "Pending",
    "responsible_agency": "Department of Public Works",
    "final_address": "BULLARD AVE & BULLARD EXIT & I 10 W ONRAMP",
    "address_councildis": "E",
    "status": "Pending",
    "rowid": "1073156",
    "final_x": "3714872.6",
    "final_y": "565087.18",
    "longitude": "-89.96142380947254",
    "latitude": "30.04673698409094",
    "geocoded_column": {
      "latitude": "30.04673698409094",
      "longitude": "-89.96142380947254"
    }
  },
  {
    "service_request": "2024-1073155",
    "request_type": "Safety & Permits",
    "request_reason": "Licenses & Permits",
    "date_created": "2024-03-06T15:29:30.000",
    "date_modified": "2024-03-06T15:29:31.000",
    "request_status": "Pending",
    "responsible_agency": "Safety and Permits",
    "final_address": "ESPLANADE AVE & N JOHNSON ST",
    "address_councildis": "D",
    "status": "Pending",
    "rowid": "1073155",
    "final_x": "3680159.2",
    "final_y": "537468.48",
    "longitude": "-90.07209733608087",
    "latitude": "29.97189261527131",
    "geocoded_column": {
      "latitude": "29.97189261527131",
      "longitude": "-90.07209733608087"
    }
  },
  {
    "service_request": "2024-1073154",
    "request_type": "Trash/Recycling",
    "request_reason": "Repair Trash Cart",
    "date_created": "2024-03-06T15:26:41.000",
    "date_modified": "2024-03-06T15:26:42.000",
    "request_status": "Pending",
    "responsible_agency": "Department of Sanitation",
    "final_address": "921 Pleasant St",
    "address_councildis": "B",
    "status": "Assigned to Contractor",
    "contractor": "Richards Disposal",
    "rowid": "1073154",
    "final_x": "3675830.36584",
    "final_y": "519383.921911",
    "longitude": "-90.08639003009367",
    "latitude": "29.92229637692488",
    "geocoded_column": {
      "latitude": "29.92229637692488",
      "longitude": "-90.08639003009367"
    }
  },
  {
    "service_request": "2024-1073153",
    "request_type": "Trash/Recycling",
    "request_reason": "Request a Large Item Pick Up",
    "date_created": "2024-03-06T15:25:53.000",
    "date_modified": "2024-03-06T15:25:53.000",
    "request_status": "Pending",
    "responsible_agency": "Department of Sanitation",
    "final_address": "1036 Audubon St, New Orleans, Louisiana, 70118",
    "address_councildis": "A",
    "status": "Assigned to Contractor",
    "contractor": "Richards Disposal",
    "rowid": "1073153",
    "final_x": "3664132.56218",
    "final_y": "525975.233533",
    "longitude": "-90.12309560847775",
    "latitude": "29.940765251033618",
    "geocoded_column": {
      "latitude": "29.940765251033618",
      "longitude": "-90.12309560847775"
    }
  },
  {
    "service_request": "2024-1073152",
    "request_type": "Trash/Recycling",
    "request_reason": "Replace Trash Cart",
    "date_created": "2024-03-06T15:25:11.000",
    "date_modified": "2024-03-06T15:25:12.000",
    "request_status": "Pending",
    "responsible_agency": "Department of Sanitation",
    "final_address": "1442 Henriette Delille St A",
    "address_councildis": "C",
    "status": "Assigned to Contractor",
    "contractor": "IV Waste",
    "rowid": "1073152",
    "final_x": "3682875.54709",
    "final_y": "535862.059271",
    "longitude": "-90.06357491001961",
    "latitude": "29.9673930219406",
    "geocoded_column": {
      "latitude": "29.9673930219406",
      "longitude": "-90.06357491001961"
    }
  },
  {
    "service_request": "2024-1073151",
    "request_type": "Safety & Permits",
    "request_reason": "Construction permit",
    "date_created": "2024-03-06T15:24:46.000",
    "date_modified": "2024-03-06T15:24:46.000",
    "request_status": "Pending",
    "responsible_agency": "Department of Code Enforcement",
    "final_address": "4417 Constance St",
    "address_councildis": "B",
    "status": "Pending",
    "rowid": "1073151",
    "final_x": "3670887.57595",
    "final_y": "518437.663542",
    "longitude": "-90.10202452660668",
    "latitude": "29.919841444450295",
    "geocoded_column": {
      "latitude": "29.919841444450295",
      "longitude": "-90.10202452660668"
    }
  },
  {
    "service_request": "2024-1073150",
    "request_type": "Abandoned Vehicles",
    "request_reason": "Abandoned/Junk Vehicles",
    "date_created": "2024-03-06T15:18:52.000",
    "date_modified": "2024-03-06T15:18:52.000",
    "request_status": "Pending",
    "responsible_agency": "Department of Public Works",
    "final_address": "7924 Breakwater Dr",
    "address_councildis": "A",
    "status": "Pending",
    "rowid": "1073150",
    "final_x": "3665233.71303",
    "final_y": "557807.351771",
    "longitude": "-90.11855360759287",
    "latitude": "30.028260807991423",
    "geocoded_column": {
      "latitude": "30.028260807991423",
      "longitude": "-90.11855360759287"
    }
  },
  {
    "service_request": "2024-1073149",
    "request_type": "Abandoned Vehicles",
    "request_reason": "Vehicle Blocking Your Driveway",
    "date_created": "2024-03-06T15:17:02.000",
    "date_modified": "2024-03-06T15:17:02.000",
    "request_status": "Pending",
    "responsible_agency": "Department of Public Works",
    "final_address": "2200 BLK Annette St",
    "address_councildis": "D",
    "status": "Pending",
    "rowid": "1073149",
    "final_x": "3682807.75935",
    "final_y": "540391.491511",
    "longitude": "-90.06363048214486",
    "latitude": "29.979849453004945",
    "geocoded_column": {
      "latitude": "29.979849453004945",
      "longitude": "-90.06363048214486"
    }
  },
  {
    "service_request": "2024-1073148",
    "request_type": "Trash/Recycling",
    "request_reason": "Order Trash Cart",
    "date_created": "2024-03-06T15:15:59.000",
    "date_modified": "2024-03-06T15:15:59.000",
    "request_status": "Pending",
    "responsible_agency": "Department of Sanitation",
    "final_address": "6014 El Dorado St",
    "address_councildis": "E",
    "status": "Assigned to Contractor",
    "contractor": "Waste Pro",
    "rowid": "1073148",
    "final_x": "3699223.56176",
    "final_y": "533141.120004",
    "longitude": "-90.01204701444229",
    "latitude": "29.959403157111755",
    "geocoded_column": {
      "latitude": "29.959403157111755",
      "longitude": "-90.01204701444229"
    }
  },
  {
    "service_request": "2024-1073147",
    "request_type": "Abandoned Vehicles",
    "request_reason": "Abandoned/Junk Vehicles",
    "date_created": "2024-03-06T15:15:34.000",
    "date_modified": "2024-03-06T15:15:35.000",
    "request_status": "Pending",
    "responsible_agency": "Department of Public Works",
    "final_address": "2200 BLK Annette St",
    "address_councildis": "D",
    "status": "Pending",
    "rowid": "1073147",
    "final_x": "3682807.75935",
    "final_y": "540391.491511",
    "longitude": "-90.06363048214486",
    "latitude": "29.979849453004945",
    "geocoded_column": {
      "latitude": "29.979849453004945",
      "longitude": "-90.06363048214486"
    }
  },
  {
    "service_request": "2024-1073146",
    "request_type": "Abandoned Vehicles",
    "request_reason": "Abandoned/Junk Vehicles",
    "date_created": "2024-03-06T15:14:32.000",
    "date_modified": "2024-03-06T15:14:32.000",
    "request_status": "Pending",
    "responsible_agency": "Department of Public Works",
    "final_address": "2200 BLK Annette St",
    "address_councildis": "D",
    "status": "Pending",
    "rowid": "1073146",
    "final_x": "3682807.75935",
    "final_y": "540391.491511",
    "longitude": "-90.06363048214486",
    "latitude": "29.979849453004945",
    "geocoded_column": {
      "latitude": "29.979849453004945",
      "longitude": "-90.06363048214486"
    }
  },
  {
    "service_request": "2024-1073145",
    "request_type": "Roads/Drainage",
    "request_reason": "Pothole",
    "date_created": "2024-03-06T15:13:28.000",
    "date_modified": "2024-03-06T15:13:28.000",
    "request_status": "Pending",
    "responsible_agency": "Department of Public Works",
    "final_address": "1312 Milan St",
    "address_councildis": "B",
    "status": "Pending",
    "rowid": "1073145",
    "final_x": "3671625.82823",
    "final_y": "520286.919608",
    "longitude": "-90.09963137110304",
    "latitude": "29.92490447494246",
    "geocoded_column": {
      "latitude": "29.92490447494246",
      "longitude": "-90.09963137110304"
    }
  },
  {
    "service_request": "2024-1073144",
    "request_type": "Trash/Recycling",
    "request_reason": "Return Recycling Cart",
    "date_created": "2024-03-06T15:12:07.000",
    "date_modified": "2024-03-06T15:12:08.000",
    "request_status": "Pending",
    "responsible_agency": "Department of Sanitation",
    "final_address": "4432 St Charles Ave",
    "address_councildis": "B",
    "status": "Pending",
    "rowid": "1073144",
    "final_x": "3670552.09966",
    "final_y": "520707.283321",
    "longitude": "-90.10300654114516",
    "latitude": "29.926092085341498",
    "geocoded_column": {
      "latitude": "29.926092085341498",
      "longitude": "-90.10300654114516"
    }
  },
  {
    "service_request": "2024-1073143",
    "request_type": "Roads/Drainage",
    "request_reason": "Catch Basin - Clogged",
    "date_created": "2024-03-06T15:09:59.000",
    "date_modified": "2024-03-06T15:10:00.000",
    "request_status": "Pending",
    "responsible_agency": "Department of Public Works",
    "final_address": "CAMP ST & WALNUT ST",
    "address_councildis": "A",
    "status": "Pending",
    "rowid": "1073143",
    "final_x": "3661381.6",
    "final_y": "521289.98",
    "longitude": "-90.13193601428665",
    "latitude": "29.92796188562222",
    "geocoded_column": {
      "latitude": "29.92796188562222",
      "longitude": "-90.13193601428665"
    }
  },
  {
    "service_request": "2024-1073142",
    "request_type": "Trash/Recycling",
    "request_reason": "Order Trash Cart",
    "date_created": "2024-03-06T15:09:43.000",
    "date_modified": "2024-03-06T15:09:44.000",
    "request_status": "Pending",
    "responsible_agency": "Department of Sanitation",
    "final_address": "1911 Laurel St",
    "address_councildis": "B",
    "status": "Assigned to Contractor",
    "contractor": "Richards Disposal",
    "rowid": "1073142",
    "final_x": "3680183.99355",
    "final_y": "522246.727418",
    "longitude": "-90.07254798530987",
    "latitude": "29.930037164565793",
    "geocoded_column": {
      "latitude": "29.930037164565793",
      "longitude": "-90.07254798530987"
    }
  },
  {
    "service_request": "2024-1073141",
    "request_type": "Trash/Recycling",
    "request_reason": "Replace Recycling Cart",
    "date_created": "2024-03-06T15:09:11.000",
    "date_modified": "2024-03-06T15:09:11.000",
    "request_status": "Pending",
    "responsible_agency": "Department of Sanitation",
    "final_address": "4620 S Prieur St",
    "address_councildis": "B",
    "status": "Pending",
    "rowid": "1073141",
    "final_x": "3669325.15162",
    "final_y": "526770.784254",
    "longitude": "-90.10667476382119",
    "latitude": "29.94280093299942",
    "geocoded_column": {
      "latitude": "29.94280093299942",
      "longitude": "-90.10667476382119"
    }
  },
  {
    "service_request": "2024-1073140",
    "request_type": "Trash/Recycling",
    "request_reason": "Illegal Dumping",
    "date_created": "2024-03-06T14:53:02.000",
    "date_modified": "2024-03-06T14:53:02.000",
    "request_status": "Pending",
    "responsible_agency": "Department of Sanitation",
    "final_address": "1920 Onzaga St",
    "address_councildis": "D",
    "status": "Pending",
    "rowid": "1073140",
    "final_x": "3681369.943",
    "final_y": "538761.029193",
    "longitude": "-90.06822855038578",
    "latitude": "29.975409978730752",
    "geocoded_column": {
      "latitude": "29.975409978730752",
      "longitude": "-90.06822855038578"
    }
  },
  {
    "service_request": "2024-1073139",
    "request_type": "Roads/Drainage",
    "request_reason": "Catch Basin - Broken/Damage",
    "date_created": "2024-03-06T14:51:29.000",
    "date_modified": "2024-03-06T14:54:25.000",
    "request_status": "Pending",
    "responsible_agency": "Department of Public Works",
    "final_address": "400 Park Blvd",
    "address_councildis": "C",
    "status": "Pending",
    "rowid": "1073139",
    "final_x": "3686756.6973",
    "final_y": "525872.186045",
    "longitude": "-90.05167107896489",
    "latitude": "29.939805464748478",
    "geocoded_column": {
      "latitude": "29.939805464748478",
      "longitude": "-90.05167107896489"
    }
  },
  {
    "service_request": "2024-1073138",
    "request_type": "Traffic Signals/Signs/Striping/Streetlights",
    "request_reason": "Street Light Outage/Malfunction",
    "date_created": "2024-03-06T14:51:18.000",
    "date_modified": "2024-03-06T14:51:18.000",
    "request_status": "Pending",
    "responsible_agency": "Department of Public Works",
    "final_address": "1471 Gardena Dr",
    "address_councildis": "D",
    "status": "Assigned to Contractor",
    "contractor": "Legacy Professional Services",
    "rowid": "1073138",
    "final_x": "3678141.82978",
    "final_y": "551562.035029",
    "longitude": "-90.07798087699167",
    "latitude": "30.01070585319399",
    "geocoded_column": {
      "latitude": "30.01070585319399",
      "longitude": "-90.07798087699167"
    }
  },
  {
    "service_request": "2024-1073137",
    "request_type": "Trash/Recycling",
    "request_reason": "Repair Trash Cart",
    "date_created": "2024-03-06T14:50:59.000",
    "date_modified": "2024-03-06T14:51:00.000",
    "request_status": "Pending",
    "responsible_agency": "Department of Sanitation",
    "final_address": "2717 Audubon St",
    "address_councildis": "B",
    "status": "Assigned to Contractor",
    "contractor": "Richards Disposal",
    "rowid": "1073137",
    "final_x": "3667324.90349",
    "final_y": "530781.56813",
    "longitude": "-90.11285516748141",
    "latitude": "29.953888014174765",
    "geocoded_column": {
      "latitude": "29.953888014174765",
      "longitude": "-90.11285516748141"
    }
  },
  {
    "service_request": "2024-1073135",
    "request_type": "Trash/Recycling",
    "request_reason": "Replace Trash Cart",
    "date_created": "2024-03-06T14:49:19.000",
    "date_modified": "2024-03-06T14:49:20.000",
    "request_status": "Pending",
    "responsible_agency": "Department of Sanitation",
    "final_address": "9508 Hayne Blvd",
    "address_councildis": "E",
    "status": "Assigned to Contractor",
    "contractor": "Waste Pro",
    "rowid": "1073135",
    "final_x": "3705994.33764",
    "final_y": "564910.12765",
    "longitude": "-89.9894901474133",
    "latitude": "30.046539453149737",
    "geocoded_column": {
      "latitude": "30.046539453149737",
      "longitude": "-89.9894901474133"
    }
  },
  {
    "service_request": "2024-1073134",
    "request_type": "Traffic Signals/Signs/Striping/Streetlights",
    "request_reason": "Street Light Outage/Malfunction",
    "date_created": "2024-03-06T14:48:47.000",
    "date_modified": "2024-03-06T14:48:48.000",
    "request_status": "Pending",
    "responsible_agency": "Department of Public Works",
    "final_address": "3342 Blair St",
    "address_councildis": "C",
    "status": "Assigned to Contractor",
    "contractor": "Legacy Professional Services",
    "rowid": "1073134",
    "final_x": "3709463.97272",
    "final_y": "518318.787894",
    "longitude": "-89.9802632249701",
    "latitude": "29.918318373152776",
    "geocoded_column": {
      "latitude": "29.918318373152776",
      "longitude": "-89.9802632249701"
    }
  },
  {
    "service_request": "2024-1073133",
    "request_type": "Trash/Recycling",
    "request_reason": "Repair Trash Cart",
    "date_created": "2024-03-06T14:42:39.000",
    "date_modified": "2024-03-06T14:42:40.000",
    "request_status": "Pending",
    "responsible_agency": "Department of Sanitation",
    "final_address": "4736 Rosalia Dr",
    "address_councildis": "E",
    "status": "Assigned to Contractor",
    "contractor": "Waste Pro",
    "rowid": "1073133",
    "final_x": "3711139.85022",
    "final_y": "555774.206745",
    "longitude": "-89.97357044680908",
    "latitude": "30.021252367723918",
    "geocoded_column": {
      "latitude": "30.021252367723918",
      "longitude": "-89.97357044680908"
    }
  },
  {
    "service_request": "2024-1073132",
    "request_type": "Trash/Recycling",
    "request_reason": "Request a Large Item Pick Up",
    "date_created": "2024-03-06T14:40:08.000",
    "date_modified": "2024-03-06T14:40:09.000",
    "request_status": "Pending",
    "responsible_agency": "Department of Sanitation",
    "final_address": "5973 N Johnson St",
    "address_councildis": "E",
    "status": "Assigned to Contractor",
    "contractor": "Waste Pro",
    "rowid": "1073132",
    "final_x": "3700422.09072",
    "final_y": "536702.696839",
    "longitude": "-90.00813229795062",
    "latitude": "29.969158160092555",
    "geocoded_column": {
      "latitude": "29.969158160092555",
      "longitude": "-90.00813229795062"
    }
  },
  {
    "service_request": "2024-1073131",
    "request_type": "Trash/Recycling",
    "request_reason": "Request a Large Item Pick Up",
    "date_created": "2024-03-06T14:37:13.000",
    "date_modified": "2024-03-06T14:37:14.000",
    "request_status": "Pending",
    "responsible_agency": "Department of Sanitation",
    "final_address": "4529 Stemway Dr",
    "address_councildis": "D",
    "status": "Assigned to Contractor",
    "contractor": "Waste Pro",
    "rowid": "1073131",
    "final_x": "3697089.32227",
    "final_y": "553118.695319",
    "longitude": "-90.01806227675704",
    "latitude": "30.014401695352166",
    "geocoded_column": {
      "latitude": "30.014401695352166",
      "longitude": "-90.01806227675704"
    }
  },
  {
    "service_request": "2024-1073130",
    "request_type": "Trash/Recycling",
    "request_reason": "Request a Large Item Pick Up",
    "date_created": "2024-03-06T14:37:08.000",
    "date_modified": "2024-03-06T14:37:09.000",
    "request_status": "Pending",
    "responsible_agency": "Department of Sanitation",
    "final_address": "42 E Blue Ridge Ct",
    "address_councildis": "E",
    "status": "Assigned to Contractor",
    "contractor": "Waste Pro",
    "rowid": "1073130",
    "final_x": "3714272.46539",
    "final_y": "567528.109604",
    "longitude": "-89.96322828648064",
    "latitude": "30.053468288686403",
    "geocoded_column": {
      "latitude": "30.053468288686403",
      "longitude": "-89.96322828648064"
    }
  },
  {
    "service_request": "2024-1073129",
    "request_type": "Traffic Signals/Signs/Striping/Streetlights",
    "request_reason": "Traffic Sign Missing/Damaged",
    "date_created": "2024-03-06T14:33:56.000",
    "date_modified": "2024-03-06T14:34:56.000",
    "request_status": "Pending",
    "responsible_agency": "Department of Public Works",
    "final_address": "TREASURE ST & TOURO ST",
    "address_councildis": "D",
    "status": "Pending",
    "rowid": "1073129",
    "final_x": "3683612.9",
    "final_y": "543983.28",
    "longitude": "-90.06096155021335",
    "latitude": "29.98970104922129",
    "geocoded_column": {
      "latitude": "29.98970104922129",
      "longitude": "-90.06096155021335"
    }
  },
  {
    "service_request": "2024-1073128",
    "request_type": "Trash/Recycling",
    "request_reason": "Repair Recycling Cart",
    "date_created": "2024-03-06T14:33:28.000",
    "date_modified": "2024-03-06T14:33:28.000",
    "request_status": "Pending",
    "responsible_agency": "Department of Sanitation",
    "final_address": "5324 Pitt St",
    "address_councildis": "B",
    "status": "Pending",
    "rowid": "1073128",
    "final_x": "3667498.25857",
    "final_y": "520439.124024",
    "longitude": "-90.1126556828187",
    "latitude": "29.92544454110643",
    "geocoded_column": {
      "latitude": "29.92544454110643",
      "longitude": "-90.1126556828187"
    }
  },
  {
    "service_request": "2024-1073127",
    "request_type": "Trash/Recycling",
    "request_reason": "Request a Large Item Pick Up",
    "date_created": "2024-03-06T14:32:43.000",
    "date_modified": "2024-03-06T14:32:44.000",
    "request_status": "Pending",
    "responsible_agency": "Department of Sanitation",
    "final_address": "3112 Annunciation St",
    "address_councildis": "B",
    "status": "Assigned to Contractor",
    "contractor": "Richards Disposal",
    "rowid": "1073127",
    "final_x": "3676638.79003",
    "final_y": "519180.149175",
    "longitude": "-90.08384517867948",
    "latitude": "29.921711852483455",
    "geocoded_column": {
      "latitude": "29.921711852483455",
      "longitude": "-90.08384517867948"
    }
  },
  {
    "service_request": "2024-1073126",
    "request_type": "Roads/Drainage",
    "request_reason": "Catch Basin - Clogged",
    "date_created": "2024-03-06T14:32:28.000",
    "date_modified": "2024-03-06T14:32:29.000",
    "request_status": "Pending",
    "responsible_agency": "Department of Public Works",
    "final_address": "3401 Gentilly Blvd",
    "address_councildis": "D",
    "status": "Pending",
    "rowid": "1073126",
    "final_x": "3684913.40297",
    "final_y": "548498.127506",
    "longitude": "-90.05669473876532",
    "latitude": "30.002075490897855",
    "geocoded_column": {
      "latitude": "30.002075490897855",
      "longitude": "-90.05669473876532"
    }
  },
  {
    "service_request": "2024-1073125",
    "request_type": "Trash/Recycling",
    "request_reason": "Repair Trash Cart",
    "date_created": "2024-03-06T14:29:48.000",
    "date_modified": "2024-03-06T14:29:48.000",
    "request_status": "Pending",
    "responsible_agency": "Department of Sanitation",
    "final_address": "2512 Chestnut St",
    "address_councildis": "B",
    "status": "Assigned to Contractor",
    "contractor": "Richards Disposal",
    "rowid": "1073125",
    "final_x": "3677338.87822",
    "final_y": "521826.622906",
    "longitude": "-90.08154403708662",
    "latitude": "29.928967786609906",
    "geocoded_column": {
      "latitude": "29.928967786609906",
      "longitude": "-90.08154403708662"
    }
  },
  {
    "service_request": "2024-1073124",
    "request_type": "Roads/Drainage",
    "request_reason": "Catch Basin - Clogged",
    "date_created": "2024-03-06T14:28:28.000",
    "date_modified": "2024-03-06T14:28:28.000",
    "request_status": "Pending",
    "responsible_agency": "Department of Public Works",
    "final_address": "5801 Chamberlain Dr",
    "address_councildis": "D",
    "status": "Pending",
    "rowid": "1073124",
    "final_x": "3679434.89647",
    "final_y": "553878.261527",
    "longitude": "-90.07381513964442",
    "latitude": "30.017035623392555",
    "geocoded_column": {
      "latitude": "30.017035623392555",
      "longitude": "-90.07381513964442"
    }
  },
  {
    "service_request": "2024-1073123",
    "request_type": "Trash/Recycling",
    "request_reason": "Replace Trash Cart",
    "date_created": "2024-03-06T14:25:52.000",
    "date_modified": "2024-03-06T14:25:53.000",
    "request_status": "Pending",
    "responsible_agency": "Department of Sanitation",
    "final_address": "7933 Willow St",
    "address_councildis": "A",
    "status": "Assigned to Contractor",
    "contractor": "Richards Disposal",
    "rowid": "1073123",
    "final_x": "3662857.33319",
    "final_y": "528587.099456",
    "longitude": "-90.12703493542794",
    "latitude": "29.947984021129823",
    "geocoded_column": {
      "latitude": "29.947984021129823",
      "longitude": "-90.12703493542794"
    }
  },
  {
    "service_request": "2024-1073122",
    "request_type": "Trash/Recycling",
    "request_reason": "Request a Large Item Pick Up",
    "date_created": "2024-03-06T14:24:25.000",
    "date_modified": "2024-03-06T14:24:26.000",
    "request_status": "Pending",
    "responsible_agency": "Department of Sanitation",
    "final_address": "5301 Zeno Pl",
    "address_councildis": "E",
    "status": "Assigned to Contractor",
    "contractor": "Waste Pro",
    "rowid": "1073122",
    "final_x": "3718479.46239",
    "final_y": "561412.100254",
    "longitude": "-89.95016456555308",
    "latitude": "30.036512777975023",
    "geocoded_column": {
      "latitude": "30.036512777975023",
      "longitude": "-89.95016456555308"
    }
  },
  {
    "service_request": "2024-1073121",
    "request_type": "Roads/Drainage",
    "request_reason": "Pothole",
    "date_created": "2024-03-06T14:23:38.000",
    "date_modified": "2024-03-06T14:23:38.000",
    "request_status": "Pending",
    "responsible_agency": "Department of Public Works",
    "final_address": "1627 N Robertson St",
    "address_councildis": "C",
    "status": "Reviewed",
    "rowid": "1073121",
    "final_x": "3682568.63157",
    "final_y": "537659.582536",
    "longitude": "-90.06448129309173",
    "latitude": "29.9723449379526",
    "geocoded_column": {
      "latitude": "29.9723449379526",
      "longitude": "-90.06448129309173"
    }
  },
  {
    "service_request": "2024-1073120",
    "request_type": "Roads/Drainage",
    "request_reason": "Catch Basin - Clogged",
    "date_created": "2024-03-06T14:23:38.000",
    "date_modified": "2024-03-06T14:23:38.000",
    "request_status": "Pending",
    "responsible_agency": "Department of Public Works",
    "final_address": "441 Audubon St, New Orleans, Louisiana, 70118",
    "address_councildis": "A",
    "status": "Pending",
    "rowid": "1073120",
    "final_x": "3662365.72871",
    "final_y": "523172.159099",
    "longitude": "-90.1287668705638",
    "latitude": "29.93310887776141",
    "geocoded_column": {
      "latitude": "29.93310887776141",
      "longitude": "-90.1287668705638"
    }
  },
  {
    "service_request": "2024-1073118",
    "request_type": "Parks & Parkways",
    "request_reason": "Request Tree Service (Right of Way/Public Property)",
    "date_created": "2024-03-06T14:16:45.000",
    "date_modified": "2024-03-06T14:16:45.000",
    "request_status": "Pending",
    "responsible_agency": "Department of Parks & Parkway",
    "final_address": "7426 Dartmoor Dr",
    "address_councildis": "E",
    "status": "Pending",
    "rowid": "1073118",
    "final_x": "3704858.07351",
    "final_y": "562045.492191",
    "longitude": "-89.99318719792855",
    "latitude": "30.038699432305062",
    "geocoded_column": {
      "latitude": "30.038699432305062",
      "longitude": "-89.99318719792855"
    }
  },
  {
    "service_request": "2024-1073117",
    "request_type": "Trash/Recycling",
    "request_reason": "Replace Trash Cart",
    "date_created": "2024-03-06T14:08:38.000",
    "date_modified": "2024-03-06T14:08:39.000",
    "request_status": "Pending",
    "responsible_agency": "Department of Sanitation",
    "final_address": "6103 Franklin Ave",
    "address_councildis": "D",
    "status": "Assigned to Contractor",
    "contractor": "IV Waste",
    "rowid": "1073117",
    "final_x": "3686473.08604",
    "final_y": "555604.545625",
    "longitude": "-90.05151639151265",
    "latitude": "30.021567665037995",
    "geocoded_column": {
      "latitude": "30.021567665037995",
      "longitude": "-90.05151639151265"
    }
  },
  {
    "service_request": "2024-1073116",
    "request_type": "Trash/Recycling",
    "request_reason": "Repair Trash Cart",
    "date_created": "2024-03-06T14:06:09.000",
    "date_modified": "2024-03-06T14:06:09.000",
    "request_status": "Pending",
    "responsible_agency": "Department of Sanitation",
    "final_address": "4835 Warren Dr",
    "address_councildis": "E",
    "status": "Assigned to Contractor",
    "contractor": "Waste Pro",
    "rowid": "1073116",
    "final_x": "3713482.75851",
    "final_y": "556746.208154",
    "longitude": "-89.96613094270569",
    "latitude": "30.02384833169042",
    "geocoded_column": {
      "latitude": "30.02384833169042",
      "longitude": "-89.96613094270569"
    }
  },
  {
    "service_request": "2024-1073115",
    "request_type": "Trash/Recycling",
    "request_reason": "Order Trash Cart",
    "date_created": "2024-03-06T14:04:35.000",
    "date_modified": "2024-03-06T18:00:26.000",
    "case_close_date": "2024-03-06T12:00:26.000",
    "request_status": "Closed",
    "responsible_agency": "Department of Sanitation",
    "final_address": "6414 Urville St",
    "address_councildis": "E",
    "status": "Duplicate Request",
    "contractor": "Waste Pro",
    "contractor_action": "Duplicate",
    "rowid": "1073115",
    "final_x": "3700945.11345",
    "final_y": "533802.494789",
    "longitude": "-90.0065866161437",
    "latitude": "29.96116700425978",
    "geocoded_column": {
      "latitude": "29.96116700425978",
      "longitude": "-90.0065866161437"
    }
  },
  {
    "service_request": "2024-1073114",
    "request_type": "Trash/Recycling",
    "request_reason": "Request a Large Item Pick Up",
    "date_created": "2024-03-06T14:04:22.000",
    "date_modified": "2024-03-06T14:04:23.000",
    "request_status": "Pending",
    "responsible_agency": "Department of Sanitation",
    "final_address": "2508 N Roman St",
    "address_councildis": "D",
    "status": "Assigned to Contractor",
    "contractor": "IV Waste",
    "rowid": "1073114",
    "final_x": "3687098.71286",
    "final_y": "539025.036874",
    "longitude": "-90.05012625354199",
    "latitude": "29.975960746494525",
    "geocoded_column": {
      "latitude": "29.975960746494525",
      "longitude": "-90.05012625354199"
    }
  },
  {
    "service_request": "2024-1073113",
    "request_type": "Abandoned Vehicles",
    "request_reason": "Abandoned/Junk Vehicles",
    "date_created": "2024-03-06T14:04:20.000",
    "date_modified": "2024-03-06T14:04:20.000",
    "request_status": "Pending",
    "responsible_agency": "Department of Public Works",
    "final_address": "2518 Marais St",
    "address_councildis": "C",
    "status": "Inspected",
    "rowid": "1073113",
    "final_x": "3686989.42402",
    "final_y": "536797.93364",
    "longitude": "-90.05055016290834",
    "latitude": "29.96984035808389",
    "geocoded_column": {
      "latitude": "29.96984035808389",
      "longitude": "-90.05055016290834"
    }
  },
  {
    "service_request": "2024-1073111",
    "request_type": "Trash/Recycling",
    "request_reason": "Order Trash Cart",
    "date_created": "2024-03-06T14:03:38.000",
    "date_modified": "2024-03-06T14:04:24.000",
    "request_status": "Pending",
    "responsible_agency": "Department of Sanitation",
    "final_address": "6412 Urville St",
    "address_councildis": "E",
    "status": "Assigned to Contractor",
    "contractor": "Waste Pro",
    "rowid": "1073111",
    "final_x": "3700958.14999",
    "final_y": "533797.202437",
    "longitude": "-90.00654564289766",
    "latitude": "29.96115203712596",
    "geocoded_column": {
      "latitude": "29.96115203712596",
      "longitude": "-90.00654564289766"
    }
  },
  {
    "service_request": "2024-1073110",
    "request_type": "Trash/Recycling",
    "request_reason": "Replace Trash Cart",
    "date_created": "2024-03-06T14:02:33.000",
    "date_modified": "2024-03-06T14:03:22.000",
    "request_status": "Pending",
    "responsible_agency": "Department of Sanitation",
    "final_address": "904 First St",
    "address_councildis": "B",
    "status": "Assigned to Contractor",
    "contractor": "Richards Disposal",
    "rowid": "1073110",
    "final_x": "3678409.2493",
    "final_y": "520921.505337",
    "longitude": "-90.07819638621608",
    "latitude": "29.926446812053943",
    "geocoded_column": {
      "latitude": "29.926446812053943",
      "longitude": "-90.07819638621608"
    }
  },
  {
    "service_request": "2024-1073109",
    "request_type": "Trash/Recycling",
    "request_reason": "Replace Trash Cart",
    "date_created": "2024-03-06T14:02:02.000",
    "date_modified": "2024-03-06T14:02:03.000",
    "request_status": "Pending",
    "responsible_agency": "Department of Sanitation",
    "final_address": "1125 Casa Calvo St",
    "address_councildis": "C",
    "status": "Assigned to Contractor",
    "contractor": "Richards Disposal",
    "rowid": "1073109",
    "final_x": "3692062.15997",
    "final_y": "527100.299583",
    "longitude": "-90.03487710054839",
    "latitude": "29.943018115226707",
    "geocoded_column": {
      "latitude": "29.943018115226707",
      "longitude": "-90.03487710054839"
    }
  },
  {
    "service_request": "2024-1073108",
    "request_type": "Abandoned Vehicles",
    "request_reason": "Abandoned/Junk Vehicles",
    "date_created": "2024-03-06T13:59:03.000",
    "date_modified": "2024-03-06T14:01:00.000",
    "request_status": "Pending",
    "responsible_agency": "Department of Public Works",
    "final_address": "3904 Cambronne St",
    "address_councildis": "A",
    "status": "Pending",
    "rowid": "1073108",
    "final_x": "3667654.8537",
    "final_y": "536291.588359",
    "longitude": "-90.1116278134324",
    "latitude": "29.969029083869696",
    "geocoded_column": {
      "latitude": "29.969029083869696",
      "longitude": "-90.1116278134324"
    }
  },
  {
    "service_request": "2024-1073107",
    "request_type": "Trash/Recycling",
    "request_reason": "Replace Trash Cart",
    "date_created": "2024-03-06T13:58:40.000",
    "date_modified": "2024-03-06T13:58:41.000",
    "request_status": "Pending",
    "responsible_agency": "Department of Sanitation",
    "final_address": "4938 Maid Marion Dr",
    "address_councildis": "E",
    "status": "Assigned to Contractor",
    "contractor": "Waste Pro",
    "rowid": "1073107",
    "final_x": "3716804.16268",
    "final_y": "557864.244763",
    "longitude": "-89.95559360390517",
    "latitude": "30.026813099106562",
    "geocoded_column": {
      "latitude": "30.026813099106562",
      "longitude": "-89.95559360390517"
    }
  },
  {
    "service_request": "2024-1073106",
    "request_type": "Roads/Drainage",
    "request_reason": "Street Subsidence (Sinking)",
    "date_created": "2024-03-06T13:57:53.000",
    "date_modified": "2024-03-06T13:57:53.000",
    "request_status": "Pending",
    "responsible_agency": "Department of Public Works",
    "final_address": " & BALDWIN ST",
    "address_councildis": "D",
    "status": "Pending",
    "rowid": "1073106",
    "final_x": "3687880.8",
    "final_y": "560035.64",
    "longitude": "-90.04691121641319",
    "latitude": "30.03370814054373",
    "geocoded_column": {
      "latitude": "30.03370814054373",
      "longitude": "-90.04691121641319"
    }
  },
  {
    "service_request": "2024-1073105",
    "request_type": "Property Maintenance",
    "request_reason": "Property Maintenance",
    "date_created": "2024-03-06T13:56:12.000",
    "date_modified": "2024-03-06T14:23:36.000",
    "case_close_date": "2024-03-06T08:23:36.000",
    "request_status": "Closed",
    "responsible_agency": "Department of Code Enforcement",
    "final_address": "4725 Babylon St",
    "address_councildis": "D",
    "status": "Resolved",
    "rowid": "1073105",
    "final_x": "3696700.58243",
    "final_y": "554091.939608",
    "longitude": "-90.01925523106198",
    "latitude": "30.017090014266145",
    "geocoded_column": {
      "latitude": "30.017090014266145",
      "longitude": "-90.01925523106198"
    }
  },
  {
    "service_request": "2024-1073104",
    "request_type": "Roads/Drainage",
    "request_reason": "Pothole",
    "date_created": "2024-03-06T13:54:20.000",
    "date_modified": "2024-03-06T13:54:21.000",
    "request_status": "Pending",
    "responsible_agency": "Department of Public Works",
    "final_address": "5920 Pitt St",
    "address_councildis": "A",
    "status": "Pending",
    "rowid": "1073104",
    "final_x": "3665467.7065",
    "final_y": "521009.245113",
    "longitude": "-90.11904645902852",
    "latitude": "29.9270715185238",
    "geocoded_column": {
      "latitude": "29.9270715185238",
      "longitude": "-90.11904645902852"
    }
  },
  {
    "service_request": "2024-1073103",
    "request_type": "Trash/Recycling",
    "request_reason": "Request a Large Item Pick Up",
    "date_created": "2024-03-06T13:52:30.000",
    "date_modified": "2024-03-06T13:52:30.000",
    "request_status": "Pending",
    "responsible_agency": "Department of Sanitation",
    "final_address": "4836 Shalimar Dr",
    "address_councildis": "D",
    "status": "Assigned to Contractor",
    "contractor": "Waste Pro",
    "rowid": "1073103",
    "final_x": "3697066.28976",
    "final_y": "554750.117592",
    "longitude": "-90.01807588181234",
    "latitude": "30.01888821786228",
    "geocoded_column": {
      "latitude": "30.01888821786228",
      "longitude": "-90.01807588181234"
    }
  },
  {
    "service_request": "2024-1073102",
    "request_type": "Trash/Recycling",
    "request_reason": "Repair Trash Cart",
    "date_created": "2024-03-06T13:52:15.000",
    "date_modified": "2024-03-06T13:52:15.000",
    "request_status": "Pending",
    "responsible_agency": "Department of Sanitation",
    "final_address": "6624 Brunswick Ct",
    "address_councildis": "C",
    "status": "Assigned to Contractor",
    "contractor": "Richards Disposal",
    "rowid": "1073102",
    "final_x": "3708462.84446",
    "final_y": "516969.281461",
    "longitude": "-89.98347340229411",
    "latitude": "29.91464016843024",
    "geocoded_column": {
      "latitude": "29.91464016843024",
      "longitude": "-89.98347340229411"
    }
  },
  {
    "service_request": "2024-1073101",
    "request_type": "Trash/Recycling",
    "request_reason": "Return Trash Cart",
    "date_created": "2024-03-06T13:48:44.000",
    "date_modified": "2024-03-06T13:48:45.000",
    "request_status": "Pending",
    "responsible_agency": "Department of Sanitation",
    "final_address": "4001 Eagle St",
    "address_councildis": "A",
    "status": "Assigned to Contractor",
    "contractor": "Richards Disposal",
    "rowid": "1073101",
    "final_x": "3666876.8946",
    "final_y": "537398.430024",
    "longitude": "-90.11404747494922",
    "latitude": "29.972095314535505",
    "geocoded_column": {
      "latitude": "29.972095314535505",
      "longitude": "-90.11404747494922"
    }
  },