[
  {
    "service_request": "2024-1148739",
    "request_type": "Streetlights",
    "request_reason": "Streetlight Outage/Malfunction",
    "date_created": "2024-11-14T23:39:32.000",
    "date_modified": "2024-11-14T23:39:33.000",
    "request_status": "Pending",
    "responsible_agency": "Department of Public Works",
    "final_address": "CANAL ST & S RAMPART ST",
    "address_councildis": "B",
    "status": "Pending",
    "contractor": "Legacy Professional Services",
    "rowid": "1148739",
    "final_x": "3679972.7",
    "final_y": "531544.98",
    "longitude": "-90.07289211617753",
    "latitude": "29.955610653469453",
    "geocoded_column": {
      "latitude": "29.955610653469453",
      "longitude": "-90.07289211617753"
    }
  },
  {
    "service_request": "2024-1148738",
    "request_type": "Streetlights",
    "request_reason": "Streetlight Outage/Malfunction",
    "date_created": "2024-11-14T23:28:08.000",
    "date_modified": "2024-11-14T23:28:09.000",
    "request_status": "Pending",
    "responsible_agency": "Department of Public Works",
    "final_address": "400 BLK S Broad St",
    "address_councildis": "B",
    "status": "Pending",
    "contractor": "Legacy Professional Services",
    "rowid": "1148738",
    "final_x": "3674389.12199",
    "final_y": "533768.917814",
    "longitude": "-90.09044691905399",
    "latitude": "29.961893442237194",
    "geocoded_column": {
      "latitude": "29.961893442237194",
      "longitude": "-90.09044691905399"
    }
  },
  {
    "service_request": "2024-1148737",
    "request_type": "Trash/Recycling",
    "request_reason": "Request a Large Item Pick Up",
    "date_created": "2024-11-14T23:22:40.000",
    "date_modified": "2024-11-14T23:22:41.000",
    "request_status": "Pending",
    "responsible_agency": "Department of Sanitation",
    "final_address": "11030 Yardley Rd",
    "address_councildis": "E",
    "status": "Assigned to Contractor",
    "contractor": "Waste Pro",
    "rowid": "1148737",
    "final_x": "3712111.88312",
    "final_y": "563772.671713",
    "longitude": "-89.97019846997075",
    "latitude": "30.043213213155543",
    "geocoded_column": {
      "latitude": "30.043213213155543",
      "longitude": "-89.97019846997075"
    }
  },
  {
    "service_request": "2024-1148736",
    "request_type": "Streetlights",
    "request_reason": "Streetlight Outage/Malfunction",
    "date_created": "2024-11-14T22:56:31.000",
    "date_modified": "2024-11-14T22:56:32.000",
    "request_status": "Pending",
    "responsible_agency": "Department of Public Works",
    "final_address": "1200 BLK Montegut St",
    "address_councildis": "C",
    "status": "Pending",
    "contractor": "Legacy Professional Services",
    "rowid": "1148736",
    "final_x": "3688570.78818",
    "final_y": "536677.304058",
    "longitude": "-90.04556036227791",
    "latitude": "29.969459895540222",
    "geocoded_column": {
      "latitude": "29.969459895540222",
      "longitude": "-90.04556036227791"
    }
  },
  {
    "service_request": "2024-1148735",
    "request_type": "Streetlights",
    "request_reason": "Streetlight Outage/Malfunction",
    "date_created": "2024-11-14T22:55:22.000",
    "date_modified": "2024-11-14T22:55:23.000",
    "request_status": "Pending",
    "responsible_agency": "Department of Public Works",
    "final_address": "1200 BLK Montegut St",
    "address_councildis": "C",
    "status": "Pending",
    "contractor": "Legacy Professional Services",
    "rowid": "1148735",
    "final_x": "3688570.78818",
    "final_y": "536677.304058",
    "longitude": "-90.04556036227791",
    "latitude": "29.969459895540222",
    "geocoded_column": {
      "latitude": "29.969459895540222",
      "longitude": "-90.04556036227791"
    }
  },
  {
    "service_request": "2024-1148734",
    "request_type": "Streetlights",
    "request_reason": "Streetlight Outage/Malfunction",
    "date_created": "2024-11-14T22:54:34.000",
    "date_modified": "2024-11-14T22:54:35.000",
    "request_status": "Pending",
    "responsible_agency": "Department of Public Works",
    "final_address": "1200 BLK Montegut St",
    "address_councildis": "C",
    "status": "Pending",
    "contractor": "Legacy Professional Services",
    "rowid": "1148734",
    "final_x": "3688570.78818",
    "final_y": "536677.304058",
    "longitude": "-90.04556036227791",
    "latitude": "29.969459895540222",
    "geocoded_column": {
      "latitude": "29.969459895540222",
      "longitude": "-90.04556036227791"
    }
  },
  {
    "service_request": "2024-1148733",
    "request_type": "Streetlights",
    "request_reason": "Streetlight Outage/Malfunction",
    "date_created": "2024-11-14T22:53:06.000",
    "date_modified": "2024-11-14T22:53:07.000",
    "request_status": "Pending",
    "responsible_agency": "Department of Public Works",
    "final_address": "1200 BLK Montegut St",
    "address_councildis": "C",
    "status": "Pending",
    "contractor": "Legacy Professional Services",
    "rowid": "1148733",
    "final_x": "3688570.78818",
    "final_y": "536677.304058",
    "longitude": "-90.04556036227791",
    "latitude": "29.969459895540222",
    "geocoded_column": {
      "latitude": "29.969459895540222",
      "longitude": "-90.04556036227791"
    }
  },
  {
    "service_request": "2024-1148732",
    "request_type": "Trash/Recycling",
    "request_reason": "Request a Large Item Pick Up",
    "date_created": "2024-11-14T22:34:43.000",
    "date_modified": "2024-11-14T22:34:44.000",
    "request_status": "Pending",
    "responsible_agency": "Department of Sanitation",
    "final_address": "1124 Piety St",
    "address_councildis": "C",
    "status": "Assigned to Contractor",
    "contractor": "IV Waste",
    "rowid": "1148732",
    "final_x": "3689876.98377",
    "final_y": "536078.421255",
    "longitude": "-90.041456626897",
    "latitude": "29.96777274886641",
    "geocoded_column": {
      "latitude": "29.96777274886641",
      "longitude": "-90.041456626897"
    }
  },
  {
    "service_request": "2024-1148731",
    "request_type": "Streetlights",
    "request_reason": "Streetlight Outage/Malfunction",
    "date_created": "2024-11-14T21:41:32.000",
    "date_modified": "2024-11-14T21:41:33.000",
    "request_status": "Pending",
    "responsible_agency": "Department of Public Works",
    "final_address": "6218 Colbert St",
    "address_councildis": "A",
    "status": "Pending",
    "contractor": "Legacy Professional Services",
    "rowid": "1148731",
    "final_x": "3667470.34279",
    "final_y": "548894.282835",
    "longitude": "-90.11178621499643",
    "latitude": "30.003687619172947",
    "geocoded_column": {
      "latitude": "30.003687619172947",
      "longitude": "-90.11178621499643"
    }
  },
  {
    "service_request": "2024-1148730",
    "request_type": "Streetlights",
    "request_reason": "Streetlight Outage/Malfunction",
    "date_created": "2024-11-14T21:36:41.000",
    "date_modified": "2024-11-14T21:36:42.000",
    "request_status": "Pending",
    "responsible_agency": "Department of Public Works",
    "final_address": "521 Baronne St Apt 201",
    "address_councildis": "B",
    "status": "Pending",
    "contractor": "Legacy Professional Services",
    "rowid": "1148730",
    "final_x": "3679843.64431",
    "final_y": "529365.755969",
    "longitude": "-90.07337529328844",
    "latitude": "29.949622423788075",
    "geocoded_column": {
      "latitude": "29.949622423788075",
      "longitude": "-90.07337529328844"
    }
  },
  {
    "service_request": "2024-1148729",
    "request_type": "Trash/Recycling",
    "request_reason": "Request a Large Item Pick Up",
    "date_created": "2024-11-14T21:33:41.000",
    "date_modified": "2024-11-14T21:33:43.000",
    "request_status": "Pending",
    "responsible_agency": "Department of Sanitation",
    "final_address": "7520 Brevard Ave",
    "address_councildis": "E",
    "status": "Assigned to Contractor",
    "contractor": "Waste Pro",
    "rowid": "1148729",
    "final_x": "3706483.06174",
    "final_y": "563141.610464",
    "longitude": "-89.98801116170256",
    "latitude": "30.041660965434193",
    "geocoded_column": {
      "latitude": "30.041660965434193",
      "longitude": "-89.98801116170256"
    }
  },
  {
    "service_request": "2024-1148728",
    "request_type": "Trash/Recycling",
    "request_reason": "Order Recycling Cart",
    "date_created": "2024-11-14T20:50:03.000",
    "date_modified": "2024-11-14T20:50:03.000",
    "request_status": "Pending",
    "responsible_agency": "Department of Sanitation",
    "final_address": "2924 New Orleans St",
    "address_councildis": "D",
    "status": "Pending",
    "rowid": "1148728",
    "final_x": "3681785.9085",
    "final_y": "543316.466318",
    "longitude": "-90.06675578716542",
    "latitude": "29.987923203404154",
    "geocoded_column": {
      "latitude": "29.987923203404154",
      "longitude": "-90.06675578716542"
    }
  },
  {
    "service_request": "2024-1148727",
    "request_type": "Trash/Recycling",
    "request_reason": "Start Trash Service",
    "date_created": "2024-11-14T20:40:59.000",
    "date_modified": "2024-11-14T20:41:00.000",
    "request_status": "Pending",
    "responsible_agency": "Department of Sanitation",
    "final_address": "8226 Burthe St",
    "address_councildis": "A",
    "status": "Assigned to Contractor",
    "contractor": "IV Waste",
    "rowid": "1148727",
    "final_x": "3660813.99373",
    "final_y": "527943.709183",
    "longitude": "-90.13350788665146",
    "latitude": "29.946273894572176",
    "geocoded_column": {
      "latitude": "29.946273894572176",
      "longitude": "-90.13350788665146"
    }
  },
  {
    "service_request": "2024-1148726",
    "request_type": "Streetlights",
    "request_reason": "New Streetlight Request",
    "date_created": "2024-11-14T19:37:21.000",
    "date_modified": "2024-11-14T19:37:22.000",
    "request_status": "Pending",
    "responsible_agency": "Department of Public Works",
    "final_address": "2638 Laharpe St",
    "address_councildis": "D",
    "status": "Pending",
    "contractor": "Legacy Professional Services",
    "rowid": "1148726",
    "final_x": "3678589.83298",
    "final_y": "540042.324299",
    "longitude": "-90.07696452024027",
    "latitude": "29.97901720510457",
    "geocoded_column": {
      "latitude": "29.97901720510457",
      "longitude": "-90.07696452024027"
    }
  },
  {
    "service_request": "2024-1148725",
    "request_type": "Streetlights",
    "request_reason": "New Streetlight Request",
    "date_created": "2024-11-14T19:22:10.000",
    "date_modified": "2024-11-14T19:22:10.000",
    "request_status": "Pending",
    "responsible_agency": "Department of Public Works",
    "final_address": "1605 Frenchmen St",
    "address_councildis": "D",
    "status": "Pending",
    "contractor": "Legacy Professional Services",
    "rowid": "1148725",
    "final_x": "3684463.62197",
    "final_y": "538184.312073",
    "longitude": "-90.05847815719166",
    "latitude": "29.973729925782237",
    "geocoded_column": {
      "latitude": "29.973729925782237",
      "longitude": "-90.05847815719166"
    }
  },
  {
    "service_request": "2024-1148724",
    "request_type": "Trash/Recycling",
    "request_reason": "Missed Trash Pick-Up",
    "date_created": "2024-11-14T19:20:47.000",
    "date_modified": "2024-11-14T19:20:48.000",
    "request_status": "Pending",
    "responsible_agency": "Department of Sanitation",
    "final_address": "2236 Jefferson Ave",
    "address_councildis": "A",
    "status": "Assigned to Contractor",
    "contractor": "IV Waste",
    "rowid": "1148724",
    "final_x": "3667813.19559",
    "final_y": "523963.293884",
    "longitude": "-90.11154290008324",
    "latitude": "29.935125656901313",
    "geocoded_column": {
      "latitude": "29.935125656901313",
      "longitude": "-90.11154290008324"
    }
  },
  {
    "service_request": "2024-1148723",
    "request_type": "Drainage",
    "request_reason": "Street Flooding",
    "date_created": "2024-11-14T19:18:06.000",
    "date_modified": "2024-11-14T19:18:06.000",
    "request_status": "Pending",
    "responsible_agency": "Department of Public Works",
    "final_address": "6145 Colbert St",
    "address_councildis": "A",
    "status": "Pending",
    "rowid": "1148723",
    "final_x": "3667598.89524",
    "final_y": "548372.452306",
    "longitude": "-90.11139767543654",
    "latitude": "30.002248997271558",
    "geocoded_column": {
      "latitude": "30.002248997271558",
      "longitude": "-90.11139767543654"
    }
  },
  {
    "service_request": "2024-1148722",
    "request_type": "Streetlights",
    "request_reason": "Streetlight Outage/Malfunction",
    "date_created": "2024-11-14T19:12:09.000",
    "date_modified": "2024-11-14T19:12:10.000",
    "request_status": "Pending",
    "responsible_agency": "Department of Public Works",
    "final_address": "6145 Colbert St",
    "address_councildis": "A",
    "status": "Pending",
    "contractor": "Legacy Professional Services",
    "rowid": "1148722",
    "final_x": "3667598.89524",
    "final_y": "548372.452306",
    "longitude": "-90.11139767543654",
    "latitude": "30.002248997271558",
    "geocoded_column": {
      "latitude": "30.002248997271558",
      "longitude": "-90.11139767543654"
    }
  },
  {
    "service_request": "2024-1148721",
    "request_type": "Streetlights",
    "request_reason": "Streetlight Outage/Malfunction",
    "date_created": "2024-11-14T19:10:55.000",
    "date_modified": "2024-11-14T19:10:56.000",
    "request_status": "Pending",
    "responsible_agency": "Department of Public Works",
    "final_address": "6145 Colbert St",
    "address_councildis": "A",
    "status": "Pending",
    "contractor": "Legacy Professional Services",
    "rowid": "1148721",
    "final_x": "3667598.89524",
    "final_y": "548372.452306",
    "longitude": "-90.11139767543654",
    "latitude": "30.002248997271558",
    "geocoded_column": {
      "latitude": "30.002248997271558",
      "longitude": "-90.11139767543654"
    }
  },
  {
    "service_request": "2024-1148720",
    "request_type": "Streetlights",
    "request_reason": "Streetlight Outage/Malfunction",
    "date_created": "2024-11-14T19:09:42.000",
    "date_modified": "2024-11-14T19:09:43.000",
    "request_status": "Pending",
    "responsible_agency": "Department of Public Works",
    "final_address": "6145 Colbert St",
    "address_councildis": "A",
    "status": "Pending",
    "contractor": "Legacy Professional Services",
    "rowid": "1148720",
    "final_x": "3667598.89524",
    "final_y": "548372.452306",
    "longitude": "-90.11139767543654",
    "latitude": "30.002248997271558",
    "geocoded_column": {
      "latitude": "30.002248997271558",
      "longitude": "-90.11139767543654"
    }
  },
  {
    "service_request": "2024-1148719",
    "request_type": "Trash/Recycling",
    "request_reason": "MIssed Recycling Pick-Up",
    "date_created": "2024-11-14T18:36:20.000",
    "date_modified": "2024-11-14T18:36:21.000",
    "request_status": "Pending",
    "responsible_agency": "Department of Sanitation",
    "final_address": "2700 BLK Iberville St",
    "address_councildis": "B",
    "status": "Assigned to Contractor",
    "contractor": "IV Waste",
    "rowid": "1148719",
    "final_x": "3675361.95928",
    "final_y": "535643.412425",
    "longitude": "-90.087310479741",
    "latitude": "29.967018618738628",
    "geocoded_column": {
      "latitude": "29.967018618738628",
      "longitude": "-90.087310479741"
    }
  },
  {
    "service_request": "2024-1148718",
    "request_type": "Abandoned Vehicles",
    "request_reason": "Abandoned/Junk Vehicles",
    "date_created": "2024-11-14T18:32:33.000",
    "date_modified": "2024-11-14T18:32:33.000",
    "request_status": "Pending",
    "responsible_agency": "Department of Public Works",
    "final_address": "2700 BLK Iberville St",
    "address_councildis": "B",
    "status": "Pending",
    "rowid": "1148718",
    "final_x": "3675361.95928",
    "final_y": "535643.412425",
    "longitude": "-90.087310479741",
    "latitude": "29.967018618738628",
    "geocoded_column": {
      "latitude": "29.967018618738628",
      "longitude": "-90.087310479741"
    }
  },
  {
    "service_request": "2024-1148717",
    "request_type": "Trash/Recycling",
    "request_reason": "MIssed Recycling Pick-Up",
    "date_created": "2024-11-14T18:25:27.000",
    "date_modified": "2024-11-14T18:25:28.000",
    "request_status": "Pending",
    "responsible_agency": "Department of Sanitation",
    "final_address": "5351 Tchoupitoulas St",
    "address_councildis": "B",
    "status": "Assigned to Contractor",
    "contractor": "IV Waste",
    "rowid": "1148717",
    "final_x": "3666843.49517",
    "final_y": "517212.276725",
    "longitude": "-90.11483089618059",
    "latitude": "29.916590888881792",
    "geocoded_column": {
      "latitude": "29.916590888881792",
      "longitude": "-90.11483089618059"
    }
  },
  {
    "service_request": "2024-1148716",
    "request_type": "Traffic Signals",
    "request_reason": "Traffic Signal Malfunctioning or Damaged",
    "date_created": "2024-11-14T18:05:23.000",
    "date_modified": "2024-11-14T18:05:23.000",
    "request_status": "Pending",
    "responsible_agency": "Department of Public Works",
    "final_address": "2800 Magazine St",
    "address_councildis": "B",
    "status": "Pending",
    "rowid": "1148716",
    "final_x": "3677043.71477",
    "final_y": "520751.717689",
    "longitude": "-90.08251285137224",
    "latitude": "29.926021009751096",
    "geocoded_column": {
      "latitude": "29.926021009751096",
      "longitude": "-90.08251285137224"
    }
  },
  {
    "service_request": "2024-1148715",
    "request_type": "Roads and Streets",
    "request_reason": "Street Subsidence (Sinking)",
    "date_created": "2024-11-14T17:56:50.000",
    "date_modified": "2024-11-14T17:56:50.000",
    "request_status": "Pending",
    "responsible_agency": "Department of Public Works",
    "final_address": "4963 Western St",
    "address_councildis": "D",
    "status": "Pending",
    "rowid": "1148715",
    "final_x": "3684098.00783",
    "final_y": "551215.504597",
    "longitude": "-90.05917520303589",
    "latitude": "30.009572249779865",
    "geocoded_column": {
      "latitude": "30.009572249779865",
      "longitude": "-90.05917520303589"
    }
  },
  {
    "service_request": "2024-1148714",
    "request_type": "Utility Poles",
    "request_reason": "Wires Sagging/Hanging Low",
    "date_created": "2024-11-14T17:52:44.000",
    "date_modified": "2024-11-14T17:52:50.000",
    "request_status": "Pending",
    "responsible_agency": "Utility Company Collective",
    "final_address": "8439 Sycamore St",
    "address_councildis": "A",
    "status": "Pending",
    "rowid": "1148714",
    "final_x": "3663326.15034",
    "final_y": "531942.587331",
    "longitude": "-90.12544300049993",
    "latitude": "29.957196949179068",
    "geocoded_column": {
      "latitude": "29.957196949179068",
      "longitude": "-90.12544300049993"
    }
  },
  {
    "service_request": "2024-1148713",
    "request_type": "Trash/Recycling",
    "request_reason": "Request a Large Item Pick Up",
    "date_created": "2024-11-14T17:46:50.000",
    "date_modified": "2024-11-14T17:46:51.000",
    "request_status": "Pending",
    "responsible_agency": "Department of Sanitation",
    "final_address": "7747 Downman Rd",
    "address_councildis": "D",
    "status": "Assigned to Contractor",
    "contractor": "Waste Pro",
    "rowid": "1148713",
    "final_x": "3694518.57091",
    "final_y": "559031.6511",
    "longitude": "-90.02597138502458",
    "latitude": "30.030740977682246",
    "geocoded_column": {
      "latitude": "30.030740977682246",
      "longitude": "-90.02597138502458"
    }
  },
  {
    "service_request": "2024-1148712",
    "request_type": "Trash/Recycling",
    "request_reason": "Request a Large Item Pick Up",
    "date_created": "2024-11-14T17:44:53.000",
    "date_modified": "2024-11-14T17:44:54.000",
    "request_status": "Pending",
    "responsible_agency": "Department of Sanitation",
    "final_address": "2234 Alvar St",
    "address_councildis": "D",
    "status": "Assigned to Contractor",
    "contractor": "IV Waste",
    "rowid": "1148712",
    "final_x": "3692543.02134",
    "final_y": "539832.345098",
    "longitude": "-90.03290269529344",
    "latitude": "29.97801178688048",
    "geocoded_column": {
      "latitude": "29.97801178688048",
      "longitude": "-90.03290269529344"
    }
  },
  {
    "service_request": "2024-1148711",
    "request_type": "Property Maintenance",
    "request_reason": "Property Maintenance",
    "date_created": "2024-11-14T17:29:28.000",
    "date_modified": "2024-11-14T17:29:28.000",
    "request_status": "Pending",
    "responsible_agency": "Department of Code Enforcement",
    "final_address": "10921 Kinneil Rd",
    "address_councildis": "E",
    "status": "Pending",
    "rowid": "1148711",
    "final_x": "3711338.14629",
    "final_y": "564312.724769",
    "longitude": "-89.97262350840509",
    "latitude": "30.04472342843068",
    "geocoded_column": {
      "latitude": "30.04472342843068",
      "longitude": "-89.97262350840509"
    }
  },
  {
    "service_request": "2024-1148710",
    "request_type": "Drainage",
    "request_reason": "Street Flooding",
    "date_created": "2024-11-14T17:25:25.000",
    "date_modified": "2024-11-14T17:25:25.000",
    "request_status": "Pending",
    "responsible_agency": "Department of Public Works",
    "final_address": "1436 Audubon St",
    "address_councildis": "A",
    "status": "Pending",
    "rowid": "1148710",
    "final_x": "3664923.94848",
    "final_y": "527143.799679",
    "longitude": "-90.12055800484639",
    "latitude": "29.943955426151195",
    "geocoded_column": {
      "latitude": "29.943955426151195",
      "longitude": "-90.12055800484639"
    }
  },
  {
    "service_request": "2024-1148709",
    "request_type": "Roads and Streets",
    "request_reason": "Street Subsidence (Sinking)",
    "date_created": "2024-11-14T17:16:35.000",
    "date_modified": "2024-11-14T17:16:35.000",
    "request_status": "Pending",
    "responsible_agency": "Department of Public Works",
    "final_address": "1900 BLK Onzaga St",
    "address_councildis": "D",
    "status": "Pending",
    "rowid": "1148709",
    "final_x": "3681409.94554",
    "final_y": "538828.588141",
    "longitude": "-90.06809985562494",
    "latitude": "29.97559452792731",
    "geocoded_column": {
      "latitude": "29.97559452792731",
      "longitude": "-90.06809985562494"
    }
  },
  {
    "service_request": "2024-1148708",
    "request_type": "Abandoned Vehicles",
    "request_reason": "Abandoned/Junk Vehicles",
    "date_created": "2024-11-14T17:06:33.000",
    "date_modified": "2024-11-14T17:06:33.000",
    "request_status": "Pending",
    "responsible_agency": "Department of Public Works",
    "final_address": "1800 BLK Benefit St",
    "address_councildis": "D",
    "status": "Pending",
    "rowid": "1148708",
    "final_x": "3681863.97383",
    "final_y": "544204.906128",
    "longitude": "-90.06647817842068",
    "latitude": "29.990363726545166",
    "geocoded_column": {
      "latitude": "29.990363726545166",
      "longitude": "-90.06647817842068"
    }
  },
  {
    "service_request": "2024-1148707",
    "request_type": "Trash/Recycling",
    "request_reason": "Return Trash Cart",
    "date_created": "2024-11-14T16:46:42.000",
    "date_modified": "2024-11-14T16:46:43.000",
    "request_status": "Pending",
    "responsible_agency": "Department of Sanitation",
    "final_address": "2540 DAbadie St",
    "address_councildis": "D",
    "status": "Assigned to Contractor",
    "contractor": "IV Waste",
    "rowid": "1148707",
    "final_x": "3679680.04194",
    "final_y": "540597.525323",
    "longitude": "-90.07350194200791",
    "latitude": "29.980510901603438",
    "geocoded_column": {
      "latitude": "29.980510901603438",
      "longitude": "-90.07350194200791"
    }
  },
  {
    "service_request": "2024-1148706",
    "request_type": "Abandoned Vehicles",
    "request_reason": "Abandoned/Junk Vehicles",
    "date_created": "2024-11-14T16:41:34.000",
    "date_modified": "2024-11-14T16:41:34.000",
    "request_status": "Pending",
    "responsible_agency": "Department of Public Works",
    "final_address": "3934 Peach Tree Ct",
    "address_councildis": "C",
    "status": "Pending",
    "rowid": "1148706",
    "final_x": "3704249.04874",
    "final_y": "512655.431857",
    "longitude": "-89.99693230714693",
    "latitude": "29.90291437911953",
    "geocoded_column": {
      "latitude": "29.90291437911953",
      "longitude": "-89.99693230714693"
    }
  },
  {
    "service_request": "2024-1148705",
    "request_type": "Abandoned Vehicles",
    "request_reason": "Abandoned/Junk Vehicles",
    "date_created": "2024-11-14T16:40:48.000",
    "date_modified": "2024-11-14T16:40:48.000",
    "request_status": "Pending",
    "responsible_agency": "Department of Public Works",
    "final_address": "1990 Hope St",
    "address_councildis": "D",
    "status": "Pending",
    "rowid": "1148705",
    "final_x": "3682231.41231",
    "final_y": "541981.805708",
    "longitude": "-90.06539524023763",
    "latitude": "29.98423980819682",
    "geocoded_column": {
      "latitude": "29.98423980819682",
      "longitude": "-90.06539524023763"
    }
  },
  {
    "service_request": "2024-1148704",
    "request_type": "Roads and Streets",
    "request_reason": "Debris in Driving Lanes",
    "date_created": "2024-11-14T16:38:15.000",
    "date_modified": "2024-11-14T16:38:16.000",
    "request_status": "Pending",
    "responsible_agency": "Department of Public Works",
    "final_address": "ROYAL ST & ANDRY ST",
    "address_councildis": "E",
    "status": "Pending",
    "rowid": "1148704",
    "final_x": "3696754.5",
    "final_y": "532484.98",
    "longitude": "-90.01986743570971",
    "latitude": "29.957677058742345",
    "geocoded_column": {
      "latitude": "29.957677058742345",
      "longitude": "-90.01986743570971"
    }
  },
  {
    "service_request": "2024-1148703",
    "request_type": "Trash/Recycling",
    "request_reason": "Illegal Dumping",
    "date_created": "2024-11-14T16:25:23.000",
    "date_modified": "2024-11-14T16:25:24.000",
    "request_status": "Pending",
    "responsible_agency": "Department of Sanitation",
    "final_address": "3620 Dickens Dr",
    "address_councildis": "C",
    "status": "Pending",
    "rowid": "1148703",
    "final_x": "3708259.22366",
    "final_y": "517527.913078",
    "longitude": "-89.98409533228647",
    "latitude": "29.916182805467688",
    "geocoded_column": {
      "latitude": "29.916182805467688",
      "longitude": "-89.98409533228647"
    }
  },
  {
    "service_request": "2024-1148702",
    "request_type": "Trash/Recycling",
    "request_reason": "Order Trash Cart",
    "date_created": "2024-11-14T16:23:15.000",
    "date_modified": "2024-11-14T16:23:16.000",
    "request_status": "Pending",
    "responsible_agency": "Department of Sanitation",
    "final_address": "7036 Northgate Dr",
    "address_councildis": "E",
    "status": "Assigned to Contractor",
    "contractor": "Waste Pro",
    "rowid": "1148702",
    "final_x": "3713751.87871",
    "final_y": "564868.382242",
    "longitude": "-89.9649741015595",
    "latitude": "30.046172226635353",
    "geocoded_column": {
      "latitude": "30.046172226635353",
      "longitude": "-89.9649741015595"
    }
  },
  {
    "service_request": "2024-1148701",
    "request_type": "Trash/Recycling",
    "request_reason": "Order Trash Cart",
    "date_created": "2024-11-14T16:20:57.000",
    "date_modified": "2024-11-14T16:20:58.000",
    "request_status": "Pending",
    "responsible_agency": "Department of Sanitation",
    "final_address": "4025 Ulloa St",
    "address_councildis": "A",
    "status": "Assigned to Contractor",
    "contractor": "IV Waste",
    "rowid": "1148701",
    "final_x": "3669907.57978",
    "final_y": "536336.740103",
    "longitude": "-90.10451200192104",
    "latitude": "29.96908700029365",
    "geocoded_column": {
      "latitude": "29.96908700029365",
      "longitude": "-90.10451200192104"
    }
  },
  {
    "service_request": "2024-1148700",
    "request_type": "Street and Traffic Signs",
    "request_reason": "One Way Sign Missing or Damaged",
    "date_created": "2024-11-14T16:19:07.000",
    "date_modified": "2024-11-14T16:19:07.000",
    "request_status": "Pending",
    "responsible_agency": "Department of Public Works",
    "final_address": "2200 Laharpe St",
    "address_councildis": "D",
    "status": "Pending",
    "rowid": "1148700",
    "final_x": "3680223.23215",
    "final_y": "538764.963977",
    "longitude": "-90.07185003509076",
    "latitude": "29.97545556063277",
    "geocoded_column": {
      "latitude": "29.97545556063277",
      "longitude": "-90.07185003509076"
    }
  },
  {
    "service_request": "2024-1148699",
    "request_type": "Trash/Recycling",
    "request_reason": "Order Recycling Cart",
    "date_created": "2024-11-14T16:15:55.000",
    "date_modified": "2024-11-14T16:15:55.000",
    "request_status": "Pending",
    "responsible_agency": "Department of Sanitation",
    "final_address": "1500 De Battista Pl",
    "address_councildis": "C",
    "status": "Pending",
    "rowid": "1148699",
    "final_x": "3699824.21629",
    "final_y": "525702.975869",
    "longitude": "-90.01042147678989",
    "latitude": "29.938931823245607",
    "geocoded_column": {
      "latitude": "29.938931823245607",
      "longitude": "-90.01042147678989"
    }
  },
  {
    "service_request": "2024-1148698",
    "request_type": "Trash/Recycling",
    "request_reason": "Replace Trash Cart",
    "date_created": "2024-11-14T16:14:36.000",
    "date_modified": "2024-11-14T16:14:37.000",
    "request_status": "Pending",
    "responsible_agency": "Department of Sanitation",
    "final_address": "1500 De Battista Pl",
    "address_councildis": "C",
    "status": "Assigned to Contractor",
    "contractor": "Richards Disposal",
    "rowid": "1148698",
    "final_x": "3699824.21629",
    "final_y": "525702.975869",
    "longitude": "-90.01042147678989",
    "latitude": "29.938931823245607",
    "geocoded_column": {
      "latitude": "29.938931823245607",
      "longitude": "-90.01042147678989"
    }
  },
  {
    "service_request": "2024-1148697",
    "request_type": "Abandoned Vehicles",
    "request_reason": "Abandoned/Junk Vehicles",
    "date_created": "2024-11-14T16:11:16.000",
    "date_modified": "2024-11-14T16:11:16.000",
    "request_status": "Pending",
    "responsible_agency": "Department of Public Works",
    "final_address": "3200 BLK Dahlia Walk",
    "address_councildis": "D",
    "status": "Pending",
    "rowid": "1148697",
    "final_x": "3687905.17107",
    "final_y": "545165.923563",
    "longitude": "-90.04736156790865",
    "latitude": "29.99282114142077",
    "geocoded_column": {
      "latitude": "29.99282114142077",
      "longitude": "-90.04736156790865"
    }
  },
  {
    "service_request": "2024-1148696",
    "request_type": "Trash/Recycling",
    "request_reason": "Request a Large Item Pick Up",
    "date_created": "2024-11-14T16:10:54.000",
    "date_modified": "2024-11-14T16:10:55.000",
    "request_status": "Pending",
    "responsible_agency": "Department of Sanitation",
    "final_address": "4920 Sherwood Dr",
    "address_councildis": "E",
    "status": "Assigned to Contractor",
    "contractor": "Waste Pro",
    "rowid": "1148696",
    "final_x": "3717839.66789",
    "final_y": "557854.956763",
    "longitude": "-89.95232190685832",
    "latitude": "30.02675328532648",
    "geocoded_column": {
      "latitude": "30.02675328532648",
      "longitude": "-89.95232190685832"
    }
  },
  {
    "service_request": "2024-1148695",
    "request_type": "Trash/Recycling",
    "request_reason": "Request a Large Item Pick Up",
    "date_created": "2024-11-14T16:07:35.000",
    "date_modified": "2024-11-14T16:07:36.000",
    "request_status": "Pending",
    "responsible_agency": "Department of Sanitation",
    "final_address": "7040 Coventry St",
    "address_councildis": "E",
    "status": "Assigned to Contractor",
    "contractor": "Waste Pro",
    "rowid": "1148695",
    "final_x": "3699357.15933",
    "final_y": "559612.739485",
    "longitude": "-90.01066023590607",
    "latitude": "30.03218606152627",
    "geocoded_column": {
      "latitude": "30.03218606152627",
      "longitude": "-90.01066023590607"
    }
  },
  {
    "service_request": "2024-1148694",
    "request_type": "Trash/Recycling",
    "request_reason": "Repair Trash Cart",
    "date_created": "2024-11-14T16:07:20.000",
    "date_modified": "2024-11-14T16:07:21.000",
    "request_status": "Pending",
    "responsible_agency": "Department of Sanitation",
    "final_address": "3917 Delgado Dr",
    "address_councildis": "A",
    "status": "Assigned to Contractor",
    "contractor": "IV Waste",
    "rowid": "1148694",
    "final_x": "3674050.10734",
    "final_y": "540754.709643",
    "longitude": "-90.09127835161466",
    "latitude": "29.981112107359955",
    "geocoded_column": {
      "latitude": "29.981112107359955",
      "longitude": "-90.09127835161466"
    }
  },
  {
    "service_request": "2024-1148693",
    "request_type": "Trash/Recycling",
    "request_reason": "MIssed Recycling Pick-Up",
    "date_created": "2024-11-14T16:06:57.000",
    "date_modified": "2024-11-14T16:06:58.000",
    "request_status": "Pending",
    "responsible_agency": "Department of Sanitation",
    "final_address": "4719 Virgilian St",
    "address_councildis": "D",
    "status": "Assigned to Contractor",
    "contractor": "Waste Pro",
    "rowid": "1148693",
    "final_x": "3697573.29437",
    "final_y": "553614.334103",
    "longitude": "-90.0165151768813",
    "latitude": "30.01574923102479",
    "geocoded_column": {
      "latitude": "30.01574923102479",
      "longitude": "-90.0165151768813"
    }
  },
  {
    "service_request": "2024-1148692",
    "request_type": "Traffic Signals",
    "request_reason": "Traffic Signal Malfunctioning or Damaged",
    "date_created": "2024-11-14T16:04:53.000",
    "date_modified": "2024-11-14T16:04:54.000",
    "request_status": "Pending",
    "responsible_agency": "Department of Public Works",
    "final_address": "FRANKLIN AVE & LEON C SIMON DR",
    "address_councildis": "D",
    "status": "Pending",
    "rowid": "1148692",
    "final_x": "3686215.6",
    "final_y": "557350.08",
    "longitude": "-90.05226831351399",
    "latitude": "30.026375154078544",
    "geocoded_column": {
      "latitude": "30.026375154078544",
      "longitude": "-90.05226831351399"
    }
  },
  {
    "service_request": "2024-1148691",
    "request_type": "Trash/Recycling",
    "request_reason": "Request a Large Item Pick Up",
    "date_created": "2024-11-14T16:02:55.000",
    "date_modified": "2024-11-14T16:02:56.000",
    "request_status": "Pending",
    "responsible_agency": "Department of Sanitation",
    "final_address": "826 Delery St Apt D",
    "address_councildis": "E",
    "status": "Assigned to Contractor",
    "contractor": "Waste Pro",
    "rowid": "1148691",
    "final_x": "3699949.40836",
    "final_y": "532093.377219",
    "longitude": "-90.00979319335984",
    "latitude": "29.95649920309229",
    "geocoded_column": {
      "latitude": "29.95649920309229",
      "longitude": "-90.00979319335984"
    }
  },
  {
    "service_request": "2024-1148690",
    "request_type": "Trash/Recycling",
    "request_reason": "Illegal Dumping",
    "date_created": "2024-11-14T16:02:35.000",
    "date_modified": "2024-11-14T16:04:38.000",
    "request_status": "Pending",
    "responsible_agency": "Department of Code Enforcement",
    "final_address": "6600 BLK Lake Willow Dr",
    "address_councildis": "E",
    "status": "Pending",
    "rowid": "1148690",
    "final_x": "3704136.04379",
    "final_y": "559596.379282",
    "longitude": "-89.99555935558243",
    "latitude": "30.031988531459035",
    "geocoded_column": {
      "latitude": "30.031988531459035",
      "longitude": "-89.99555935558243"
    }
  },
  {
    "service_request": "2024-1148689",
    "request_type": "Trash/Recycling",
    "request_reason": "Request a Large Item Pick Up",
    "date_created": "2024-11-14T16:00:43.000",
    "date_modified": "2024-11-14T16:02:26.000",
    "request_status": "Pending",
    "responsible_agency": "Department of Sanitation",
    "final_address": "4654 Laine Ave",
    "address_councildis": "E",
    "status": "Assigned to Contractor",
    "contractor": "Waste Pro",
    "rowid": "1148689",
    "final_x": "3705714.58014",
    "final_y": "554875.490648",
    "longitude": "-89.9907459220816",
    "latitude": "30.018957154849225",
    "geocoded_column": {
      "latitude": "30.018957154849225",
      "longitude": "-89.9907459220816"
    }
  },
  {
    "service_request": "2024-1148688",
    "request_type": "Trash/Recycling",
    "request_reason": "Replace Recycling Cart",
    "date_created": "2024-11-14T16:00:23.000",
    "date_modified": "2024-11-14T16:00:26.000",
    "request_status": "Pending",
    "responsible_agency": "Department of Sanitation",
    "final_address": "2418 Valmont St",
    "address_councildis": "B",
    "status": "Pending",
    "rowid": "1148688",
    "final_x": "3668206.16973",
    "final_y": "524473.344124",
    "longitude": "-90.11028509115533",
    "latitude": "29.936516603875287",
    "geocoded_column": {
      "latitude": "29.936516603875287",
      "longitude": "-90.11028509115533"
    }
  },
  {
    "service_request": "2024-1148687",
    "request_type": "Roads and Streets",
    "request_reason": "Curb Damage",
    "date_created": "2024-11-14T15:53:56.000",
    "date_modified": "2024-11-14T15:53:56.000",
    "request_status": "Pending",
    "responsible_agency": "Department of Public Works",
    "final_address": "6028 General Haig St",
    "address_councildis": "A",
    "status": "Pending",
    "rowid": "1148687",
    "final_x": "3670494.66254",
    "final_y": "547328.423889",
    "longitude": "-90.1022850101282",
    "latitude": "29.999293053636578",
    "geocoded_column": {
      "latitude": "29.999293053636578",
      "longitude": "-90.1022850101282"
    }
  },
  {
    "service_request": "2024-1148686",
    "request_type": "Trash/Recycling",
    "request_reason": "Request a Large Item Pick Up",
    "date_created": "2024-11-14T15:52:52.000",
    "date_modified": "2024-11-14T15:54:07.000",
    "request_status": "Pending",
    "responsible_agency": "Department of Sanitation",
    "final_address": "8419 Beechwood Ct",
    "address_councildis": "E",
    "status": "Assigned to Contractor",
    "contractor": "Waste Pro",
    "rowid": "1148686",
    "final_x": "3704155.51671",
    "final_y": "560668.513054",
    "longitude": "-89.99545826237454",
    "latitude": "30.03493585494704",
    "geocoded_column": {
      "latitude": "30.03493585494704",
      "longitude": "-89.99545826237454"
    }
  },
  {
    "service_request": "2024-1148685",
    "request_type": "Streetlights",
    "request_reason": "Streetlight Outage/Malfunction",
    "date_created": "2024-11-14T15:43:48.000",
    "date_modified": "2024-11-14T15:43:49.000",
    "request_status": "Pending",
    "responsible_agency": "Department of Public Works",
    "final_address": "414 Florida Blvd",
    "address_councildis": "A",
    "status": "Pending",
    "contractor": "Legacy Professional Services",
    "rowid": "1148685",
    "final_x": "3667371.77031",
    "final_y": "545391.092368",
    "longitude": "-90.11221556530052",
    "latitude": "29.994057942663677",
    "geocoded_column": {
      "latitude": "29.994057942663677",
      "longitude": "-90.11221556530052"
    }
  },
  {
    "service_request": "2024-1148684",
    "request_type": "Streetlights",
    "request_reason": "Streetlight Outage/Malfunction",
    "date_created": "2024-11-14T15:43:07.000",
    "date_modified": "2024-11-14T15:43:08.000",
    "request_status": "Pending",
    "responsible_agency": "Department of Public Works",
    "final_address": "5672 Tullis Dr",
    "address_councildis": "C",
    "status": "Pending",
    "contractor": "Legacy Professional Services",
    "rowid": "1148684",
    "final_x": "3704938.49374",
    "final_y": "512610.823153",
    "longitude": "-89.99475809665871",
    "latitude": "29.90276959211676",
    "geocoded_column": {
      "latitude": "29.90276959211676",
      "longitude": "-89.99475809665871"
    }
  },
  {
    "service_request": "2024-1148683",
    "request_type": "Trash/Recycling",
    "request_reason": "Start Trash Service",
    "date_created": "2024-11-14T15:41:38.000",
    "date_modified": "2024-11-14T15:41:39.000",
    "request_status": "Pending",
    "responsible_agency": "Department of Sanitation",
    "final_address": "2628 N Rampart St",
    "address_councildis": "C",
    "status": "Assigned to Contractor",
    "contractor": "IV Waste",
    "rowid": "1148683",
    "final_x": "3687233.3245",
    "final_y": "535949.076295",
    "longitude": "-90.04980993306349",
    "latitude": "29.967498786486185",
    "geocoded_column": {
      "latitude": "29.967498786486185",
      "longitude": "-90.04980993306349"
    }
  },
  {
    "service_request": "2024-1148682",
    "request_type": "Healthy Homes",
    "request_reason": "Healthy Homes",
    "date_created": "2024-11-14T15:41:11.000",
    "date_modified": "2024-11-14T15:41:11.000",
    "request_status": "Pending",
    "responsible_agency": "Department of Code Enforcement",
    "final_address": "4714 N Rampart St",
    "address_councildis": "E",
    "status": "Pending",
    "rowid": "1148682",
    "final_x": "3694670.18422",
    "final_y": "534065.817989",
    "longitude": "-90.0263921303312",
    "latitude": "29.962089337848987",
    "geocoded_column": {
      "latitude": "29.962089337848987",
      "longitude": "-90.0263921303312"
    }
  },
  {
    "service_request": "2024-1148681",
    "request_type": "Trash/Recycling",
    "request_reason": "Request a Large Item Pick Up",
    "date_created": "2024-11-14T15:40:52.000",
    "date_modified": "2024-11-14T15:59:02.000",
    "request_status": "Pending",
    "responsible_agency": "Department of Sanitation",
    "final_address": "2444 N Rampart St",
    "address_councildis": "C",
    "status": "Assigned to Contractor",
    "contractor": "IV Waste",
    "rowid": "1148681",
    "final_x": "3686213.27375",
    "final_y": "536007.394439",
    "longitude": "-90.0530292087546",
    "latitude": "29.967690519766762",
    "geocoded_column": {
      "latitude": "29.967690519766762",
      "longitude": "-90.0530292087546"
    }
  },
  {
    "service_request": "2024-1148680",
    "request_type": "Trash/Recycling",
    "request_reason": "Request a Large Item Pick Up",
    "date_created": "2024-11-14T15:37:11.000",
    "date_modified": "2024-11-14T15:37:12.000",
    "request_status": "Pending",
    "responsible_agency": "Department of Sanitation",
    "final_address": "4425 General Pershing St",
    "address_councildis": "B",
    "status": "Assigned to Contractor",
    "contractor": "IV Waste",
    "rowid": "1148680",
    "final_x": "3669273.71879",
    "final_y": "529911.515713",
    "longitude": "-90.10673100043644",
    "latitude": "29.95143843504588",
    "geocoded_column": {
      "latitude": "29.95143843504588",
      "longitude": "-90.10673100043644"
    }
  },
  {
    "service_request": "2024-1148679",
    "request_type": "Trash/Recycling",
    "request_reason": "Order Second Trash Cart",
    "date_created": "2024-11-14T15:36:52.000",
    "date_modified": "2024-11-14T15:36:53.000",
    "request_status": "Pending",
    "responsible_agency": "Department of Sanitation",
    "final_address": "39 E Blue Ridge Ct",
    "address_councildis": "E",
    "status": "Assigned to Contractor",
    "contractor": "Waste Pro",
    "rowid": "1148679",
    "final_x": "3714141.83186",
    "final_y": "567561.921572",
    "longitude": "-89.96363990343286",
    "latitude": "30.053565552042173",
    "geocoded_column": {
      "latitude": "30.053565552042173",
      "longitude": "-89.96363990343286"
    }
  },
  {
    "service_request": "2024-1148678",
    "request_type": "Trash/Recycling",
    "request_reason": "MIssed Recycling Pick-Up",
    "date_created": "2024-11-14T15:31:23.000",
    "date_modified": "2024-11-14T15:31:24.000",
    "request_status": "Pending",
    "responsible_agency": "Department of Sanitation",
    "final_address": "4618 Longfellow Dr",
    "address_councildis": "E",
    "status": "Assigned to Contractor",
    "contractor": "Waste Pro",
    "rowid": "1148678",
    "final_x": "3709636.78526",
    "final_y": "554993.145688",
    "longitude": "-89.97834885248561",
    "latitude": "30.019153713352896",
    "geocoded_column": {
      "latitude": "30.019153713352896",
      "longitude": "-89.97834885248561"
    }
  },
  {
    "service_request": "2024-1148677",
    "request_type": "Trash/Recycling",
    "request_reason": "Order Trash Cart",
    "date_created": "2024-11-14T15:30:50.000",
    "date_modified": "2024-11-14T15:30:51.000",
    "request_status": "Pending",
    "responsible_agency": "Department of Sanitation",
    "final_address": "7940 Sandpiper Dr",
    "address_councildis": "E",
    "status": "Assigned to Contractor",
    "contractor": "Waste Pro",
    "rowid": "1148677",
    "final_x": "3715181.3116",
    "final_y": "570562.427239",
    "longitude": "-89.96024076244687",
    "latitude": "30.061781499869646",
    "geocoded_column": {
      "latitude": "30.061781499869646",
      "longitude": "-89.96024076244687"
    }
  },
  {
    "service_request": "2024-1148676",
    "request_type": "Parks & Parkways",
    "request_reason": "Request Tree Service (Right of Way/Public Property)",
    "date_created": "2024-11-14T15:28:10.000",
    "date_modified": "2024-11-14T15:28:11.000",
    "request_status": "Pending",
    "responsible_agency": "Department of Parks & Parkway",
    "final_address": "5529 S Miro St",
    "address_councildis": "A",
    "status": "Pending",
    "rowid": "1148676",
    "final_x": "3668200.97575",
    "final_y": "527779.301887",
    "longitude": "-90.11019007707057",
    "latitude": "29.945607073331292",
    "geocoded_column": {
      "latitude": "29.945607073331292",
      "longitude": "-90.11019007707057"
    }
  },
  {
    "service_request": "2024-1148675",
    "request_type": "Roads and Streets",
    "request_reason": "ADA Ramps Damaged or Missing",
    "date_created": "2024-11-14T15:26:55.000",
    "date_modified": "2024-11-14T15:26:55.000",
    "request_status": "Pending",
    "responsible_agency": "Department of Public Works",
    "final_address": "SALTUS ST & TRAFALGAR ST",
    "address_councildis": "A",
    "status": "Pending",
    "rowid": "1148675",
    "final_x": "3678045.4",
    "final_y": "543183.38",
    "longitude": "-90.0785754127418",
    "latitude": "29.987670420493885",
    "geocoded_column": {
      "latitude": "29.987670420493885",
      "longitude": "-90.0785754127418"
    }
  },
  {
    "service_request": "2024-1148674",
    "request_type": "Trash/Recycling",
    "request_reason": "Request a Large Item Pick Up",
    "date_created": "2024-11-14T15:25:16.000",
    "date_modified": "2024-11-14T15:25:35.000",
    "request_status": "Pending",
    "responsible_agency": "Department of Sanitation",
    "final_address": "7111 Beauvoir Ct",
    "address_councildis": "E",
    "status": "Assigned to Contractor",
    "contractor": "Waste Pro",
    "rowid": "1148674",
    "final_x": "3716548.70994",
    "final_y": "567493.125092",
    "longitude": "-89.95603507700099",
    "latitude": "30.05329706157279",
    "geocoded_column": {
      "latitude": "30.05329706157279",
      "longitude": "-89.95603507700099"
    }
  },
  {
    "service_request": "2024-1148673",
    "request_type": "Trash/Recycling",
    "request_reason": "Request a Large Item Pick Up",
    "date_created": "2024-11-14T15:22:08.000",
    "date_modified": "2024-11-14T15:22:09.000",
    "request_status": "Pending",
    "responsible_agency": "Department of Sanitation",
    "final_address": "3575 Mimosa Ct",
    "address_councildis": "C",
    "status": "Assigned to Contractor",
    "contractor": "Richards Disposal",
    "rowid": "1148673",
    "final_x": "3703098.23249",
    "final_y": "512975.193713",
    "longitude": "-90.00055249180639",
    "latitude": "29.90383047199219",
    "geocoded_column": {
      "latitude": "29.90383047199219",
      "longitude": "-90.00055249180639"
    }
  },
  {
    "service_request": "2024-1148672",
    "request_type": "Trash/Recycling",
    "request_reason": "Request a Large Item Pick Up",
    "date_created": "2024-11-14T15:19:21.000",
    "date_modified": "2024-11-14T15:19:22.000",
    "request_status": "Pending",
    "responsible_agency": "Department of Sanitation",
    "final_address": "205 Norland Ave",
    "address_councildis": "C",
    "status": "Assigned to Contractor",
    "contractor": "Richards Disposal",
    "rowid": "1148672",
    "final_x": "3706292.04049",
    "final_y": "520327.67244",
    "longitude": "-89.9902009025948",
    "latitude": "29.923944717172876",
    "geocoded_column": {
      "latitude": "29.923944717172876",
      "longitude": "-89.9902009025948"
    }
  },
  {
    "service_request": "2024-1148671",
    "request_type": "Trash/Recycling",
    "request_reason": "Repair Trash Cart",
    "date_created": "2024-11-14T15:17:03.000",
    "date_modified": "2024-11-14T15:17:04.000",
    "request_status": "Pending",
    "responsible_agency": "Department of Sanitation",
    "final_address": "1718 Bordeaux St",
    "address_councildis": "B",
    "status": "Assigned to Contractor",
    "contractor": "IV Waste",
    "rowid": "1148671",
    "final_x": "3669289.00282",
    "final_y": "521240.118969",
    "longitude": "-90.10697578111542",
    "latitude": "29.927594445194373",
    "geocoded_column": {
      "latitude": "29.927594445194373",
      "longitude": "-90.10697578111542"
    }
  },
  {
    "service_request": "2024-1148670",
    "request_type": "Trash/Recycling",
    "request_reason": "Return Trash Cart",
    "date_created": "2024-11-14T15:15:41.000",
    "date_modified": "2024-11-14T15:15:42.000",
    "request_status": "Pending",
    "responsible_agency": "Department of Sanitation",
    "final_address": "2848 Chippewa St",
    "address_councildis": "B",
    "status": "Assigned to Contractor",
    "contractor": "IV Waste",
    "rowid": "1148670",
    "final_x": "3677558.62434",
    "final_y": "519312.799607",
    "longitude": "-90.08093707805801",
    "latitude": "29.922048985922313",
    "geocoded_column": {
      "latitude": "29.922048985922313",
      "longitude": "-90.08093707805801"
    }
  },
  {
    "service_request": "2024-1148669",
    "request_type": "Drainage",
    "request_reason": "Catch Basin Clogged",
    "date_created": "2024-11-14T15:15:37.000",
    "date_modified": "2024-11-14T15:15:37.000",
    "request_status": "Pending",
    "responsible_agency": "Department of Public Works",
    "final_address": "1604 Frenchmen St",
    "address_councildis": "D",
    "status": "Pending",
    "rowid": "1148669",
    "final_x": "3684403.76521",
    "final_y": "538175.199369",
    "longitude": "-90.05866751768248",
    "latitude": "29.973706700054745",
    "geocoded_column": {
      "latitude": "29.973706700054745",
      "longitude": "-90.05866751768248"
    }
  },
  {
    "service_request": "2024-1148668",
    "request_type": "Property Maintenance",
    "request_reason": "Property Maintenance",
    "date_created": "2024-11-14T15:15:37.000",
    "date_modified": "2024-11-14T15:26:00.000",
    "case_close_date": "2024-11-14T09:26:00.000",
    "request_status": "Closed",
    "responsible_agency": "Department of Code Enforcement",
    "final_address": "1325 Gordon St",
    "address_councildis": "E",
    "status": "Referred to Code Enforcement",
    "rowid": "1148668",
    "final_x": "3699557.83556",
    "final_y": "534308.420677",
    "longitude": "-90.01094892373898",
    "latitude": "29.962602214684683",
    "geocoded_column": {
      "latitude": "29.962602214684683",
      "longitude": "-90.01094892373898"
    }
  },
  {
    "service_request": "2024-1148667",
    "request_type": "Property Maintenance",
    "request_reason": "Property Maintenance",
    "date_created": "2024-11-14T15:14:38.000",
    "date_modified": "2024-11-14T15:57:10.000",
    "case_close_date": "2024-11-14T09:57:10.000",
    "request_status": "Closed",
    "responsible_agency": "Department of Code Enforcement",
    "final_address": "1319 Gordon St",
    "address_councildis": "E",
    "status": "Referred to Code Enforcement",
    "rowid": "1148667",
    "final_x": "3699541.20772",
    "final_y": "534282.185669",
    "longitude": "-90.01100238794812",
    "latitude": "29.962530605426583",
    "geocoded_column": {
      "latitude": "29.962530605426583",
      "longitude": "-90.01100238794812"
    }
  },
  {
    "service_request": "2024-1148666",
    "request_type": "Property Maintenance",
    "request_reason": "Property Maintenance",
    "date_created": "2024-11-14T15:14:21.000",
    "date_modified": "2024-11-14T15:14:21.000",
    "request_status": "Pending",
    "responsible_agency": "Department of Code Enforcement",
    "final_address": "2007 Delery St",
    "address_councildis": "E",
    "status": "Pending",
    "rowid": "1148666",
    "final_x": "3701787.26653",
    "final_y": "536175.560967",
    "longitude": "-90.00384031987211",
    "latitude": "29.96766524298537",
    "geocoded_column": {
      "latitude": "29.96766524298537",
      "longitude": "-90.00384031987211"
    }
  },
  {
    "service_request": "2024-1148665",
    "request_type": "Property Maintenance",
    "request_reason": "Property Maintenance",
    "date_created": "2024-11-14T15:13:50.000",
    "date_modified": "2024-11-14T15:13:51.000",
    "request_status": "Pending",
    "responsible_agency": "Department of Code Enforcement",
    "final_address": "2011 Delery St",
    "address_councildis": "E",
    "status": "Pending",
    "rowid": "1148665",
    "final_x": "3701810.7585",
    "final_y": "536236.443015",
    "longitude": "-90.0037639012111",
    "latitude": "29.967831897123325",
    "geocoded_column": {
      "latitude": "29.967831897123325",
      "longitude": "-90.0037639012111"
    }
  },
  {
    "service_request": "2024-1148664",
    "request_type": "Tax and Revenue",
    "request_reason": "Sales Tax Question",
    "date_created": "2024-11-14T15:13:06.000",
    "date_modified": "2024-11-14T15:13:07.000",
    "request_status": "Pending",
    "responsible_agency": "Bureau of Revenue",
    "final_address": "1300 Perdido St",
    "address_councildis": "B",
    "status": "Pending",
    "rowid": "1148664",
    "final_x": "3678683.48347",
    "final_y": "530227.987073",
    "longitude": "-90.07700859883013",
    "latitude": "29.952028297123956",
    "geocoded_column": {
      "latitude": "29.952028297123956",
      "longitude": "-90.07700859883013"
    }
  },
  {
    "service_request": "2024-1148663",
    "request_type": "Drainage",
    "request_reason": "Catch Basin Clogged",
    "date_created": "2024-11-14T15:11:46.000",
    "date_modified": "2024-11-14T15:11:46.000",
    "request_status": "Pending",
    "responsible_agency": "Department of Public Works",
    "final_address": "2101 N Claiborne Ave",
    "address_councildis": "D",
    "status": "Pending",
    "rowid": "1148663",
    "final_x": "3684503.0925",
    "final_y": "538168.158025",
    "longitude": "-90.05835406857365",
    "latitude": "29.973684300222818",
    "geocoded_column": {
      "latitude": "29.973684300222818",
      "longitude": "-90.05835406857365"
    }
  },
  {
    "service_request": "2024-1148662",
    "request_type": "Streetlights",
    "request_reason": "Streetlight Outage/Malfunction",
    "date_created": "2024-11-14T15:05:45.000",
    "date_modified": "2024-11-14T15:05:46.000",
    "request_status": "Pending",
    "responsible_agency": "Department of Public Works",
    "final_address": "1726 Arabella St",
    "address_councildis": "A",
    "status": "Pending",
    "contractor": "Legacy Professional Services",
    "rowid": "1148662",
    "final_x": "3666633.94106",
    "final_y": "522759.859194",
    "longitude": "-90.11530620118413",
    "latitude": "29.931851117233908",
    "geocoded_column": {
      "latitude": "29.931851117233908",
      "longitude": "-90.11530620118413"
    }
  },
  {
    "service_request": "2024-1148661",
    "request_type": "Abandoned Vehicles",
    "request_reason": "Abandoned/Junk Vehicles",
    "date_created": "2024-11-14T15:04:42.000",
    "date_modified": "2024-11-14T15:04:42.000",
    "request_status": "Pending",
    "responsible_agency": "Department of Public Works",
    "final_address": "4931 Eastern St",
    "address_councildis": "D",
    "status": "Pending",
    "rowid": "1148661",
    "final_x": "3688001.89654",
    "final_y": "551346.032853",
    "longitude": "-90.04683684805326",
    "latitude": "30.009811213217002",
    "geocoded_column": {
      "latitude": "30.009811213217002",
      "longitude": "-90.04683684805326"
    }
  },
  {
    "service_request": "2024-1148660",
    "request_type": "Trash/Recycling",
    "request_reason": "Request a Large Item Pick Up",
    "date_created": "2024-11-14T15:02:27.000",
    "date_modified": "2024-11-14T15:02:28.000",
    "request_status": "Pending",
    "responsible_agency": "Department of Sanitation",
    "final_address": "3150 Dickens Dr",
    "address_councildis": "C",
    "status": "Assigned to Contractor",
    "contractor": "Richards Disposal",
    "rowid": "1148660",
    "final_x": "3708363.71448",
    "final_y": "518568.420727",
    "longitude": "-89.98372683799145",
    "latitude": "29.91904045543256",
    "geocoded_column": {
      "latitude": "29.91904045543256",
      "longitude": "-89.98372683799145"
    }
  },
  {
    "service_request": "2024-1148659",
    "request_type": "Trash/Recycling",
    "request_reason": "Repair Recycling Cart",
    "date_created": "2024-11-14T15:02:25.000",
    "date_modified": "2024-11-14T15:02:25.000",
    "request_status": "Pending",
    "responsible_agency": "Department of Sanitation",
    "final_address": "4733 Constance St",
    "address_councildis": "B",
    "status": "Pending",
    "rowid": "1148659",
    "final_x": "3669697.10862",
    "final_y": "518317.257398",
    "longitude": "-90.10578633354467",
    "latitude": "29.919545487605106",
    "geocoded_column": {
      "latitude": "29.919545487605106",
      "longitude": "-90.10578633354467"
    }
  },
  {
    "service_request": "2024-1148658",
    "request_type": "Trash/Recycling",
    "request_reason": "Replace Trash Cart",
    "date_created": "2024-11-14T15:02:19.000",
    "date_modified": "2024-11-14T15:02:21.000",
    "request_status": "Pending",
    "responsible_agency": "Department of Sanitation",
    "final_address": "1318 Dante St",
    "address_councildis": "A",
    "status": "Assigned to Contractor",
    "contractor": "IV Waste",
    "rowid": "1148658",
    "final_x": "3661746.11699",
    "final_y": "529280.968641",
    "longitude": "-90.13052051248731",
    "latitude": "29.94992405918068",
    "geocoded_column": {
      "latitude": "29.94992405918068",
      "longitude": "-90.13052051248731"
    }
  },
  {
    "service_request": "2024-1148657",
    "request_type": "Trash/Recycling",
    "request_reason": "Repair Trash Cart",
    "date_created": "2024-11-14T14:58:14.000",
    "date_modified": "2024-11-14T14:58:15.000",
    "request_status": "Pending",
    "responsible_agency": "Department of Sanitation",
    "final_address": "7816 Cohn St",
    "address_councildis": "A",
    "status": "Assigned to Contractor",
    "contractor": "IV Waste",
    "rowid": "1148657",
    "final_x": "3664307.34426",
    "final_y": "529505.967361",
    "longitude": "-90.12242598711182",
    "latitude": "29.950468557573856",
    "geocoded_column": {
      "latitude": "29.950468557573856",
      "longitude": "-90.12242598711182"
    }
  },
  {
    "service_request": "2024-1148656",
    "request_type": "Property Maintenance",
    "request_reason": "Property Maintenance",
    "date_created": "2024-11-14T14:57:57.000",
    "date_modified": "2024-11-14T15:11:30.000",
    "case_close_date": "2024-11-14T09:11:30.000",
    "request_status": "Closed",
    "responsible_agency": "Department of Code Enforcement",
    "final_address": "3816 Coliseum St",
    "address_councildis": "B",
    "status": "Referred to Code Enforcement",
    "rowid": "1148656",
    "final_x": "3672993.14792",
    "final_y": "519964.531768",
    "longitude": "-90.09532617822497",
    "latitude": "29.92397746117255",
    "geocoded_column": {
      "latitude": "29.92397746117255",
      "longitude": "-90.09532617822497"
    }
  },
  {
    "service_request": "2024-1148655",
    "request_type": "Trash/Recycling",
    "request_reason": "Request a Large Item Pick Up",
    "date_created": "2024-11-14T14:53:38.000",
    "date_modified": "2024-11-14T14:53:39.000",
    "request_status": "Pending",
    "responsible_agency": "Department of Sanitation",
    "final_address": "541 Atlantic Ave",
    "address_councildis": "C",
    "status": "Assigned to Contractor",
    "contractor": "Richards Disposal",
    "rowid": "1148655",
    "final_x": "3688742.24412",
    "final_y": "529556.869889",
    "longitude": "-90.04527167150971",
    "latitude": "29.949875871524508",
    "geocoded_column": {
      "latitude": "29.949875871524508",
      "longitude": "-90.04527167150971"
    }
  },
  {
    "service_request": "2024-1148654",
    "request_type": "General Services",
    "request_reason": "General Service Request",
    "date_created": "2024-11-14T14:50:20.000",
    "date_modified": "2024-11-14T14:58:37.000",
    "case_close_date": "2024-11-14T08:58:37.000",
    "request_status": "Closed",
    "responsible_agency": "Orleans Parish Communication District",
    "final_address": "3450 Chestnut St",
    "address_councildis": "B",
    "status": "Additional information requested from citizen",
    "rowid": "1148654",
    "final_x": "3674329.8882",
    "final_y": "520043.285752",
    "longitude": "-90.09110386515998",
    "latitude": "29.924154229101674",
    "geocoded_column": {
      "latitude": "29.924154229101674",
      "longitude": "-90.09110386515998"
    }
  },
  {
    "service_request": "2024-1148653",
    "request_type": "Trash/Recycling",
    "request_reason": "Order Recycling Cart",
    "date_created": "2024-11-14T14:47:34.000",
    "date_modified": "2024-11-14T14:47:35.000",
    "request_status": "Pending",
    "responsible_agency": "Department of Sanitation",
    "final_address": "125 W Harrison Ave",
    "address_councildis": "A",
    "status": "Pending",
    "rowid": "1148653",
    "final_x": "3665974.65498",
    "final_y": "549640.422612",
    "longitude": "-90.11648632637593",
    "latitude": "30.00578300379913",
    "geocoded_column": {
      "latitude": "30.00578300379913",
      "longitude": "-90.11648632637593"
    }
  },
  {
    "service_request": "2024-1148652",
    "request_type": "Abandoned Vehicles",
    "request_reason": "Abandoned/Junk Vehicles",
    "date_created": "2024-11-14T14:39:21.000",
    "date_modified": "2024-11-14T14:39:21.000",
    "request_status": "Pending",
    "responsible_agency": "Department of Public Works",
    "final_address": "4929 Eastern St",
    "address_councildis": "D",
    "status": "Pending",
    "rowid": "1148652",
    "final_x": "3688006.87254",
    "final_y": "551301.107413",
    "longitude": "-90.04682272072633",
    "latitude": "30.009687531108625",
    "geocoded_column": {
      "latitude": "30.009687531108625",
      "longitude": "-90.04682272072633"
    }
  },
  {
    "service_request": "2024-1148651",
    "request_type": "Safety & Permits",
    "request_reason": "Zoning Enforcement",
    "date_created": "2024-11-14T14:36:49.000",
    "date_modified": "2024-11-14T14:36:50.000",
    "request_status": "Pending",
    "responsible_agency": "Safety and Permits",
    "final_address": "ROYAL ST & ANDRY ST",
    "address_councildis": "E",
    "status": "Pending",
    "rowid": "1148651",
    "final_x": "3696754.5",
    "final_y": "532484.98",
    "longitude": "-90.01986743570971",
    "latitude": "29.957677058742345",
    "geocoded_column": {
      "latitude": "29.957677058742345",
      "longitude": "-90.01986743570971"
    }
  },
  {
    "service_request": "2024-1148650",
    "request_type": "Streetlights",
    "request_reason": "Streetlight Outage/Malfunction",
    "date_created": "2024-11-14T14:32:56.000",
    "date_modified": "2024-11-14T14:38:00.000",
    "request_status": "Pending",
    "responsible_agency": "Department of Public Works",
    "final_address": "1200 BLK Napoleon Ave",
    "address_councildis": "B",
    "status": "Pending",
    "contractor": "Legacy Professional Services",
    "rowid": "1148650",
    "final_x": "3670979.26102",
    "final_y": "519949.118026",
    "longitude": "-90.10168383874979",
    "latitude": "29.923994754223035",
    "geocoded_column": {
      "latitude": "29.923994754223035",
      "longitude": "-90.10168383874979"
    }
  },
  {
    "service_request": "2024-1148649",
    "request_type": "Roads and Streets",
    "request_reason": "Pothole",
    "date_created": "2024-11-14T14:29:11.000",
    "date_modified": "2024-11-14T14:29:12.000",
    "request_status": "Pending",
    "responsible_agency": "Department of Public Works",
    "final_address": "BIENVILLE ST & CITY PARK AVE",
    "address_councildis": "A",
    "status": "Pending",
    "rowid": "1148649",
    "final_x": "3668532.04",
    "final_y": "541273.78",
    "longitude": "-90.10868942843557",
    "latitude": "29.982702689210186",
    "geocoded_column": {
      "latitude": "29.982702689210186",
      "longitude": "-90.10868942843557"
    }
  },
  {
    "service_request": "2024-1148648",
    "request_type": "Trash/Recycling",
    "request_reason": "Request a Large Item Pick Up",
    "date_created": "2024-11-14T14:28:20.000",
    "date_modified": "2024-11-14T14:28:21.000",
    "request_status": "Pending",
    "responsible_agency": "Department of Sanitation",
    "final_address": "909 Opelousas Ave",
    "address_councildis": "C",
    "status": "Assigned to Contractor",
    "contractor": "Richards Disposal",
    "rowid": "1148648",
    "final_x": "3688278.00355",
    "final_y": "529025.2368",
    "longitude": "-90.0467563372761",
    "latitude": "29.948428403830206",
    "geocoded_column": {
      "latitude": "29.948428403830206",
      "longitude": "-90.0467563372761"
    }
  },
  {
    "service_request": "2024-1148647",
    "request_type": "Trash/Recycling",
    "request_reason": "Missed Trash Pick-Up",
    "date_created": "2024-11-14T14:24:32.000",
    "date_modified": "2024-11-14T14:24:33.000",
    "request_status": "Pending",
    "responsible_agency": "Department of Sanitation",
    "final_address": "1943 Lamanche St",
    "address_councildis": "E",
    "status": "Assigned to Contractor",
    "contractor": "Waste Pro",
    "rowid": "1148647",
    "final_x": "3699329.90378",
    "final_y": "536980.389768",
    "longitude": "-90.01157136553674",
    "latitude": "29.969956402726947",
    "geocoded_column": {
      "latitude": "29.969956402726947",
      "longitude": "-90.01157136553674"
    }
  },
  {
    "service_request": "2024-1148646",
    "request_type": "Abandoned Vehicles",
    "request_reason": "Abandoned/Junk Vehicles",
    "date_created": "2024-11-14T14:15:31.000",
    "date_modified": "2024-11-14T14:15:31.000",
    "request_status": "Pending",
    "responsible_agency": "Department of Public Works",
    "final_address": "4931 Eastern St",
    "address_councildis": "D",
    "status": "Pending",
    "rowid": "1148646",
    "final_x": "3688001.89654",
    "final_y": "551346.032853",
    "longitude": "-90.04683684805326",
    "latitude": "30.009811213217002",
    "geocoded_column": {
      "latitude": "30.009811213217002",
      "longitude": "-90.04683684805326"
    }
  },
  {
    "service_request": "2024-1148645",
    "request_type": "Drainage",
    "request_reason": "Street Flooding",
    "date_created": "2024-11-14T14:13:34.000",
    "date_modified": "2024-11-14T14:13:34.000",
    "request_status": "Pending",
    "responsible_agency": "Department of Public Works",
    "final_address": "ALINE ST & CHESTNUT ST",
    "address_councildis": "B",
    "status": "Pending",
    "rowid": "1148645",
    "final_x": "3674221.6",
    "final_y": "520103.88",
    "longitude": "-90.09144362037674",
    "latitude": "29.924324071409746",
    "geocoded_column": {
      "latitude": "29.924324071409746",
      "longitude": "-90.09144362037674"
    }
  },
  {
    "service_request": "2024-1148644",
    "request_type": "Trash/Recycling",
    "request_reason": "Request a Large Item Pick Up",
    "date_created": "2024-11-14T14:13:15.000",
    "date_modified": "2024-11-14T14:13:44.000",
    "request_status": "Pending",
    "responsible_agency": "Department of Sanitation",
    "final_address": "3308 Gentilly Blvd",
    "address_councildis": "D",
    "status": "Assigned to Contractor",
    "contractor": "IV Waste",
    "rowid": "1148644",
    "final_x": "3684683.32098",
    "final_y": "547994.801746",
    "longitude": "-90.05743929824649",
    "latitude": "30.000698572963113",
    "geocoded_column": {
      "latitude": "30.000698572963113",
      "longitude": "-90.05743929824649"
    }
  },
  {
    "service_request": "2024-1148643",
    "request_type": "Roads and Streets",
    "request_reason": "Debris in Driving Lanes",
    "date_created": "2024-11-14T14:09:12.000",
    "date_modified": "2024-11-14T14:09:12.000",
    "request_status": "Pending",
    "responsible_agency": "Department of Public Works",
    "final_address": "2428 St Philip St",
    "address_councildis": "D",
    "status": "Pending",
    "rowid": "1148643",
    "final_x": "3678268.9972",
    "final_y": "537137.54804",
    "longitude": "-90.07807834773604",
    "latitude": "29.97103973868065",
    "geocoded_column": {
      "latitude": "29.97103973868065",
      "longitude": "-90.07807834773604"
    }
  },
  {
    "service_request": "2024-1148642",
    "request_type": "Abandoned Vehicles",
    "request_reason": "Abandoned/Junk Vehicles",
    "date_created": "2024-11-14T14:08:00.000",
    "date_modified": "2024-11-14T14:09:49.000",
    "request_status": "Pending",
    "responsible_agency": "Department of Public Works",
    "final_address": "3155 Law St",
    "address_councildis": "D",
    "status": "Pending",
    "rowid": "1148642",
    "final_x": "3690861.63094",
    "final_y": "541581.891148",
    "longitude": "-90.03815064120595",
    "latitude": "29.98287477683204",
    "geocoded_column": {
      "latitude": "29.98287477683204",
      "longitude": "-90.03815064120595"
    }
  },
  {
    "service_request": "2024-1148641",
    "request_type": "Trash/Recycling",
    "request_reason": "Order Recycling Cart",
    "date_created": "2024-11-14T14:01:10.000",
    "date_modified": "2024-11-14T14:01:10.000",
    "request_status": "Pending",
    "responsible_agency": "Department of Sanitation",
    "final_address": "7320 Sycamore St",
    "address_councildis": "A",
    "status": "Pending",
    "rowid": "1148641",
    "final_x": "3665713.59143",
    "final_y": "529628.923137",
    "longitude": "-90.11798165296511",
    "latitude": "29.950765708307127",
    "geocoded_column": {
      "latitude": "29.950765708307127",
      "longitude": "-90.11798165296511"
    }
  },
  {
    "service_request": "2024-1148640",
    "request_type": "Streetlights",
    "request_reason": "Streetlight Outage/Malfunction",
    "date_created": "2024-11-14T14:01:08.000",
    "date_modified": "2024-11-14T14:01:09.000",
    "request_status": "Pending",
    "responsible_agency": "Department of Public Works",
    "final_address": "DWYER BLVD & TOULON ST",
    "address_councildis": "E",
    "status": "Pending",
    "contractor": "Legacy Professional Services",
    "rowid": "1148640",
    "final_x": "3723706.6",
    "final_y": "561208.68",
    "longitude": "-89.93365382441368",
    "latitude": "30.035778924598315",
    "geocoded_column": {
      "latitude": "30.035778924598315",
      "longitude": "-89.93365382441368"
    }
  },
  {
    "service_request": "2024-1148639",
    "request_type": "Roads and Streets",
    "request_reason": "Abandoned Service Cut",
    "date_created": "2024-11-14T14:00:40.000",
    "date_modified": "2024-11-14T14:00:40.000",
    "request_status": "Pending",
    "responsible_agency": "Department of Public Works",
    "final_address": "6556 Louisville St",
    "address_councildis": "A",
    "status": "Pending",
    "rowid": "1148639",
    "final_x": "3668006.40673",
    "final_y": "551234.006229",
    "longitude": "-90.11001378081009",
    "latitude": "30.010105317830895",
    "geocoded_column": {
      "latitude": "30.010105317830895",
      "longitude": "-90.11001378081009"
    }
  },
  {
    "service_request": "2024-1148638",
    "request_type": "Trash/Recycling",
    "request_reason": "Illegal Dumping",
    "date_created": "2024-11-14T14:00:38.000",
    "date_modified": "2024-11-14T14:00:38.000",
    "request_status": "Pending",
    "responsible_agency": "Department of Sanitation",
    "final_address": "2200 BLK Florida Ave",
    "address_councildis": "D",
    "status": "Pending",
    "rowid": "1148638",
    "final_x": "3685187.96128",
    "final_y": "542250.49009",
    "longitude": "-90.05604739046906",
    "latitude": "29.984888306651253",
    "geocoded_column": {
      "latitude": "29.984888306651253",
      "longitude": "-90.05604739046906"
    }
  },
  {
    "service_request": "2024-1148637",
    "request_type": "Abandoned Vehicles",
    "request_reason": "Abandoned/Junk Vehicles",
    "date_created": "2024-11-14T14:00:35.000",
    "date_modified": "2024-11-14T14:00:35.000",
    "request_status": "Pending",
    "responsible_agency": "Department of Public Works",
    "final_address": "5608 Dauphine St",
    "address_councildis": "E",
    "status": "Pending",
    "rowid": "1148637",
    "final_x": "3697820.89885",
    "final_y": "532559.6313",
    "longitude": "-90.0164973689116",
    "latitude": "29.95784866843309",
    "geocoded_column": {
      "latitude": "29.95784866843309",
      "longitude": "-90.0164973689116"
    }
  },
  {
    "service_request": "2024-1148636",
    "request_type": "Trash/Recycling",
    "request_reason": "Request a Large Item Pick Up",
    "date_created": "2024-11-14T13:58:00.000",
    "date_modified": "2024-11-14T13:58:01.000",
    "request_status": "Pending",
    "responsible_agency": "Department of Sanitation",
    "final_address": "6962 Boston Dr",
    "address_councildis": "E",
    "status": "Assigned to Contractor",
    "contractor": "Waste Pro",
    "rowid": "1148636",
    "final_x": "3706456.75787",
    "final_y": "560488.549662",
    "longitude": "-89.98819272087027",
    "latitude": "30.034366945709426",
    "geocoded_column": {
      "latitude": "30.034366945709426",
      "longitude": "-89.98819272087027"
    }
  },
  {
    "service_request": "2024-1148635",
    "request_type": "Streetlights",
    "request_reason": "Streetlight Outage/Malfunction",
    "date_created": "2024-11-14T13:56:57.000",
    "date_modified": "2024-11-14T13:56:58.000",
    "request_status": "Pending",
    "responsible_agency": "Department of Public Works",
    "final_address": "7200 Prytania St",
    "address_councildis": "A",
    "status": "Pending",
    "contractor": "Legacy Professional Services",
    "rowid": "1148635",
    "final_x": "3661568.73882",
    "final_y": "522789.832955",
    "longitude": "-90.131295588107",
    "latitude": "29.932080614755677",
    "geocoded_column": {
      "latitude": "29.932080614755677",
      "longitude": "-90.131295588107"
    }
  },
  {
    "service_request": "2024-1148634",
    "request_type": "Roads and Streets",
    "request_reason": "Abandoned Service Cut",
    "date_created": "2024-11-14T13:56:31.000",
    "date_modified": "2024-11-14T13:56:31.000",
    "request_status": "Pending",
    "responsible_agency": "Department of Public Works",
    "final_address": "6556 Louisville St",
    "address_councildis": "A",
    "status": "Pending",
    "rowid": "1148634",
    "final_x": "3668006.40673",
    "final_y": "551234.006229",
    "longitude": "-90.11001378081009",
    "latitude": "30.010105317830895",
    "geocoded_column": {
      "latitude": "30.010105317830895",
      "longitude": "-90.11001378081009"
    }
  },
  {
    "service_request": "2024-1148633",
    "request_type": "Parks & Parkways",
    "request_reason": "Request Tree Service (Right of Way/Public Property)",
    "date_created": "2024-11-14T13:40:58.000",
    "date_modified": "2024-11-14T13:40:59.000",
    "request_status": "Pending",
    "responsible_agency": "Department of Parks & Parkway",
    "final_address": "FLEUR DE LIS DR & 20TH ST",
    "address_councildis": "A",
    "status": "Pending",
    "rowid": "1148633",
    "final_x": "3665274.1",
    "final_y": "549022.98",
    "longitude": "-90.11872022840315",
    "latitude": "30.0041056879723",
    "geocoded_column": {
      "latitude": "30.0041056879723",
      "longitude": "-90.11872022840315"
    }
  },
  {
    "service_request": "2024-1148632",
    "request_type": "Trash/Recycling",
    "request_reason": "Repair Trash Cart",
    "date_created": "2024-11-14T13:40:24.000",
    "date_modified": "2024-11-14T13:40:25.000",
    "request_status": "Pending",
    "responsible_agency": "Department of Sanitation",
    "final_address": "2614 Annunciation St",
    "address_councildis": "B",
    "status": "Assigned to Contractor",
    "contractor": "IV Waste",
    "rowid": "1148632",
    "final_x": "3678084.95368",
    "final_y": "520137.81804",
    "longitude": "-90.07924717322973",
    "latitude": "29.92430169039329",
    "geocoded_column": {
      "latitude": "29.92430169039329",
      "longitude": "-90.07924717322973"
    }
  },
  {
    "service_request": "2024-1148631",
    "request_type": "Trash/Recycling",
    "request_reason": "Request a Large Item Pick Up",
    "date_created": "2024-11-14T13:36:03.000",
    "date_modified": "2024-11-14T13:36:04.000",
    "request_status": "Pending",
    "responsible_agency": "Department of Sanitation",
    "final_address": "1215 Clouet St",
    "address_councildis": "C",
    "status": "Assigned to Contractor",
    "contractor": "IV Waste",
    "rowid": "1148631",
    "final_x": "3689155.68809",
    "final_y": "536478.011783",
    "longitude": "-90.04372028965683",
    "latitude": "29.968893823889516",
    "geocoded_column": {
      "latitude": "29.968893823889516",
      "longitude": "-90.04372028965683"
    }
  },
  {
    "service_request": "2024-1148630",
    "request_type": "Trash/Recycling",
    "request_reason": "Request a Large Item Pick Up",
    "date_created": "2024-11-14T13:33:26.000",
    "date_modified": "2024-11-14T13:33:27.000",
    "request_status": "Pending",
    "responsible_agency": "Department of Sanitation",
    "final_address": "4436 Duplessis St",
    "address_councildis": "D",
    "status": "Assigned to Contractor",
    "contractor": "IV Waste",
    "rowid": "1148630",
    "final_x": "3678163.60635",
    "final_y": "548794.880531",
    "longitude": "-90.0780078549644",
    "latitude": "30.003096510488437",
    "geocoded_column": {
      "latitude": "30.003096510488437",
      "longitude": "-90.0780078549644"
    }
  },
  {
    "service_request": "2024-1148629",
    "request_type": "Trash/Recycling",
    "request_reason": "Return Trash Cart",
    "date_created": "2024-11-14T13:28:18.000",
    "date_modified": "2024-11-14T13:28:19.000",
    "request_status": "Pending",
    "responsible_agency": "Department of Sanitation",
    "final_address": "1024 Nashville Ave",
    "address_councildis": "A",
    "status": "Assigned to Contractor",
    "contractor": "IV Waste",
    "rowid": "1148629",
    "final_x": "3665649.20404",
    "final_y": "519870.98444",
    "longitude": "-90.11851161117441",
    "latitude": "29.923936370237392",
    "geocoded_column": {
      "latitude": "29.923936370237392",
      "longitude": "-90.11851161117441"
    }
  },
  {
    "service_request": "2024-1148628",
    "request_type": "Abandoned Vehicles",
    "request_reason": "Abandoned/Junk Vehicles",
    "date_created": "2024-11-14T13:27:07.000",
    "date_modified": "2024-11-14T13:27:15.000",
    "request_status": "Pending",
    "responsible_agency": "Department of Public Works",
    "final_address": "1010 St Mary St",
    "address_councildis": "B",
    "status": "Pending",
    "rowid": "1148628",
    "final_x": "3679934.14082",
    "final_y": "522577.005242",
    "longitude": "-90.07332526370446",
    "latitude": "29.93095287704217",
    "geocoded_column": {
      "latitude": "29.93095287704217",
      "longitude": "-90.07332526370446"
    }
  },
  {
    "service_request": "2024-1148627",
    "request_type": "Trash/Recycling",
    "request_reason": "Order Trash Cart",
    "date_created": "2024-11-14T13:26:50.000",
    "date_modified": "2024-11-14T13:26:51.000",
    "request_status": "Pending",
    "responsible_agency": "Department of Sanitation",
    "final_address": "2401 S Roman St Apt D",
    "address_councildis": "B",
    "status": "Assigned to Contractor",
    "contractor": "IV Waste",
    "rowid": "1148627",
    "final_x": "3673707.09518",
    "final_y": "527986.081663",
    "longitude": "-90.09279836023883",
    "latitude": "29.946012887104285",
    "geocoded_column": {
      "latitude": "29.946012887104285",
      "longitude": "-90.09279836023883"
    }
  },
  {
    "service_request": "2024-1148626",
    "request_type": "Trash/Recycling",
    "request_reason": "Request a Large Item Pick Up",
    "date_created": "2024-11-14T13:26:25.000",
    "date_modified": "2024-11-14T14:50:22.000",
    "request_status": "Pending",
    "responsible_agency": "Department of Sanitation",
    "final_address": "1022 St Mary St",
    "address_councildis": "B",
    "status": "Assigned to Contractor",
    "contractor": "IV Waste",
    "rowid": "1148626",
    "final_x": "3679857.36648",
    "final_y": "522653.898554",
    "longitude": "-90.0735649610023",
    "latitude": "29.9311666295393",
    "geocoded_column": {
      "latitude": "29.9311666295393",
      "longitude": "-90.0735649610023"
    }
  },
  {
    "service_request": "2024-1148625",
    "request_type": "Streetlights",
    "request_reason": "Streetlight Outage/Malfunction",
    "date_created": "2024-11-14T13:26:22.000",
    "date_modified": "2024-11-14T13:26:23.000",
    "request_status": "Pending",
    "responsible_agency": "Department of Public Works",
    "final_address": "5716 Tullis Dr",
    "address_councildis": "C",
    "status": "Pending",
    "contractor": "Legacy Professional Services",
    "rowid": "1148625",
    "final_x": "3705137.99998",
    "final_y": "512785.753905",
    "longitude": "-89.99412201312542",
    "latitude": "29.90324418211986",
    "geocoded_column": {
      "latitude": "29.90324418211986",
      "longitude": "-89.99412201312542"
    }
  },
  {
    "service_request": "2024-1148624",
    "request_type": "Trash/Recycling",
    "request_reason": "Order Trash Cart",
    "date_created": "2024-11-14T13:26:04.000",
    "date_modified": "2024-11-14T13:26:05.000",
    "request_status": "Pending",
    "responsible_agency": "Department of Sanitation",
    "final_address": "2401 S Roman St Apt C",
    "address_councildis": "B",
    "status": "Assigned to Contractor",
    "contractor": "IV Waste",
    "rowid": "1148624",
    "final_x": "3673714.17851",
    "final_y": "527989.831615",
    "longitude": "-90.09277586753579",
    "latitude": "29.94602298737244",
    "geocoded_column": {
      "latitude": "29.94602298737244",
      "longitude": "-90.09277586753579"
    }
  },
  {
    "service_request": "2024-1148623",
    "request_type": "Trash/Recycling",
    "request_reason": "Order Trash Cart",
    "date_created": "2024-11-14T13:25:18.000",
    "date_modified": "2024-11-14T13:25:19.000",
    "request_status": "Pending",
    "responsible_agency": "Department of Sanitation",
    "final_address": "2401 S Roman St Apt B",
    "address_councildis": "B",
    "status": "Assigned to Contractor",
    "contractor": "IV Waste",
    "rowid": "1148623",
    "final_x": "3673721.26184",
    "final_y": "527994.831615",
    "longitude": "-90.09275333209662",
    "latitude": "29.946036524857405",
    "geocoded_column": {
      "latitude": "29.946036524857405",
      "longitude": "-90.09275333209662"
    }
  },
  {
    "service_request": "2024-1148622",
    "request_type": "Trash/Recycling",
    "request_reason": "Request a Large Item Pick Up",
    "date_created": "2024-11-14T13:25:07.000",
    "date_modified": "2024-11-14T13:25:08.000",
    "request_status": "Pending",
    "responsible_agency": "Department of Sanitation",
    "final_address": "4657 Charlene Dr",
    "address_councildis": "E",
    "status": "Assigned to Contractor",
    "contractor": "Waste Pro",
    "rowid": "1148622",
    "final_x": "3708033.67166",
    "final_y": "554941.56444",
    "longitude": "-89.98341601325508",
    "latitude": "30.019063912800263",
    "geocoded_column": {
      "latitude": "30.019063912800263",
      "longitude": "-89.98341601325508"
    }
  },
  {
    "service_request": "2024-1148621",
    "request_type": "Trash/Recycling",
    "request_reason": "Request a Large Item Pick Up",
    "date_created": "2024-11-14T13:25:07.000",
    "date_modified": "2024-11-14T13:25:08.000",
    "request_status": "Pending",
    "responsible_agency": "Department of Sanitation",
    "final_address": "5741 Carlisle Ct",
    "address_councildis": "C",
    "status": "Assigned to Contractor",
    "contractor": "Richards Disposal",
    "rowid": "1148621",
    "final_x": "3704851.11364",
    "final_y": "516481.042613",
    "longitude": "-89.99489119022073",
    "latitude": "29.913414178711026",
    "geocoded_column": {
      "latitude": "29.913414178711026",
      "longitude": "-89.99489119022073"
    }
  },
  {
    "service_request": "2024-1148620",
    "request_type": "Trash/Recycling",
    "request_reason": "Order Trash Cart",
    "date_created": "2024-11-14T13:24:23.000",
    "date_modified": "2024-11-14T13:24:24.000",
    "request_status": "Pending",
    "responsible_agency": "Department of Sanitation",
    "final_address": "2401 S Roman St Apt A",
    "address_councildis": "B",
    "status": "Assigned to Contractor",
    "contractor": "IV Waste",
    "rowid": "1148620",
    "final_x": "3673727.92846",
    "final_y": "527999.831615",
    "longitude": "-90.0927321123491",
    "latitude": "29.946050074744242",
    "geocoded_column": {
      "latitude": "29.946050074744242",
      "longitude": "-90.0927321123491"
    }
  },
  {
    "service_request": "2024-1148619",
    "request_type": "Roads and Streets",
    "request_reason": "Pothole",
    "date_created": "2024-11-14T13:19:48.000",
    "date_modified": "2024-11-14T13:19:49.000",
    "request_status": "Pending",
    "responsible_agency": "Department of Public Works",
    "final_address": "777 Walker St",
    "address_councildis": "A",
    "status": "Pending",
    "rowid": "1148619",
    "final_x": "3669746.57594",
    "final_y": "553994.633496",
    "longitude": "-90.10442238744874",
    "latitude": "30.01764486917856",
    "geocoded_column": {
      "latitude": "30.01764486917856",
      "longitude": "-90.10442238744874"
    }
  },
  {
    "service_request": "2024-1148618",
    "request_type": "Abandoned Vehicles",
    "request_reason": "Abandoned/Junk Vehicles",
    "date_created": "2024-11-14T13:17:47.000",
    "date_modified": "2024-11-14T13:18:01.000",
    "request_status": "Pending",
    "responsible_agency": "Department of Public Works",
    "final_address": "6967 Marshal Foch St",
    "address_councildis": "A",
    "rowid": "1148618",
    "final_x": "3670506.55265",
    "final_y": "553659.909335",
    "longitude": "-90.10203251776367",
    "latitude": "30.01670206316952",
    "geocoded_column": {
      "latitude": "30.01670206316952",
      "longitude": "-90.10203251776367"
    }
  },
  {
    "service_request": "2024-1148617",
    "request_type": "Trash/Recycling",
    "request_reason": "Repair Trash Cart",
    "date_created": "2024-11-14T13:13:31.000",
    "date_modified": "2024-11-14T13:13:32.000",
    "request_status": "Pending",
    "responsible_agency": "Department of Sanitation",
    "final_address": "5918 Pitt St",
    "address_councildis": "A",
    "status": "Assigned to Contractor",
    "contractor": "IV Waste",
    "rowid": "1148617",
    "final_x": "3665506.64429",
    "final_y": "521004.208185",
    "longitude": "-90.11892371053625",
    "latitude": "29.927056533883896",
    "geocoded_column": {
      "latitude": "29.927056533883896",
      "longitude": "-90.11892371053625"
    }
  },
  {
    "service_request": "2024-1148616",
    "request_type": "Trash/Recycling",
    "request_reason": "Request a Large Item Pick Up",
    "date_created": "2024-11-14T13:12:26.000",
    "date_modified": "2024-11-14T13:12:27.000",
    "request_status": "Pending",
    "responsible_agency": "Department of Sanitation",
    "final_address": "3301 Octavia St",
    "address_councildis": "A",
    "status": "Assigned to Contractor",
    "contractor": "IV Waste",
    "rowid": "1148616",
    "final_x": "3668461.47482",
    "final_y": "527727.691199",
    "longitude": "-90.10936933429493",
    "latitude": "29.945457512022177",
    "geocoded_column": {
      "latitude": "29.945457512022177",
      "longitude": "-90.10936933429493"
    }
  },
  {
    "service_request": "2024-1148615",
    "request_type": "Trash/Recycling",
    "request_reason": "Illegal Dumping",
    "date_created": "2024-11-14T13:09:44.000",
    "date_modified": "2024-11-14T13:09:45.000",
    "request_status": "Pending",
    "responsible_agency": "Department of Sanitation",
    "final_address": "MAGAZINE ST & EUTERPE ST",
    "address_councildis": "B",
    "status": "Pending",
    "rowid": "1148615",
    "final_x": "3680290.8",
    "final_y": "524210.38",
    "longitude": "-90.07214258549554",
    "latitude": "29.935433330144328",
    "geocoded_column": {
      "latitude": "29.935433330144328",
      "longitude": "-90.07214258549554"
    }
  },
  {
    "service_request": "2024-1148614",
    "request_type": "Trash/Recycling",
    "request_reason": "Repair Trash Cart",
    "date_created": "2024-11-14T13:09:16.000",
    "date_modified": "2024-11-14T13:09:17.000",
    "request_status": "Pending",
    "responsible_agency": "Department of Sanitation",
    "final_address": "420 18Th St",
    "address_councildis": "A",
    "status": "Assigned to Contractor",
    "contractor": "IV Waste",
    "rowid": "1148614",
    "final_x": "3664584.19245",
    "final_y": "548670.963859",
    "longitude": "-90.12091154617208",
    "latitude": "30.003157855454003",
    "geocoded_column": {
      "latitude": "30.003157855454003",
      "longitude": "-90.12091154617208"
    }
  },
  {
    "service_request": "2024-1148613",
    "request_type": "Drainage",
    "request_reason": "Catch Basin Clogged",
    "date_created": "2024-11-14T13:07:07.000",
    "date_modified": "2024-11-14T13:07:08.000",
    "request_status": "Pending",
    "responsible_agency": "Department of Public Works",
    "final_address": "1221 Seventh St",
    "address_councildis": "B",
    "status": "Pending",
    "rowid": "1148613",
    "final_x": "3676118.01371",
    "final_y": "520850.703353",
    "longitude": "-90.08543161862157",
    "latitude": "29.92632094162212",
    "geocoded_column": {
      "latitude": "29.92632094162212",
      "longitude": "-90.08543161862157"
    }
  },
  {
    "service_request": "2024-1148612",
    "request_type": "Trash/Recycling",
    "request_reason": "Request a Large Item Pick Up",
    "date_created": "2024-11-14T13:05:58.000",
    "date_modified": "2024-11-14T13:05:59.000",
    "request_status": "Pending",
    "responsible_agency": "Department of Sanitation",
    "final_address": "6620 Dorian St",
    "address_councildis": "D",
    "status": "Assigned to Contractor",
    "contractor": "Waste Pro",
    "rowid": "1148612",
    "final_x": "3696463.91952",
    "final_y": "555506.251609",
    "longitude": "-90.01995176455156",
    "latitude": "30.020986298470397",
    "geocoded_column": {
      "latitude": "30.020986298470397",
      "longitude": "-90.01995176455156"
    }
  },
  {
    "service_request": "2024-1148611",
    "request_type": "Drainage",
    "request_reason": "Catch Basin Damaged",
    "date_created": "2024-11-14T13:03:59.000",
    "date_modified": "2024-11-14T13:03:59.000",
    "request_status": "Pending",
    "responsible_agency": "Department of Public Works",
    "final_address": "841 Bellecastle St",
    "address_councildis": "B",
    "status": "Pending",
    "rowid": "1148611",
    "final_x": "3667726.99828",
    "final_y": "518543.593463",
    "longitude": "-90.11199739861075",
    "latitude": "29.92022572809854",
    "geocoded_column": {
      "latitude": "29.92022572809854",
      "longitude": "-90.11199739861075"
    }
  },
  {
    "service_request": "2024-1148610",
    "request_type": "Drainage",
    "request_reason": "Drainage Manhole Cover Missing or Damaged",
    "date_created": "2024-11-14T13:01:30.000",
    "date_modified": "2024-11-14T13:01:31.000",
    "request_status": "Pending",
    "responsible_agency": "Department of Public Works",
    "final_address": "6450 Milne Blvd",
    "address_councildis": "A",
    "status": "Pending",
    "rowid": "1148610",
    "final_x": "3667277.71309",
    "final_y": "550725.682517",
    "longitude": "-90.1123331141941",
    "latitude": "30.00872897633857",
    "geocoded_column": {
      "latitude": "30.00872897633857",
      "longitude": "-90.1123331141941"
    }
  },
  {
    "service_request": "2024-1148609",
    "request_type": "Trash/Recycling",
    "request_reason": "Replace Trash Cart",
    "date_created": "2024-11-14T12:59:18.000",
    "date_modified": "2024-11-14T12:59:19.000",
    "request_status": "Pending",
    "responsible_agency": "Department of Sanitation",
    "final_address": "220 N Tonti St",
    "address_councildis": "B",
    "status": "Assigned to Contractor",
    "contractor": "IV Waste",
    "rowid": "1148609",
    "final_x": "3676846.66177",
    "final_y": "534728.711174",
    "longitude": "-90.08265330847087",
    "latitude": "29.964459023433466",
    "geocoded_column": {
      "latitude": "29.964459023433466",
      "longitude": "-90.08265330847087"
    }
  },
  {
    "service_request": "2024-1148608",
    "request_type": "Traffic Signals",
    "request_reason": "Traffic Signal Malfunctioning or Damaged",
    "date_created": "2024-11-14T12:57:29.000",
    "date_modified": "2024-11-14T12:57:29.000",
    "request_status": "Pending",
    "responsible_agency": "Department of Public Works",
    "final_address": "2140 Magazine St",
    "address_councildis": "B",
    "status": "Pending",
    "rowid": "1148608",
    "final_x": "3678922.16245",
    "final_y": "522082.969594",
    "longitude": "-90.07653704784515",
    "latitude": "29.929625000618316",
    "geocoded_column": {
      "latitude": "29.929625000618316",
      "longitude": "-90.07653704784515"
    }
  },
  {
    "service_request": "2024-1148607",
    "request_type": "Property Maintenance",
    "request_reason": "Property Maintenance",
    "date_created": "2024-11-14T12:54:02.000",
    "date_modified": "2024-11-14T13:23:56.000",
    "case_close_date": "2024-11-14T07:23:56.000",
    "request_status": "Closed",
    "responsible_agency": "Department of Code Enforcement",
    "final_address": "8000 Trapier Ave",
    "address_councildis": "E",
    "status": "Referred to Code Enforcement",
    "rowid": "1148607",
    "final_x": "3706041.08996",
    "final_y": "564350.596257",
    "longitude": "-89.98936312872227",
    "latitude": "30.044999456955605",
    "geocoded_column": {
      "latitude": "30.044999456955605",
      "longitude": "-89.98936312872227"
    }
  },
  {
    "service_request": "2024-1148606",
    "request_type": "Trash/Recycling",
    "request_reason": "Repair Trash Cart",
    "date_created": "2024-11-14T12:46:23.000",
    "date_modified": "2024-11-14T12:46:25.000",
    "request_status": "Pending",
    "responsible_agency": "Department of Sanitation",
    "final_address": "2124 Danneel St",
    "address_councildis": "B",
    "status": "Assigned to Contractor",
    "contractor": "IV Waste",
    "rowid": "1148606",
    "final_x": "3676797.14664",
    "final_y": "525057.578109",
    "longitude": "-90.08314289361304",
    "latitude": "29.93786811921224",
    "geocoded_column": {
      "latitude": "29.93786811921224",
      "longitude": "-90.08314289361304"
    }
  },
  {
    "service_request": "2024-1148605",
    "request_type": "Trash/Recycling",
    "request_reason": "Order Trash Cart",
    "date_created": "2024-11-14T12:44:28.000",
    "date_modified": "2024-11-14T12:44:29.000",
    "request_status": "Pending",
    "responsible_agency": "Department of Sanitation",
    "final_address": "3501 Tulane Ave",
    "address_councildis": "B",
    "status": "Assigned to Contractor",
    "contractor": "IV Waste",
    "rowid": "1148605",
    "final_x": "3671481.84027",
    "final_y": "535264.856774",
    "longitude": "-90.09957681366194",
    "latitude": "29.96609316523001",
    "geocoded_column": {
      "latitude": "29.96609316523001",
      "longitude": "-90.09957681366194"
    }
  },
  {
    "service_request": "2024-1148604",
    "request_type": "Trash/Recycling",
    "request_reason": "Order Recycling Cart",
    "date_created": "2024-11-14T12:42:32.000",
    "date_modified": "2024-11-14T12:42:33.000",
    "request_status": "Pending",
    "responsible_agency": "Department of Sanitation",
    "final_address": "4301 Marais St",
    "address_councildis": "D",
    "status": "Pending",
    "rowid": "1148604",
    "final_x": "3692859.85808",
    "final_y": "535445.491206",
    "longitude": "-90.03205936411804",
    "latitude": "29.965939605638695",
    "geocoded_column": {
      "latitude": "29.965939605638695",
      "longitude": "-90.03205936411804"
    }
  },
  {
    "service_request": "2024-1148603",
    "request_type": "Trash/Recycling",
    "request_reason": "Order Second Trash Cart",
    "date_created": "2024-11-14T12:42:05.000",
    "date_modified": "2024-11-14T12:42:05.000",
    "request_status": "Pending",
    "responsible_agency": "Department of Sanitation",
    "final_address": "4301 Marais St",
    "address_councildis": "D",
    "status": "Assigned to Contractor",
    "contractor": "IV Waste",
    "rowid": "1148603",
    "final_x": "3692859.85808",
    "final_y": "535445.491206",
    "longitude": "-90.03205936411804",
    "latitude": "29.965939605638695",
    "geocoded_column": {
      "latitude": "29.965939605638695",
      "longitude": "-90.03205936411804"
    }
  },
  {
    "service_request": "2024-1148602",
    "request_type": "Trash/Recycling",
    "request_reason": "Replace Trash Cart",
    "date_created": "2024-11-14T12:41:43.000",
    "date_modified": "2024-11-14T12:41:44.000",
    "request_status": "Pending",
    "responsible_agency": "Department of Sanitation",
    "final_address": "4301 Marais St",
    "address_councildis": "D",
    "status": "Assigned to Contractor",
    "contractor": "IV Waste",
    "rowid": "1148602",
    "final_x": "3692859.85808",
    "final_y": "535445.491206",
    "longitude": "-90.03205936411804",
    "latitude": "29.965939605638695",
    "geocoded_column": {
      "latitude": "29.965939605638695",
      "longitude": "-90.03205936411804"
    }
  },