[
  {
    "service_request": "2025-1206241",
    "request_type": "Trash/Recycling",
    "request_reason": "Order Recycling Cart",
    "date_created": "2025-07-02T23:40:11.000",
    "date_modified": "2025-07-02T23:40:12.000",
    "request_status": "Pending",
    "responsible_agency": "Department of Sanitation",
    "final_address": "11030 S Hardy St",
    "address_councildis": "E",
    "status": "Pending",
    "rowid": "1206241",
    "final_x": "3713515.58002",
    "final_y": "561928.062559",
    "longitude": "-89.96583182397627",
    "latitude": "30.038095290446815",
    "geocoded_column": {
      "latitude": "30.038095290446815",
      "longitude": "-89.96583182397627"
    }
  },
  {
    "service_request": "2025-1206240",
    "request_type": "Trash/Recycling",
    "request_reason": "Replace Trash Cart",
    "date_created": "2025-07-02T22:53:31.000",
    "date_modified": "2025-07-02T22:53:36.000",
    "request_status": "Pending",
    "responsible_agency": "Department of Sanitation",
    "final_address": "3925 Tall Pines Dr",
    "address_councildis": "C",
    "status": "Assigned to Contractor",
    "contractor": "Richards Disposal",
    "rowid": "1206240",
    "final_x": "3704698.85143",
    "final_y": "512971.343665",
    "longitude": "-89.99550111085217",
    "latitude": "29.903768596455386",
    "geocoded_column": {
      "latitude": "29.903768596455386",
      "longitude": "-89.99550111085217"
    }
  },
  {
    "service_request": "2025-1206239",
    "request_type": "Streetlights",
    "request_reason": "Streetlight Outage/Malfunction",
    "date_created": "2025-07-02T22:28:17.000",
    "date_modified": "2025-07-02T22:28:19.000",
    "request_status": "Pending",
    "responsible_agency": "Department of Public Works",
    "final_address": "8700 Lake Forest Blvd",
    "address_councildis": "E",
    "status": "Pending",
    "contractor": "Legacy Professional Services",
    "rowid": "1206239",
    "final_x": "3706379.43159",
    "final_y": "558088.596379",
    "longitude": "-89.98852609141673",
    "latitude": "30.027770510603997",
    "geocoded_column": {
      "latitude": "30.027770510603997",
      "longitude": "-89.98852609141673"
    }
  },
  {
    "service_request": "2025-1206238",
    "request_type": "Streetlights",
    "request_reason": "Streetlight Outage/Malfunction",
    "date_created": "2025-07-02T22:25:08.000",
    "date_modified": "2025-07-02T22:25:10.000",
    "request_status": "Pending",
    "responsible_agency": "Department of Public Works",
    "final_address": "8700 Lake Forest Blvd",
    "address_councildis": "E",
    "status": "Pending",
    "contractor": "Legacy Professional Services",
    "rowid": "1206238",
    "final_x": "3706379.43159",
    "final_y": "558088.596379",
    "longitude": "-89.98852609141673",
    "latitude": "30.027770510603997",
    "geocoded_column": {
      "latitude": "30.027770510603997",
      "longitude": "-89.98852609141673"
    }
  },
  {
    "service_request": "2025-1206237",
    "request_type": "Trash/Recycling",
    "request_reason": "Order Trash Cart",
    "date_created": "2025-07-02T21:53:03.000",
    "date_modified": "2025-07-02T21:53:05.000",
    "request_status": "Pending",
    "responsible_agency": "Department of Sanitation",
    "final_address": "7531 Forest Glen Rd",
    "address_councildis": "E",
    "status": "Assigned to Contractor",
    "contractor": "Waste Pro",
    "rowid": "1206237",
    "final_x": "3709954.4764",
    "final_y": "564593.308897",
    "longitude": "-89.97698601044796",
    "latitude": "30.04554002949481",
    "geocoded_column": {
      "latitude": "30.04554002949481",
      "longitude": "-89.97698601044796"
    }
  },
  {
    "service_request": "2025-1206236",
    "request_type": "Streetlights",
    "request_reason": "Streetlight Outage/Malfunction",
    "date_created": "2025-07-02T21:40:26.000",
    "date_modified": "2025-07-02T21:40:57.000",
    "request_status": "Pending",
    "responsible_agency": "Department of Public Works",
    "final_address": "6040 Laurel St",
    "address_councildis": "A",
    "status": "Pending",
    "contractor": "Legacy Professional Services",
    "rowid": "1206236",
    "final_x": "3664040.00352",
    "final_y": "518254.876598",
    "longitude": "-90.1236451608509",
    "latitude": "29.919539392006616",
    "geocoded_column": {
      "latitude": "29.919539392006616",
      "longitude": "-90.1236451608509"
    }
  },
  {
    "service_request": "2025-1206235",
    "request_type": "Trash/Recycling",
    "request_reason": "Return Recycling Cart",
    "date_created": "2025-07-02T21:36:22.000",
    "date_modified": "2025-07-02T21:36:24.000",
    "request_status": "Pending",
    "responsible_agency": "Department of Sanitation",
    "final_address": "5654 Hawthorne Pl",
    "address_councildis": "A",
    "status": "Pending",
    "rowid": "1206235",
    "final_x": "3667779.39156",
    "final_y": "545105.731535",
    "longitude": "-90.11093755864148",
    "latitude": "29.993261347467786",
    "geocoded_column": {
      "latitude": "29.993261347467786",
      "longitude": "-90.11093755864148"
    }
  },
  {
    "service_request": "2025-1206234",
    "request_type": "Trash/Recycling",
    "request_reason": "Request a Large Item Pick Up",
    "date_created": "2025-07-02T21:34:59.000",
    "date_modified": "2025-07-02T21:35:01.000",
    "request_status": "Pending",
    "responsible_agency": "Department of Sanitation",
    "final_address": "1511 S Liberty St",
    "address_councildis": "B",
    "status": "Assigned to Contractor",
    "contractor": "IV Waste",
    "rowid": "1206234",
    "final_x": "3676853.5236",
    "final_y": "526846.201086",
    "longitude": "-90.08290328418516",
    "latitude": "29.94278455157291",
    "geocoded_column": {
      "latitude": "29.94278455157291",
      "longitude": "-90.08290328418516"
    }
  },
  {
    "service_request": "2025-1206233",
    "request_type": "Trash/Recycling",
    "request_reason": "Request a Large Item Pick Up",
    "date_created": "2025-07-02T21:25:44.000",
    "date_modified": "2025-07-02T21:25:48.000",
    "request_status": "Pending",
    "responsible_agency": "Department of Sanitation",
    "final_address": "14191 Knightway Dr",
    "address_councildis": "E",
    "status": "Assigned to Contractor",
    "contractor": "Waste Pro",
    "rowid": "1206233",
    "final_x": "3718990.19916",
    "final_y": "570759.215719",
    "longitude": "-89.9481934769734",
    "latitude": "30.06219653561932",
    "geocoded_column": {
      "latitude": "30.06219653561932",
      "longitude": "-89.9481934769734"
    }
  },
  {
    "service_request": "2025-1206232",
    "request_type": "Property Maintenance",
    "request_reason": "Property Maintenance",
    "date_created": "2025-07-02T21:15:10.000",
    "date_modified": "2025-07-02T21:15:12.000",
    "request_status": "Pending",
    "responsible_agency": "Department of Code Enforcement",
    "final_address": "5612 Hawthorne Pl",
    "address_councildis": "A",
    "status": "Pending",
    "rowid": "1206232",
    "final_x": "3667788.35476",
    "final_y": "544735.861455",
    "longitude": "-90.11092170963295",
    "latitude": "29.992244068560925",
    "geocoded_column": {
      "latitude": "29.992244068560925",
      "longitude": "-90.11092170963295"
    }
  },
  {
    "service_request": "2025-1206231",
    "request_type": "Trash/Recycling",
    "request_reason": "Replace Trash Cart",
    "date_created": "2025-07-02T21:09:06.000",
    "date_modified": "2025-07-02T21:09:08.000",
    "request_status": "Pending",
    "responsible_agency": "Department of Sanitation",
    "final_address": "18 Fairway Oaks Dr",
    "address_councildis": "C",
    "status": "Assigned to Contractor",
    "contractor": "Richards Disposal",
    "rowid": "1206231",
    "final_x": "3716147.82373",
    "final_y": "515636.828404",
    "longitude": "-89.9592676520781",
    "latitude": "29.910725221188216",
    "geocoded_column": {
      "latitude": "29.910725221188216",
      "longitude": "-89.9592676520781"
    }
  },
  {
    "service_request": "2025-1206230",
    "request_type": "Trash/Recycling",
    "request_reason": "Request a Large Item Pick Up",
    "date_created": "2025-07-02T20:52:04.000",
    "date_modified": "2025-07-02T20:52:06.000",
    "request_status": "Pending",
    "responsible_agency": "Department of Sanitation",
    "final_address": "4209 Burgundy St",
    "address_councildis": "C",
    "status": "Assigned to Contractor",
    "contractor": "IV Waste",
    "rowid": "1206230",
    "final_x": "3692307.98089",
    "final_y": "534430.274693",
    "longitude": "-90.03383852831237",
    "latitude": "29.963165338970835",
    "geocoded_column": {
      "latitude": "29.963165338970835",
      "longitude": "-90.03383852831237"
    }
  },
  {
    "service_request": "2025-1206229",
    "request_type": "Trash/Recycling",
    "request_reason": "Request a Large Item Pick Up",
    "date_created": "2025-07-02T20:51:30.000",
    "date_modified": "2025-07-02T20:51:32.000",
    "request_status": "Pending",
    "responsible_agency": "Department of Sanitation",
    "final_address": "2550 N Rocheblave St",
    "address_councildis": "D",
    "status": "Assigned to Contractor",
    "contractor": "IV Waste",
    "rowid": "1206229",
    "final_x": "3686276.26774",
    "final_y": "541188.119116",
    "longitude": "-90.05264741016688",
    "latitude": "29.981933760372588",
    "geocoded_column": {
      "latitude": "29.981933760372588",
      "longitude": "-90.05264741016688"
    }
  },
  {
    "service_request": "2025-1206228",
    "request_type": "Trash/Recycling",
    "request_reason": "Order Recycling Cart",
    "date_created": "2025-07-02T20:36:07.000",
    "date_modified": "2025-07-02T20:36:09.000",
    "request_status": "Pending",
    "responsible_agency": "Department of Sanitation",
    "final_address": "4222 Rayne Dr",
    "address_councildis": "D",
    "status": "Pending",
    "rowid": "1206228",
    "final_x": "3679777.25506",
    "final_y": "547580.015442",
    "longitude": "-90.07295231856841",
    "latitude": "29.999707356318268",
    "geocoded_column": {
      "latitude": "29.999707356318268",
      "longitude": "-90.07295231856841"
    }
  },
  {
    "service_request": "2025-1206227",
    "request_type": "Trash/Recycling",
    "request_reason": "Request a Large Item Pick Up",
    "date_created": "2025-07-02T20:29:35.000",
    "date_modified": "2025-07-02T20:29:37.000",
    "request_status": "Pending",
    "responsible_agency": "Department of Sanitation",
    "final_address": "1615 Spain St",
    "address_councildis": "D",
    "status": "Assigned to Contractor",
    "contractor": "IV Waste",
    "rowid": "1206227",
    "final_x": "3686008.01154",
    "final_y": "538377.259529",
    "longitude": "-90.05359384420694",
    "latitude": "29.974213126641224",
    "geocoded_column": {
      "latitude": "29.974213126641224",
      "longitude": "-90.05359384420694"
    }
  },
  {
    "service_request": "2025-1206226",
    "request_type": "Trash/Recycling",
    "request_reason": "Request a Large Item Pick Up",
    "date_created": "2025-07-02T20:19:17.000",
    "date_modified": "2025-07-02T20:19:19.000",
    "request_status": "Pending",
    "responsible_agency": "Department of Sanitation",
    "final_address": "808 Whitney Ave",
    "address_councildis": "C",
    "status": "Assigned to Contractor",
    "contractor": "Richards Disposal",
    "rowid": "1206226",
    "final_x": "3690272.22467",
    "final_y": "528522.810688",
    "longitude": "-90.04047767139241",
    "latitude": "29.946985184639118",
    "geocoded_column": {
      "latitude": "29.946985184639118",
      "longitude": "-90.04047767139241"
    }
  },
  {
    "service_request": "2025-1206225",
    "request_type": "Trash/Recycling",
    "request_reason": "Order Recycling Cart",
    "date_created": "2025-07-02T19:54:25.000",
    "date_modified": "2025-07-02T19:54:26.000",
    "request_status": "Pending",
    "responsible_agency": "Department of Sanitation",
    "final_address": "1700 BLK Saint Andrew St",
    "address_councildis": "B",
    "status": "Pending",
    "rowid": "1206225",
    "final_x": "3677669.69777",
    "final_y": "524774.834096",
    "longitude": "-90.08039793741895",
    "latitude": "29.93706446017494",
    "geocoded_column": {
      "latitude": "29.93706446017494",
      "longitude": "-90.08039793741895"
    }
  },
  {
    "service_request": "2025-1206224",
    "request_type": "Trash/Recycling",
    "request_reason": "Repair Recycling Cart",
    "date_created": "2025-07-02T19:52:52.000",
    "date_modified": "2025-07-02T19:52:54.000",
    "request_status": "Pending",
    "responsible_agency": "Department of Sanitation",
    "final_address": "2019 Chartres St",
    "address_councildis": "C",
    "status": "Pending",
    "rowid": "1206224",
    "final_x": "3684693.77045",
    "final_y": "534503.923653",
    "longitude": "-90.057880682074",
    "latitude": "29.963603091488086",
    "geocoded_column": {
      "latitude": "29.963603091488086",
      "longitude": "-90.057880682074"
    }
  },
  {
    "service_request": "2025-1206223",
    "request_type": "Safety & Permits",
    "request_reason": "Zoning Enforcement",
    "date_created": "2025-07-02T19:49:49.000",
    "date_modified": "2025-07-02T19:49:50.000",
    "request_status": "Pending",
    "responsible_agency": "Safety and Permits",
    "final_address": "2408 Dumaine St",
    "address_councildis": "D",
    "status": "Pending",
    "rowid": "1206223",
    "final_x": "3678133.72258",
    "final_y": "536724.468359",
    "longitude": "-90.07851984923545",
    "latitude": "29.969907984949447",
    "geocoded_column": {
      "latitude": "29.969907984949447",
      "longitude": "-90.07851984923545"
    }
  },
  {
    "service_request": "2025-1206222",
    "request_type": "Property Maintenance",
    "request_reason": "Property Maintenance",
    "date_created": "2025-07-02T19:46:41.000",
    "date_modified": "2025-07-02T19:46:44.000",
    "request_status": "Pending",
    "responsible_agency": "Department of Code Enforcement",
    "final_address": "5612 Hawthorne Pl",
    "address_councildis": "A",
    "status": "Pending",
    "rowid": "1206222",
    "final_x": "3667788.35476",
    "final_y": "544735.861455",
    "longitude": "-90.11092170963295",
    "latitude": "29.992244068560925",
    "geocoded_column": {
      "latitude": "29.992244068560925",
      "longitude": "-90.11092170963295"
    }
  },
  {
    "service_request": "2025-1206221",
    "request_type": "Trash/Recycling",
    "request_reason": "Request a Large Item Pick Up",
    "date_created": "2025-07-02T19:45:45.000",
    "date_modified": "2025-07-02T19:45:47.000",
    "request_status": "Pending",
    "responsible_agency": "Department of Sanitation",
    "final_address": "2318 Dublin St",
    "address_councildis": "A",
    "status": "Assigned to Contractor",
    "contractor": "IV Waste",
    "rowid": "1206221",
    "final_x": "3664383.57357",
    "final_y": "531611.614403",
    "longitude": "-90.12211501452727",
    "latitude": "29.956256188883906",
    "geocoded_column": {
      "latitude": "29.956256188883906",
      "longitude": "-90.12211501452727"
    }
  },
  {
    "service_request": "2025-1206220",
    "request_type": "Trash/Recycling",
    "request_reason": "Request a Large Item Pick Up",
    "date_created": "2025-07-02T19:43:36.000",
    "date_modified": "2025-07-02T19:43:38.000",
    "request_status": "Pending",
    "responsible_agency": "Department of Sanitation",
    "final_address": "2666 Ramsey Dr",
    "address_councildis": "C",
    "status": "Assigned to Contractor",
    "contractor": "Richards Disposal",
    "rowid": "1206220",
    "final_x": "3703170.13028",
    "final_y": "520983.703801",
    "longitude": "-90.00003148517621",
    "latitude": "29.92584882956618",
    "geocoded_column": {
      "latitude": "29.92584882956618",
      "longitude": "-90.00003148517621"
    }
  },
  {
    "service_request": "2025-1206219",
    "request_type": "Health Related Request",
    "request_reason": "Noise Ordinance Complaint",
    "date_created": "2025-07-02T19:40:17.000",
    "date_modified": "2025-07-02T19:40:19.000",
    "request_status": "Pending",
    "responsible_agency": "Health Department",
    "final_address": "525 Frenchmen St",
    "address_councildis": "C",
    "status": "Pending",
    "rowid": "1206219",
    "final_x": "3684776.90357",
    "final_y": "534376.138501",
    "longitude": "-90.05762264942118",
    "latitude": "29.96324918168695",
    "geocoded_column": {
      "latitude": "29.96324918168695",
      "longitude": "-90.05762264942118"
    }
  },
  {
    "service_request": "2025-1206218",
    "request_type": "Trash/Recycling",
    "request_reason": "Replace Recycling Cart",
    "date_created": "2025-07-02T19:33:00.000",
    "date_modified": "2025-07-02T19:33:02.000",
    "request_status": "Pending",
    "responsible_agency": "Department of Sanitation",
    "final_address": "3620 Annunciation St",
    "address_councildis": "B",
    "status": "Pending",
    "rowid": "1206218",
    "final_x": "3674347.06964",
    "final_y": "518172.687862",
    "longitude": "-90.09111364422056",
    "latitude": "29.919010172508006",
    "geocoded_column": {
      "latitude": "29.919010172508006",
      "longitude": "-90.09111364422056"
    }
  },
  {
    "service_request": "2025-1206217",
    "request_type": "Trash/Recycling",
    "request_reason": "Return Trash Cart",
    "date_created": "2025-07-02T19:24:43.000",
    "date_modified": "2025-07-02T19:24:45.000",
    "request_status": "Pending",
    "responsible_agency": "Department of Sanitation",
    "final_address": "1112 Jena St",
    "address_councildis": "B",
    "status": "Assigned to Contractor",
    "contractor": "IV Waste",
    "rowid": "1206217",
    "final_x": "3670530.669",
    "final_y": "519608.829496",
    "longitude": "-90.10311142024668",
    "latitude": "29.923072319983156",
    "geocoded_column": {
      "latitude": "29.923072319983156",
      "longitude": "-90.10311142024668"
    }
  },
  {
    "service_request": "2025-1206216",
    "request_type": "Street and Traffic Signs",
    "request_reason": "Street Name Sign Damaged or Missing",
    "date_created": "2025-07-02T19:20:42.000",
    "date_modified": "2025-07-02T19:20:43.000",
    "request_status": "Pending",
    "responsible_agency": "Department of Public Works",
    "final_address": "4912 Chrysler St",
    "address_councildis": "E",
    "status": "Pending",
    "rowid": "1206216",
    "final_x": "3715160.81413",
    "final_y": "557504.293467",
    "longitude": "-89.96079998302066",
    "latitude": "30.02587760459259",
    "geocoded_column": {
      "latitude": "30.02587760459259",
      "longitude": "-89.96079998302066"
    }
  },
  {
    "service_request": "2025-1206215",
    "request_type": "Trash/Recycling",
    "request_reason": "Request a Large Item Pick Up",
    "date_created": "2025-07-02T19:20:21.000",
    "date_modified": "2025-07-02T19:20:29.000",
    "request_status": "Pending",
    "responsible_agency": "Department of Sanitation",
    "final_address": "2603 Valence St",
    "address_councildis": "B",
    "status": "Assigned to Contractor",
    "contractor": "IV Waste",
    "rowid": "1206215",
    "final_x": "3669430.5771",
    "final_y": "524348.907836",
    "longitude": "-90.10642378388877",
    "latitude": "29.936138451633667",
    "geocoded_column": {
      "latitude": "29.936138451633667",
      "longitude": "-90.10642378388877"
    }
  },
  {
    "service_request": "2025-1206214",
    "request_type": "Trash/Recycling",
    "request_reason": "Request a Large Item Pick Up",
    "date_created": "2025-07-02T19:19:36.000",
    "date_modified": "2025-07-02T19:19:38.000",
    "request_status": "Pending",
    "responsible_agency": "Department of Sanitation",
    "final_address": "6760 Bellaire Dr",
    "address_councildis": "A",
    "status": "Assigned to Contractor",
    "contractor": "IV Waste",
    "rowid": "1206214",
    "final_x": "3664541.00948",
    "final_y": "553220.415319",
    "longitude": "-90.12089589069966",
    "latitude": "30.015668524301855",
    "geocoded_column": {
      "latitude": "30.015668524301855",
      "longitude": "-90.12089589069966"
    }
  },
  {
    "service_request": "2025-1206213",
    "request_type": "Property Maintenance",
    "request_reason": "Property Maintenance",
    "date_created": "2025-07-02T19:19:12.000",
    "date_modified": "2025-07-02T19:19:14.000",
    "request_status": "Pending",
    "responsible_agency": "Department of Code Enforcement",
    "final_address": "5655 Woodlawn Pl",
    "address_councildis": "A",
    "status": "Pending",
    "rowid": "1206213",
    "final_x": "3667605.97575",
    "final_y": "545117.768463",
    "longitude": "-90.11148494707139",
    "latitude": "29.993299530663293",
    "geocoded_column": {
      "latitude": "29.993299530663293",
      "longitude": "-90.11148494707139"
    }
  },
  {
    "service_request": "2025-1206212",
    "request_type": "Trash/Recycling",
    "request_reason": "Order Recycling Cart",
    "date_created": "2025-07-02T19:17:24.000",
    "date_modified": "2025-07-02T19:17:25.000",
    "request_status": "Pending",
    "responsible_agency": "Department of Sanitation",
    "final_address": "4222 Rayne Dr",
    "address_councildis": "D",
    "status": "Pending",
    "rowid": "1206212",
    "final_x": "3679777.25506",
    "final_y": "547580.015442",
    "longitude": "-90.07295231856841",
    "latitude": "29.999707356318268",
    "geocoded_column": {
      "latitude": "29.999707356318268",
      "longitude": "-90.07295231856841"
    }
  },
  {
    "service_request": "2025-1206211",
    "request_type": "Roads and Streets",
    "request_reason": "Street Subsidence (Sinking)",
    "date_created": "2025-07-02T19:13:48.000",
    "date_modified": "2025-07-02T19:13:50.000",
    "request_status": "Pending",
    "responsible_agency": "Department of Public Works",
    "final_address": "1403 Burdette St",
    "address_councildis": "A",
    "status": "Pending",
    "rowid": "1206211",
    "final_x": "3663320.2137",
    "final_y": "528135.637887",
    "longitude": "-90.12558845316534",
    "latitude": "29.946729239435488",
    "geocoded_column": {
      "latitude": "29.946729239435488",
      "longitude": "-90.12558845316534"
    }
  },
  {
    "service_request": "2025-1206210",
    "request_type": "Mosquito, Termite & Rodent Control",
    "request_reason": "Mosquito Complaint",
    "date_created": "2025-07-02T18:44:47.000",
    "date_modified": "2025-07-02T18:44:49.000",
    "request_status": "Pending",
    "responsible_agency": "Mosquito, Termite & Rodent Control Board",
    "final_address": "1641 Hollygrove St",
    "address_councildis": "A",
    "status": "Pending",
    "rowid": "1206210",
    "final_x": "3660797.21062",
    "final_y": "531751.273731",
    "longitude": "-90.13343498717845",
    "latitude": "29.956743959245436",
    "geocoded_column": {
      "latitude": "29.956743959245436",
      "longitude": "-90.13343498717845"
    }
  },
  {
    "service_request": "2025-1206209",
    "request_type": "Trash/Recycling",
    "request_reason": "Damaged Caused By Contractor",
    "date_created": "2025-07-02T18:35:05.000",
    "date_modified": "2025-07-02T18:35:08.000",
    "request_status": "Pending",
    "responsible_agency": "Department of Sanitation",
    "final_address": "808 Solomon Pl",
    "address_councildis": "A",
    "status": "Assigned to Contractor",
    "contractor": "IV Waste",
    "rowid": "1206209",
    "final_x": "3672527.74574",
    "final_y": "540581.859723",
    "longitude": "-90.09609256009354",
    "latitude": "29.980682115887152",
    "geocoded_column": {
      "latitude": "29.980682115887152",
      "longitude": "-90.09609256009354"
    }
  },
  {
    "service_request": "2025-1206208",
    "request_type": "Trash/Recycling",
    "request_reason": "Request a Large Item Pick Up",
    "date_created": "2025-07-02T17:56:54.000",
    "date_modified": "2025-07-02T17:56:56.000",
    "request_status": "Pending",
    "responsible_agency": "Department of Sanitation",
    "final_address": "5419 Freret St",
    "address_councildis": "A",
    "status": "Assigned to Contractor",
    "contractor": "IV Waste",
    "rowid": "1206208",
    "final_x": "3667761.82676",
    "final_y": "524116.028156",
    "longitude": "-90.11169993103742",
    "latitude": "29.93554713323735",
    "geocoded_column": {
      "latitude": "29.93554713323735",
      "longitude": "-90.11169993103742"
    }
  },
  {
    "service_request": "2025-1206207",
    "request_type": "Property Maintenance",
    "request_reason": "Property Maintenance",
    "date_created": "2025-07-02T17:42:32.000",
    "date_modified": "2025-07-02T17:42:33.000",
    "request_status": "Pending",
    "responsible_agency": "Department of Code Enforcement",
    "final_address": "1429 Governor Nicholls St",
    "address_councildis": "C",
    "status": "Pending",
    "rowid": "1206207",
    "final_x": "3681540.46056",
    "final_y": "535704.902087",
    "longitude": "-90.06779661367608",
    "latitude": "29.96700150652933",
    "geocoded_column": {
      "latitude": "29.96700150652933",
      "longitude": "-90.06779661367608"
    }
  },
  {
    "service_request": "2025-1206206",
    "request_type": "Healthy Homes",
    "request_reason": "Healthy Homes",
    "date_created": "2025-07-02T17:39:25.000",
    "date_modified": "2025-07-02T17:39:27.000",
    "request_status": "Pending",
    "responsible_agency": "Department of Code Enforcement",
    "final_address": "2536 General Pershing St",
    "address_councildis": "B",
    "status": "Pending",
    "rowid": "1206206",
    "final_x": "3670855.98151",
    "final_y": "524361.055548",
    "longitude": "-90.10192331952312",
    "latitude": "29.936129809999056",
    "geocoded_column": {
      "latitude": "29.936129809999056",
      "longitude": "-90.10192331952312"
    }
  },
  {
    "service_request": "2025-1206205",
    "request_type": "Roads and Streets",
    "request_reason": "Pothole",
    "date_created": "2025-07-02T17:28:37.000",
    "date_modified": "2025-07-02T17:28:39.000",
    "request_status": "Pending",
    "responsible_agency": "Department of Public Works",
    "final_address": "936 Second St",
    "address_councildis": "B",
    "status": "Pending",
    "rowid": "1206205",
    "final_x": "3678021.14229",
    "final_y": "520946.387577",
    "longitude": "-90.07942067266964",
    "latitude": "29.92652691401077",
    "geocoded_column": {
      "latitude": "29.92652691401077",
      "longitude": "-90.07942067266964"
    }
  },
  {
    "service_request": "2025-1206204",
    "request_type": "Family Reunification",
    "request_reason": "Misplaced Citizen",
    "date_created": "2025-07-02T17:21:34.000",
    "date_modified": "2025-07-02T17:21:37.000",
    "request_status": "Pending",
    "responsible_agency": "Health Department",
    "final_address": "0 BLK Crescent City Connection",
    "status": "Pending",
    "rowid": "1206204",
    "final_x": "3685262.17635",
    "final_y": "525097.252743",
    "longitude": "-90.05641675185699",
    "latitude": "29.93772053935159",
    "geocoded_column": {
      "latitude": "29.93772053935159",
      "longitude": "-90.05641675185699"
    }
  },
  {
    "service_request": "2025-1206203",
    "request_type": "Property Maintenance",
    "request_reason": "Property Maintenance",
    "date_created": "2025-07-02T17:14:04.000",
    "date_modified": "2025-07-02T17:14:06.000",
    "request_status": "Pending",
    "responsible_agency": "Department of Code Enforcement",
    "final_address": "2800 Upperline St",
    "address_councildis": "B",
    "status": "Pending",
    "rowid": "1206203",
    "final_x": "3669167.51578",
    "final_y": "524989.592701",
    "longitude": "-90.10723263481977",
    "latitude": "29.937907871185672",
    "geocoded_column": {
      "latitude": "29.937907871185672",
      "longitude": "-90.10723263481977"
    }
  },
  {
    "service_request": "2025-1206202",
    "request_type": "Trash/Recycling",
    "request_reason": "Request a Large Item Pick Up",
    "date_created": "2025-07-02T17:13:14.000",
    "date_modified": "2025-07-02T17:13:16.000",
    "request_status": "Pending",
    "responsible_agency": "Department of Sanitation",
    "final_address": "2017 N Villere St",
    "address_councildis": "C",
    "status": "Assigned to Contractor",
    "contractor": "IV Waste",
    "rowid": "1206202",
    "final_x": "3684282.77609",
    "final_y": "537388.997384",
    "longitude": "-90.05907723956028",
    "latitude": "29.971548618533532",
    "geocoded_column": {
      "latitude": "29.971548618533532",
      "longitude": "-90.05907723956028"
    }
  },
  {
    "service_request": "2025-1206201",
    "request_type": "Trash/Recycling",
    "request_reason": "Replace Trash Cart",
    "date_created": "2025-07-02T17:10:28.000",
    "date_modified": "2025-07-02T17:10:30.000",
    "request_status": "Pending",
    "responsible_agency": "Department of Sanitation",
    "final_address": "1732 Alabo St",
    "address_councildis": "E",
    "status": "Assigned to Contractor",
    "contractor": "Waste Pro",
    "rowid": "1206201",
    "final_x": "3699516.81719",
    "final_y": "536044.572807",
    "longitude": "-90.01101518420876",
    "latitude": "29.967377312766565",
    "geocoded_column": {
      "latitude": "29.967377312766565",
      "longitude": "-90.01101518420876"
    }
  },
  {
    "service_request": "2025-1206200",
    "request_type": "Traffic Signals",
    "request_reason": "Traffic Signal Malfunctioning or Damaged",
    "date_created": "2025-07-02T17:06:35.000",
    "date_modified": "2025-07-02T17:06:36.000",
    "request_status": "Pending",
    "responsible_agency": "Department of Public Works",
    "final_address": "2800 BLK Tulane Ave",
    "address_councildis": "B",
    "status": "Pending",
    "rowid": "1206200",
    "final_x": "3673643.1763",
    "final_y": "534108.724221",
    "longitude": "-90.09279088445591",
    "latitude": "29.96285002300357",
    "geocoded_column": {
      "latitude": "29.96285002300357",
      "longitude": "-90.09279088445591"
    }
  },
  {
    "service_request": "2025-1206199",
    "request_type": "Trash/Recycling",
    "request_reason": "Request a Large Item Pick Up",
    "date_created": "2025-07-02T17:06:07.000",
    "date_modified": "2025-07-02T17:06:09.000",
    "request_status": "Pending",
    "responsible_agency": "Department of Sanitation",
    "final_address": "6963 Salem Dr",
    "address_councildis": "E",
    "status": "Assigned to Contractor",
    "contractor": "Waste Pro",
    "rowid": "1206199",
    "final_x": "3706804.06859",
    "final_y": "560618.045534",
    "longitude": "-89.98709037280047",
    "latitude": "30.034711793025984",
    "geocoded_column": {
      "latitude": "30.034711793025984",
      "longitude": "-89.98709037280047"
    }
  },
  {
    "service_request": "2025-1206198",
    "request_type": "Trash/Recycling",
    "request_reason": "Request a Large Item Pick Up",
    "date_created": "2025-07-02T17:01:56.000",
    "date_modified": "2025-07-02T17:01:58.000",
    "request_status": "Pending",
    "responsible_agency": "Department of Sanitation",
    "final_address": "1832 Painters St",
    "address_councildis": "D",
    "status": "Assigned to Contractor",
    "contractor": "IV Waste",
    "rowid": "1206198",
    "final_x": "3687303.00866",
    "final_y": "539296.247178",
    "longitude": "-90.04947143289678",
    "latitude": "29.97670018688715",
    "geocoded_column": {
      "latitude": "29.97670018688715",
      "longitude": "-90.04947143289678"
    }
  },
  {
    "service_request": "2025-1206197",
    "request_type": "Trash/Recycling",
    "request_reason": "Illegal Dumping",
    "date_created": "2025-07-02T17:00:23.000",
    "date_modified": "2025-07-02T17:00:32.000",
    "request_status": "Pending",
    "responsible_agency": "Department of Sanitation",
    "final_address": "WESTBEND PKWY & WALL BLVD",
    "address_councildis": "C",
    "status": "Pending",
    "rowid": "1206197",
    "final_x": "3696881.6",
    "final_y": "523798.58",
    "longitude": "-90.01978053071456",
    "latitude": "29.93378847939604",
    "geocoded_column": {
      "latitude": "29.93378847939604",
      "longitude": "-90.01978053071456"
    }
  },
  {
    "service_request": "2025-1206196",
    "request_type": "Parks & Parkways",
    "request_reason": "Request Grass Cutting Service (City Owned Property)",
    "date_created": "2025-07-02T16:57:50.000",
    "date_modified": "2025-07-02T16:58:54.000",
    "request_status": "Pending",
    "responsible_agency": "Department of Parks & Parkway",
    "final_address": "8700 Lake Forest Blvd",
    "address_councildis": "E",
    "status": "Pending",
    "rowid": "1206196",
    "final_x": "3706379.43159",
    "final_y": "558088.596379",
    "longitude": "-89.98852609141673",
    "latitude": "30.027770510603997",
    "geocoded_column": {
      "latitude": "30.027770510603997",
      "longitude": "-89.98852609141673"
    }
  },
  {
    "service_request": "2025-1206194",
    "request_type": "Trash/Recycling",
    "request_reason": "Request a Large Item Pick Up",
    "date_created": "2025-07-02T16:53:09.000",
    "date_modified": "2025-07-02T16:53:11.000",
    "request_status": "Pending",
    "responsible_agency": "Department of Sanitation",
    "final_address": "11300 Prentiss Ave",
    "address_councildis": "E",
    "status": "Assigned to Contractor",
    "contractor": "Waste Pro",
    "rowid": "1206194",
    "final_x": "3717057.16863",
    "final_y": "556706.107226",
    "longitude": "-89.95483816682949",
    "latitude": "30.023620315874414",
    "geocoded_column": {
      "latitude": "30.023620315874414",
      "longitude": "-89.95483816682949"
    }
  },
  {
    "service_request": "2025-1206193",
    "request_type": "Streetlights",
    "request_reason": "Streetlight Outage/Malfunction",
    "date_created": "2025-07-02T16:47:14.000",
    "date_modified": "2025-07-02T16:47:17.000",
    "request_status": "Pending",
    "responsible_agency": "Department of Public Works",
    "final_address": "2714 Metropolitan St",
    "address_councildis": "D",
    "status": "Pending",
    "contractor": "Legacy Professional Services",
    "rowid": "1206193",
    "final_x": "3690874.3199",
    "final_y": "542423.513293",
    "longitude": "-90.03808051427238",
    "latitude": "29.985188541795186",
    "geocoded_column": {
      "latitude": "29.985188541795186",
      "longitude": "-90.03808051427238"
    }
  },
  {
    "service_request": "2025-1206192",
    "request_type": "Property Maintenance",
    "request_reason": "Property Maintenance",
    "date_created": "2025-07-02T16:45:16.000",
    "date_modified": "2025-07-02T16:45:18.000",
    "request_status": "Pending",
    "responsible_agency": "Department of Code Enforcement",
    "final_address": "1771 Lafreniere St",
    "address_councildis": "D",
    "status": "Pending",
    "rowid": "1206192",
    "final_x": "3681056.51464",
    "final_y": "545291.639119",
    "longitude": "-90.06899085630222",
    "latitude": "29.993376380832807",
    "geocoded_column": {
      "latitude": "29.993376380832807",
      "longitude": "-90.06899085630222"
    }
  },
  {
    "service_request": "2025-1206191",
    "request_type": "Trash/Recycling",
    "request_reason": "Replace Trash Cart",
    "date_created": "2025-07-02T16:43:35.000",
    "date_modified": "2025-07-02T16:43:38.000",
    "request_status": "Pending",
    "responsible_agency": "Department of Sanitation",
    "final_address": "3748 Silver Maple Ct",
    "address_councildis": "C",
    "status": "Assigned to Contractor",
    "contractor": "Richards Disposal",
    "rowid": "1206191",
    "final_x": "3703492.23799",
    "final_y": "512692.723441",
    "longitude": "-89.99931939625145",
    "latitude": "29.90304116728575",
    "geocoded_column": {
      "latitude": "29.90304116728575",
      "longitude": "-89.99931939625145"
    }
  },
  {
    "service_request": "2025-1206190",
    "request_type": "Trash/Recycling",
    "request_reason": "Request a Large Item Pick Up",
    "date_created": "2025-07-02T16:43:30.000",
    "date_modified": "2025-07-02T16:49:22.000",
    "request_status": "Pending",
    "responsible_agency": "Department of Sanitation",
    "final_address": "5422 Seminary Pl",
    "address_councildis": "D",
    "status": "Assigned to Contractor",
    "contractor": "IV Waste",
    "rowid": "1206190",
    "final_x": "3688592.32028",
    "final_y": "553223.238679",
    "longitude": "-90.0449048047616",
    "latitude": "30.014954597407172",
    "geocoded_column": {
      "latitude": "30.014954597407172",
      "longitude": "-90.0449048047616"
    }
  },
  {
    "service_request": "2025-1206189",
    "request_type": "Trash/Recycling",
    "request_reason": "Request a Large Item Pick Up",
    "date_created": "2025-07-02T16:43:06.000",
    "date_modified": "2025-07-02T16:43:08.000",
    "request_status": "Pending",
    "responsible_agency": "Department of Sanitation",
    "final_address": "2038 Elysian Fields Ave",
    "address_councildis": "D",
    "status": "Assigned to Contractor",
    "contractor": "IV Waste",
    "rowid": "1206189",
    "final_x": "3684628.76796",
    "final_y": "539912.824138",
    "longitude": "-90.05789582679664",
    "latitude": "29.978477676089824",
    "geocoded_column": {
      "latitude": "29.978477676089824",
      "longitude": "-90.05789582679664"
    }
  },
  {
    "service_request": "2025-1206188",
    "request_type": "Trash/Recycling",
    "request_reason": "Request a Large Item Pick Up",
    "date_created": "2025-07-02T16:41:55.000",
    "date_modified": "2025-07-02T16:41:57.000",
    "request_status": "Pending",
    "responsible_agency": "Department of Sanitation",
    "final_address": "1012 Jefferson Ave",
    "address_councildis": "A",
    "status": "Assigned to Contractor",
    "contractor": "IV Waste",
    "rowid": "1206188",
    "final_x": "3666781.19469",
    "final_y": "519287.934583",
    "longitude": "-90.11495787901673",
    "latitude": "29.92230011833935",
    "geocoded_column": {
      "latitude": "29.92230011833935",
      "longitude": "-90.11495787901673"
    }
  },
  {
    "service_request": "2025-1206187",
    "request_type": "Trash/Recycling",
    "request_reason": "Request a Large Item Pick Up",
    "date_created": "2025-07-02T16:34:54.000",
    "date_modified": "2025-07-02T16:34:56.000",
    "request_status": "Pending",
    "responsible_agency": "Department of Sanitation",
    "final_address": "3715 Mimosa Ct",
    "address_councildis": "C",
    "status": "Assigned to Contractor",
    "contractor": "Richards Disposal",
    "rowid": "1206187",
    "final_x": "3703600.31889",
    "final_y": "513224.547314",
    "longitude": "-89.99895875171472",
    "latitude": "29.90450004208743",
    "geocoded_column": {
      "latitude": "29.90450004208743",
      "longitude": "-89.99895875171472"
    }
  },
  {
    "service_request": "2025-1206186",
    "request_type": "Drainage",
    "request_reason": "Catch Basin Clogged",
    "date_created": "2025-07-02T16:34:31.000",
    "date_modified": "2025-07-02T16:34:32.000",
    "request_status": "Pending",
    "responsible_agency": "Sewerage & Water Board",
    "final_address": "3500 Palmyra St",
    "address_councildis": "B",
    "status": "Pending",
    "rowid": "1206186",
    "final_x": "3672330.44135",
    "final_y": "536353.102663",
    "longitude": "-90.09685986206757",
    "latitude": "29.96906032433629",
    "geocoded_column": {
      "latitude": "29.96906032433629",
      "longitude": "-90.09685986206757"
    }
  },
  {
    "service_request": "2025-1206185",
    "request_type": "Trash/Recycling",
    "request_reason": "Repair Recycling Cart",
    "date_created": "2025-07-02T16:33:03.000",
    "date_modified": "2025-07-02T16:33:05.000",
    "request_status": "Pending",
    "responsible_agency": "Department of Sanitation",
    "final_address": "1767 Holiday Dr",
    "address_councildis": "C",
    "status": "Pending",
    "rowid": "1206185",
    "final_x": "3698848.38781",
    "final_y": "524034.509308",
    "longitude": "-90.01356293268319",
    "latitude": "29.934375061280324",
    "geocoded_column": {
      "latitude": "29.934375061280324",
      "longitude": "-90.01356293268319"
    }
  },
  {
    "service_request": "2025-1206184",
    "request_type": "Drainage",
    "request_reason": "Catch Basin Clogged",
    "date_created": "2025-07-02T16:30:20.000",
    "date_modified": "2025-07-02T16:30:22.000",
    "request_status": "Pending",
    "responsible_agency": "Sewerage & Water Board",
    "final_address": "3500 Palmyra St",
    "address_councildis": "B",
    "status": "Pending",
    "rowid": "1206184",
    "final_x": "3672330.44135",
    "final_y": "536353.102663",
    "longitude": "-90.09685986206757",
    "latitude": "29.96906032433629",
    "geocoded_column": {
      "latitude": "29.96906032433629",
      "longitude": "-90.09685986206757"
    }
  },
  {
    "service_request": "2025-1206183",
    "request_type": "Parks & Parkways",
    "request_reason": "Request Tree Service (Right of Way/Public Property)",
    "date_created": "2025-07-02T16:28:04.000",
    "date_modified": "2025-07-02T16:28:06.000",
    "request_status": "Pending",
    "responsible_agency": "Department of Parks & Parkway",
    "final_address": "829 Eleonore St",
    "address_councildis": "A",
    "status": "Pending",
    "rowid": "1206183",
    "final_x": "3665321.57095",
    "final_y": "519296.644151",
    "longitude": "-90.1195650403664",
    "latitude": "29.922366661847896",
    "geocoded_column": {
      "latitude": "29.922366661847896",
      "longitude": "-90.1195650403664"
    }
  },
  {
    "service_request": "2025-1206182",
    "request_type": "Drainage",
    "request_reason": "Catch Basin Clogged",
    "date_created": "2025-07-02T16:27:35.000",
    "date_modified": "2025-07-02T16:27:37.000",
    "request_status": "Pending",
    "responsible_agency": "Sewerage & Water Board",
    "final_address": "3500 Palmyra St",
    "address_councildis": "B",
    "status": "Pending",
    "rowid": "1206182",
    "final_x": "3672330.44135",
    "final_y": "536353.102663",
    "longitude": "-90.09685986206757",
    "latitude": "29.96906032433629",
    "geocoded_column": {
      "latitude": "29.96906032433629",
      "longitude": "-90.09685986206757"
    }
  },
  {
    "service_request": "2025-1206181",
    "request_type": "Trash/Recycling",
    "request_reason": "Order Trash Cart",
    "date_created": "2025-07-02T16:27:20.000",
    "date_modified": "2025-07-02T16:27:21.000",
    "request_status": "Pending",
    "responsible_agency": "Department of Sanitation",
    "final_address": "819 France St",
    "address_councildis": "C",
    "status": "Assigned to Contractor",
    "contractor": "IV Waste",
    "rowid": "1206181",
    "final_x": "3692176.30589",
    "final_y": "534173.485573",
    "longitude": "-90.03426353433369",
    "latitude": "29.962463364482012",
    "geocoded_column": {
      "latitude": "29.962463364482012",
      "longitude": "-90.03426353433369"
    }
  },
  {
    "service_request": "2025-1206180",
    "request_type": "Roads and Streets",
    "request_reason": "Sidewalk Damaged or Missing",
    "date_created": "2025-07-02T16:26:52.000",
    "date_modified": "2025-07-02T16:26:54.000",
    "request_status": "Pending",
    "responsible_agency": "Department of Public Works",
    "final_address": "2351 Magazine St",
    "address_councildis": "B",
    "status": "Pending",
    "rowid": "1206180",
    "final_x": "3678180.2619",
    "final_y": "521624.296377",
    "longitude": "-90.07889494801034",
    "latitude": "29.92838615338833",
    "geocoded_column": {
      "latitude": "29.92838615338833",
      "longitude": "-90.07889494801034"
    }
  },
  {
    "service_request": "2025-1206179",
    "request_type": "Property Maintenance",
    "request_reason": "Property Maintenance",
    "date_created": "2025-07-02T16:25:04.000",
    "date_modified": "2025-07-02T16:25:06.000",
    "request_status": "Pending",
    "responsible_agency": "Department of Code Enforcement",
    "final_address": "602 Arabella St",
    "address_councildis": "A",
    "status": "Pending",
    "rowid": "1206179",
    "final_x": "3665655.17338",
    "final_y": "518325.633718",
    "longitude": "-90.11854448458213",
    "latitude": "29.919686966450165",
    "geocoded_column": {
      "latitude": "29.919686966450165",
      "longitude": "-90.11854448458213"
    }
  },
  {
    "service_request": "2025-1206178",
    "request_type": "Trash/Recycling",
    "request_reason": "Order Trash Cart",
    "date_created": "2025-07-02T16:21:59.000",
    "date_modified": "2025-07-02T16:22:01.000",
    "request_status": "Pending",
    "responsible_agency": "Department of Sanitation",
    "final_address": "2552 N Rocheblave St",
    "address_councildis": "D",
    "status": "Assigned to Contractor",
    "contractor": "IV Waste",
    "rowid": "1206178",
    "final_x": "3686286.17046",
    "final_y": "541189.100428",
    "longitude": "-90.05261609808174",
    "latitude": "29.981936154295923",
    "geocoded_column": {
      "latitude": "29.981936154295923",
      "longitude": "-90.05261609808174"
    }
  },
  {
    "service_request": "2025-1206177",
    "request_type": "Trash/Recycling",
    "request_reason": "Repair Trash Cart",
    "date_created": "2025-07-02T16:17:54.000",
    "date_modified": "2025-07-02T16:17:56.000",
    "request_status": "Pending",
    "responsible_agency": "Department of Sanitation",
    "final_address": "2517 Gladiolus St",
    "address_councildis": "D",
    "status": "Assigned to Contractor",
    "contractor": "IV Waste",
    "rowid": "1206177",
    "final_x": "3686464.19567",
    "final_y": "547512.485842",
    "longitude": "-90.05183044208762",
    "latitude": "29.99931773264366",
    "geocoded_column": {
      "latitude": "29.99931773264366",
      "longitude": "-90.05183044208762"
    }
  },
  {
    "service_request": "2025-1206176",
    "request_type": "Property Maintenance",
    "request_reason": "Property Maintenance",
    "date_created": "2025-07-02T16:17:26.000",
    "date_modified": "2025-07-02T16:17:28.000",
    "request_status": "Pending",
    "responsible_agency": "Department of Code Enforcement",
    "final_address": "3600 Somerset Dr",
    "address_councildis": "C",
    "status": "Pending",
    "rowid": "1206176",
    "final_x": "3702532.23377",
    "final_y": "517440.131062",
    "longitude": "-90.00217507079068",
    "latitude": "29.91612561918226",
    "geocoded_column": {
      "latitude": "29.91612561918226",
      "longitude": "-90.00217507079068"
    }
  },
  {
    "service_request": "2025-1206175",
    "request_type": "Trash/Recycling",
    "request_reason": "Order Recycling Cart",
    "date_created": "2025-07-02T16:15:21.000",
    "date_modified": "2025-07-02T16:15:23.000",
    "request_status": "Pending",
    "responsible_agency": "Department of Sanitation",
    "final_address": "4501 S Prieur St",
    "address_councildis": "B",
    "status": "Pending",
    "rowid": "1206175",
    "final_x": "3669802.85236",
    "final_y": "526884.868798",
    "longitude": "-90.10516268379413",
    "latitude": "29.94310055816512",
    "geocoded_column": {
      "latitude": "29.94310055816512",
      "longitude": "-90.10516268379413"
    }
  },
  {
    "service_request": "2025-1206174",
    "request_type": "Trash/Recycling",
    "request_reason": "Request a Large Item Pick Up",
    "date_created": "2025-07-02T16:14:28.000",
    "date_modified": "2025-07-02T16:14:29.000",
    "request_status": "Pending",
    "responsible_agency": "Department of Sanitation",
    "final_address": "1315 Napoleon Ave",
    "address_councildis": "B",
    "status": "Assigned to Contractor",
    "contractor": "IV Waste",
    "rowid": "1206174",
    "final_x": "3671047.89588",
    "final_y": "520215.11116",
    "longitude": "-90.10145815553223",
    "latitude": "29.924724121763056",
    "geocoded_column": {
      "latitude": "29.924724121763056",
      "longitude": "-90.10145815553223"
    }
  },
  {
    "service_request": "2025-1206173",
    "request_type": "Trash/Recycling",
    "request_reason": "Repair Trash Cart",
    "date_created": "2025-07-02T16:14:17.000",
    "date_modified": "2025-07-02T16:14:19.000",
    "request_status": "Pending",
    "responsible_agency": "Department of Sanitation",
    "final_address": "4501 S Prieur St",
    "address_councildis": "B",
    "status": "Assigned to Contractor",
    "contractor": "IV Waste",
    "rowid": "1206173",
    "final_x": "3669802.85236",
    "final_y": "526884.868798",
    "longitude": "-90.10516268379413",
    "latitude": "29.94310055816512",
    "geocoded_column": {
      "latitude": "29.94310055816512",
      "longitude": "-90.10516268379413"
    }
  },
  {
    "service_request": "2025-1206172",
    "request_type": "Trash/Recycling",
    "request_reason": "Request a Large Item Pick Up",
    "date_created": "2025-07-02T16:12:26.000",
    "date_modified": "2025-07-02T16:12:28.000",
    "request_status": "Pending",
    "responsible_agency": "Department of Sanitation",
    "final_address": "6710 Manchester St",
    "address_councildis": "E",
    "status": "Assigned to Contractor",
    "contractor": "Waste Pro",
    "rowid": "1206172",
    "final_x": "3697955.68778",
    "final_y": "559648.972189",
    "longitude": "-90.0150876387867",
    "latitude": "30.032330095235405",
    "geocoded_column": {
      "latitude": "30.032330095235405",
      "longitude": "-90.0150876387867"
    }
  },
  {
    "service_request": "2025-1206171",
    "request_type": "Property Maintenance",
    "request_reason": "Property Maintenance",
    "date_created": "2025-07-02T16:11:58.000",
    "date_modified": "2025-07-02T16:12:00.000",
    "request_status": "Pending",
    "responsible_agency": "Department of Code Enforcement",
    "final_address": "2427 Annunciation St",
    "address_councildis": "B",
    "status": "Pending",
    "rowid": "1206171",
    "final_x": "3678472.17646",
    "final_y": "520491.231864",
    "longitude": "-90.07801262297028",
    "latitude": "29.925261804600424",
    "geocoded_column": {
      "latitude": "29.925261804600424",
      "longitude": "-90.07801262297028"
    }
  },
  {
    "service_request": "2025-1206170",
    "request_type": "Trash/Recycling",
    "request_reason": "Repair Recycling Cart",
    "date_created": "2025-07-02T16:10:19.000",
    "date_modified": "2025-07-02T16:10:21.000",
    "request_status": "Pending",
    "responsible_agency": "Department of Sanitation",
    "final_address": "5889 Marcia Ave",
    "address_councildis": "A",
    "status": "Pending",
    "rowid": "1206170",
    "final_x": "3664888.67962",
    "final_y": "547000.575953",
    "longitude": "-90.1200054999736",
    "latitude": "29.998556000506365",
    "geocoded_column": {
      "latitude": "29.998556000506365",
      "longitude": "-90.1200054999736"
    }
  },
  {
    "service_request": "2025-1206169",
    "request_type": "Trash/Recycling",
    "request_reason": "Request a Large Item Pick Up",
    "date_created": "2025-07-02T16:09:10.000",
    "date_modified": "2025-07-02T16:09:12.000",
    "request_status": "Pending",
    "responsible_agency": "Department of Sanitation",
    "final_address": "1114 Flanders St",
    "address_councildis": "C",
    "status": "Assigned to Contractor",
    "contractor": "Richards Disposal",
    "rowid": "1206169",
    "final_x": "3696807.98096",
    "final_y": "527238.167999",
    "longitude": "-90.0198884722369",
    "latitude": "29.943248477515798",
    "geocoded_column": {
      "latitude": "29.943248477515798",
      "longitude": "-90.0198884722369"
    }
  },
  {
    "service_request": "2025-1206168",
    "request_type": "Drainage",
    "request_reason": "Street Flooding",
    "date_created": "2025-07-02T16:03:39.000",
    "date_modified": "2025-07-02T16:03:40.000",
    "request_status": "Pending",
    "responsible_agency": "Sewerage & Water Board",
    "final_address": "6717 Deanne St",
    "address_councildis": "D",
    "status": "Pending",
    "rowid": "1206168",
    "final_x": "3696037.37021",
    "final_y": "555512.119833",
    "longitude": "-90.02129931882062",
    "latitude": "30.021015870409535",
    "geocoded_column": {
      "latitude": "30.021015870409535",
      "longitude": "-90.02129931882062"
    }
  },
  {
    "service_request": "2025-1206167",
    "request_type": "Traffic Signals",
    "request_reason": "Traffic Signal Malfunctioning or Damaged",
    "date_created": "2025-07-02T16:02:52.000",
    "date_modified": "2025-07-02T16:02:54.000",
    "request_status": "Pending",
    "responsible_agency": "Department of Public Works",
    "final_address": "1000 N Peters St",
    "address_councildis": "C",
    "status": "Pending",
    "rowid": "1206167",
    "final_x": "3683928.13801",
    "final_y": "532813.991812",
    "longitude": "-90.06035775402766",
    "latitude": "29.958979770581866",
    "geocoded_column": {
      "latitude": "29.958979770581866",
      "longitude": "-90.06035775402766"
    }
  },
  {
    "service_request": "2025-1206166",
    "request_type": "Trash/Recycling",
    "request_reason": "Request a Large Item Pick Up",
    "date_created": "2025-07-02T16:01:53.000",
    "date_modified": "2025-07-02T16:01:55.000",
    "request_status": "Pending",
    "responsible_agency": "Department of Sanitation",
    "final_address": "1702 Independence St",
    "address_councildis": "D",
    "status": "Assigned to Contractor",
    "contractor": "IV Waste",
    "rowid": "1206166",
    "final_x": "3691477.51267",
    "final_y": "537811.049608",
    "longitude": "-90.0363401954967",
    "latitude": "29.972487149834638",
    "geocoded_column": {
      "latitude": "29.972487149834638",
      "longitude": "-90.0363401954967"
    }
  },
  {
    "service_request": "2025-1206165",
    "request_type": "Trash/Recycling",
    "request_reason": "Missed Trash Pick-Up",
    "date_created": "2025-07-02T16:01:28.000",
    "date_modified": "2025-07-02T16:01:31.000",
    "request_status": "Pending",
    "responsible_agency": "Department of Sanitation",
    "final_address": "5812 Tullis Dr",
    "address_councildis": "C",
    "status": "Assigned to Contractor",
    "contractor": "Richards Disposal",
    "rowid": "1206165",
    "final_x": "3705455.05188",
    "final_y": "513059.542705",
    "longitude": "-89.9931113029651",
    "latitude": "29.903986815047652",
    "geocoded_column": {
      "latitude": "29.903986815047652",
      "longitude": "-89.9931113029651"
    }
  },
  {
    "service_request": "2025-1206164",
    "request_type": "Streetlights",
    "request_reason": "Streetlight Outage/Malfunction",
    "date_created": "2025-07-02T15:56:56.000",
    "date_modified": "2025-07-02T15:56:58.000",
    "request_status": "Pending",
    "responsible_agency": "Department of Public Works",
    "final_address": "928 John Churchill Chase St",
    "address_councildis": "B",
    "status": "Pending",
    "contractor": "Legacy Professional Services",
    "rowid": "1206164",
    "final_x": "3681340.43055",
    "final_y": "526135.096062",
    "longitude": "-90.06876183889936",
    "latitude": "29.94069385101347",
    "geocoded_column": {
      "latitude": "29.94069385101347",
      "longitude": "-90.06876183889936"
    }
  },
  {
    "service_request": "2025-1206163",
    "request_type": "Trash/Recycling",
    "request_reason": "Repair Trash Cart",
    "date_created": "2025-07-02T15:55:03.000",
    "date_modified": "2025-07-02T15:55:05.000",
    "request_status": "Pending",
    "responsible_agency": "Department of Sanitation",
    "final_address": "11141 Whiteside Rd",
    "address_councildis": "E",
    "status": "Assigned to Contractor",
    "contractor": "Waste Pro",
    "rowid": "1206163",
    "final_x": "3711863.09266",
    "final_y": "565086.99069",
    "longitude": "-89.97093535542096",
    "latitude": "30.046835196134964",
    "geocoded_column": {
      "latitude": "30.046835196134964",
      "longitude": "-89.97093535542096"
    }
  },
  {
    "service_request": "2025-1206162",
    "request_type": "Trash/Recycling",
    "request_reason": "Repair Trash Cart",
    "date_created": "2025-07-02T15:53:43.000",
    "date_modified": "2025-07-02T15:53:44.000",
    "request_status": "Pending",
    "responsible_agency": "Department of Sanitation",
    "final_address": "8516 Palmetto St",
    "address_councildis": "A",
    "status": "Assigned to Contractor",
    "contractor": "IV Waste",
    "rowid": "1206162",
    "final_x": "3666928.07105",
    "final_y": "536161.602439",
    "longitude": "-90.11392741958736",
    "latitude": "29.968692952954193",
    "geocoded_column": {
      "latitude": "29.968692952954193",
      "longitude": "-90.11392741958736"
    }
  },
  {
    "service_request": "2025-1206161",
    "request_type": "General Services",
    "request_reason": "General Service Request",
    "date_created": "2025-07-02T15:53:27.000",
    "date_modified": "2025-07-02T15:53:28.000",
    "request_status": "Pending",
    "responsible_agency": "Orleans Parish Communication District",
    "final_address": "LEAKE AVE & BROADWAY ST",
    "address_councildis": "A",
    "status": "Pending",
    "rowid": "1206161",
    "final_x": "3660855.01",
    "final_y": "521586.33",
    "longitude": "-90.13358855105726",
    "latitude": "29.92879192668333",
    "geocoded_column": {
      "latitude": "29.92879192668333",
      "longitude": "-90.13358855105726"
    }
  },
  {
    "service_request": "2025-1206160",
    "request_type": "Streetlights",
    "request_reason": "Streetlight Outage/Malfunction",
    "date_created": "2025-07-02T15:52:40.000",
    "date_modified": "2025-07-02T15:52:42.000",
    "request_status": "Pending",
    "responsible_agency": "Department of Public Works",
    "final_address": "10311 Castlewood Dr",
    "address_councildis": "E",
    "status": "Pending",
    "contractor": "Legacy Professional Services",
    "rowid": "1206160",
    "final_x": "3709327.80389",
    "final_y": "564764.228066",
    "longitude": "-89.97896019991921",
    "latitude": "30.0460303704159",
    "geocoded_column": {
      "latitude": "30.0460303704159",
      "longitude": "-89.97896019991921"
    }
  },
  {
    "service_request": "2025-1206159",
    "request_type": "Trash/Recycling",
    "request_reason": "Request a Large Item Pick Up",
    "date_created": "2025-07-02T15:50:28.000",
    "date_modified": "2025-07-02T15:50:29.000",
    "request_status": "Pending",
    "responsible_agency": "Department of Sanitation",
    "final_address": "7848 S Coronet Ct",
    "address_councildis": "E",
    "status": "Assigned to Contractor",
    "contractor": "Waste Pro",
    "rowid": "1206159",
    "final_x": "3703332.59806",
    "final_y": "557330.229467",
    "longitude": "-89.99818171781169",
    "latitude": "30.025783267088574",
    "geocoded_column": {
      "latitude": "30.025783267088574",
      "longitude": "-89.99818171781169"
    }
  },
  {
    "service_request": "2025-1206158",
    "request_type": "Parks & Parkways",
    "request_reason": "Request Tree Service (Right of Way/Public Property)",
    "date_created": "2025-07-02T15:48:17.000",
    "date_modified": "2025-07-02T15:48:20.000",
    "request_status": "Pending",
    "responsible_agency": "Department of Parks & Parkway",
    "final_address": "5613 Canal Blvd",
    "address_councildis": "A",
    "status": "Pending",
    "rowid": "1206158",
    "final_x": "3668413.47655",
    "final_y": "544772.428751",
    "longitude": "-90.10894583235311",
    "latitude": "29.99232626396506",
    "geocoded_column": {
      "latitude": "29.99232626396506",
      "longitude": "-90.10894583235311"
    }
  },
  {
    "service_request": "2025-1206157",
    "request_type": "Trash/Recycling",
    "request_reason": "Repair Trash Cart",
    "date_created": "2025-07-02T15:46:31.000",
    "date_modified": "2025-07-02T15:46:32.000",
    "request_status": "Pending",
    "responsible_agency": "Department of Sanitation",
    "final_address": "737 Pacific Ave",
    "address_councildis": "C",
    "status": "Assigned to Contractor",
    "contractor": "Richards Disposal",
    "rowid": "1206157",
    "final_x": "3688413.37871",
    "final_y": "528756.082432",
    "longitude": "-90.04633844795428",
    "latitude": "29.947684141142837",
    "geocoded_column": {
      "latitude": "29.947684141142837",
      "longitude": "-90.04633844795428"
    }
  },
  {
    "service_request": "2025-1206156",
    "request_type": "Trash/Recycling",
    "request_reason": "Request a Large Item Pick Up",
    "date_created": "2025-07-02T15:44:29.000",
    "date_modified": "2025-07-02T15:44:31.000",
    "request_status": "Pending",
    "responsible_agency": "Department of Sanitation",
    "final_address": "830 Deslonde St",
    "address_councildis": "E",
    "status": "Assigned to Contractor",
    "contractor": "Waste Pro",
    "rowid": "1206156",
    "final_x": "3695096.40342",
    "final_y": "533527.162116",
    "longitude": "-90.02506562237743",
    "latitude": "29.960594850123556",
    "geocoded_column": {
      "latitude": "29.960594850123556",
      "longitude": "-90.02506562237743"
    }
  },
  {
    "service_request": "2025-1206155",
    "request_type": "Abandoned Vehicles",
    "request_reason": "Abandoned/Junk Vehicles",
    "date_created": "2025-07-02T15:40:32.000",
    "date_modified": "2025-07-02T15:41:43.000",
    "request_status": "Pending",
    "responsible_agency": "Department of Public Works",
    "final_address": "7525 Berg Rd",
    "address_councildis": "E",
    "status": "Pending",
    "rowid": "1206155",
    "final_x": "3712394.6341",
    "final_y": "566131.612195",
    "longitude": "-89.9692161141833",
    "latitude": "30.0496900937692",
    "geocoded_column": {
      "latitude": "30.0496900937692",
      "longitude": "-89.9692161141833"
    }
  },
  {
    "service_request": "2025-1206154",
    "request_type": "Trash/Recycling",
    "request_reason": "Request a Large Item Pick Up",
    "date_created": "2025-07-02T15:32:14.000",
    "date_modified": "2025-07-02T15:32:16.000",
    "request_status": "Pending",
    "responsible_agency": "Department of Sanitation",
    "final_address": "2229 Napoleon Ave",
    "address_councildis": "B",
    "status": "Assigned to Contractor",
    "contractor": "IV Waste",
    "rowid": "1206154",
    "final_x": "3670705.10631",
    "final_y": "523239.409147",
    "longitude": "-90.10243767708833",
    "latitude": "29.933050101475846",
    "geocoded_column": {
      "latitude": "29.933050101475846",
      "longitude": "-90.10243767708833"
    }
  },
  {
    "service_request": "2025-1206153",
    "request_type": "Alley Ways",
    "request_reason": "Alley Way Regrading",
    "date_created": "2025-07-02T15:31:44.000",
    "date_modified": "2025-07-02T15:31:45.000",
    "request_status": "Pending",
    "responsible_agency": "Department of Public Works",
    "final_address": "326 Filmore Ave",
    "address_councildis": "A",
    "status": "Pending",
    "rowid": "1206153",
    "final_x": "3667707.51706",
    "final_y": "552038.407126",
    "longitude": "-90.1109309746209",
    "latitude": "30.012325909168794",
    "geocoded_column": {
      "latitude": "30.012325909168794",
      "longitude": "-90.1109309746209"
    }
  },
  {
    "service_request": "2025-1206152",
    "request_type": "Trash/Recycling",
    "request_reason": "Repair Trash Cart",
    "date_created": "2025-07-02T15:30:56.000",
    "date_modified": "2025-07-02T15:31:39.000",
    "request_status": "Pending",
    "responsible_agency": "Department of Sanitation",
    "final_address": "2534 Pauger St",
    "address_councildis": "D",
    "status": "Assigned to Contractor",
    "contractor": "IV Waste",
    "rowid": "1206152",
    "final_x": "3683608.77826",
    "final_y": "539070.516106",
    "longitude": "-90.06114686111354",
    "latitude": "29.976192802157353",
    "geocoded_column": {
      "latitude": "29.976192802157353",
      "longitude": "-90.06114686111354"
    }
  },
  {
    "service_request": "2025-1206151",
    "request_type": "Trash/Recycling",
    "request_reason": "Start Trash Service",
    "date_created": "2025-07-02T15:29:29.000",
    "date_modified": "2025-07-02T15:29:31.000",
    "request_status": "Pending",
    "responsible_agency": "Department of Sanitation",
    "final_address": "1807 Jena St",
    "address_councildis": "B",
    "status": "Assigned to Contractor",
    "contractor": "IV Waste",
    "rowid": "1206151",
    "final_x": "3670403.79175",
    "final_y": "521631.027449",
    "longitude": "-90.10344340853035",
    "latitude": "29.92863646440958",
    "geocoded_column": {
      "latitude": "29.92863646440958",
      "longitude": "-90.10344340853035"
    }
  },
  {
    "service_request": "2025-1206150",
    "request_type": "Trash/Recycling",
    "request_reason": "Request a Large Item Pick Up",
    "date_created": "2025-07-02T15:21:23.000",
    "date_modified": "2025-07-02T16:48:42.000",
    "case_close_date": "2025-07-02T11:48:41.000",
    "request_status": "Closed",
    "responsible_agency": "Department of Sanitation",
    "final_address": "1661 Robert St",
    "address_councildis": "B",
    "status": "Invalid Request",
    "contractor": "IV Waste",
    "contractor_action": "Invalid",
    "rowid": "1206150",
    "final_x": "3668802.90286",
    "final_y": "521479.912633",
    "longitude": "-90.108502193943",
    "latitude": "29.928268097874057",
    "geocoded_column": {
      "latitude": "29.928268097874057",
      "longitude": "-90.108502193943"
    }
  },
  {
    "service_request": "2025-1206149",
    "request_type": "Trash/Recycling",
    "request_reason": "Illegal Dumping",
    "date_created": "2025-07-02T15:19:25.000",
    "date_modified": "2025-07-02T15:19:26.000",
    "request_status": "Pending",
    "responsible_agency": "Department of Sanitation",
    "final_address": "MERCEDES BLVD & WALL BLVD",
    "address_councildis": "C",
    "status": "Pending",
    "rowid": "1206149",
    "final_x": "3698124.9",
    "final_y": "523669.88",
    "longitude": "-90.01586018535335",
    "latitude": "29.93339534989877",
    "geocoded_column": {
      "latitude": "29.93339534989877",
      "longitude": "-90.01586018535335"
    }
  },
  {
    "service_request": "2025-1206148",
    "request_type": "Trash/Recycling",
    "request_reason": "Order Recycling Cart",
    "date_created": "2025-07-02T15:11:25.000",
    "date_modified": "2025-07-02T15:11:27.000",
    "request_status": "Pending",
    "responsible_agency": "Department of Sanitation",
    "final_address": "400 Egania St",
    "address_councildis": "E",
    "status": "Pending",
    "rowid": "1206148",
    "final_x": "3696150.48432",
    "final_y": "531842.295107",
    "longitude": "-90.02179796014954",
    "latitude": "29.955928925737588",
    "geocoded_column": {
      "latitude": "29.955928925737588",
      "longitude": "-90.02179796014954"
    }
  },
  {
    "service_request": "2025-1206147",
    "request_type": "Trash/Recycling",
    "request_reason": "Repair Trash Cart",
    "date_created": "2025-07-02T15:10:33.000",
    "date_modified": "2025-07-02T15:10:35.000",
    "request_status": "Pending",
    "responsible_agency": "Department of Sanitation",
    "final_address": "2850 Mansfield Ave",
    "address_councildis": "C",
    "status": "Assigned to Contractor",
    "contractor": "Richards Disposal",
    "rowid": "1206147",
    "final_x": "3709244.17285",
    "final_y": "519320.216311",
    "longitude": "-89.98091970056818",
    "latitude": "29.921079085868833",
    "geocoded_column": {
      "latitude": "29.921079085868833",
      "longitude": "-89.98091970056818"
    }
  },
  {
    "service_request": "2025-1206146",
    "request_type": "Trash/Recycling",
    "request_reason": "Request a Large Item Pick Up",
    "date_created": "2025-07-02T15:09:30.000",
    "date_modified": "2025-07-02T15:09:32.000",
    "request_status": "Pending",
    "responsible_agency": "Department of Sanitation",
    "final_address": "4850 Galahad Dr",
    "address_councildis": "E",
    "status": "Assigned to Contractor",
    "contractor": "Waste Pro",
    "rowid": "1206146",
    "final_x": "3707054.93963",
    "final_y": "556307.877338",
    "longitude": "-89.98645769459517",
    "latitude": "30.022852411221074",
    "geocoded_column": {
      "latitude": "30.022852411221074",
      "longitude": "-89.98645769459517"
    }
  },
  {
    "service_request": "2025-1206145",
    "request_type": "Trash/Recycling",
    "request_reason": "Request a Large Item Pick Up",
    "date_created": "2025-07-02T15:04:01.000",
    "date_modified": "2025-07-02T15:04:03.000",
    "request_status": "Pending",
    "responsible_agency": "Department of Sanitation",
    "final_address": "1626 Louisa St",
    "address_councildis": "D",
    "status": "Assigned to Contractor",
    "contractor": "IV Waste",
    "rowid": "1206145",
    "final_x": "3690054.35676",
    "final_y": "537965.880585",
    "longitude": "-90.04082924396957",
    "latitude": "29.972957097506946",
    "geocoded_column": {
      "latitude": "29.972957097506946",
      "longitude": "-90.04082924396957"
    }
  },
  {
    "service_request": "2025-1206144",
    "request_type": "Trash/Recycling",
    "request_reason": "Repair Trash Cart",
    "date_created": "2025-07-02T15:03:35.000",
    "date_modified": "2025-07-02T15:03:36.000",
    "request_status": "Pending",
    "responsible_agency": "Department of Sanitation",
    "final_address": "4751 St Roch Ave",
    "address_councildis": "D",
    "status": "Assigned to Contractor",
    "contractor": "IV Waste",
    "rowid": "1206144",
    "final_x": "3685414.81186",
    "final_y": "550619.764948",
    "longitude": "-90.05503596085565",
    "latitude": "30.00789385477574",
    "geocoded_column": {
      "latitude": "30.00789385477574",
      "longitude": "-90.05503596085565"
    }
  },
  {
    "service_request": "2025-1206143",
    "request_type": "Drainage",
    "request_reason": "Street Flooding",
    "date_created": "2025-07-02T15:03:06.000",
    "date_modified": "2025-07-02T15:03:08.000",
    "request_status": "Pending",
    "responsible_agency": "Sewerage & Water Board",
    "final_address": "926 Toulouse St",
    "address_councildis": "C",
    "status": "Pending",
    "rowid": "1206143",
    "final_x": "3681505.43279",
    "final_y": "532644.076228",
    "longitude": "-90.06801397143775",
    "latitude": "29.958586345646566",
    "geocoded_column": {
      "latitude": "29.958586345646566",
      "longitude": "-90.06801397143775"
    }
  },
  {
    "service_request": "2025-1206142",
    "request_type": "Street and Traffic Signs",
    "request_reason": "One Way Sign Missing or Damaged",
    "date_created": "2025-07-02T15:00:57.000",
    "date_modified": "2025-07-02T15:00:59.000",
    "request_status": "Pending",
    "responsible_agency": "Department of Public Works",
    "final_address": "SPAIN ST & N ROBERTSON ST",
    "address_councildis": "C",
    "status": "Pending",
    "rowid": "1206142",
    "final_x": "3686016.0",
    "final_y": "537862.58",
    "longitude": "-90.05358676918797",
    "latitude": "29.972797692708344",
    "geocoded_column": {
      "latitude": "29.972797692708344",
      "longitude": "-90.05358676918797"
    }
  },
  {
    "service_request": "2025-1206141",
    "request_type": "Trash/Recycling",
    "request_reason": "Request a Large Item Pick Up",
    "date_created": "2025-07-02T15:00:33.000",
    "date_modified": "2025-07-02T15:02:12.000",
    "request_status": "Pending",
    "responsible_agency": "Department of Sanitation",
    "final_address": "2639 Valentine Ct",
    "address_councildis": "C",
    "status": "Assigned to Contractor",
    "contractor": "Richards Disposal",
    "rowid": "1206141",
    "final_x": "3699033.38084",
    "final_y": "521171.126713",
    "longitude": "-90.01308307377346",
    "latitude": "29.926495886125274",
    "geocoded_column": {
      "latitude": "29.926495886125274",
      "longitude": "-90.01308307377346"
    }
  },
  {
    "service_request": "2025-1206140",
    "request_type": "Trash/Recycling",
    "request_reason": "Request a Large Item Pick Up",
    "date_created": "2025-07-02T14:59:03.000",
    "date_modified": "2025-07-02T14:59:04.000",
    "request_status": "Pending",
    "responsible_agency": "Department of Sanitation",
    "final_address": "5208 Dauphine St",
    "address_councildis": "E",
    "status": "Assigned to Contractor",
    "contractor": "Waste Pro",
    "rowid": "1206140",
    "final_x": "3696293.98999",
    "final_y": "532950.308804",
    "longitude": "-90.0213047597758",
    "latitude": "29.95897105559996",
    "geocoded_column": {
      "latitude": "29.95897105559996",
      "longitude": "-90.0213047597758"
    }
  },
  {
    "service_request": "2025-1206139",
    "request_type": "Trash/Recycling",
    "request_reason": "Repair Trash Cart",
    "date_created": "2025-07-02T14:54:13.000",
    "date_modified": "2025-07-02T14:54:15.000",
    "request_status": "Pending",
    "responsible_agency": "Department of Sanitation",
    "final_address": "314 Elmira Ave",
    "address_councildis": "C",
    "status": "Assigned to Contractor",
    "contractor": "Richards Disposal",
    "rowid": "1206139",
    "final_x": "3688282.09865",
    "final_y": "530612.24301",
    "longitude": "-90.04668714150519",
    "latitude": "29.952792000223965",
    "geocoded_column": {
      "latitude": "29.952792000223965",
      "longitude": "-90.04668714150519"
    }
  },
  {
    "service_request": "2025-1206138",
    "request_type": "Streetlights",
    "request_reason": "Streetlight Outage/Malfunction",
    "date_created": "2025-07-02T14:52:59.000",
    "date_modified": "2025-07-02T14:53:00.000",
    "request_status": "Pending",
    "responsible_agency": "Department of Public Works",
    "final_address": "2700 BLK Tulane Ave",
    "address_councildis": "B",
    "status": "Pending",
    "contractor": "Legacy Professional Services",
    "rowid": "1206138",
    "final_x": "3674163.7015",
    "final_y": "533843.032495",
    "longitude": "-90.09115622530457",
    "latitude": "29.962103954079044",
    "geocoded_column": {
      "latitude": "29.962103954079044",
      "longitude": "-90.09115622530457"
    }
  },
  {
    "service_request": "2025-1206137",
    "request_type": "Trash/Recycling",
    "request_reason": "Request a Large Item Pick Up",
    "date_created": "2025-07-02T14:47:56.000",
    "date_modified": "2025-07-02T14:48:02.000",
    "request_status": "Pending",
    "responsible_agency": "Department of Sanitation",
    "final_address": "1933 Hope St",
    "address_councildis": "D",
    "status": "Assigned to Contractor",
    "contractor": "IV Waste",
    "rowid": "1206137",
    "final_x": "3681448.26959",
    "final_y": "541985.540428",
    "longitude": "-90.06786870344814",
    "latitude": "29.98427388238615",
    "geocoded_column": {
      "latitude": "29.98427388238615",
      "longitude": "-90.06786870344814"
    }
  },
  {
    "service_request": "2025-1206136",
    "request_type": "Trash/Recycling",
    "request_reason": "Request a Large Item Pick Up",
    "date_created": "2025-07-02T14:46:20.000",
    "date_modified": "2025-07-02T14:46:22.000",
    "request_status": "Pending",
    "responsible_agency": "Department of Sanitation",
    "final_address": "805 Leontine St",
    "address_councildis": "B",
    "status": "Assigned to Contractor",
    "contractor": "IV Waste",
    "rowid": "1206136",
    "final_x": "3667163.11015",
    "final_y": "518371.890998",
    "longitude": "-90.11378310007358",
    "latitude": "29.919770114923736",
    "geocoded_column": {
      "latitude": "29.919770114923736",
      "longitude": "-90.11378310007358"
    }
  },
  {
    "service_request": "2025-1206135",
    "request_type": "Trash/Recycling",
    "request_reason": "Request a Large Item Pick Up",
    "date_created": "2025-07-02T14:45:08.000",
    "date_modified": "2025-07-02T14:45:09.000",
    "request_status": "Pending",
    "responsible_agency": "Department of Sanitation",
    "final_address": "5710 Royal St",
    "address_councildis": "E",
    "status": "Assigned to Contractor",
    "contractor": "Waste Pro",
    "rowid": "1206135",
    "final_x": "3698053.02602",
    "final_y": "532115.197315",
    "longitude": "-90.01578051890543",
    "latitude": "29.956619295011468",
    "geocoded_column": {
      "latitude": "29.956619295011468",
      "longitude": "-90.01578051890543"
    }
  },
  {
    "service_request": "2025-1206134",
    "request_type": "Trash/Recycling",
    "request_reason": "Request a Large Item Pick Up",
    "date_created": "2025-07-02T14:45:00.000",
    "date_modified": "2025-07-02T14:45:04.000",
    "request_status": "Pending",
    "responsible_agency": "Department of Sanitation",
    "final_address": "4752 Shalimar Dr",
    "address_councildis": "D",
    "status": "Assigned to Contractor",
    "contractor": "Waste Pro",
    "rowid": "1206134",
    "final_x": "3697073.70627",
    "final_y": "554378.151448",
    "longitude": "-90.01806593898318",
    "latitude": "30.01786521754346",
    "geocoded_column": {
      "latitude": "30.01786521754346",
      "longitude": "-90.01806593898318"
    }
  },
  {
    "service_request": "2025-1206133",
    "request_type": "Roads and Streets",
    "request_reason": "Sidewalk Damaged or Missing",
    "date_created": "2025-07-02T14:40:19.000",
    "date_modified": "2025-07-02T14:40:28.000",
    "request_status": "Pending",
    "responsible_agency": "Department of Public Works",
    "final_address": "N MIRO ST & LOUISA ST",
    "address_councildis": "D",
    "status": "Pending",
    "rowid": "1206133",
    "final_x": "3690598.8",
    "final_y": "539998.68",
    "longitude": "-90.03903727606237",
    "latitude": "29.97852967715643",
    "geocoded_column": {
      "latitude": "29.97852967715643",
      "longitude": "-90.03903727606237"
    }
  },
  {
    "service_request": "2025-1206132",
    "request_type": "Property Maintenance",
    "request_reason": "Property Maintenance",
    "date_created": "2025-07-02T14:38:57.000",
    "date_modified": "2025-07-02T14:38:58.000",
    "request_status": "Pending",
    "responsible_agency": "Department of Code Enforcement",
    "final_address": "5612 Hawthorne Pl",
    "address_councildis": "A",
    "status": "Pending",
    "rowid": "1206132",
    "final_x": "3667788.35476",
    "final_y": "544735.861455",
    "longitude": "-90.11092170963295",
    "latitude": "29.992244068560925",
    "geocoded_column": {
      "latitude": "29.992244068560925",
      "longitude": "-90.11092170963295"
    }
  },
  {
    "service_request": "2025-1206131",
    "request_type": "Trash/Recycling",
    "request_reason": "Request a Large Item Pick Up",
    "date_created": "2025-07-02T14:30:48.000",
    "date_modified": "2025-07-02T14:30:49.000",
    "request_status": "Pending",
    "responsible_agency": "Department of Sanitation",
    "final_address": "4800 Lynhuber Dr",
    "address_councildis": "D",
    "status": "Assigned to Contractor",
    "contractor": "Waste Pro",
    "rowid": "1206131",
    "final_x": "3697927.70762",
    "final_y": "554596.710744",
    "longitude": "-90.01535969651725",
    "latitude": "30.01843919118177",
    "geocoded_column": {
      "latitude": "30.01843919118177",
      "longitude": "-90.01535969651725"
    }
  },
  {
    "service_request": "2025-1206130",
    "request_type": "Trash/Recycling",
    "request_reason": "Request a Large Item Pick Up",
    "date_created": "2025-07-02T14:28:34.000",
    "date_modified": "2025-07-02T14:28:35.000",
    "request_status": "Pending",
    "responsible_agency": "Department of Sanitation",
    "final_address": "2025 S Chippewa St",
    "address_councildis": "B",
    "status": "Assigned to Contractor",
    "contractor": "IV Waste",
    "rowid": "1206130",
    "final_x": "3680374.50863",
    "final_y": "521126.701369",
    "longitude": "-90.07198548252208",
    "latitude": "29.926951694992788",
    "geocoded_column": {
      "latitude": "29.926951694992788",
      "longitude": "-90.07198548252208"
    }
  },
  {
    "service_request": "2025-1206129",
    "request_type": "Trash/Recycling",
    "request_reason": "Order Trash Cart",
    "date_created": "2025-07-02T14:26:41.000",
    "date_modified": "2025-07-02T14:26:42.000",
    "request_status": "Pending",
    "responsible_agency": "Department of Sanitation",
    "final_address": "2615 S Prieur St",
    "address_councildis": "B",
    "status": "Assigned to Contractor",
    "contractor": "IV Waste",
    "rowid": "1206129",
    "final_x": "3672956.43368",
    "final_y": "527879.773439",
    "longitude": "-90.0951720851277",
    "latitude": "29.945742899536448",
    "geocoded_column": {
      "latitude": "29.945742899536448",
      "longitude": "-90.0951720851277"
    }
  },
  {
    "service_request": "2025-1206128",
    "request_type": "Safety & Permits",
    "request_reason": "Zoning Enforcement",
    "date_created": "2025-07-02T14:26:38.000",
    "date_modified": "2025-07-02T14:26:40.000",
    "request_status": "Pending",
    "responsible_agency": "Safety and Permits",
    "final_address": "4440 Lafaye St",
    "address_councildis": "D",
    "status": "Pending",
    "rowid": "1206128",
    "final_x": "3687491.08662",
    "final_y": "549262.134547",
    "longitude": "-90.04852449875895",
    "latitude": "30.004097013112037",
    "geocoded_column": {
      "latitude": "30.004097013112037",
      "longitude": "-90.04852449875895"
    }
  },
  {
    "service_request": "2025-1206127",
    "request_type": "Trash/Recycling",
    "request_reason": "Return Trash Cart",
    "date_created": "2025-07-02T14:25:25.000",
    "date_modified": "2025-07-02T14:25:28.000",
    "request_status": "Pending",
    "responsible_agency": "Department of Sanitation",
    "final_address": "4127 Walmsley Ave",
    "address_councildis": "B",
    "status": "Assigned to Contractor",
    "contractor": "IV Waste",
    "rowid": "1206127",
    "final_x": "3670216.49287",
    "final_y": "529727.430465",
    "longitude": "-90.10376040967024",
    "latitude": "29.950904477062902",
    "geocoded_column": {
      "latitude": "29.950904477062902",
      "longitude": "-90.10376040967024"
    }
  },
  {
    "service_request": "2025-1206126",
    "request_type": "Trash/Recycling",
    "request_reason": "Request a Large Item Pick Up",
    "date_created": "2025-07-02T14:22:09.000",
    "date_modified": "2025-07-02T14:22:12.000",
    "request_status": "Pending",
    "responsible_agency": "Department of Sanitation",
    "final_address": "917 Hillary St",
    "address_councildis": "A",
    "status": "Assigned to Contractor",
    "contractor": "IV Waste",
    "rowid": "1206126",
    "final_x": "3662665.65216",
    "final_y": "526423.723262",
    "longitude": "-90.12771202280595",
    "latitude": "29.94204097557979",
    "geocoded_column": {
      "latitude": "29.94204097557979",
      "longitude": "-90.12771202280595"
    }
  },
  {
    "service_request": "2025-1206125",
    "request_type": "Trash/Recycling",
    "request_reason": "Repair Recycling Cart",
    "date_created": "2025-07-02T14:20:44.000",
    "date_modified": "2025-07-02T15:48:19.000",
    "request_status": "Pending",
    "responsible_agency": "Department of Sanitation",
    "final_address": "3215 Octavia St",
    "address_councildis": "A",
    "status": "Pending",
    "contractor": "Sanitation Dept. ",
    "rowid": "1206125",
    "final_x": "3668412.81774",
    "final_y": "527509.263807",
    "longitude": "-90.1095303265711",
    "latitude": "29.944858336588872",
    "geocoded_column": {
      "latitude": "29.944858336588872",
      "longitude": "-90.1095303265711"
    }
  },
  {
    "service_request": "2025-1206124",
    "request_type": "Trash/Recycling",
    "request_reason": "Request a Large Item Pick Up",
    "date_created": "2025-07-02T14:18:00.000",
    "date_modified": "2025-07-02T14:18:02.000",
    "request_status": "Pending",
    "responsible_agency": "Department of Sanitation",
    "final_address": "300 S Pierce St",
    "address_councildis": "A",
    "status": "Assigned to Contractor",
    "contractor": "IV Waste",
    "rowid": "1206124",
    "final_x": "3671000.81019",
    "final_y": "537374.182984",
    "longitude": "-90.10102425967078",
    "latitude": "29.97190733704431",
    "geocoded_column": {
      "latitude": "29.97190733704431",
      "longitude": "-90.10102425967078"
    }
  },
  {
    "service_request": "2025-1206123",
    "request_type": "Parks & Parkways",
    "request_reason": "Request Tree Service (Right of Way/Public Property)",
    "date_created": "2025-07-02T14:16:43.000",
    "date_modified": "2025-07-02T14:20:29.000",
    "request_status": "Pending",
    "responsible_agency": "Department of Parks & Parkway",
    "final_address": "829 Eleonore St",
    "address_councildis": "A",
    "status": "Pending",
    "rowid": "1206123",
    "final_x": "3665321.57095",
    "final_y": "519296.644151",
    "longitude": "-90.1195650403664",
    "latitude": "29.922366661847896",
    "geocoded_column": {
      "latitude": "29.922366661847896",
      "longitude": "-90.1195650403664"
    }
  },
  {
    "service_request": "2025-1206122",
    "request_type": "Trash/Recycling",
    "request_reason": "MIssed Recycling Pick-Up",
    "date_created": "2025-07-02T14:15:35.000",
    "date_modified": "2025-07-02T14:15:36.000",
    "request_status": "Pending",
    "responsible_agency": "Department of Sanitation",
    "final_address": "7347 Read Blvd",
    "address_councildis": "E",
    "status": "Assigned to Contractor",
    "contractor": "Waste Pro",
    "rowid": "1206122",
    "final_x": "3709278.85413",
    "final_y": "563308.174176",
    "longitude": "-89.97916928963214",
    "latitude": "30.042028396015056",
    "geocoded_column": {
      "latitude": "30.042028396015056",
      "longitude": "-89.97916928963214"
    }
  },
  {
    "service_request": "2025-1206121",
    "request_type": "Property Maintenance",
    "request_reason": "Property Maintenance",
    "date_created": "2025-07-02T14:14:35.000",
    "date_modified": "2025-07-02T14:14:36.000",
    "request_status": "Pending",
    "responsible_agency": "Department of Code Enforcement",
    "final_address": "2073 N Tonti St",
    "address_councildis": "D",
    "status": "Pending",
    "rowid": "1206121",
    "final_x": "3683385.94332",
    "final_y": "540651.233355",
    "longitude": "-90.06179523839874",
    "latitude": "29.980546022811982",
    "geocoded_column": {
      "latitude": "29.980546022811982",
      "longitude": "-90.06179523839874"
    }
  },
  {
    "service_request": "2025-1206120",
    "request_type": "Trash/Recycling",
    "request_reason": "Order Recycling Cart",
    "date_created": "2025-07-02T14:14:26.000",
    "date_modified": "2025-07-02T14:14:28.000",
    "request_status": "Pending",
    "responsible_agency": "Department of Sanitation",
    "final_address": "3160 Jack Wyman Rd",
    "address_councildis": "C",
    "status": "Pending",
    "rowid": "1206120",
    "final_x": "3717462.9548",
    "final_y": "518154.743734",
    "longitude": "-89.95502126026116",
    "latitude": "29.91760516371888",
    "geocoded_column": {
      "latitude": "29.91760516371888",
      "longitude": "-89.95502126026116"
    }
  },
  {
    "service_request": "2025-1206119",
    "request_type": "Trash/Recycling",
    "request_reason": "Repair Trash Cart",
    "date_created": "2025-07-02T14:14:22.000",
    "date_modified": "2025-07-02T14:14:24.000",
    "request_status": "Pending",
    "responsible_agency": "Department of Sanitation",
    "final_address": "3215 Octavia St",
    "address_councildis": "A",
    "status": "Assigned to Contractor",
    "contractor": "IV Waste",
    "rowid": "1206119",
    "final_x": "3668412.81774",
    "final_y": "527509.263807",
    "longitude": "-90.1095303265711",
    "latitude": "29.944858336588872",
    "geocoded_column": {
      "latitude": "29.944858336588872",
      "longitude": "-90.1095303265711"
    }
  },
  {
    "service_request": "2025-1206118",
    "request_type": "Abandoned Vehicles",
    "request_reason": "Abandoned/Junk Vehicles",
    "date_created": "2025-07-02T14:13:39.000",
    "date_modified": "2025-07-02T14:13:40.000",
    "request_status": "Pending",
    "responsible_agency": "Department of Public Works",
    "final_address": "S NORMAN C FRANCIS PKWY & EVE ST",
    "address_councildis": "B",
    "status": "Pending",
    "rowid": "1206118",
    "final_x": "3669519.9",
    "final_y": "531274.18",
    "longitude": "-90.10590758832915",
    "latitude": "29.95517806580916",
    "geocoded_column": {
      "latitude": "29.95517806580916",
      "longitude": "-90.10590758832915"
    }
  },
  {
    "service_request": "2025-1206117",
    "request_type": "Abandoned Vehicles",
    "request_reason": "Abandoned/Junk Vehicles",
    "date_created": "2025-07-02T14:10:22.000",
    "date_modified": "2025-07-02T14:10:24.000",
    "request_status": "Pending",
    "responsible_agency": "Department of Public Works",
    "final_address": "33 Honeysuckle Ln",
    "address_councildis": "E",
    "status": "Pending",
    "rowid": "1206117",
    "final_x": "3713088.9427",
    "final_y": "568436.910053",
    "longitude": "-89.96693480353122",
    "latitude": "30.05600597675415",
    "geocoded_column": {
      "latitude": "30.05600597675415",
      "longitude": "-89.96693480353122"
    }
  },
  {
    "service_request": "2025-1206116",
    "request_type": "Trash/Recycling",
    "request_reason": "Missed Trash Pick-Up",
    "date_created": "2025-07-02T14:10:12.000",
    "date_modified": "2025-07-02T16:20:44.000",
    "case_close_date": "2025-07-02T11:20:42.000",
    "request_status": "Closed",
    "responsible_agency": "Department of Sanitation",
    "final_address": "407 Eleonore St",
    "address_councildis": "A",
    "status": "Invalid Request",
    "contractor": "IV Waste",
    "contractor_action": "Invalid",
    "rowid": "1206116",
    "final_x": "3664984.0608",
    "final_y": "517790.483126",
    "longitude": "-90.12068074231956",
    "latitude": "29.91823501613624",
    "geocoded_column": {
      "latitude": "29.91823501613624",
      "longitude": "-90.12068074231956"
    }
  },
  {
    "service_request": "2025-1206115",
    "request_type": "Streetlights",
    "request_reason": "New Streetlight Request",
    "date_created": "2025-07-02T14:09:55.000",
    "date_modified": "2025-07-02T14:09:57.000",
    "request_status": "Pending",
    "responsible_agency": "Department of Public Works",
    "final_address": "600 N Broad St",
    "address_councildis": "D",
    "status": "Pending",
    "contractor": "Legacy Professional Services",
    "rowid": "1206115",
    "final_x": "3676514.68328",
    "final_y": "536431.051079",
    "longitude": "-90.0836430411453",
    "latitude": "29.969149839828454",
    "geocoded_column": {
      "latitude": "29.969149839828454",
      "longitude": "-90.0836430411453"
    }
  },
  {
    "service_request": "2025-1206114",
    "request_type": "Trash/Recycling",
    "request_reason": "Repair Trash Cart",
    "date_created": "2025-07-02T14:08:02.000",
    "date_modified": "2025-07-02T14:08:03.000",
    "request_status": "Pending",
    "responsible_agency": "Department of Sanitation",
    "final_address": "7 Richmond Pl",
    "address_councildis": "A",
    "status": "Assigned to Contractor",
    "contractor": "IV Waste",
    "rowid": "1206114",
    "final_x": "3666562.78925",
    "final_y": "523565.468667",
    "longitude": "-90.11550379053458",
    "latitude": "29.934068366285565",
    "geocoded_column": {
      "latitude": "29.934068366285565",
      "longitude": "-90.11550379053458"
    }
  },
  {
    "service_request": "2025-1206113",
    "request_type": "Drainage",
    "request_reason": "Catch Basin Damaged",
    "date_created": "2025-07-02T14:05:37.000",
    "date_modified": "2025-07-02T14:05:38.000",
    "request_status": "Pending",
    "responsible_agency": "Sewerage & Water Board",
    "final_address": "600 N Broad St",
    "address_councildis": "D",
    "status": "Pending",
    "rowid": "1206113",
    "final_x": "3676514.68328",
    "final_y": "536431.051079",
    "longitude": "-90.0836430411453",
    "latitude": "29.969149839828454",
    "geocoded_column": {
      "latitude": "29.969149839828454",
      "longitude": "-90.0836430411453"
    }
  },
  {
    "service_request": "2025-1206112",
    "request_type": "Roads and Streets",
    "request_reason": "Curb Damage",
    "date_created": "2025-07-02T13:58:33.000",
    "date_modified": "2025-07-02T14:13:24.000",
    "request_status": "Pending",
    "responsible_agency": "Department of Public Works",
    "final_address": "1935 Lapeyrouse St",
    "address_councildis": "D",
    "status": "Pending",
    "rowid": "1206112",
    "final_x": "3681140.89858",
    "final_y": "538641.538825",
    "longitude": "-90.06895609834228",
    "latitude": "29.975088373083757",
    "geocoded_column": {
      "latitude": "29.975088373083757",
      "longitude": "-90.06895609834228"
    }
  },
  {
    "service_request": "2025-1206111",
    "request_type": "Trash/Recycling",
    "request_reason": "Return Trash Cart",
    "date_created": "2025-07-02T13:56:56.000",
    "date_modified": "2025-07-02T13:56:58.000",
    "request_status": "Pending",
    "responsible_agency": "Department of Sanitation",
    "final_address": "2313 Delachaise St",
    "address_councildis": "B",
    "status": "Assigned to Contractor",
    "contractor": "IV Waste",
    "rowid": "1206111",
    "final_x": "3672814.53768",
    "final_y": "523813.263227",
    "longitude": "-90.09575877091778",
    "latitude": "29.934565537885934",
    "geocoded_column": {
      "latitude": "29.934565537885934",
      "longitude": "-90.09575877091778"
    }
  },
  {
    "service_request": "2025-1206110",
    "request_type": "Trash/Recycling",
    "request_reason": "Missed Trash Pick-Up",
    "date_created": "2025-07-02T13:54:37.000",
    "date_modified": "2025-07-02T13:54:39.000",
    "request_status": "Pending",
    "responsible_agency": "Department of Sanitation",
    "final_address": "9830 Morrison Rd",
    "address_councildis": "E",
    "status": "Assigned to Contractor",
    "contractor": "Waste Pro",
    "rowid": "1206110",
    "final_x": "3707910.13188",
    "final_y": "562926.344224",
    "longitude": "-89.98350914893025",
    "latitude": "30.041022921529713",
    "geocoded_column": {
      "latitude": "30.041022921529713",
      "longitude": "-89.98350914893025"
    }
  },
  {
    "service_request": "2025-1206109",
    "request_type": "Trash/Recycling",
    "request_reason": "Request a Large Item Pick Up",
    "date_created": "2025-07-02T13:51:55.000",
    "date_modified": "2025-07-02T13:51:56.000",
    "request_status": "Pending",
    "responsible_agency": "Department of Sanitation",
    "final_address": "1221 Saint Andrew Street ",
    "status": "Assigned to Contractor",
    "rowid": "1206109",
    "longitude": "0.0",
    "latitude": "0.0",
    "geocoded_column": {
      "latitude": "0.0",
      "longitude": "0.0"
    }
  },
  {
    "service_request": "2025-1206108",
    "request_type": "Trash/Recycling",
    "request_reason": "Request a Large Item Pick Up",
    "date_created": "2025-07-02T13:37:50.000",
    "date_modified": "2025-07-02T13:37:52.000",
    "request_status": "Pending",
    "responsible_agency": "Department of Sanitation",
    "final_address": "11428 N St Andrews Cir",
    "address_councildis": "E",
    "status": "Assigned to Contractor",
    "contractor": "Waste Pro",
    "rowid": "1206108",
    "final_x": "3719233.46188",
    "final_y": "560306.007069",
    "longitude": "-89.94782406852467",
    "latitude": "30.033446422301918",
    "geocoded_column": {
      "latitude": "30.033446422301918",
      "longitude": "-89.94782406852467"
    }
  },
  {
    "service_request": "2025-1206107",
    "request_type": "Trash/Recycling",
    "request_reason": "Repair Recycling Cart",
    "date_created": "2025-07-02T13:37:09.000",
    "date_modified": "2025-07-02T13:37:10.000",
    "request_status": "Pending",
    "responsible_agency": "Department of Sanitation",
    "final_address": "2619 Short St",
    "address_councildis": "A",
    "status": "Pending",
    "rowid": "1206107",
    "final_x": "3665844.02202",
    "final_y": "531914.033603",
    "longitude": "-90.11749325798682",
    "latitude": "29.95704521337064",
    "geocoded_column": {
      "latitude": "29.95704521337064",
      "longitude": "-90.11749325798682"
    }
  },
  {
    "service_request": "2025-1206106",
    "request_type": "Trash/Recycling",
    "request_reason": "Replace Trash Cart",
    "date_created": "2025-07-02T13:36:59.000",
    "date_modified": "2025-07-02T13:37:01.000",
    "request_status": "Pending",
    "responsible_agency": "Department of Sanitation",
    "final_address": "2015 S Carrollton Ave",
    "address_councildis": "A",
    "status": "Assigned to Contractor",
    "contractor": "IV Waste",
    "rowid": "1206106",
    "final_x": "3664034.33261",
    "final_y": "530399.092994",
    "longitude": "-90.12325823885307",
    "latitude": "29.952932294656723",
    "geocoded_column": {
      "latitude": "29.952932294656723",
      "longitude": "-90.12325823885307"
    }
  },
  {
    "service_request": "2025-1206105",
    "request_type": "Trash/Recycling",
    "request_reason": "Request a Large Item Pick Up",
    "date_created": "2025-07-02T13:34:58.000",
    "date_modified": "2025-07-02T13:34:59.000",
    "request_status": "Pending",
    "responsible_agency": "Department of Sanitation",
    "final_address": "7802 Lady Gray St",
    "address_councildis": "E",
    "status": "Assigned to Contractor",
    "contractor": "Waste Pro",
    "rowid": "1206105",
    "final_x": "3709535.1516",
    "final_y": "565919.424931",
    "longitude": "-89.97826170555098",
    "latitude": "30.04919995660608",
    "geocoded_column": {
      "latitude": "30.04919995660608",
      "longitude": "-89.97826170555098"
    }
  },
  {
    "service_request": "2025-1206104",
    "request_type": "Property Maintenance",
    "request_reason": "Property Maintenance",
    "date_created": "2025-07-02T13:34:44.000",
    "date_modified": "2025-07-02T13:34:45.000",
    "request_status": "Pending",
    "responsible_agency": "Department of Code Enforcement",
    "final_address": "5499 Canal Blvd",
    "address_councildis": "A",
    "status": "Pending",
    "rowid": "1206104",
    "final_x": "3668291.97825",
    "final_y": "543812.221966",
    "longitude": "-90.10936202239893",
    "latitude": "29.989689593257804",
    "geocoded_column": {
      "latitude": "29.989689593257804",
      "longitude": "-90.10936202239893"
    }
  },
  {
    "service_request": "2025-1206103",
    "request_type": "Trash/Recycling",
    "request_reason": "Request a Large Item Pick Up",
    "date_created": "2025-07-02T13:30:20.000",
    "date_modified": "2025-07-02T13:30:22.000",
    "request_status": "Pending",
    "responsible_agency": "Department of Sanitation",
    "final_address": "7335 Downman Rd",
    "address_councildis": "D",
    "status": "Assigned to Contractor",
    "contractor": "Waste Pro",
    "rowid": "1206103",
    "final_x": "3694986.45302",
    "final_y": "557701.775323",
    "longitude": "-90.02454087486666",
    "latitude": "30.027069639131042",
    "geocoded_column": {
      "latitude": "30.027069639131042",
      "longitude": "-90.02454087486666"
    }
  },