[
  {
    "service_request": "2022-876424",
    "request_type": "Traffic Signals/Signs/Striping/Streetlights",
    "request_reason": "Street Light Outage/Malfunction",
    "date_created": "2022-04-20T23:01:29.000",
    "date_modified": "2022-04-20T23:01:30.000",
    "request_status": "Pending",
    "responsible_agency": "Department of Public Works",
    "final_address": "3400 Nashville Ave",
    "address_councildis": "A",
    "status": "Pending",
    "contractor": "Royal Engineering",
    "rowid": "876424",
    "final_x": "3667993.44583",
    "final_y": "528194.613376",
    "longitude": "-90.1108313290352",
    "latitude": "29.94675513491268",
    "geocoded_column": {
      "latitude": "29.94675513491268",
      "longitude": "-90.1108313290352"
    }
  },
  {
    "service_request": "2022-876423",
    "request_type": "Trash/Recycling",
    "request_reason": "Missed Trash Pick-Up",
    "date_created": "2022-04-20T22:37:13.000",
    "date_modified": "2022-04-20T22:37:13.000",
    "request_status": "Pending",
    "responsible_agency": "Department of Sanitation",
    "final_address": "1124 Adams St, New Orleans, Louisiana, 70118",
    "address_councildis": "A",
    "status": "Assigned to Contractor",
    "contractor": "Richards Disposal",
    "rowid": "876423",
    "final_x": "3662931.17331",
    "final_y": "527311.957247",
    "longitude": "-90.12684418378998",
    "latitude": "29.94447565090557",
    "geocoded_column": {
      "latitude": "29.94447565090557",
      "longitude": "-90.12684418378998"
    }
  },
  {
    "service_request": "2022-876422",
    "request_type": "Trash/Recycling",
    "request_reason": "MIssed Recycling Pick-Up",
    "date_created": "2022-04-20T22:33:52.000",
    "date_modified": "2022-04-20T22:33:53.000",
    "request_status": "Pending",
    "responsible_agency": "Department of Sanitation",
    "final_address": "2126 Valmont St",
    "address_councildis": "B",
    "status": "Assigned to Contractor",
    "contractor": "Richards Disposal",
    "rowid": "876422",
    "final_x": "3668093.53377",
    "final_y": "523466.683195",
    "longitude": "-90.11067459983748",
    "latitude": "29.93375191420886",
    "geocoded_column": {
      "latitude": "29.93375191420886",
      "longitude": "-90.11067459983748"
    }
  },
  {
    "service_request": "2022-876421",
    "request_type": "Property Maintenance",
    "request_reason": "Property Maintenance",
    "date_created": "2022-04-20T22:21:09.000",
    "date_modified": "2022-04-20T22:21:09.000",
    "request_status": "Pending",
    "responsible_agency": "Department of Code Enforcement",
    "final_address": "1494 Athis St",
    "address_councildis": "D",
    "status": "Pending",
    "rowid": "876421",
    "final_x": "3678270.13813",
    "final_y": "553684.514647",
    "longitude": "-90.07750200674258",
    "latitude": "30.016538042042434",
    "geocoded_column": {
      "latitude": "30.016538042042434",
      "longitude": "-90.07750200674258"
    }
  },
  {
    "service_request": "2022-876420",
    "request_type": "Trash/Recycling",
    "request_reason": "Request a Large Item Pick Up",
    "date_created": "2022-04-20T22:14:04.000",
    "date_modified": "2022-04-20T22:14:05.000",
    "request_status": "Pending",
    "responsible_agency": "Department of Sanitation",
    "final_address": "5000 Mexico St",
    "address_councildis": "D",
    "status": "Assigned to Contractor",
    "contractor": "Metro Disposal",
    "rowid": "876420",
    "final_x": "3690940.74819",
    "final_y": "556509.45129",
    "longitude": "-90.03736748920235",
    "latitude": "30.02391763759887",
    "geocoded_column": {
      "latitude": "30.02391763759887",
      "longitude": "-90.03736748920235"
    }
  },
  {
    "service_request": "2022-876419",
    "request_type": "Trash/Recycling",
    "request_reason": "Order Recycling Cart",
    "date_created": "2022-04-20T22:03:47.000",
    "date_modified": "2022-04-20T22:03:47.000",
    "request_status": "Pending",
    "responsible_agency": "Department of Sanitation",
    "final_address": "2774 Orchid St",
    "address_councildis": "A",
    "status": "Pending",
    "rowid": "876419",
    "final_x": "3677260.24776",
    "final_y": "538732.438729",
    "longitude": "-90.08120907251032",
    "latitude": "29.97545548900565",
    "geocoded_column": {
      "latitude": "29.97545548900565",
      "longitude": "-90.08120907251032"
    }
  },
  {
    "service_request": "2022-876418",
    "request_type": "Traffic Signals/Signs/Striping/Streetlights",
    "request_reason": "Traffic Signal Malfunctioning/Damaged",
    "date_created": "2022-04-20T21:50:52.000",
    "date_modified": "2022-04-20T21:50:52.000",
    "request_status": "Pending",
    "responsible_agency": "Department of Public Works",
    "final_address": "PALMETTO ST & S CARROLLTON AVE",
    "address_councildis": "A",
    "status": "Pending",
    "rowid": "876418",
    "final_x": "3668118.5",
    "final_y": "535074.38",
    "longitude": "-90.11020461511455",
    "latitude": "29.965668564883114",
    "geocoded_column": {
      "latitude": "29.965668564883114",
      "longitude": "-90.11020461511455"
    }
  },
  {
    "service_request": "2022-876417",
    "request_type": "Roads/Drainage",
    "request_reason": "Ditch Issue",
    "date_created": "2022-04-20T21:47:22.000",
    "date_modified": "2022-04-20T21:47:22.000",
    "request_status": "Pending",
    "responsible_agency": "Department of Public Works",
    "final_address": "3521 Indiana St",
    "address_councildis": "C",
    "status": "Pending",
    "rowid": "876417",
    "final_x": "3693491.56701",
    "final_y": "520253.625272",
    "longitude": "-90.03060989423149",
    "latitude": "29.924147479849413",
    "geocoded_column": {
      "latitude": "29.924147479849413",
      "longitude": "-90.03060989423149"
    }
  },
  {
    "service_request": "2022-876416",
    "request_type": "Trash/Recycling",
    "request_reason": "Request a Large Item Pick Up",
    "date_created": "2022-04-20T21:47:11.000",
    "date_modified": "2022-04-20T21:47:17.000",
    "request_status": "Pending",
    "responsible_agency": "Department of Sanitation",
    "final_address": "4905 S Claiborne Ave",
    "address_councildis": "B",
    "status": "Assigned to Contractor",
    "contractor": "Richards Disposal",
    "rowid": "876416",
    "final_x": "3669145.59527",
    "final_y": "525958.861117",
    "longitude": "-90.10726909682069",
    "latitude": "29.940573691404264",
    "geocoded_column": {
      "latitude": "29.940573691404264",
      "longitude": "-90.10726909682069"
    }
  },
  {
    "service_request": "2022-876415",
    "request_type": "Roads/Drainage",
    "request_reason": "Damaged Sidewalk",
    "date_created": "2022-04-20T21:25:20.000",
    "date_modified": "2022-04-20T21:25:20.000",
    "request_status": "Pending",
    "responsible_agency": "Department of Public Works",
    "final_address": "821 Gravier St",
    "address_councildis": "B",
    "status": "Pending",
    "rowid": "876415",
    "final_x": "3680309.65109",
    "final_y": "530352.318978",
    "longitude": "-90.07186960522988",
    "latitude": "29.95232104222569",
    "geocoded_column": {
      "latitude": "29.95232104222569",
      "longitude": "-90.07186960522988"
    }
  },
  {
    "service_request": "2022-876414",
    "request_type": "Property Maintenance",
    "request_reason": "Property Maintenance",
    "date_created": "2022-04-20T21:23:26.000",
    "date_modified": "2022-04-20T21:23:26.000",
    "request_status": "Pending",
    "responsible_agency": "Department of Code Enforcement",
    "final_address": "625 Jackson Ave",
    "address_councildis": "B",
    "status": "Pending",
    "rowid": "876414",
    "final_x": "3679879.13071",
    "final_y": "520839.775289",
    "longitude": "-90.07355921812228",
    "latitude": "29.926177727178633",
    "geocoded_column": {
      "latitude": "29.926177727178633",
      "longitude": "-90.07355921812228"
    }
  },
  {
    "service_request": "2022-876413",
    "request_type": "Trash/Recycling",
    "request_reason": "Order Recycling Cart",
    "date_created": "2022-04-20T21:23:05.000",
    "date_modified": "2022-04-20T21:23:05.000",
    "request_status": "Pending",
    "responsible_agency": "Department of Sanitation",
    "final_address": "3426 Baronne St",
    "address_councildis": "B",
    "status": "Pending",
    "rowid": "876413",
    "final_x": "3673704.54804",
    "final_y": "522097.275706",
    "longitude": "-90.09300766379427",
    "latitude": "29.92982066645355",
    "geocoded_column": {
      "latitude": "29.92982066645355",
      "longitude": "-90.09300766379427"
    }
  },
  {
    "service_request": "2022-876412",
    "request_type": "Roads/Drainage",
    "request_reason": "Damaged Sidewalk",
    "date_created": "2022-04-20T21:17:16.000",
    "date_modified": "2022-04-20T21:17:16.000",
    "request_status": "Pending",
    "responsible_agency": "Department of Public Works",
    "final_address": "600 Canal St",
    "address_councildis": "B",
    "status": "Pending",
    "rowid": "876412",
    "final_x": "3681390.76431",
    "final_y": "530409.599746",
    "longitude": "-90.06845395328503",
    "latitude": "29.952445774072807",
    "geocoded_column": {
      "latitude": "29.952445774072807",
      "longitude": "-90.06845395328503"
    }
  },
  {
    "service_request": "2022-876411",
    "request_type": "Traffic Signals/Signs/Striping/Streetlights",
    "request_reason": "Street Light Outage/Malfunction",
    "date_created": "2022-04-20T21:04:47.000",
    "date_modified": "2022-04-20T21:04:47.000",
    "request_status": "Pending",
    "responsible_agency": "Department of Public Works",
    "final_address": "2031 Chippewa St",
    "address_councildis": "B",
    "status": "Pending",
    "contractor": "Royal Engineering",
    "rowid": "876411",
    "final_x": "3680278.67509",
    "final_y": "521416.205817",
    "longitude": "-90.07227794589106",
    "latitude": "29.927750637775947",
    "geocoded_column": {
      "latitude": "29.927750637775947",
      "longitude": "-90.07227794589106"
    }
  },
  {
    "service_request": "2022-876408",
    "request_type": "Trash/Recycling",
    "request_reason": "Missed Trash Pick-Up",
    "date_created": "2022-04-20T20:48:53.000",
    "date_modified": "2022-04-20T20:48:54.000",
    "request_status": "Pending",
    "responsible_agency": "Department of Sanitation",
    "final_address": "7608 Willow St",
    "address_councildis": "A",
    "status": "Assigned to Contractor",
    "contractor": "Richards Disposal",
    "rowid": "876408",
    "final_x": "3663649.92634",
    "final_y": "527726.555327",
    "longitude": "-90.12456105164493",
    "latitude": "29.945594833762172",
    "geocoded_column": {
      "latitude": "29.945594833762172",
      "longitude": "-90.12456105164493"
    }
  },
  {
    "service_request": "2022-876407",
    "request_type": "Property Maintenance",
    "request_reason": "Property Maintenance",
    "date_created": "2022-04-20T20:41:59.000",
    "date_modified": "2022-04-20T20:41:59.000",
    "request_status": "Pending",
    "responsible_agency": "Department of Code Enforcement",
    "final_address": "4048 Banks St",
    "address_councildis": "A",
    "status": "Pending",
    "rowid": "876407",
    "final_x": "3670406.44295",
    "final_y": "537280.886984",
    "longitude": "-90.10290453497541",
    "latitude": "29.9716683674005",
    "geocoded_column": {
      "latitude": "29.9716683674005",
      "longitude": "-90.10290453497541"
    }
  },
  {
    "service_request": "2022-876406",
    "request_type": "Trash/Recycling",
    "request_reason": "Repair Trash Cart",
    "date_created": "2022-04-20T20:38:44.000",
    "date_modified": "2022-04-20T20:38:44.000",
    "request_status": "Pending",
    "responsible_agency": "Department of Sanitation",
    "final_address": "4416 S Saratoga St",
    "address_councildis": "B",
    "status": "Assigned to Contractor",
    "contractor": "Richards Disposal",
    "rowid": "876406",
    "final_x": "3670468.07233",
    "final_y": "522597.96089",
    "longitude": "-90.103207718329",
    "latitude": "29.93129332418425",
    "geocoded_column": {
      "latitude": "29.93129332418425",
      "longitude": "-90.103207718329"
    }
  },
  {
    "service_request": "2022-876405",
    "request_type": "Trash/Recycling",
    "request_reason": "MIssed Recycling Pick-Up",
    "date_created": "2022-04-20T20:31:41.000",
    "date_modified": "2022-04-20T20:31:42.000",
    "request_status": "Pending",
    "responsible_agency": "Department of Sanitation",
    "final_address": "1909 Washington Ave",
    "address_councildis": "B",
    "status": "Assigned to Contractor",
    "contractor": "Richards Disposal",
    "rowid": "876405",
    "final_x": "3675300.34229",
    "final_y": "523541.832315",
    "longitude": "-90.08792044539828",
    "latitude": "29.933745133703223",
    "geocoded_column": {
      "latitude": "29.933745133703223",
      "longitude": "-90.08792044539828"
    }
  },
  {
    "service_request": "2022-876404",
    "request_type": "Property Maintenance",
    "request_reason": "Property Maintenance",
    "date_created": "2022-04-20T20:26:10.000",
    "date_modified": "2022-04-20T20:26:10.000",
    "request_status": "Pending",
    "responsible_agency": "Department of Code Enforcement",
    "final_address": "4048 Banks St",
    "address_councildis": "A",
    "status": "Pending",
    "rowid": "876404",
    "final_x": "3670406.44295",
    "final_y": "537280.886984",
    "longitude": "-90.10290453497541",
    "latitude": "29.9716683674005",
    "geocoded_column": {
      "latitude": "29.9716683674005",
      "longitude": "-90.10290453497541"
    }
  },
  {
    "service_request": "2022-876403",
    "request_type": "Trash/Recycling",
    "request_reason": "Missed Trash Pick-Up",
    "date_created": "2022-04-20T20:24:04.000",
    "date_modified": "2022-04-20T20:24:04.000",
    "request_status": "Pending",
    "responsible_agency": "Department of Sanitation",
    "final_address": "2124 S Gayoso St",
    "address_councildis": "B",
    "status": "Assigned to Contractor",
    "contractor": "Richards Disposal",
    "rowid": "876403",
    "final_x": "3669691.5625",
    "final_y": "528928.721152",
    "longitude": "-90.10544490426787",
    "latitude": "29.948723765931963",
    "geocoded_column": {
      "latitude": "29.948723765931963",
      "longitude": "-90.10544490426787"
    }
  },
  {
    "service_request": "2022-876402",
    "request_type": "Trash/Recycling",
    "request_reason": "Missed Trash Pick-Up",
    "date_created": "2022-04-20T20:23:56.000",
    "date_modified": "2022-04-20T20:23:56.000",
    "request_status": "Pending",
    "responsible_agency": "Department of Sanitation",
    "final_address": "1111 Cherokee St",
    "address_councildis": "A",
    "status": "Assigned to Contractor",
    "contractor": "Richards Disposal",
    "rowid": "876402",
    "final_x": "3663415.62195",
    "final_y": "526758.049598",
    "longitude": "-90.12533306839717",
    "latitude": "29.94293854733253",
    "geocoded_column": {
      "latitude": "29.94293854733253",
      "longitude": "-90.12533306839717"
    }
  },
  {
    "service_request": "2022-876401",
    "request_type": "Property Maintenance",
    "request_reason": "Property Maintenance",
    "date_created": "2022-04-20T20:19:38.000",
    "date_modified": "2022-04-20T20:19:38.000",
    "request_status": "Pending",
    "responsible_agency": "Department of Code Enforcement",
    "final_address": "4046 Banks St",
    "address_councildis": "A",
    "status": "Pending",
    "rowid": "876401",
    "final_x": "3670416.05658",
    "final_y": "537273.377992",
    "longitude": "-90.10287442825191",
    "latitude": "29.971647436337477",
    "geocoded_column": {
      "latitude": "29.971647436337477",
      "longitude": "-90.10287442825191"
    }
  },
  {
    "service_request": "2022-876399",
    "request_type": "Trash/Recycling",
    "request_reason": "Missed Trash Pick-Up",
    "date_created": "2022-04-20T20:17:07.000",
    "date_modified": "2022-04-20T20:17:07.000",
    "request_status": "Pending",
    "responsible_agency": "Department of Sanitation",
    "final_address": "237 Adams St",
    "address_councildis": "A",
    "status": "Assigned to Contractor",
    "contractor": "Richards Disposal",
    "rowid": "876399",
    "final_x": "3660917.43552",
    "final_y": "524980.091837",
    "longitude": "-90.13327928222685",
    "latitude": "29.938121908461333",
    "geocoded_column": {
      "latitude": "29.938121908461333",
      "longitude": "-90.13327928222685"
    }
  },
  {
    "service_request": "2022-876397",
    "request_type": "Trash/Recycling",
    "request_reason": "Missed Trash Pick-Up",
    "date_created": "2022-04-20T19:51:43.000",
    "date_modified": "2022-04-20T19:51:44.000",
    "request_status": "Pending",
    "responsible_agency": "Department of Sanitation",
    "final_address": "2423 Short St",
    "address_councildis": "A",
    "status": "Assigned to Contractor",
    "contractor": "Richards Disposal",
    "rowid": "876397",
    "final_x": "3665380.04263",
    "final_y": "531395.218435",
    "longitude": "-90.11897572880738",
    "latitude": "29.9556321699992",
    "geocoded_column": {
      "latitude": "29.9556321699992",
      "longitude": "-90.11897572880738"
    }
  },
  {
    "service_request": "2022-876396",
    "request_type": "Trash/Recycling",
    "request_reason": "Missed Trash Pick-Up",
    "date_created": "2022-04-20T19:45:04.000",
    "date_modified": "2022-04-20T19:45:04.000",
    "request_status": "Pending",
    "responsible_agency": "Department of Sanitation",
    "final_address": "3 Rue Le Ville",
    "address_councildis": "A",
    "status": "Assigned to Contractor",
    "contractor": "Metro Disposal",
    "rowid": "876396",
    "final_x": "3666344.15297",
    "final_y": "554468.651224",
    "longitude": "-90.11515682753537",
    "latitude": "30.019048148876657",
    "geocoded_column": {
      "latitude": "30.019048148876657",
      "longitude": "-90.11515682753537"
    }
  },
  {
    "service_request": "2022-876395",
    "request_type": "Trash/Recycling",
    "request_reason": "MIssed Recycling Pick-Up",
    "date_created": "2022-04-20T19:38:52.000",
    "date_modified": "2022-04-20T19:38:53.000",
    "request_status": "Pending",
    "responsible_agency": "Department of Sanitation",
    "final_address": "1918 Washington Ave",
    "address_councildis": "B",
    "status": "Assigned to Contractor",
    "contractor": "Richards Disposal",
    "rowid": "876395",
    "final_x": "3675194.17531",
    "final_y": "523559.960571",
    "longitude": "-90.08825498797992",
    "latitude": "29.933798152998662",
    "geocoded_column": {
      "latitude": "29.933798152998662",
      "longitude": "-90.08825498797992"
    }
  },
  {
    "service_request": "2022-876394",
    "request_type": "Trash/Recycling",
    "request_reason": "Missed Trash Pick-Up",
    "date_created": "2022-04-20T19:21:16.000",
    "date_modified": "2022-04-20T19:21:17.000",
    "request_status": "Pending",
    "responsible_agency": "Department of Sanitation",
    "final_address": "1032 Adams St",
    "address_councildis": "A",
    "status": "Assigned to Contractor",
    "contractor": "Richards Disposal",
    "rowid": "876394",
    "final_x": "3662729.62842",
    "final_y": "527087.770495",
    "longitude": "-90.12748797172529",
    "latitude": "29.943865042565374",
    "geocoded_column": {
      "latitude": "29.943865042565374",
      "longitude": "-90.12748797172529"
    }
  },
  {
    "service_request": "2022-876393",
    "request_type": "Abandoned Vehicles",
    "request_reason": "Abandoned/Junk Vehicles",
    "date_created": "2022-04-20T19:19:35.000",
    "date_modified": "2022-04-20T19:43:36.000",
    "request_status": "Pending",
    "responsible_agency": "Department of Public Works",
    "status": "Inspected",
    "rowid": "876393",
    "longitude": "0.0",
    "latitude": "0.0",
    "geocoded_column": {
      "latitude": "0.0",
      "longitude": "0.0"
    }
  },
  {
    "service_request": "2022-876392",
    "request_type": "Trash/Recycling",
    "request_reason": "Illegal Dumping",
    "date_created": "2022-04-20T18:58:38.000",
    "date_modified": "2022-04-20T18:58:39.000",
    "request_status": "Pending",
    "responsible_agency": "Department of Code Enforcement",
    "final_address": "1343 Tricou St",
    "address_councildis": "E",
    "status": "Pending",
    "rowid": "876392",
    "final_x": "3700575.03466",
    "final_y": "534029.643653",
    "longitude": "-90.00774695220971",
    "latitude": "29.96180335965277",
    "geocoded_column": {
      "latitude": "29.96180335965277",
      "longitude": "-90.00774695220971"
    }
  },
  {
    "service_request": "2022-876391",
    "request_type": "Trash/Recycling",
    "request_reason": "Missed Trash Pick-Up",
    "date_created": "2022-04-20T18:54:28.000",
    "date_modified": "2022-04-20T18:54:29.000",
    "request_status": "Pending",
    "responsible_agency": "Department of Sanitation",
    "final_address": "1421 Hillary St",
    "address_councildis": "A",
    "status": "Assigned to Contractor",
    "contractor": "Richards Disposal",
    "rowid": "876391",
    "final_x": "3663961.97338",
    "final_y": "527763.687359",
    "longitude": "-90.12357457497043",
    "latitude": "29.945687879730954",
    "geocoded_column": {
      "latitude": "29.945687879730954",
      "longitude": "-90.12357457497043"
    }
  },
  {
    "service_request": "2022-876390",
    "request_type": "Trash/Recycling",
    "request_reason": "Illegal Dumping",
    "date_created": "2022-04-20T18:53:26.000",
    "date_modified": "2022-04-20T18:53:26.000",
    "request_status": "Pending",
    "responsible_agency": "Department of Sanitation",
    "final_address": "723 Verret St",
    "address_councildis": "C",
    "status": "Pending",
    "rowid": "876390",
    "final_x": "3687065.77769",
    "final_y": "528887.350656",
    "longitude": "-90.05058870358219",
    "latitude": "29.948086634393928",
    "geocoded_column": {
      "latitude": "29.948086634393928",
      "longitude": "-90.05058870358219"
    }
  },
  {
    "service_request": "2022-876389",
    "request_type": "Trash/Recycling",
    "request_reason": "Missed Trash Pick-Up",
    "date_created": "2022-04-20T18:50:58.000",
    "date_modified": "2022-04-20T18:50:59.000",
    "request_status": "Pending",
    "responsible_agency": "Department of Sanitation",
    "final_address": "2520 Short St, New Orleans, Louisiana, 70125",
    "address_councildis": "A",
    "status": "Assigned to Contractor",
    "contractor": "Richards Disposal",
    "rowid": "876389",
    "final_x": "3665518.3154",
    "final_y": "531693.499907",
    "longitude": "-90.11852912526307",
    "latitude": "29.956448316640127",
    "geocoded_column": {
      "latitude": "29.956448316640127",
      "longitude": "-90.11852912526307"
    }
  },
  {
    "service_request": "2022-876388",
    "request_type": "Trash/Recycling",
    "request_reason": "Request a Large Item Pick Up",
    "date_created": "2022-04-20T18:49:04.000",
    "date_modified": "2022-04-20T18:49:04.000",
    "request_status": "Pending",
    "responsible_agency": "Department of Sanitation",
    "final_address": "3718 Banks St",
    "address_councildis": "B",
    "status": "Assigned to Contractor",
    "contractor": "Richards Disposal",
    "rowid": "876388",
    "final_x": "3671429.07547",
    "final_y": "536485.880263",
    "longitude": "-90.09970193000524",
    "latitude": "29.969452132204186",
    "geocoded_column": {
      "latitude": "29.969452132204186",
      "longitude": "-90.09970193000524"
    }
  },
  {
    "service_request": "2022-876387",
    "request_type": "Trash/Recycling",
    "request_reason": "Replace Trash Cart",
    "date_created": "2022-04-20T18:41:51.000",
    "date_modified": "2022-04-20T18:41:51.000",
    "request_status": "Pending",
    "responsible_agency": "Department of Sanitation",
    "final_address": "1523 Gordon St",
    "address_councildis": "E",
    "status": "Assigned to Contractor",
    "contractor": "Metro Disposal",
    "rowid": "876387",
    "final_x": "3699827.4744",
    "final_y": "535011.454598",
    "longitude": "-90.01007180782739",
    "latitude": "29.964526747145108",
    "geocoded_column": {
      "latitude": "29.964526747145108",
      "longitude": "-90.01007180782739"
    }
  },
  {
    "service_request": "2022-876386",
    "request_type": "Roads/Drainage",
    "request_reason": "Street Subsidence (Sinking)",
    "date_created": "2022-04-20T18:36:02.000",
    "date_modified": "2022-04-20T18:36:02.000",
    "request_status": "Pending",
    "responsible_agency": "Department of Public Works",
    "final_address": "410 Lowerline St",
    "address_councildis": "A",
    "status": "Pending",
    "rowid": "876386",
    "final_x": "3661666.96403",
    "final_y": "524041.37734",
    "longitude": "-90.13094403947427",
    "latitude": "29.93551913414109",
    "geocoded_column": {
      "latitude": "29.93551913414109",
      "longitude": "-90.13094403947427"
    }
  },
  {
    "service_request": "2022-876385",
    "request_type": "Property Maintenance",
    "request_reason": "Property Maintenance",
    "date_created": "2022-04-20T18:32:40.000",
    "date_modified": "2022-04-20T18:32:40.000",
    "request_status": "Pending",
    "responsible_agency": "Department of Code Enforcement",
    "final_address": "3518 Audubon St",
    "address_councildis": "B",
    "status": "Pending",
    "rowid": "876385",
    "final_x": "3669030.70055",
    "final_y": "533251.58074",
    "longitude": "-90.10738549953696",
    "latitude": "29.96062966585462",
    "geocoded_column": {
      "latitude": "29.96062966585462",
      "longitude": "-90.10738549953696"
    }
  },
  {
    "service_request": "2022-876384",
    "request_type": "Trash/Recycling",
    "request_reason": "Missed Trash Pick-Up",
    "date_created": "2022-04-20T18:29:22.000",
    "date_modified": "2022-04-20T18:29:22.000",
    "request_status": "Pending",
    "responsible_agency": "Department of Sanitation",
    "final_address": "208 Hillary St",
    "address_councildis": "A",
    "status": "Assigned to Contractor",
    "contractor": "Richards Disposal",
    "rowid": "876384",
    "final_x": "3660791.92806",
    "final_y": "524467.190908",
    "longitude": "-90.13369247583448",
    "latitude": "29.936715206414828",
    "geocoded_column": {
      "latitude": "29.936715206414828",
      "longitude": "-90.13369247583448"
    }
  },
  {
    "service_request": "2022-876383",
    "request_type": "Trash/Recycling",
    "request_reason": "Request a Large Item Pick Up",
    "date_created": "2022-04-20T18:15:41.000",
    "date_modified": "2022-04-20T18:15:41.000",
    "request_status": "Pending",
    "responsible_agency": "Department of Sanitation",
    "final_address": "3765 Inwood Ave",
    "address_councildis": "C",
    "status": "Assigned to Contractor",
    "contractor": "Richards Disposal",
    "rowid": "876383",
    "final_x": "3704885.12523",
    "final_y": "514588.910131",
    "longitude": "-89.99485360176823",
    "latitude": "29.90821037078622",
    "geocoded_column": {
      "latitude": "29.90821037078622",
      "longitude": "-89.99485360176823"
    }
  },
  {
    "service_request": "2022-876382",
    "request_type": "Trash/Recycling",
    "request_reason": "Missed Trash Pick-Up",
    "date_created": "2022-04-20T18:08:51.000",
    "date_modified": "2022-04-20T18:08:52.000",
    "request_status": "Pending",
    "responsible_agency": "Department of Sanitation",
    "final_address": "7719 Pearl St",
    "address_councildis": "A",
    "status": "Assigned to Contractor",
    "contractor": "Richards Disposal",
    "rowid": "876382",
    "final_x": "3661322.75584",
    "final_y": "525685.491069",
    "longitude": "-90.1319762934953",
    "latitude": "29.940049854606897",
    "geocoded_column": {
      "latitude": "29.940049854606897",
      "longitude": "-90.1319762934953"
    }
  },
  {
    "service_request": "2022-876380",
    "request_type": "Trash/Recycling",
    "request_reason": "Missed Trash Pick-Up",
    "date_created": "2022-04-20T18:05:43.000",
    "date_modified": "2022-04-20T18:05:44.000",
    "request_status": "Pending",
    "responsible_agency": "Department of Sanitation",
    "final_address": "7819 Willow St",
    "address_councildis": "A",
    "status": "Assigned to Contractor",
    "contractor": "Richards Disposal",
    "rowid": "876380",
    "final_x": "3663160.19021",
    "final_y": "528286.958976",
    "longitude": "-90.12608867394457",
    "latitude": "29.947149960746582",
    "geocoded_column": {
      "latitude": "29.947149960746582",
      "longitude": "-90.12608867394457"
    }
  },
  {
    "service_request": "2022-876379",
    "request_type": "Trash/Recycling",
    "request_reason": "Missed Trash Pick-Up",
    "date_created": "2022-04-20T17:58:41.000",
    "date_modified": "2022-04-20T17:58:41.000",
    "request_status": "Pending",
    "responsible_agency": "Department of Sanitation",
    "final_address": "440 Millaudon St",
    "address_councildis": "A",
    "status": "Assigned to Contractor",
    "contractor": "Richards Disposal",
    "rowid": "876379",
    "final_x": "3662047.29587",
    "final_y": "524917.913468",
    "longitude": "-90.12971425500784",
    "latitude": "29.93791835189131",
    "geocoded_column": {
      "latitude": "29.93791835189131",
      "longitude": "-90.12971425500784"
    }
  },
  {
    "service_request": "2022-876378",
    "request_type": "Trash/Recycling",
    "request_reason": "Request a Large Item Pick Up",
    "date_created": "2022-04-20T17:55:45.000",
    "date_modified": "2022-04-20T17:55:46.000",
    "request_status": "Pending",
    "responsible_agency": "Department of Sanitation",
    "final_address": "440 Millaudon St",
    "address_councildis": "A",
    "status": "Assigned to Contractor",
    "contractor": "Richards Disposal",
    "rowid": "876378",
    "final_x": "3662047.29587",
    "final_y": "524917.913468",
    "longitude": "-90.12971425500784",
    "latitude": "29.93791835189131",
    "geocoded_column": {
      "latitude": "29.93791835189131",
      "longitude": "-90.12971425500784"
    }
  },
  {
    "service_request": "2022-876377",
    "request_type": "Trash/Recycling",
    "request_reason": "Request a Large Item Pick Up",
    "date_created": "2022-04-20T17:53:47.000",
    "date_modified": "2022-04-20T17:53:48.000",
    "request_status": "Pending",
    "responsible_agency": "Department of Sanitation",
    "final_address": "440 Millaudon St",
    "address_councildis": "A",
    "status": "Assigned to Contractor",
    "contractor": "Richards Disposal",
    "rowid": "876377",
    "final_x": "3662047.29587",
    "final_y": "524917.913468",
    "longitude": "-90.12971425500784",
    "latitude": "29.93791835189131",
    "geocoded_column": {
      "latitude": "29.93791835189131",
      "longitude": "-90.12971425500784"
    }
  },
  {
    "service_request": "2022-876376",
    "request_type": "Abandoned Vehicles",
    "request_reason": "Abandoned/Junk Vehicles",
    "date_created": "2022-04-20T17:50:19.000",
    "date_modified": "2022-04-20T17:50:19.000",
    "request_status": "Pending",
    "responsible_agency": "Department of Public Works",
    "final_address": "110 Ringold St",
    "address_councildis": "A",
    "status": "Pending",
    "rowid": "876376",
    "final_x": "3666700.19706",
    "final_y": "548424.351442",
    "longitude": "-90.11423503696736",
    "latitude": "30.002418023424237",
    "geocoded_column": {
      "latitude": "30.002418023424237",
      "longitude": "-90.11423503696736"
    }
  },
  {
    "service_request": "2022-876375",
    "request_type": "Trash/Recycling",
    "request_reason": "MIssed Recycling Pick-Up",
    "date_created": "2022-04-20T17:43:10.000",
    "date_modified": "2022-04-20T17:43:11.000",
    "request_status": "Pending",
    "responsible_agency": "Department of Sanitation",
    "final_address": "2519 Loyola Ave",
    "address_councildis": "B",
    "status": "Assigned to Contractor",
    "contractor": "Richards Disposal",
    "rowid": "876375",
    "final_x": "3675325.86101",
    "final_y": "524742.52422",
    "longitude": "-90.08779868069543",
    "latitude": "29.937045881826396",
    "geocoded_column": {
      "latitude": "29.937045881826396",
      "longitude": "-90.08779868069543"
    }
  },
  {
    "service_request": "2022-876374",
    "request_type": "Trash/Recycling",
    "request_reason": "Missed Trash Pick-Up",
    "date_created": "2022-04-20T17:25:51.000",
    "date_modified": "2022-04-20T17:25:52.000",
    "request_status": "Pending",
    "responsible_agency": "Department of Sanitation",
    "final_address": "1023 Dufossat St",
    "address_councildis": "B",
    "status": "Assigned to Contractor",
    "contractor": "Richards Disposal",
    "rowid": "876374",
    "final_x": "3668147.42925",
    "final_y": "519194.491511",
    "longitude": "-90.11064837000087",
    "latitude": "29.92200316354626",
    "geocoded_column": {
      "latitude": "29.92200316354626",
      "longitude": "-90.11064837000087"
    }
  },
  {
    "service_request": "2022-876373",
    "request_type": "Trash/Recycling",
    "request_reason": "Missed Trash Pick-Up",
    "date_created": "2022-04-20T17:22:07.000",
    "date_modified": "2022-04-20T17:22:08.000",
    "request_status": "Pending",
    "responsible_agency": "Department of Sanitation",
    "final_address": "7712 Willow St, New Orleans, Louisiana, 70118",
    "address_councildis": "A",
    "status": "Assigned to Contractor",
    "contractor": "Richards Disposal",
    "rowid": "876373",
    "final_x": "3663413.33031",
    "final_y": "527947.933631",
    "longitude": "-90.12530069707486",
    "latitude": "29.946210413904545",
    "geocoded_column": {
      "latitude": "29.946210413904545",
      "longitude": "-90.12530069707486"
    }
  },
  {
    "service_request": "2022-876372",
    "request_type": "Property Maintenance",
    "request_reason": "Property Maintenance",
    "date_created": "2022-04-20T17:11:23.000",
    "date_modified": "2022-04-20T17:11:23.000",
    "request_status": "Pending",
    "responsible_agency": "Department of Code Enforcement",
    "final_address": "3943 S Pin Oak Ave",
    "address_councildis": "C",
    "status": "Pending",
    "rowid": "876372",
    "final_x": "3704908.03486",
    "final_y": "513422.793714",
    "longitude": "-89.99482428894986",
    "latitude": "29.905003212991986",
    "geocoded_column": {
      "latitude": "29.905003212991986",
      "longitude": "-89.99482428894986"
    }
  },
  {
    "service_request": "2022-876371",
    "request_type": "Trash/Recycling",
    "request_reason": "Request a Large Item Pick Up",
    "date_created": "2022-04-20T17:07:47.000",
    "date_modified": "2022-04-20T17:07:47.000",
    "request_status": "Pending",
    "responsible_agency": "Department of Sanitation",
    "final_address": "633 Patterson St",
    "address_councildis": "C",
    "status": "Assigned to Contractor",
    "contractor": "Richards Disposal",
    "rowid": "876371",
    "final_x": "3687487.28354",
    "final_y": "531397.219779",
    "longitude": "-90.04916902888228",
    "latitude": "29.954974933077946",
    "geocoded_column": {
      "latitude": "29.954974933077946",
      "longitude": "-90.04916902888228"
    }
  },
  {
    "service_request": "2022-876370",
    "request_type": "Property Maintenance",
    "request_reason": "Property Maintenance",
    "date_created": "2022-04-20T17:06:53.000",
    "date_modified": "2022-04-20T17:06:53.000",
    "request_status": "Pending",
    "responsible_agency": "Department of Code Enforcement",
    "final_address": "3909 S Pin Oak Ave",
    "address_councildis": "C",
    "status": "Pending",
    "rowid": "876370",
    "final_x": "3704776.129",
    "final_y": "513720.250482",
    "longitude": "-89.99522962315893",
    "latitude": "29.905825353865513",
    "geocoded_column": {
      "latitude": "29.905825353865513",
      "longitude": "-89.99522962315893"
    }
  },
  {
    "service_request": "2022-876369",
    "request_type": "Roads/Drainage",
    "request_reason": "Street Subsidence (Sinking)",
    "date_created": "2022-04-20T17:02:27.000",
    "date_modified": "2022-04-20T17:02:27.000",
    "request_status": "Pending",
    "responsible_agency": "Department of Public Works",
    "final_address": "919 Touro St",
    "address_councildis": "C",
    "status": "Pending",
    "rowid": "876369",
    "final_x": "3684307.38325",
    "final_y": "535689.772039",
    "longitude": "-90.059059205684",
    "latitude": "29.966875585621363",
    "geocoded_column": {
      "latitude": "29.966875585621363",
      "longitude": "-90.059059205684"
    }
  },
  {
    "service_request": "2022-876368",
    "request_type": "Property Maintenance",
    "request_reason": "Property Maintenance",
    "date_created": "2022-04-20T17:02:25.000",
    "date_modified": "2022-04-20T17:02:25.000",
    "request_status": "Pending",
    "responsible_agency": "Department of Code Enforcement",
    "final_address": "2020 Pleasure St",
    "address_councildis": "D",
    "status": "Pending",
    "rowid": "876368",
    "final_x": "3683022.42575",
    "final_y": "544990.442959",
    "longitude": "-90.06279141665995",
    "latitude": "29.992488405913388",
    "geocoded_column": {
      "latitude": "29.992488405913388",
      "longitude": "-90.06279141665995"
    }
  },
  {
    "service_request": "2022-876367",
    "request_type": "Roads/Drainage",
    "request_reason": "Bicycle Hazardous Incident Reporting",
    "date_created": "2022-04-20T17:02:15.000",
    "date_modified": "2022-04-20T17:02:15.000",
    "request_status": "Pending",
    "responsible_agency": "Health Department",
    "final_address": "400 Lafayette St",
    "address_councildis": "B",
    "status": "Pending",
    "rowid": "876367",
    "final_x": "3681498.65909",
    "final_y": "528666.656768",
    "longitude": "-90.06817403606365",
    "latitude": "29.947649992871007",
    "geocoded_column": {
      "latitude": "29.947649992871007",
      "longitude": "-90.06817403606365"
    }
  },
  {
    "service_request": "2022-876366",
    "request_type": "Trash/Recycling",
    "request_reason": "Replace Recycling Cart",
    "date_created": "2022-04-20T17:00:55.000",
    "date_modified": "2022-04-20T17:00:56.000",
    "request_status": "Pending",
    "responsible_agency": "Department of Sanitation",
    "final_address": "2722 Banks St",
    "address_councildis": "B",
    "status": "Pending",
    "rowid": "876366",
    "final_x": "3674397.71912",
    "final_y": "534232.450245",
    "longitude": "-90.09040389273228",
    "latitude": "29.963167744302833",
    "geocoded_column": {
      "latitude": "29.963167744302833",
      "longitude": "-90.09040389273228"
    }
  },
  {
    "service_request": "2022-876365",
    "request_type": "Trash/Recycling",
    "request_reason": "Replace Trash Cart",
    "date_created": "2022-04-20T17:00:15.000",
    "date_modified": "2022-04-20T17:00:15.000",
    "request_status": "Pending",
    "responsible_agency": "Department of Sanitation",
    "final_address": "2722 Banks St",
    "address_councildis": "B",
    "status": "Assigned to Contractor",
    "contractor": "Richards Disposal",
    "rowid": "876365",
    "final_x": "3674397.71912",
    "final_y": "534232.450245",
    "longitude": "-90.09040389273228",
    "latitude": "29.963167744302833",
    "geocoded_column": {
      "latitude": "29.963167744302833",
      "longitude": "-90.09040389273228"
    }
  },
  {
    "service_request": "2022-876364",
    "request_type": "Roads/Drainage",
    "request_reason": "Pothole",
    "date_created": "2022-04-20T16:59:40.000",
    "date_modified": "2022-04-20T16:59:40.000",
    "request_status": "Pending",
    "responsible_agency": "Department of Public Works",
    "final_address": "600 Magazine St",
    "address_councildis": "B",
    "status": "Pending",
    "rowid": "876364",
    "final_x": "3681429.39132",
    "final_y": "528653.479296",
    "longitude": "-90.0683932007068",
    "latitude": "29.947615862034493",
    "geocoded_column": {
      "latitude": "29.947615862034493",
      "longitude": "-90.0683932007068"
    }
  },
  {
    "service_request": "2022-876363",
    "request_type": "Trash/Recycling",
    "request_reason": "Missed Trash Pick-Up",
    "date_created": "2022-04-20T16:58:51.000",
    "date_modified": "2022-04-20T16:58:52.000",
    "request_status": "Pending",
    "responsible_agency": "Department of Sanitation",
    "final_address": "7524 Willow St",
    "address_councildis": "A",
    "status": "Assigned to Contractor",
    "contractor": "Richards Disposal",
    "rowid": "876363",
    "final_x": "3663848.00832",
    "final_y": "527527.902079",
    "longitude": "-90.1239422592859",
    "latitude": "29.945042853827598",
    "geocoded_column": {
      "latitude": "29.945042853827598",
      "longitude": "-90.1239422592859"
    }
  },
  {
    "service_request": "2022-876362",
    "request_type": "Trash/Recycling",
    "request_reason": "Request a Large Item Pick Up",
    "date_created": "2022-04-20T16:54:25.000",
    "date_modified": "2022-04-20T16:54:26.000",
    "request_status": "Pending",
    "responsible_agency": "Department of Sanitation",
    "final_address": "4805 Annette St",
    "address_councildis": "D",
    "status": "Assigned to Contractor",
    "contractor": "Metro Disposal",
    "rowid": "876362",
    "final_x": "3682112.60924",
    "final_y": "550208.683476",
    "longitude": "-90.06548296634084",
    "latitude": "30.006864410474634",
    "geocoded_column": {
      "latitude": "30.006864410474634",
      "longitude": "-90.06548296634084"
    }
  },
  {
    "service_request": "2022-876361",
    "request_type": "Traffic Signals/Signs/Striping/Streetlights",
    "request_reason": "Additional signage",
    "date_created": "2022-04-20T16:47:13.000",
    "date_modified": "2022-04-20T16:47:13.000",
    "request_status": "Pending",
    "responsible_agency": "Department of Public Works",
    "final_address": "2808 Esplanade Ave",
    "address_councildis": "A",
    "status": "Pending",
    "rowid": "876361",
    "final_x": "3677303.80923",
    "final_y": "539567.82113",
    "longitude": "-90.08104265875015",
    "latitude": "29.977751194385952",
    "geocoded_column": {
      "latitude": "29.977751194385952",
      "longitude": "-90.08104265875015"
    }
  },
  {
    "service_request": "2022-876360",
    "request_type": "Abandoned Vehicles",
    "request_reason": "Abandoned/Junk Vehicles",
    "date_created": "2022-04-20T16:39:59.000",
    "date_modified": "2022-04-20T16:39:59.000",
    "request_status": "Pending",
    "responsible_agency": "Department of Public Works",
    "final_address": "3568 Roger Williams St",
    "address_councildis": "D",
    "status": "Pending",
    "rowid": "876360",
    "final_x": "3675764.99278",
    "final_y": "543910.606734",
    "longitude": "-90.08575343715651",
    "latitude": "29.989738507671117",
    "geocoded_column": {
      "latitude": "29.989738507671117",
      "longitude": "-90.08575343715651"
    }
  },
  {
    "service_request": "2022-876359",
    "request_type": "Abandoned Vehicles",
    "request_reason": "Abandoned/Junk Vehicles",
    "date_created": "2022-04-20T16:36:10.000",
    "date_modified": "2022-04-20T16:36:10.000",
    "request_status": "Pending",
    "responsible_agency": "Department of Public Works",
    "final_address": "3568 Roger Williams St",
    "address_councildis": "D",
    "status": "Pending",
    "rowid": "876359",
    "final_x": "3675764.99278",
    "final_y": "543910.606734",
    "longitude": "-90.08575343715651",
    "latitude": "29.989738507671117",
    "geocoded_column": {
      "latitude": "29.989738507671117",
      "longitude": "-90.08575343715651"
    }
  },
  {
    "service_request": "2022-876358",
    "request_type": "Property Maintenance",
    "request_reason": "Property Maintenance",
    "date_created": "2022-04-20T16:22:19.000",
    "date_modified": "2022-04-20T16:22:20.000",
    "request_status": "Pending",
    "responsible_agency": "Department of Code Enforcement",
    "final_address": "CROWDER BLVD & MORRISON RD",
    "address_councildis": "E",
    "status": "Pending",
    "rowid": "876358",
    "final_x": "3703739.9",
    "final_y": "560831.58",
    "longitude": "-89.99676565482832",
    "latitude": "30.035397561791353",
    "geocoded_column": {
      "latitude": "30.035397561791353",
      "longitude": "-89.99676565482832"
    }
  },
  {
    "service_request": "2022-876357",
    "request_type": "Property Maintenance",
    "request_reason": "Property Maintenance",
    "date_created": "2022-04-20T16:21:47.000",
    "date_modified": "2022-04-20T16:21:48.000",
    "request_status": "Pending",
    "responsible_agency": "Department of Code Enforcement",
    "final_address": "7411 W Renaissance Ct",
    "address_councildis": "E",
    "status": "Pending",
    "rowid": "876357",
    "final_x": "3716157.71423",
    "final_y": "568323.024293",
    "longitude": "-89.95723939546588",
    "latitude": "30.05559185963809",
    "geocoded_column": {
      "latitude": "30.05559185963809",
      "longitude": "-89.95723939546588"
    }
  },
  {
    "service_request": "2022-876356",
    "request_type": "Trash/Recycling",
    "request_reason": "Request a Large Item Pick Up",
    "date_created": "2022-04-20T16:18:27.000",
    "date_modified": "2022-04-20T16:18:28.000",
    "request_status": "Pending",
    "responsible_agency": "Department of Sanitation",
    "final_address": "627 Delacroix Rd",
    "address_councildis": "C",
    "status": "Assigned to Contractor",
    "contractor": "Richards Disposal",
    "rowid": "876356",
    "final_x": "3723779.91398",
    "final_y": "514423.845299",
    "longitude": "-89.93522612136945",
    "latitude": "29.907136091834605",
    "geocoded_column": {
      "latitude": "29.907136091834605",
      "longitude": "-89.93522612136945"
    }
  },
  {
    "service_request": "2022-876355",
    "request_type": "Trash/Recycling",
    "request_reason": "Order Recycling Cart",
    "date_created": "2022-04-20T16:17:56.000",
    "date_modified": "2022-04-20T16:17:56.000",
    "request_status": "Pending",
    "responsible_agency": "Department of Sanitation",
    "final_address": "3036 Cleveland Ave",
    "address_councildis": "B",
    "status": "Pending",
    "rowid": "876355",
    "final_x": "3673805.09185",
    "final_y": "535643.315654",
    "longitude": "-90.09222708544885",
    "latitude": "29.96706481217447",
    "geocoded_column": {
      "latitude": "29.96706481217447",
      "longitude": "-90.09222708544885"
    }
  },
  {
    "service_request": "2022-876354",
    "request_type": "Trash/Recycling",
    "request_reason": "Missed Trash Pick-Up",
    "date_created": "2022-04-20T16:17:51.000",
    "date_modified": "2022-04-20T16:17:52.000",
    "request_status": "Pending",
    "responsible_agency": "Department of Sanitation",
    "final_address": "1100 BLK Pine St",
    "address_councildis": "A",
    "status": "Assigned to Contractor",
    "contractor": "Richards Disposal",
    "rowid": "876354",
    "final_x": "3663818.1428",
    "final_y": "526507.655434",
    "longitude": "-90.12407054974452",
    "latitude": "29.942238368882464",
    "geocoded_column": {
      "latitude": "29.942238368882464",
      "longitude": "-90.12407054974452"
    }
  },
  {
    "service_request": "2022-876353",
    "request_type": "Health Related Questions",
    "request_reason": "Noise Ordinance Complaint",
    "date_created": "2022-04-20T16:12:48.000",
    "date_modified": "2022-04-20T16:12:49.000",
    "request_status": "Pending",
    "responsible_agency": "Health Department",
    "final_address": "1935 Lamanche St",
    "address_councildis": "E",
    "status": "Pending",
    "rowid": "876353",
    "final_x": "3699266.43396",
    "final_y": "536891.848264",
    "longitude": "-90.01177503319991",
    "latitude": "29.969714958441422",
    "geocoded_column": {
      "latitude": "29.969714958441422",
      "longitude": "-90.01177503319991"
    }
  },
  {
    "service_request": "2022-876352",
    "request_type": "Trash/Recycling",
    "request_reason": "Missed Trash Pick-Up",
    "date_created": "2022-04-20T16:11:45.000",
    "date_modified": "2022-04-20T16:11:46.000",
    "request_status": "Pending",
    "responsible_agency": "Department of Sanitation",
    "final_address": "5629 Marshal Foch St",
    "address_councildis": "A",
    "status": "Assigned to Contractor",
    "contractor": "Metro Disposal",
    "rowid": "876352",
    "final_x": "3669645.75674",
    "final_y": "544568.408911",
    "longitude": "-90.10506019576123",
    "latitude": "29.99172901590333",
    "geocoded_column": {
      "latitude": "29.99172901590333",
      "longitude": "-90.10506019576123"
    }
  },
  {
    "service_request": "2022-876351",
    "request_type": "Trash/Recycling",
    "request_reason": "Request a Large Item Pick Up",
    "date_created": "2022-04-20T16:10:18.000",
    "date_modified": "2022-04-20T16:10:18.000",
    "request_status": "Pending",
    "responsible_agency": "Department of Sanitation",
    "final_address": "743 Aline St",
    "address_councildis": "B",
    "status": "Assigned to Contractor",
    "contractor": "Richards Disposal",
    "rowid": "876351",
    "final_x": "3674926.80609",
    "final_y": "518189.763254",
    "longitude": "-90.08928312676672",
    "latitude": "29.919039829933546",
    "geocoded_column": {
      "latitude": "29.919039829933546",
      "longitude": "-90.08928312676672"
    }
  },
  {
    "service_request": "2022-876350",
    "request_type": "Trash/Recycling",
    "request_reason": "Damaged Caused By Contractor",
    "date_created": "2022-04-20T16:10:07.000",
    "date_modified": "2022-04-20T16:10:08.000",
    "request_status": "Pending",
    "responsible_agency": "Department of Sanitation",
    "final_address": "3038 St Philip St",
    "address_councildis": "A",
    "status": "Assigned to Contractor",
    "contractor": "Richards Disposal",
    "rowid": "876350",
    "final_x": "3676102.71937",
    "final_y": "538803.861257",
    "longitude": "-90.08486240718794",
    "latitude": "29.975686606018545",
    "geocoded_column": {
      "latitude": "29.975686606018545",
      "longitude": "-90.08486240718794"
    }
  },
  {
    "service_request": "2022-876349",
    "request_type": "Roads/Drainage",
    "request_reason": "Accessibility Ramps, Curbs and Sidewalk Repair",
    "date_created": "2022-04-20T16:10:06.000",
    "date_modified": "2022-04-20T16:10:06.000",
    "request_status": "Pending",
    "responsible_agency": "Department of Public Works",
    "final_address": "7571 Branch Dr",
    "address_councildis": "E",
    "status": "Pending",
    "rowid": "876349",
    "final_x": "3715003.06264",
    "final_y": "568440.552357",
    "longitude": "-89.96088453917388",
    "latitude": "30.055953091117704",
    "geocoded_column": {
      "latitude": "30.055953091117704",
      "longitude": "-89.96088453917388"
    }
  },
  {
    "service_request": "2022-876348",
    "request_type": "Trash/Recycling",
    "request_reason": "Request a Large Item Pick Up",
    "date_created": "2022-04-20T16:02:58.000",
    "date_modified": "2022-04-20T16:02:59.000",
    "request_status": "Pending",
    "responsible_agency": "Department of Sanitation",
    "final_address": "2109 St Ann St",
    "address_councildis": "D",
    "status": "Assigned to Contractor",
    "contractor": "Richards Disposal",
    "rowid": "876348",
    "final_x": "3678793.5579",
    "final_y": "535840.609735",
    "longitude": "-90.07646664343797",
    "latitude": "29.96745779078139",
    "geocoded_column": {
      "latitude": "29.96745779078139",
      "longitude": "-90.07646664343797"
    }
  },
  {
    "service_request": "2022-876347",
    "request_type": "Tax and Revenue",
    "request_reason": "Sales Tax Question",
    "date_created": "2022-04-20T16:01:36.000",
    "date_modified": "2022-04-20T16:01:36.000",
    "request_status": "Pending",
    "responsible_agency": "Bureau of Revenue",
    "final_address": "7887 Walmsley Ave",
    "address_councildis": "B",
    "status": "Pending",
    "rowid": "876347",
    "final_x": "3666462.61761",
    "final_y": "532118.836163",
    "longitude": "-90.11553304495796",
    "latitude": "29.957590290440628",
    "geocoded_column": {
      "latitude": "29.957590290440628",
      "longitude": "-90.11553304495796"
    }
  },
  {
    "service_request": "2022-876346",
    "request_type": "Safety & Permits",
    "request_reason": "Licenses & Permits",
    "date_created": "2022-04-20T16:00:37.000",
    "date_modified": "2022-04-20T16:00:38.000",
    "request_status": "Pending",
    "responsible_agency": "Safety and Permits",
    "final_address": "5335 St Charles Ave",
    "address_councildis": "B",
    "status": "Pending",
    "rowid": "876346",
    "final_x": "3667657.76039",
    "final_y": "521550.158521",
    "longitude": "-90.1121148042707",
    "latitude": "29.92849486045484",
    "geocoded_column": {
      "latitude": "29.92849486045484",
      "longitude": "-90.1121148042707"
    }
  },
  {
    "service_request": "2022-876345",
    "request_type": "Traffic Signals/Signs/Striping/Streetlights",
    "request_reason": "Street Light Outage/Malfunction",
    "date_created": "2022-04-20T15:56:03.000",
    "date_modified": "2022-04-20T15:56:04.000",
    "request_status": "Pending",
    "responsible_agency": "Department of Public Works",
    "final_address": "523 Homer St",
    "address_councildis": "C",
    "status": "Pending",
    "contractor": "Royal Engineering",
    "rowid": "876345",
    "final_x": "3687132.7862",
    "final_y": "528290.139712",
    "longitude": "-90.05039824349029",
    "latitude": "29.946442444948033",
    "geocoded_column": {
      "latitude": "29.946442444948033",
      "longitude": "-90.05039824349029"
    }
  },
  {
    "service_request": "2022-876344",
    "request_type": "Safety & Permits",
    "request_reason": "Licenses & Permits",
    "date_created": "2022-04-20T15:55:29.000",
    "date_modified": "2022-04-20T15:55:29.000",
    "request_status": "Pending",
    "responsible_agency": "Safety and Permits",
    "final_address": "701 Frenchmen St",
    "address_councildis": "C",
    "status": "Pending",
    "rowid": "876344",
    "final_x": "3684713.56655",
    "final_y": "534877.132486",
    "longitude": "-90.05780504869915",
    "latitude": "29.96462868106689",
    "geocoded_column": {
      "latitude": "29.96462868106689",
      "longitude": "-90.05780504869915"
    }
  },
  {
    "service_request": "2022-876343",
    "request_type": "Trash/Recycling",
    "request_reason": "Missed Trash Pick-Up",
    "date_created": "2022-04-20T15:54:49.000",
    "date_modified": "2022-04-20T15:54:50.000",
    "request_status": "Pending",
    "responsible_agency": "Department of Sanitation",
    "final_address": "7705 Willow St",
    "address_councildis": "A",
    "status": "Assigned to Contractor",
    "contractor": "Richards Disposal",
    "rowid": "876343",
    "final_x": "3663500.18957",
    "final_y": "527973.290815",
    "longitude": "-90.12502560678689",
    "latitude": "29.94627761976448",
    "geocoded_column": {
      "latitude": "29.94627761976448",
      "longitude": "-90.12502560678689"
    }
  },
  {
    "service_request": "2022-876342",
    "request_type": "Roads/Drainage",
    "request_reason": "Street Subsidence (Sinking)",
    "date_created": "2022-04-20T15:53:01.000",
    "date_modified": "2022-04-20T15:53:01.000",
    "request_status": "Pending",
    "responsible_agency": "Department of Public Works",
    "final_address": "4618 Herschel St",
    "address_councildis": "C",
    "status": "Pending",
    "rowid": "876342",
    "final_x": "3702059.22167",
    "final_y": "520876.690809",
    "longitude": "-90.00354218819567",
    "latitude": "29.925590077799242",
    "geocoded_column": {
      "latitude": "29.925590077799242",
      "longitude": "-90.00354218819567"
    }
  },
  {
    "service_request": "2022-876341",
    "request_type": "Abandoned Vehicles",
    "request_reason": "Abandoned/Junk Vehicles",
    "date_created": "2022-04-20T15:52:54.000",
    "date_modified": "2022-04-20T15:55:20.000",
    "request_status": "Pending",
    "responsible_agency": "Department of Public Works",
    "final_address": "4525 Dryades St",
    "address_councildis": "B",
    "status": "Pending",
    "rowid": "876341",
    "final_x": "3670098.83694",
    "final_y": "521965.744954",
    "longitude": "-90.10439475690283",
    "latitude": "29.929565827303957",
    "geocoded_column": {
      "latitude": "29.929565827303957",
      "longitude": "-90.10439475690283"
    }
  },
  {
    "service_request": "2022-876339",
    "request_type": "Parks & Parkways",
    "request_reason": "Request Tree Service (Right of Way/Public Property)",
    "date_created": "2022-04-20T15:47:48.000",
    "date_modified": "2022-04-20T15:47:48.000",
    "request_status": "Pending",
    "responsible_agency": "Department of Parks & Parkway",
    "final_address": "4435 Lafaye St",
    "address_councildis": "D",
    "status": "Pending",
    "rowid": "876339",
    "final_x": "3687584.19804",
    "final_y": "549222.768467",
    "longitude": "-90.04823173871263",
    "latitude": "30.003985899648974",
    "geocoded_column": {
      "latitude": "30.003985899648974",
      "longitude": "-90.04823173871263"
    }
  },
  {
    "service_request": "2022-876337",
    "request_type": "Trash/Recycling",
    "request_reason": "Repair Trash Cart",
    "date_created": "2022-04-20T15:42:08.000",
    "date_modified": "2022-04-20T15:42:09.000",
    "request_status": "Pending",
    "responsible_agency": "Department of Sanitation",
    "final_address": "1218 State St",
    "address_councildis": "A",
    "status": "Assigned to Contractor",
    "contractor": "Richards Disposal",
    "rowid": "876337",
    "final_x": "3665109.65268",
    "final_y": "520683.046841",
    "longitude": "-90.1201876489551",
    "latitude": "29.926185004585204",
    "geocoded_column": {
      "latitude": "29.926185004585204",
      "longitude": "-90.1201876489551"
    }
  },
  {
    "service_request": "2022-876336",
    "request_type": "Roads/Drainage",
    "request_reason": "Pothole",
    "date_created": "2022-04-20T15:40:17.000",
    "date_modified": "2022-04-20T15:40:18.000",
    "request_status": "Pending",
    "responsible_agency": "Department of Public Works",
    "final_address": "124 N Bernadotte St",
    "address_councildis": "A",
    "status": "Pending",
    "rowid": "876336",
    "final_x": "3669035.493",
    "final_y": "540278.703371",
    "longitude": "-90.10713290054521",
    "latitude": "29.97995176092481",
    "geocoded_column": {
      "latitude": "29.97995176092481",
      "longitude": "-90.10713290054521"
    }
  },
  {
    "service_request": "2022-876335",
    "request_type": "Trash/Recycling",
    "request_reason": "Repair Trash Cart",
    "date_created": "2022-04-20T15:39:08.000",
    "date_modified": "2022-04-20T15:39:08.000",
    "request_status": "Pending",
    "responsible_agency": "Department of Sanitation",
    "final_address": "2122 Marengo St, New Orleans, Louisiana, 70115",
    "address_councildis": "B",
    "status": "Assigned to Contractor",
    "contractor": "Richards Disposal",
    "rowid": "876335",
    "final_x": "3671690.49179",
    "final_y": "522972.955899",
    "longitude": "-90.09933593615612",
    "latitude": "29.932288298058136",
    "geocoded_column": {
      "latitude": "29.932288298058136",
      "longitude": "-90.09933593615612"
    }
  },
  {
    "service_request": "2022-876334",
    "request_type": "Abandoned Vehicles",
    "request_reason": "Abandoned/Junk Vehicles",
    "date_created": "2022-04-20T15:35:01.000",
    "date_modified": "2022-04-20T15:35:01.000",
    "request_status": "Pending",
    "responsible_agency": "Department of Public Works",
    "final_address": "300 S Bernadotte St",
    "address_councildis": "A",
    "status": "Pending",
    "rowid": "876334",
    "final_x": "3668132.20577",
    "final_y": "539563.136778",
    "longitude": "-90.11000999378794",
    "latitude": "29.97801074242445",
    "geocoded_column": {
      "latitude": "29.97801074242445",
      "longitude": "-90.11000999378794"
    }
  },
  {
    "service_request": "2022-876333",
    "request_type": "Trash/Recycling",
    "request_reason": "Repair Trash Cart",
    "date_created": "2022-04-20T15:22:29.000",
    "date_modified": "2022-04-20T15:22:30.000",
    "request_status": "Pending",
    "responsible_agency": "Department of Sanitation",
    "final_address": "1539 Exposition Blvd",
    "address_councildis": "A",
    "status": "Assigned to Contractor",
    "contractor": "Richards Disposal",
    "rowid": "876333",
    "final_x": "3664484.629",
    "final_y": "522678.773434",
    "longitude": "-90.12209408264928",
    "latitude": "29.931690804342406",
    "geocoded_column": {
      "latitude": "29.931690804342406",
      "longitude": "-90.12209408264928"
    }
  },
  {
    "service_request": "2022-876332",
    "request_type": "Trash/Recycling",
    "request_reason": "Missed Trash Pick-Up",
    "date_created": "2022-04-20T15:18:32.000",
    "date_modified": "2022-04-20T15:18:33.000",
    "request_status": "Pending",
    "responsible_agency": "Department of Sanitation",
    "final_address": "4133 Vincennes Pl",
    "address_councildis": "B",
    "status": "Assigned to Contractor",
    "contractor": "Richards Disposal",
    "rowid": "876332",
    "final_x": "3668690.06023",
    "final_y": "530771.10797",
    "longitude": "-90.10854490304123",
    "latitude": "29.953819199199952",
    "geocoded_column": {
      "latitude": "29.953819199199952",
      "longitude": "-90.10854490304123"
    }
  },
  {
    "service_request": "2022-876331",
    "request_type": "Trash/Recycling",
    "request_reason": "Repair Trash Cart",
    "date_created": "2022-04-20T15:15:16.000",
    "date_modified": "2022-04-20T15:15:17.000",
    "request_status": "Pending",
    "responsible_agency": "Department of Sanitation",
    "final_address": "2015 S Salcedo St",
    "address_councildis": "B",
    "status": "Assigned to Contractor",
    "contractor": "Richards Disposal",
    "rowid": "876331",
    "final_x": "3669510.72462",
    "final_y": "529534.490497",
    "longitude": "-90.10599540096428",
    "latitude": "29.95039476083416",
    "geocoded_column": {
      "latitude": "29.95039476083416",
      "longitude": "-90.10599540096428"
    }
  },
  {
    "service_request": "2022-876330",
    "request_type": "Roads/Drainage",
    "request_reason": "Pothole",
    "date_created": "2022-04-20T15:08:50.000",
    "date_modified": "2022-04-20T15:08:50.000",
    "request_status": "Pending",
    "responsible_agency": "Department of Public Works",
    "final_address": "8735 Apricot St",
    "address_councildis": "A",
    "status": "Pending",
    "rowid": "876330",
    "final_x": "3664064.00032",
    "final_y": "534284.947717",
    "longitude": "-90.12303496031429",
    "latitude": "29.96361626729517",
    "geocoded_column": {
      "latitude": "29.96361626729517",
      "longitude": "-90.12303496031429"
    }
  },
  {
    "service_request": "2022-876329",
    "request_type": "Safety & Permits",
    "request_reason": "Licenses & Permits",
    "date_created": "2022-04-20T15:08:15.000",
    "date_modified": "2022-04-20T15:08:16.000",
    "request_status": "Pending",
    "responsible_agency": "Safety and Permits",
    "final_address": "1201 Marigny St",
    "address_councildis": "C",
    "status": "Pending",
    "rowid": "876329",
    "final_x": "3685419.20937",
    "final_y": "536738.670471",
    "longitude": "-90.05551112589927",
    "latitude": "29.96972564708198",
    "geocoded_column": {
      "latitude": "29.96972564708198",
      "longitude": "-90.05551112589927"
    }
  },
  {
    "service_request": "2022-876328",
    "request_type": "Trash/Recycling",
    "request_reason": "Request a Large Item Pick Up",
    "date_created": "2022-04-20T15:01:07.000",
    "date_modified": "2022-04-20T15:01:08.000",
    "request_status": "Pending",
    "responsible_agency": "Department of Sanitation",
    "final_address": "459 Audubon Blvd",
    "address_councildis": "B",
    "status": "Assigned to Contractor",
    "contractor": "Richards Disposal",
    "rowid": "876328",
    "final_x": "3667737.31322",
    "final_y": "530725.35917",
    "longitude": "-90.1115548350611",
    "latitude": "29.95372137292762",
    "geocoded_column": {
      "latitude": "29.95372137292762",
      "longitude": "-90.1115548350611"
    }
  },
  {
    "service_request": "2022-876327",
    "request_type": "Traffic Signals/Signs/Striping/Streetlights",
    "request_reason": "Street Light Outage/Malfunction",
    "date_created": "2022-04-20T14:53:26.000",
    "date_modified": "2022-04-20T14:53:26.000",
    "request_status": "Pending",
    "responsible_agency": "Department of Public Works",
    "final_address": "7822 Willow St",
    "address_councildis": "A",
    "status": "Pending",
    "contractor": "Royal Engineering",
    "rowid": "876327",
    "final_x": "3663105.3712",
    "final_y": "528224.341824",
    "longitude": "-90.12626384169725",
    "latitude": "29.946979371673763",
    "geocoded_column": {
      "latitude": "29.946979371673763",
      "longitude": "-90.12626384169725"
    }
  },
  {
    "service_request": "2022-876325",
    "request_type": "Trash/Recycling",
    "request_reason": "Request a Large Item Pick Up",
    "date_created": "2022-04-20T14:48:58.000",
    "date_modified": "2022-04-20T14:48:59.000",
    "request_status": "Pending",
    "responsible_agency": "Department of Sanitation",
    "final_address": "7101 Parkside Ct",
    "address_councildis": "E",
    "status": "Assigned to Contractor",
    "contractor": "Metro Disposal",
    "rowid": "876325",
    "final_x": "3704693.77105",
    "final_y": "559940.548893",
    "longitude": "-89.99378420229756",
    "latitude": "30.03291694735075",
    "geocoded_column": {
      "latitude": "30.03291694735075",
      "longitude": "-89.99378420229756"
    }
  },
  {
    "service_request": "2022-876324",
    "request_type": "Trash/Recycling",
    "request_reason": "Missed Trash Pick-Up",
    "date_created": "2022-04-20T14:48:37.000",
    "date_modified": "2022-04-20T14:48:38.000",
    "request_status": "Pending",
    "responsible_agency": "Department of Sanitation",
    "final_address": "7822 Willow St",
    "address_councildis": "A",
    "status": "Assigned to Contractor",
    "contractor": "Richards Disposal",
    "rowid": "876324",
    "final_x": "3663105.3712",
    "final_y": "528224.341824",
    "longitude": "-90.12626384169725",
    "latitude": "29.946979371673763",
    "geocoded_column": {
      "latitude": "29.946979371673763",
      "longitude": "-90.12626384169725"
    }
  },
  {
    "service_request": "2022-876323",
    "request_type": "Roads/Drainage",
    "request_reason": "Damaged Sidewalk",
    "date_created": "2022-04-20T14:41:38.000",
    "date_modified": "2022-04-20T14:41:38.000",
    "request_status": "Pending",
    "responsible_agency": "Department of Public Works",
    "final_address": "100 Royal St",
    "address_councildis": "C",
    "status": "Pending",
    "rowid": "876323",
    "final_x": "3681301.39701",
    "final_y": "530756.489858",
    "longitude": "-90.06872404570724",
    "latitude": "29.95340231693619",
    "geocoded_column": {
      "latitude": "29.95340231693619",
      "longitude": "-90.06872404570724"
    }
  },
  {
    "service_request": "2022-876322",
    "request_type": "Roads/Drainage",
    "request_reason": "Damaged Sidewalk",
    "date_created": "2022-04-20T14:40:55.000",
    "date_modified": "2022-04-20T14:40:55.000",
    "request_status": "Pending",
    "responsible_agency": "Department of Public Works",
    "final_address": "5189 De Montluzin St",
    "address_councildis": "D",
    "status": "Pending",
    "rowid": "876322",
    "final_x": "3687093.22377",
    "final_y": "551962.938646",
    "longitude": "-90.04968583072566",
    "latitude": "30.011535499158548",
    "geocoded_column": {
      "latitude": "30.011535499158548",
      "longitude": "-90.04968583072566"
    }
  },
  {
    "service_request": "2022-876321",
    "request_type": "Roads/Drainage",
    "request_reason": "Street Subsidence (Sinking)",
    "date_created": "2022-04-20T14:38:04.000",
    "date_modified": "2022-04-20T14:38:04.000",
    "request_status": "Pending",
    "responsible_agency": "Department of Public Works",
    "final_address": "4618 Herschel St",
    "address_councildis": "C",
    "status": "Pending",
    "rowid": "876321",
    "final_x": "3702059.22167",
    "final_y": "520876.690809",
    "longitude": "-90.00354218819567",
    "latitude": "29.925590077799242",
    "geocoded_column": {
      "latitude": "29.925590077799242",
      "longitude": "-90.00354218819567"
    }
  },
  {
    "service_request": "2022-876320",
    "request_type": "Traffic Signals/Signs/Striping/Streetlights",
    "request_reason": "Street Light Knocked Down/Leaning",
    "date_created": "2022-04-20T14:37:47.000",
    "date_modified": "2022-04-20T14:37:48.000",
    "request_status": "Pending",
    "responsible_agency": "Department of Public Works",
    "final_address": "1555 Poydras St",
    "address_councildis": "B",
    "status": "Pending",
    "contractor": "Royal Engineering",
    "rowid": "876320",
    "final_x": "3677963.7917",
    "final_y": "530354.310466",
    "longitude": "-90.079276682772",
    "latitude": "29.95239732174202",
    "geocoded_column": {
      "latitude": "29.95239732174202",
      "longitude": "-90.079276682772"
    }
  },
  {
    "service_request": "2022-876319",
    "request_type": "Trash/Recycling",
    "request_reason": "Order Trash Cart",
    "date_created": "2022-04-20T14:35:42.000",
    "date_modified": "2022-04-20T14:35:43.000",
    "request_status": "Pending",
    "responsible_agency": "Department of Sanitation",
    "final_address": "2 Curtis Dr",
    "address_councildis": "E",
    "status": "Assigned to Contractor",
    "contractor": "Metro Disposal",
    "rowid": "876319",
    "final_x": "3697578.2312",
    "final_y": "560921.380638",
    "longitude": "-90.01623420366245",
    "latitude": "30.035840662726635",
    "geocoded_column": {
      "latitude": "30.035840662726635",
      "longitude": "-90.01623420366245"
    }
  },
  {
    "service_request": "2022-876318",
    "request_type": "Trash/Recycling",
    "request_reason": "Missed Trash Pick-Up",
    "date_created": "2022-04-20T14:35:18.000",
    "date_modified": "2022-04-20T14:35:18.000",
    "request_status": "Pending",
    "responsible_agency": "Department of Sanitation",
    "final_address": "1102 Robert St",
    "address_councildis": "B",
    "status": "Assigned to Contractor",
    "contractor": "Richards Disposal",
    "rowid": "876318",
    "final_x": "3668626.42612",
    "final_y": "519378.467511",
    "longitude": "-90.10913016852628",
    "latitude": "29.922494976519797",
    "geocoded_column": {
      "latitude": "29.922494976519797",
      "longitude": "-90.10913016852628"
    }
  },
  {
    "service_request": "2022-876317",
    "request_type": "Trash/Recycling",
    "request_reason": "Replace Recycling Cart",
    "date_created": "2022-04-20T14:30:27.000",
    "date_modified": "2022-04-20T14:30:27.000",
    "request_status": "Pending",
    "responsible_agency": "Department of Sanitation",
    "final_address": "7927 Willow St",
    "address_councildis": "A",
    "status": "Pending",
    "rowid": "876317",
    "final_x": "3662892.21792",
    "final_y": "528546.184576",
    "longitude": "-90.12692614990462",
    "latitude": "29.9478705084713",
    "geocoded_column": {
      "latitude": "29.9478705084713",
      "longitude": "-90.12692614990462"
    }
  },
  {
    "service_request": "2022-876316",
    "request_type": "Property Maintenance",
    "request_reason": "Property Maintenance",
    "date_created": "2022-04-20T14:28:54.000",
    "date_modified": "2022-04-20T14:28:54.000",
    "request_status": "Pending",
    "responsible_agency": "Department of Code Enforcement",
    "final_address": "129 N Genois St",
    "address_councildis": "B",
    "status": "Pending",
    "rowid": "876316",
    "final_x": "3672765.09147",
    "final_y": "537485.606088",
    "longitude": "-90.09544856602389",
    "latitude": "29.972161422386442",
    "geocoded_column": {
      "latitude": "29.972161422386442",
      "longitude": "-90.09544856602389"
    }
  },
  {
    "service_request": "2022-876315",
    "request_type": "Traffic Signals/Signs/Striping/Streetlights",
    "request_reason": "Street Light Outage/Malfunction",
    "date_created": "2022-04-20T14:27:41.000",
    "date_modified": "2022-04-20T14:27:42.000",
    "request_status": "Pending",
    "responsible_agency": "Department of Public Works",
    "final_address": "BEHRMAN PL & TURNAROUND",
    "address_councildis": "C",
    "status": "Pending",
    "contractor": "Royal Engineering",
    "rowid": "876315",
    "final_x": "3697644.4",
    "final_y": "518514.18",
    "longitude": "-90.01756398657592",
    "latitude": "29.919234120765363",
    "geocoded_column": {
      "latitude": "29.919234120765363",
      "longitude": "-90.01756398657592"
    }
  },
  {
    "service_request": "2022-876313",
    "request_type": "Trash/Recycling",
    "request_reason": "Request a Large Item Pick Up",
    "date_created": "2022-04-20T14:22:59.000",
    "date_modified": "2022-04-20T14:23:00.000",
    "request_status": "Pending",
    "responsible_agency": "Department of Sanitation",
    "final_address": "5323 Laurel St, New Orleans, Louisiana, 70115",
    "address_councildis": "B",
    "status": "Assigned to Contractor",
    "contractor": "Richards Disposal",
    "rowid": "876313",
    "final_x": "3667187.21511",
    "final_y": "517932.13855",
    "longitude": "-90.11372178677323",
    "latitude": "29.918560228287674",
    "geocoded_column": {
      "latitude": "29.918560228287674",
      "longitude": "-90.11372178677323"
    }
  },
  {
    "service_request": "2022-876312",
    "request_type": "Trash/Recycling",
    "request_reason": "Request a Large Item Pick Up",
    "date_created": "2022-04-20T14:22:54.000",
    "date_modified": "2022-04-20T14:22:55.000",
    "request_status": "Pending",
    "responsible_agency": "Department of Sanitation",
    "final_address": "1564 Steeple Chase Ln",
    "address_councildis": "C",
    "status": "Assigned to Contractor",
    "contractor": "Richards Disposal",
    "rowid": "876312",
    "final_x": "3700036.91069",
    "final_y": "525265.702717",
    "longitude": "-90.00976592672123",
    "latitude": "29.93772272059555",
    "geocoded_column": {
      "latitude": "29.93772272059555",
      "longitude": "-90.00976592672123"
    }
  },
  {
    "service_request": "2022-876311",
    "request_type": "Trash/Recycling",
    "request_reason": "Replace Recycling Cart",
    "date_created": "2022-04-20T14:20:59.000",
    "date_modified": "2022-04-20T14:20:59.000",
    "request_status": "Pending",
    "responsible_agency": "Department of Sanitation",
    "final_address": "7925 Plum St",
    "address_councildis": "A",
    "status": "Pending",
    "rowid": "876311",
    "final_x": "3662666.18368",
    "final_y": "528267.598784",
    "longitude": "-90.12764908907731",
    "latitude": "29.947111028655904",
    "geocoded_column": {
      "latitude": "29.947111028655904",
      "longitude": "-90.12764908907731"
    }
  },
  {
    "service_request": "2022-876310",
    "request_type": "Trash/Recycling",
    "request_reason": "Request a Large Item Pick Up",
    "date_created": "2022-04-20T14:18:32.000",
    "date_modified": "2022-04-20T14:18:33.000",
    "request_status": "Pending",
    "responsible_agency": "Department of Sanitation",
    "final_address": "3500 BLK Carondelet St",
    "address_councildis": "B",
    "status": "Assigned to Contractor",
    "contractor": "Richards Disposal",
    "rowid": "876310",
    "final_x": "3673520.43015",
    "final_y": "521696.921289",
    "longitude": "-90.09360256735381",
    "latitude": "29.928725299826493",
    "geocoded_column": {
      "latitude": "29.928725299826493",
      "longitude": "-90.09360256735381"
    }
  },
  {
    "service_request": "2022-876309",
    "request_type": "Traffic Signals/Signs/Striping/Streetlights",
    "request_reason": "Traffic Sign Missing/Damaged",
    "date_created": "2022-04-20T14:14:13.000",
    "date_modified": "2022-04-20T14:15:54.000",
    "request_status": "Pending",
    "responsible_agency": "Department of Public Works",
    "final_address": "1736 First St",
    "address_councildis": "B",
    "status": "Pending",
    "rowid": "876309",
    "final_x": "3676581.34664",
    "final_y": "523722.409659",
    "longitude": "-90.0838701568795",
    "latitude": "29.934203315908604",
    "geocoded_column": {
      "latitude": "29.934203315908604",
      "longitude": "-90.0838701568795"
    }
  },
  {
    "service_request": "2022-876308",
    "request_type": "Trash/Recycling",
    "request_reason": "Missed Trash Pick-Up",
    "date_created": "2022-04-20T14:12:19.000",
    "date_modified": "2022-04-20T14:12:20.000",
    "request_status": "Pending",
    "responsible_agency": "Department of Sanitation",
    "final_address": "74 Versailles Blvd",
    "address_councildis": "B",
    "status": "Assigned to Contractor",
    "contractor": "Richards Disposal",
    "rowid": "876308",
    "final_x": "3667838.80455",
    "final_y": "530625.943362",
    "longitude": "-90.11123771464842",
    "latitude": "29.95344503596672",
    "geocoded_column": {
      "latitude": "29.95344503596672",
      "longitude": "-90.11123771464842"
    }
  },
  {
    "service_request": "2022-876307",
    "request_type": "Trash/Recycling",
    "request_reason": "Order Trash Cart",
    "date_created": "2022-04-20T14:11:40.000",
    "date_modified": "2022-04-20T14:11:41.000",
    "request_status": "Pending",
    "responsible_agency": "Department of Sanitation",
    "final_address": "3346 Trafalgar St",
    "address_councildis": "A",
    "status": "Assigned to Contractor",
    "contractor": "Metro Disposal",
    "rowid": "876307",
    "final_x": "3677751.58779",
    "final_y": "543145.697741",
    "longitude": "-90.07950476794628",
    "latitude": "29.987575650887152",
    "geocoded_column": {
      "latitude": "29.987575650887152",
      "longitude": "-90.07950476794628"
    }
  },
  {
    "service_request": "2022-876306",
    "request_type": "Property Maintenance",
    "request_reason": "Property Maintenance",
    "date_created": "2022-04-20T14:11:12.000",
    "date_modified": "2022-04-20T14:11:12.000",
    "request_status": "Pending",
    "responsible_agency": "Department of Code Enforcement",
    "final_address": "3663 General De Gaulle Dr",
    "address_councildis": "C",
    "status": "Pending",
    "rowid": "876306",
    "final_x": "3696846.05623",
    "final_y": "520136.31948",
    "longitude": "-90.02002525329324",
    "latitude": "29.92371963659215",
    "geocoded_column": {
      "latitude": "29.92371963659215",
      "longitude": "-90.02002525329324"
    }
  },
  {
    "service_request": "2022-876305",
    "request_type": "Trash/Recycling",
    "request_reason": "Request a Large Item Pick Up",
    "date_created": "2022-04-20T14:08:55.000",
    "date_modified": "2022-04-20T14:08:55.000",
    "request_status": "Pending",
    "responsible_agency": "Department of Sanitation",
    "final_address": "816 First St",
    "address_councildis": "B",
    "status": "Assigned to Contractor",
    "contractor": "Richards Disposal",
    "rowid": "876305",
    "final_x": "3678555.42229",
    "final_y": "520684.461049",
    "longitude": "-90.07774315831291",
    "latitude": "29.92579061400443",
    "geocoded_column": {
      "latitude": "29.92579061400443",
      "longitude": "-90.07774315831291"
    }
  },
  {
    "service_request": "2022-876304",
    "request_type": "Trash/Recycling",
    "request_reason": "Request a Large Item Pick Up",
    "date_created": "2022-04-20T14:06:09.000",
    "date_modified": "2022-04-20T14:06:09.000",
    "request_status": "Pending",
    "responsible_agency": "Department of Sanitation",
    "final_address": "636 State St",
    "address_councildis": "A",
    "status": "Assigned to Contractor",
    "contractor": "Richards Disposal",
    "rowid": "876304",
    "final_x": "3664529.68775",
    "final_y": "518875.585079",
    "longitude": "-90.1220787533461",
    "latitude": "29.92123192240745",
    "geocoded_column": {
      "latitude": "29.92123192240745",
      "longitude": "-90.1220787533461"
    }
  },
  {
    "service_request": "2022-876303",
    "request_type": "Trash/Recycling",
    "request_reason": "Request a Large Item Pick Up",
    "date_created": "2022-04-20T14:03:06.000",
    "date_modified": "2022-04-20T14:07:07.000",
    "case_close_date": "2022-04-20T09:07:07.000",
    "request_status": "Closed",
    "responsible_agency": "Department of Sanitation",
    "final_address": "3601 Rue Nichole",
    "address_councildis": "C",
    "status": "Assigned to Contractor",
    "contractor": "Richards Disposal",
    "contractor_action": "Completed",
    "rowid": "876303",
    "final_x": "3703937.90186",
    "final_y": "517366.794997",
    "longitude": "-89.99774095980673",
    "latitude": "29.91587899305424",
    "geocoded_column": {
      "latitude": "29.91587899305424",
      "longitude": "-89.99774095980673"
    }
  },
  {
    "service_request": "2022-876302",
    "request_type": "Trash/Recycling",
    "request_reason": "Missed Trash Pick-Up",
    "date_created": "2022-04-20T14:01:37.000",
    "date_modified": "2022-04-20T14:01:40.000",
    "request_status": "Pending",
    "responsible_agency": "Department of Sanitation",
    "final_address": "316 Burdette St",
    "address_councildis": "A",
    "status": "Assigned to Contractor",
    "contractor": "Richards Disposal",
    "rowid": "876302",
    "final_x": "3660744.12019",
    "final_y": "525419.077117",
    "longitude": "-90.13381194888429",
    "latitude": "29.939333969268738",
    "geocoded_column": {
      "latitude": "29.939333969268738",
      "longitude": "-90.13381194888429"
    }
  },
  {
    "service_request": "2022-876301",
    "request_type": "Trash/Recycling",
    "request_reason": "Order Recycling Cart",
    "date_created": "2022-04-20T13:59:58.000",
    "date_modified": "2022-04-20T13:59:58.000",
    "request_status": "Pending",
    "responsible_agency": "Department of Sanitation",
    "final_address": "7721 Newcastle St",
    "address_councildis": "E",
    "status": "Pending",
    "rowid": "876301",
    "final_x": "3697172.484",
    "final_y": "559760.580829",
    "longitude": "-90.01755855609026",
    "latitude": "30.03266172822091",
    "geocoded_column": {
      "latitude": "30.03266172822091",
      "longitude": "-90.01755855609026"
    }
  },
  {
    "service_request": "2022-876300",
    "request_type": "Parks & Parkways",
    "request_reason": "Request Tree Service (Right of Way/Public Property)",
    "date_created": "2022-04-20T13:58:55.000",
    "date_modified": "2022-04-20T13:58:56.000",
    "request_status": "Pending",
    "responsible_agency": "Department of Parks & Parkway",
    "final_address": "5189 De Montluzin St",
    "address_councildis": "D",
    "status": "Pending",
    "rowid": "876300",
    "final_x": "3687093.22377",
    "final_y": "551962.938646",
    "longitude": "-90.04968583072566",
    "latitude": "30.011535499158548",
    "geocoded_column": {
      "latitude": "30.011535499158548",
      "longitude": "-90.04968583072566"
    }
  },
  {
    "service_request": "2022-876299",
    "request_type": "Trash/Recycling",
    "request_reason": "Missed Trash Pick-Up",
    "date_created": "2022-04-20T13:57:51.000",
    "date_modified": "2022-04-20T13:57:52.000",
    "request_status": "Pending",
    "responsible_agency": "Department of Sanitation",
    "final_address": "1100 BLK Robert St",
    "address_councildis": "B",
    "status": "Assigned to Contractor",
    "contractor": "Richards Disposal",
    "rowid": "876299",
    "final_x": "3668671.7745",
    "final_y": "519486.575972",
    "longitude": "-90.1089833751899",
    "latitude": "29.922790908294584",
    "geocoded_column": {
      "latitude": "29.922790908294584",
      "longitude": "-90.1089833751899"
    }
  },
  {
    "service_request": "2022-876298",
    "request_type": "Parks & Parkways",
    "request_reason": "Request Tree Service (Right of Way/Public Property)",
    "date_created": "2022-04-20T13:54:55.000",
    "date_modified": "2022-04-20T13:54:55.000",
    "request_status": "Pending",
    "responsible_agency": "Department of Parks & Parkway",
    "final_address": "1906 Newton St",
    "address_councildis": "C",
    "status": "Pending",
    "rowid": "876298",
    "final_x": "3691227.42044",
    "final_y": "527863.449727",
    "longitude": "-90.03748531932439",
    "latitude": "29.945142499569897",
    "geocoded_column": {
      "latitude": "29.945142499569897",
      "longitude": "-90.03748531932439"
    }
  },
  {
    "service_request": "2022-876297",
    "request_type": "Safety & Permits",
    "request_reason": "Licenses & Permits",
    "date_created": "2022-04-20T13:52:25.000",
    "date_modified": "2022-04-20T14:38:26.000",
    "request_status": "Pending",
    "responsible_agency": "Safety and Permits",
    "final_address": "6709 Deanne St",
    "address_councildis": "D",
    "rowid": "876297",
    "final_x": "3696060.57782",
    "final_y": "555422.062169",
    "longitude": "-90.02122924823972",
    "latitude": "30.02076751521016",
    "geocoded_column": {
      "latitude": "30.02076751521016",
      "longitude": "-90.02122924823972"
    }
  },
  {
    "service_request": "2022-876296",
    "request_type": "Abandoned Vehicles",
    "request_reason": "Abandoned/Junk Vehicles",
    "date_created": "2022-04-20T13:50:34.000",
    "date_modified": "2022-04-20T13:50:34.000",
    "request_status": "Pending",
    "responsible_agency": "Department of Public Works",
    "final_address": "1025 Kentucky St",
    "address_councildis": "C",
    "status": "Pending",
    "rowid": "876296",
    "final_x": "3693301.34787",
    "final_y": "534693.044678",
    "longitude": "-90.03069217215898",
    "latitude": "29.963856849556752",
    "geocoded_column": {
      "latitude": "29.963856849556752",
      "longitude": "-90.03069217215898"
    }
  },
  {
    "service_request": "2022-876295",
    "request_type": "Trash/Recycling",
    "request_reason": "Request a Large Item Pick Up",
    "date_created": "2022-04-20T13:50:25.000",
    "date_modified": "2022-04-20T13:50:26.000",
    "request_status": "Pending",
    "responsible_agency": "Department of Sanitation",
    "final_address": "8720 Hickory St",
    "address_councildis": "A",
    "status": "Assigned to Contractor",
    "contractor": "Richards Disposal",
    "rowid": "876295",
    "final_x": "3661646.9481",
    "final_y": "531455.816195",
    "longitude": "-90.13076156623289",
    "latitude": "29.955907051901747",
    "geocoded_column": {
      "latitude": "29.955907051901747",
      "longitude": "-90.13076156623289"
    }
  },
  {
    "service_request": "2022-876294",
    "request_type": "Trash/Recycling",
    "request_reason": "Request a Large Item Pick Up",
    "date_created": "2022-04-20T13:46:58.000",
    "date_modified": "2022-04-20T13:46:59.000",
    "request_status": "Pending",
    "responsible_agency": "Department of Sanitation",
    "final_address": "1512 Mithra St",
    "address_councildis": "D",
    "status": "Assigned to Contractor",
    "contractor": "Metro Disposal",
    "rowid": "876294",
    "final_x": "3678724.11534",
    "final_y": "552116.300246",
    "longitude": "-90.07612199741799",
    "latitude": "30.01221232944989",
    "geocoded_column": {
      "latitude": "30.01221232944989",
      "longitude": "-90.07612199741799"
    }
  },
  {
    "service_request": "2022-876293",
    "request_type": "Roads/Drainage",
    "request_reason": "Debris in Roadway",
    "date_created": "2022-04-20T13:43:23.000",
    "date_modified": "2022-04-20T13:43:25.000",
    "request_status": "Pending",
    "responsible_agency": "Department of Public Works",
    "final_address": "4110 General De Gaulle Dr",
    "address_councildis": "C",
    "status": "Pending",
    "rowid": "876293",
    "final_x": "3698862.38052",
    "final_y": "519373.020087",
    "longitude": "-90.01368824188471",
    "latitude": "29.92155712486959",
    "geocoded_column": {
      "latitude": "29.92155712486959",
      "longitude": "-90.01368824188471"
    }
  },
  {
    "service_request": "2022-876292",
    "request_type": "Roads/Drainage",
    "request_reason": "Pothole",
    "date_created": "2022-04-20T13:31:15.000",
    "date_modified": "2022-04-20T13:31:15.000",
    "request_status": "Pending",
    "responsible_agency": "Department of Public Works",
    "final_address": "3128 N Prieur St",
    "address_councildis": "D",
    "status": "Pending",
    "rowid": "876292",
    "final_x": "3689961.54883",
    "final_y": "538901.626442",
    "longitude": "-90.04108901975265",
    "latitude": "29.975532945962353",
    "geocoded_column": {
      "latitude": "29.975532945962353",
      "longitude": "-90.04108901975265"
    }
  },
  {
    "service_request": "2022-876291",
    "request_type": "Parks & Parkways",
    "request_reason": "Request Tree Service (Right of Way/Public Property)",
    "date_created": "2022-04-20T13:27:36.000",
    "date_modified": "2022-04-20T13:43:43.000",
    "request_status": "Pending",
    "responsible_agency": "Department of Parks & Parkway",
    "final_address": "4433 St Ann St",
    "address_councildis": "A",
    "status": "Pending",
    "rowid": "876291",
    "final_x": "3671371.21543",
    "final_y": "541468.771916",
    "longitude": "-90.09971523831742",
    "latitude": "29.983155108403864",
    "geocoded_column": {
      "latitude": "29.983155108403864",
      "longitude": "-90.09971523831742"
    }
  },
  {
    "service_request": "2022-876290",
    "request_type": "Traffic Signals/Signs/Striping/Streetlights",
    "request_reason": "Traffic Signal Malfunctioning/Damaged",
    "date_created": "2022-04-20T13:25:26.000",
    "date_modified": "2022-04-20T13:25:26.000",
    "request_status": "Pending",
    "responsible_agency": "Department of Public Works",
    "final_address": "1 Palm Dr",
    "address_councildis": "A",
    "status": "Pending",
    "rowid": "876290",
    "final_x": "3671839.8178",
    "final_y": "545132.066639",
    "longitude": "-90.09811041573838",
    "latitude": "29.993214028145875",
    "geocoded_column": {
      "latitude": "29.993214028145875",
      "longitude": "-90.09811041573838"
    }
  },
  {
    "service_request": "2022-876289",
    "request_type": "Property Maintenance",
    "request_reason": "Property Maintenance",
    "date_created": "2022-04-20T13:22:20.000",
    "date_modified": "2022-04-20T13:38:11.000",
    "case_close_date": "2022-04-20T08:38:11.000",
    "request_status": "Closed",
    "responsible_agency": "Department of Code Enforcement",
    "final_address": "5773 Wildair Dr",
    "address_councildis": "D",
    "status": "Referred to Code Enforcement",
    "rowid": "876289",
    "final_x": "3681573.442",
    "final_y": "554567.053656",
    "longitude": "-90.06703417020613",
    "latitude": "30.018864741202382",
    "geocoded_column": {
      "latitude": "30.018864741202382",
      "longitude": "-90.06703417020613"
    }
  },
  {
    "service_request": "2022-876288",
    "request_type": "Trash/Recycling",
    "request_reason": "Request a Large Item Pick Up",
    "date_created": "2022-04-20T13:15:11.000",
    "date_modified": "2022-04-20T13:15:14.000",
    "request_status": "Pending",
    "responsible_agency": "Department of Sanitation",
    "final_address": "8623 Marks St, New Orleans, Louisiana, 70118",
    "address_councildis": "A",
    "status": "Assigned to Contractor",
    "contractor": "Richards Disposal",
    "rowid": "876288",
    "final_x": "3667510.02119",
    "final_y": "537366.874376",
    "longitude": "-90.11204901179528",
    "latitude": "29.97199000716756",
    "geocoded_column": {
      "latitude": "29.97199000716756",
      "longitude": "-90.11204901179528"
    }
  },
  {
    "service_request": "2022-876287",
    "request_type": "Trash/Recycling",
    "request_reason": "Missed Trash Pick-Up",
    "date_created": "2022-04-20T13:10:59.000",
    "date_modified": "2022-04-20T13:11:00.000",
    "request_status": "Pending",
    "responsible_agency": "Department of Sanitation",
    "final_address": "1600 BLK Allen St",
    "address_councildis": "D",
    "status": "Assigned to Contractor",
    "contractor": "Metro Disposal",
    "rowid": "876287",
    "final_x": "3682579.31952",
    "final_y": "538587.50693",
    "longitude": "-90.06441508550455",
    "latitude": "29.974896082545076",
    "geocoded_column": {
      "latitude": "29.974896082545076",
      "longitude": "-90.06441508550455"
    }
  },
  {
    "service_request": "2022-876284",
    "request_type": "Trash/Recycling",
    "request_reason": "Replace Trash Cart",
    "date_created": "2022-04-20T13:02:24.000",
    "date_modified": "2022-04-20T13:02:25.000",
    "request_status": "Pending",
    "responsible_agency": "Department of Sanitation",
    "final_address": "3017 Magazine St",
    "address_councildis": "B",
    "status": "Assigned to Contractor",
    "contractor": "Richards Disposal",
    "rowid": "876284",
    "final_x": "3676194.21435",
    "final_y": "520343.411832",
    "longitude": "-90.08520851778677",
    "latitude": "29.92492377198157",
    "geocoded_column": {
      "latitude": "29.92492377198157",
      "longitude": "-90.08520851778677"
    }
  },
  {
    "service_request": "2022-876283",
    "request_type": "Roads/Drainage",
    "request_reason": "Catch Basin - Clogged",
    "date_created": "2022-04-20T13:00:29.000",
    "date_modified": "2022-04-20T13:00:29.000",
    "request_status": "Pending",
    "responsible_agency": "Department of Public Works",
    "final_address": "8503 Apricot St",
    "address_councildis": "A",
    "status": "Pending",
    "rowid": "876283",
    "final_x": "3664767.64967",
    "final_y": "533644.871493",
    "longitude": "-90.12083428755317",
    "latitude": "29.961835812576656",
    "geocoded_column": {
      "latitude": "29.961835812576656",
      "longitude": "-90.12083428755317"
    }
  },
  {
    "service_request": "2022-876282",
    "request_type": "Traffic Signals/Signs/Striping/Streetlights",
    "request_reason": "Street Light Knocked Down/Leaning",
    "date_created": "2022-04-20T12:59:53.000",
    "date_modified": "2022-04-20T13:00:13.000",
    "request_status": "Pending",
    "responsible_agency": "Department of Public Works",
    "final_address": "2453 Oriole St",
    "address_councildis": "D",
    "status": "Pending",
    "contractor": "Royal Engineering",
    "rowid": "876282",
    "final_x": "3684968.06242",
    "final_y": "558305.078044",
    "longitude": "-90.05617674571842",
    "latitude": "30.02903933542002",
    "geocoded_column": {
      "latitude": "30.02903933542002",
      "longitude": "-90.05617674571842"
    }
  },
  {
    "service_request": "2022-876281",
    "request_type": "Traffic Signals/Signs/Striping/Streetlights",
    "request_reason": "Street Light Outage/Malfunction",
    "date_created": "2022-04-20T12:59:39.000",
    "date_modified": "2022-04-20T13:00:16.000",
    "request_status": "Pending",
    "responsible_agency": "Department of Public Works",
    "final_address": "754 Louisiana Ave",
    "address_councildis": "B",
    "status": "Pending",
    "contractor": "Royal Engineering",
    "rowid": "876281",
    "final_x": "3675426.43291",
    "final_y": "518554.241399",
    "longitude": "-90.08769355276756",
    "latitude": "29.920027102836496",
    "geocoded_column": {
      "latitude": "29.920027102836496",
      "longitude": "-90.08769355276756"
    }
  },
  {
    "service_request": "2022-876280",
    "request_type": "Trash/Recycling",
    "request_reason": "Illegal Dumping",
    "date_created": "2022-04-20T12:58:03.000",
    "date_modified": "2022-04-20T12:58:03.000",
    "request_status": "Pending",
    "responsible_agency": "Department of Sanitation",
    "final_address": "2825 Monticello Ave",
    "address_councildis": "A",
    "status": "Pending",
    "rowid": "876280",
    "final_x": "3662609.70451",
    "final_y": "535964.583879",
    "longitude": "-90.12757168402511",
    "latitude": "29.96827687392088",
    "geocoded_column": {
      "latitude": "29.96827687392088",
      "longitude": "-90.12757168402511"
    }
  },
  {
    "service_request": "2022-876279",
    "request_type": "Roads/Drainage",
    "request_reason": "Catch Basin - Clogged",
    "date_created": "2022-04-20T12:57:55.000",
    "date_modified": "2022-04-20T12:57:55.000",
    "request_status": "Pending",
    "responsible_agency": "Department of Public Works",
    "final_address": "8503 Apricot St",
    "address_councildis": "A",
    "status": "Pending",
    "rowid": "876279",
    "final_x": "3664767.64967",
    "final_y": "533644.871493",
    "longitude": "-90.12083428755317",
    "latitude": "29.961835812576656",
    "geocoded_column": {
      "latitude": "29.961835812576656",
      "longitude": "-90.12083428755317"
    }
  },
  {
    "service_request": "2022-876278",
    "request_type": "Traffic Signals/Signs/Striping/Streetlights",
    "request_reason": "Street Light Outage/Malfunction",
    "date_created": "2022-04-20T12:57:40.000",
    "date_modified": "2022-04-20T12:57:41.000",
    "request_status": "Pending",
    "responsible_agency": "Department of Public Works",
    "final_address": "2453 Oriole St",
    "address_councildis": "D",
    "status": "Pending",
    "contractor": "Royal Engineering",
    "rowid": "876278",
    "final_x": "3684968.06242",
    "final_y": "558305.078044",
    "longitude": "-90.05617674571842",
    "latitude": "30.02903933542002",
    "geocoded_column": {
      "latitude": "30.02903933542002",
      "longitude": "-90.05617674571842"
    }
  },
  {
    "service_request": "2022-876277",
    "request_type": "Trash/Recycling",
    "request_reason": "Request a Large Item Pick Up",
    "date_created": "2022-04-20T12:57:25.000",
    "date_modified": "2022-04-20T12:57:26.000",
    "request_status": "Pending",
    "responsible_agency": "Department of Sanitation",
    "final_address": "4718 Press Dr",
    "address_councildis": "D",
    "status": "Assigned to Contractor",
    "contractor": "Metro Disposal",
    "rowid": "876277",
    "final_x": "3689518.49583",
    "final_y": "550700.59522",
    "longitude": "-90.04206836059382",
    "latitude": "30.007989589810435",
    "geocoded_column": {
      "latitude": "30.007989589810435",
      "longitude": "-90.04206836059382"
    }
  },
  {
    "service_request": "2022-876276",
    "request_type": "Abandoned Vehicles",
    "request_reason": "Abandoned/Junk Vehicles",
    "date_created": "2022-04-20T12:55:40.000",
    "date_modified": "2022-04-20T13:08:01.000",
    "request_status": "Pending",
    "responsible_agency": "Department of Public Works",
    "status": "Inspected",
    "rowid": "876276",
    "longitude": "0.0",
    "latitude": "0.0",
    "geocoded_column": {
      "latitude": "0.0",
      "longitude": "0.0"
    }
  },
  {
    "service_request": "2022-876275",
    "request_type": "Property Maintenance",
    "request_reason": "Property Maintenance",
    "date_created": "2022-04-20T12:48:42.000",
    "date_modified": "2022-04-20T12:48:42.000",
    "request_status": "Pending",
    "responsible_agency": "Department of Code Enforcement",
    "final_address": "2321 Ursulines Ave",
    "address_councildis": "D",
    "status": "Pending",
    "rowid": "876275",
    "final_x": "3678872.01288",
    "final_y": "537259.890632",
    "longitude": "-90.076169705425",
    "latitude": "29.971357960922006",
    "geocoded_column": {
      "latitude": "29.971357960922006",
      "longitude": "-90.076169705425"
    }
  },