[
  {
    "service_request": "2022-861897",
    "request_type": "Trash/Recycling",
    "request_reason": "Repair Recycling Cart",
    "date_created": "2022-02-17T23:16:36.000",
    "date_modified": "2022-02-17T23:16:36.000",
    "request_status": "Pending",
    "responsible_agency": "Department of Sanitation",
    "final_address": "14151 Knightway Dr",
    "address_councildis": "E",
    "status": "Pending",
    "rowid": "861897",
    "final_x": "3718744.38393",
    "final_y": "570644.797863",
    "longitude": "-89.94897486359356",
    "latitude": "30.061890102480262",
    "geocoded_column": {
      "latitude": "30.061890102480262",
      "longitude": "-89.94897486359356"
    }
  },
  {
    "service_request": "2022-861896",
    "request_type": "Trash/Recycling",
    "request_reason": "Request a Large Item Pick Up",
    "date_created": "2022-02-17T22:19:03.000",
    "date_modified": "2022-02-17T22:19:03.000",
    "request_status": "Pending",
    "responsible_agency": "Department of Sanitation",
    "final_address": "8239 Green St",
    "address_councildis": "A",
    "status": "Assigned to Contractor",
    "contractor": "Richards Disposal",
    "rowid": "861896",
    "final_x": "3662671.11475",
    "final_y": "530163.561153",
    "longitude": "-90.12757052648055",
    "latitude": "29.95232417295145",
    "geocoded_column": {
      "latitude": "29.95232417295145",
      "longitude": "-90.12757052648055"
    }
  },
  {
    "service_request": "2022-861895",
    "request_type": "Abandoned Vehicles",
    "request_reason": "Abandoned/Junk Vehicles",
    "date_created": "2022-02-17T22:01:33.000",
    "date_modified": "2022-02-17T22:01:33.000",
    "request_status": "Pending",
    "responsible_agency": "Department of Public Works",
    "final_address": "2815 St Ann St",
    "address_councildis": "A",
    "status": "Pending",
    "rowid": "861895",
    "final_x": "3676392.29115",
    "final_y": "537669.626312",
    "longitude": "-90.08398691617855",
    "latitude": "29.97255916939583",
    "geocoded_column": {
      "latitude": "29.97255916939583",
      "longitude": "-90.08398691617855"
    }
  },
  {
    "service_request": "2022-861894",
    "request_type": "Abandoned Vehicles",
    "request_reason": "Vehicle Blocking Your Driveway",
    "date_created": "2022-02-17T21:45:28.000",
    "date_modified": "2022-02-17T21:45:28.000",
    "request_status": "Pending",
    "responsible_agency": "Department of Public Works",
    "final_address": "7535 Oak St",
    "address_councildis": "A",
    "status": "Pending",
    "rowid": "861894",
    "final_x": "3663418.23968",
    "final_y": "527109.048319",
    "longitude": "-90.12531312028524",
    "latitude": "29.943903605706574",
    "geocoded_column": {
      "latitude": "29.943903605706574",
      "longitude": "-90.12531312028524"
    }
  },
  {
    "service_request": "2022-861893",
    "request_type": "Traffic Signals/Signs/Striping/Streetlights",
    "request_reason": "Street Name Sign Damaged or Missing",
    "date_created": "2022-02-17T21:43:47.000",
    "date_modified": "2022-02-17T21:43:47.000",
    "request_status": "Pending",
    "responsible_agency": "Department of Public Works",
    "final_address": "7600 Gannon Rd",
    "address_councildis": "E",
    "status": "Pending",
    "rowid": "861893",
    "final_x": "3716469.08671",
    "final_y": "569659.73431",
    "longitude": "-89.95620443875303",
    "latitude": "30.059256974348585",
    "geocoded_column": {
      "latitude": "30.059256974348585",
      "longitude": "-89.95620443875303"
    }
  },
  {
    "service_request": "2022-861892",
    "request_type": "Trash/Recycling",
    "request_reason": "Illegal Dumping",
    "date_created": "2022-02-17T21:25:08.000",
    "date_modified": "2022-02-17T21:25:08.000",
    "request_status": "Pending",
    "responsible_agency": "Department of Sanitation",
    "final_address": "6028 Pines Blvd",
    "address_councildis": "D",
    "status": "Pending",
    "rowid": "861892",
    "final_x": "3696011.59062",
    "final_y": "555998.394649",
    "longitude": "-90.02136318199365",
    "latitude": "30.02235375364511",
    "geocoded_column": {
      "latitude": "30.02235375364511",
      "longitude": "-90.02136318199365"
    }
  },
  {
    "service_request": "2022-861891",
    "request_type": "Roads/Drainage",
    "request_reason": "Man hole cover issue",
    "date_created": "2022-02-17T21:13:16.000",
    "date_modified": "2022-02-17T21:13:16.000",
    "request_status": "Pending",
    "responsible_agency": "Department of Public Works",
    "final_address": "621 Pelican Ave",
    "address_councildis": "C",
    "status": "Pending",
    "rowid": "861891",
    "final_x": "3687394.2806",
    "final_y": "530739.84237",
    "longitude": "-90.0494859539611",
    "latitude": "29.953170236662285",
    "geocoded_column": {
      "latitude": "29.953170236662285",
      "longitude": "-90.0494859539611"
    }
  },
  {
    "service_request": "2022-861890",
    "request_type": "Trash/Recycling",
    "request_reason": "Illegal Dumping",
    "date_created": "2022-02-17T21:12:01.000",
    "date_modified": "2022-02-17T21:12:01.000",
    "request_status": "Pending",
    "responsible_agency": "Department of Sanitation",
    "final_address": "6045 Pines Blvd",
    "address_councildis": "D",
    "status": "Pending",
    "rowid": "861890",
    "final_x": "3696148.54659",
    "final_y": "556164.707098",
    "longitude": "-90.0209244177289",
    "latitude": "30.02280673734054",
    "geocoded_column": {
      "latitude": "30.02280673734054",
      "longitude": "-90.0209244177289"
    }
  },
  {
    "service_request": "2022-861889",
    "request_type": "Trash/Recycling",
    "request_reason": "MIssed Recycling Pick-Up",
    "date_created": "2022-02-17T21:11:14.000",
    "date_modified": "2022-02-17T21:11:15.000",
    "request_status": "Pending",
    "responsible_agency": "Department of Sanitation",
    "final_address": "531 Second St",
    "address_councildis": "B",
    "status": "Assigned to Contractor",
    "contractor": "Richards Disposal",
    "rowid": "861889",
    "final_x": "3678946.68136",
    "final_y": "519703.907704",
    "longitude": "-90.07654202089383",
    "latitude": "29.923082616838766",
    "geocoded_column": {
      "latitude": "29.923082616838766",
      "longitude": "-90.07654202089383"
    }
  },
  {
    "service_request": "2022-861888",
    "request_type": "Trash/Recycling",
    "request_reason": "Missed Trash Pick-Up",
    "date_created": "2022-02-17T21:10:37.000",
    "date_modified": "2022-02-17T21:10:38.000",
    "request_status": "Pending",
    "responsible_agency": "Department of Sanitation",
    "final_address": "531 Second St",
    "address_councildis": "B",
    "status": "Assigned to Contractor",
    "contractor": "Richards Disposal",
    "rowid": "861888",
    "final_x": "3678946.68136",
    "final_y": "519703.907704",
    "longitude": "-90.07654202089383",
    "latitude": "29.923082616838766",
    "geocoded_column": {
      "latitude": "29.923082616838766",
      "longitude": "-90.07654202089383"
    }
  },
  {
    "service_request": "2022-861887",
    "request_type": "Safety & Permits",
    "request_reason": "Licenses & Permits",
    "date_created": "2022-02-17T20:16:28.000",
    "date_modified": "2022-02-17T20:16:28.000",
    "request_status": "Pending",
    "responsible_agency": "Safety and Permits",
    "status": "Pending",
    "rowid": "861887",
    "longitude": "0.0",
    "latitude": "0.0",
    "geocoded_column": {
      "latitude": "0.0",
      "longitude": "0.0"
    }
  },
  {
    "service_request": "2022-861886",
    "request_type": "Trash/Recycling",
    "request_reason": "Illegal Dumping",
    "date_created": "2022-02-17T20:12:48.000",
    "date_modified": "2022-02-17T20:12:48.000",
    "request_status": "Pending",
    "responsible_agency": "Department of Sanitation",
    "final_address": "6745 Cindy Pl",
    "address_councildis": "E",
    "status": "Pending",
    "rowid": "861886",
    "final_x": "3707238.61336",
    "final_y": "558887.255388",
    "longitude": "-89.98578148275335",
    "latitude": "30.029938755583267",
    "geocoded_column": {
      "latitude": "30.029938755583267",
      "longitude": "-89.98578148275335"
    }
  },
  {
    "service_request": "2022-861885",
    "request_type": "Traffic Signals/Signs/Striping/Streetlights",
    "request_reason": "Street Light Outage/Malfunction",
    "date_created": "2022-02-17T20:06:10.000",
    "date_modified": "2022-02-17T20:06:11.000",
    "request_status": "Pending",
    "responsible_agency": "Department of Public Works",
    "final_address": "7301 Lake Barrington Dr",
    "address_councildis": "E",
    "status": "Pending",
    "contractor": "Royal Engineering",
    "rowid": "861885",
    "final_x": "3712254.94437",
    "final_y": "564736.24381",
    "longitude": "-89.96971010058793",
    "latitude": "30.045857967425672",
    "geocoded_column": {
      "latitude": "30.045857967425672",
      "longitude": "-89.96971010058793"
    }
  },
  {
    "service_request": "2022-861884",
    "request_type": "COVID-19",
    "request_reason": "COVID-19 Business Non-Compliance",
    "date_created": "2022-02-17T20:00:25.000",
    "date_modified": "2022-02-17T20:00:27.000",
    "request_status": "Pending",
    "responsible_agency": "Safety and Permits",
    "final_address": "700 Burgundy St",
    "address_councildis": "C",
    "status": "Pending",
    "rowid": "861884",
    "final_x": "3681734.75855",
    "final_y": "533113.463428",
    "longitude": "-90.06727344428745",
    "latitude": "29.95987003534188",
    "geocoded_column": {
      "latitude": "29.95987003534188",
      "longitude": "-90.06727344428745"
    }
  },
  {
    "service_request": "2022-861883",
    "request_type": "COVID-19",
    "request_reason": "COVID-19 Business Non-Compliance",
    "date_created": "2022-02-17T19:59:09.000",
    "date_modified": "2022-02-17T19:59:10.000",
    "request_status": "Pending",
    "responsible_agency": "Safety and Permits",
    "final_address": "2601 Royal St",
    "address_councildis": "C",
    "status": "Pending",
    "rowid": "861883",
    "final_x": "3686778.46486",
    "final_y": "534992.593542",
    "longitude": "-90.05128018210614",
    "latitude": "29.964882793535896",
    "geocoded_column": {
      "latitude": "29.964882793535896",
      "longitude": "-90.05128018210614"
    }
  },
  {
    "service_request": "2022-861882",
    "request_type": "COVID-19",
    "request_reason": "COVID-19 Business Non-Compliance",
    "date_created": "2022-02-17T19:56:09.000",
    "date_modified": "2022-02-17T19:56:10.000",
    "request_status": "Pending",
    "responsible_agency": "Safety and Permits",
    "final_address": "901 Bourbon St",
    "address_councildis": "C",
    "status": "Pending",
    "rowid": "861882",
    "final_x": "3682707.32303",
    "final_y": "533304.72122",
    "longitude": "-90.06419561516127",
    "latitude": "29.960366345084232",
    "geocoded_column": {
      "latitude": "29.960366345084232",
      "longitude": "-90.06419561516127"
    }
  },
  {
    "service_request": "2022-861881",
    "request_type": "COVID-19",
    "request_reason": "COVID-19 Business Non-Compliance",
    "date_created": "2022-02-17T19:54:41.000",
    "date_modified": "2022-02-17T19:54:42.000",
    "request_status": "Pending",
    "responsible_agency": "Safety and Permits",
    "final_address": "740 Dauphine St",
    "address_councildis": "C",
    "status": "Pending",
    "rowid": "861881",
    "final_x": "3682230.74101",
    "final_y": "533138.899716",
    "longitude": "-90.06570635447683",
    "latitude": "29.959924898440885",
    "geocoded_column": {
      "latitude": "29.959924898440885",
      "longitude": "-90.06570635447683"
    }
  },
  {
    "service_request": "2022-861880",
    "request_type": "COVID-19",
    "request_reason": "COVID-19 Business Non-Compliance",
    "date_created": "2022-02-17T19:52:45.000",
    "date_modified": "2022-02-17T19:52:46.000",
    "request_status": "Pending",
    "responsible_agency": "Safety and Permits",
    "final_address": "2529 Dauphine St",
    "address_councildis": "C",
    "status": "Pending",
    "rowid": "861880",
    "final_x": "3686806.40975",
    "final_y": "535398.587142",
    "longitude": "-90.05117758784273",
    "latitude": "29.965998275130787",
    "geocoded_column": {
      "latitude": "29.965998275130787",
      "longitude": "-90.05117758784273"
    }
  },
  {
    "service_request": "2022-861879",
    "request_type": "Safety & Permits",
    "request_reason": "Licenses & Permits",
    "date_created": "2022-02-17T19:50:19.000",
    "date_modified": "2022-02-17T19:50:19.000",
    "request_status": "Pending",
    "responsible_agency": "Safety and Permits",
    "final_address": "2623 Banks St",
    "address_councildis": "B",
    "status": "Pending",
    "rowid": "861879",
    "final_x": "3674918.31573",
    "final_y": "534005.212741",
    "longitude": "-90.08876770176484",
    "latitude": "29.96252737980708",
    "geocoded_column": {
      "latitude": "29.96252737980708",
      "longitude": "-90.08876770176484"
    }
  },
  {
    "service_request": "2022-861878",
    "request_type": "Property Maintenance",
    "request_reason": "Property Maintenance",
    "date_created": "2022-02-17T19:49:50.000",
    "date_modified": "2022-02-17T19:49:50.000",
    "request_status": "Pending",
    "responsible_agency": "Department of Code Enforcement",
    "final_address": "12500 Morrison Rd",
    "address_councildis": "E",
    "status": "Pending",
    "rowid": "861878",
    "final_x": "3715819.41887",
    "final_y": "568570.992165",
    "longitude": "-89.95829926500231",
    "latitude": "30.056284835798667",
    "geocoded_column": {
      "latitude": "30.056284835798667",
      "longitude": "-89.95829926500231"
    }
  },
  {
    "service_request": "2022-861877",
    "request_type": "Trash/Recycling",
    "request_reason": "MIssed Recycling Pick-Up",
    "date_created": "2022-02-17T19:46:29.000",
    "date_modified": "2022-02-17T19:46:30.000",
    "request_status": "Pending",
    "responsible_agency": "Department of Sanitation",
    "final_address": "1618 S Liberty St",
    "address_councildis": "B",
    "status": "Assigned to Contractor",
    "contractor": "Richards Disposal",
    "rowid": "861877",
    "final_x": "3676745.19873",
    "final_y": "526531.537982",
    "longitude": "-90.08325613022687",
    "latitude": "29.941922581934552",
    "geocoded_column": {
      "latitude": "29.941922581934552",
      "longitude": "-90.08325613022687"
    }
  },
  {
    "service_request": "2022-861876",
    "request_type": "Abandoned Vehicles",
    "request_reason": "Abandoned/Junk Vehicles",
    "date_created": "2022-02-17T19:33:12.000",
    "date_modified": "2022-02-17T19:33:12.000",
    "request_status": "Pending",
    "responsible_agency": "Department of Public Works",
    "final_address": "622 N Murat St",
    "address_councildis": "A",
    "status": "Pending",
    "rowid": "861876",
    "final_x": "3670950.15783",
    "final_y": "540970.556043",
    "longitude": "-90.10106208171221",
    "latitude": "29.981797642470212",
    "geocoded_column": {
      "latitude": "29.981797642470212",
      "longitude": "-90.10106208171221"
    }
  },
  {
    "service_request": "2022-861875",
    "request_type": "Trash/Recycling",
    "request_reason": "Missed Trash Pick-Up",
    "date_created": "2022-02-17T19:32:49.000",
    "date_modified": "2022-02-17T19:32:50.000",
    "request_status": "Pending",
    "responsible_agency": "Department of Sanitation",
    "final_address": "509 Fourth St",
    "address_councildis": "B",
    "status": "Assigned to Contractor",
    "contractor": "Richards Disposal",
    "rowid": "861875",
    "final_x": "3678532.08328",
    "final_y": "519219.489783",
    "longitude": "-90.07786750169062",
    "latitude": "29.921763122150992",
    "geocoded_column": {
      "latitude": "29.921763122150992",
      "longitude": "-90.07786750169062"
    }
  },
  {
    "service_request": "2022-861874",
    "request_type": "Trash/Recycling",
    "request_reason": "MIssed Recycling Pick-Up",
    "date_created": "2022-02-17T19:31:23.000",
    "date_modified": "2022-02-17T19:31:24.000",
    "request_status": "Pending",
    "responsible_agency": "Department of Sanitation",
    "final_address": "1719 Second St",
    "address_councildis": "B",
    "status": "Assigned to Contractor",
    "contractor": "Richards Disposal",
    "rowid": "861874",
    "final_x": "3676424.19054",
    "final_y": "523519.963515",
    "longitude": "-90.08437326014105",
    "latitude": "29.933651366301078",
    "geocoded_column": {
      "latitude": "29.933651366301078",
      "longitude": "-90.08437326014105"
    }
  },
  {
    "service_request": "2022-861873",
    "request_type": "Trash/Recycling",
    "request_reason": "Request a Large Item Pick Up",
    "date_created": "2022-02-17T19:21:21.000",
    "date_modified": "2022-02-17T19:21:21.000",
    "request_status": "Pending",
    "responsible_agency": "Department of Sanitation",
    "final_address": "2736 Octavia St",
    "address_councildis": "A",
    "status": "Assigned to Contractor",
    "contractor": "Richards Disposal",
    "rowid": "861873",
    "final_x": "3667901.85767",
    "final_y": "525666.879741",
    "longitude": "-90.11120563047973",
    "latitude": "29.939807371131554",
    "geocoded_column": {
      "latitude": "29.939807371131554",
      "longitude": "-90.11120563047973"
    }
  },
  {
    "service_request": "2022-861872",
    "request_type": "Trash/Recycling",
    "request_reason": "Illegal Dumping",
    "date_created": "2022-02-17T18:53:48.000",
    "date_modified": "2022-02-17T18:53:48.000",
    "request_status": "Pending",
    "responsible_agency": "Department of Sanitation",
    "final_address": "NAPOLEON AVE & ST CHARLES AVE",
    "address_councildis": "B",
    "status": "Pending",
    "rowid": "861872",
    "final_x": "3670814.1",
    "final_y": "520818.48",
    "longitude": "-90.10217570850496",
    "latitude": "29.926390102746048",
    "geocoded_column": {
      "latitude": "29.926390102746048",
      "longitude": "-90.10217570850496"
    }
  },
  {
    "service_request": "2022-861871",
    "request_type": "Traffic Signals/Signs/Striping/Streetlights",
    "request_reason": "Street Light Outage/Malfunction",
    "date_created": "2022-02-17T18:39:23.000",
    "date_modified": "2022-02-17T18:39:40.000",
    "request_status": "Pending",
    "responsible_agency": "Department of Public Works",
    "final_address": "5700 Crowder Blvd",
    "address_councildis": "E",
    "status": "Pending",
    "contractor": "Royal Engineering",
    "rowid": "861871",
    "final_x": "3705062.42065",
    "final_y": "557854.943195",
    "longitude": "-89.99269635649384",
    "latitude": "30.02717049048631",
    "geocoded_column": {
      "latitude": "30.02717049048631",
      "longitude": "-89.99269635649384"
    }
  },
  {
    "service_request": "2022-861870",
    "request_type": "Traffic Signals/Signs/Striping/Streetlights",
    "request_reason": "Street Light Outage/Malfunction",
    "date_created": "2022-02-17T18:39:00.000",
    "date_modified": "2022-02-17T18:39:01.000",
    "request_status": "Pending",
    "responsible_agency": "Department of Public Works",
    "final_address": "5700 Crowder Blvd",
    "address_councildis": "E",
    "status": "Pending",
    "contractor": "Royal Engineering",
    "rowid": "861870",
    "final_x": "3705062.42065",
    "final_y": "557854.943195",
    "longitude": "-89.99269635649384",
    "latitude": "30.02717049048631",
    "geocoded_column": {
      "latitude": "30.02717049048631",
      "longitude": "-89.99269635649384"
    }
  },
  {
    "service_request": "2022-861869",
    "request_type": "Traffic Signals/Signs/Striping/Streetlights",
    "request_reason": "Street Light Outage/Malfunction",
    "date_created": "2022-02-17T18:38:32.000",
    "date_modified": "2022-02-17T18:38:32.000",
    "request_status": "Pending",
    "responsible_agency": "Department of Public Works",
    "final_address": "5700 Crowder Blvd",
    "address_councildis": "E",
    "status": "Pending",
    "contractor": "Royal Engineering",
    "rowid": "861869",
    "final_x": "3705062.42065",
    "final_y": "557854.943195",
    "longitude": "-89.99269635649384",
    "latitude": "30.02717049048631",
    "geocoded_column": {
      "latitude": "30.02717049048631",
      "longitude": "-89.99269635649384"
    }
  },
  {
    "service_request": "2022-861868",
    "request_type": "Traffic Signals/Signs/Striping/Streetlights",
    "request_reason": "Street Light Outage/Malfunction",
    "date_created": "2022-02-17T18:38:05.000",
    "date_modified": "2022-02-17T18:38:06.000",
    "request_status": "Pending",
    "responsible_agency": "Department of Public Works",
    "final_address": "5700 Crowder Blvd",
    "address_councildis": "E",
    "status": "Pending",
    "contractor": "Royal Engineering",
    "rowid": "861868",
    "final_x": "3705062.42065",
    "final_y": "557854.943195",
    "longitude": "-89.99269635649384",
    "latitude": "30.02717049048631",
    "geocoded_column": {
      "latitude": "30.02717049048631",
      "longitude": "-89.99269635649384"
    }
  },
  {
    "service_request": "2022-861867",
    "request_type": "Traffic Signals/Signs/Striping/Streetlights",
    "request_reason": "Street Light Outage/Malfunction",
    "date_created": "2022-02-17T18:37:56.000",
    "date_modified": "2022-02-17T18:37:57.000",
    "request_status": "Pending",
    "responsible_agency": "Department of Public Works",
    "final_address": "5700 Crowder Blvd",
    "address_councildis": "E",
    "status": "Pending",
    "contractor": "Royal Engineering",
    "rowid": "861867",
    "final_x": "3705062.42065",
    "final_y": "557854.943195",
    "longitude": "-89.99269635649384",
    "latitude": "30.02717049048631",
    "geocoded_column": {
      "latitude": "30.02717049048631",
      "longitude": "-89.99269635649384"
    }
  },
  {
    "service_request": "2022-861866",
    "request_type": "Traffic Signals/Signs/Striping/Streetlights",
    "request_reason": "Street Light Outage/Malfunction",
    "date_created": "2022-02-17T18:37:06.000",
    "date_modified": "2022-02-17T18:37:07.000",
    "request_status": "Pending",
    "responsible_agency": "Department of Public Works",
    "final_address": "5700 Crowder Blvd",
    "address_councildis": "E",
    "status": "Pending",
    "contractor": "Royal Engineering",
    "rowid": "861866",
    "final_x": "3705062.42065",
    "final_y": "557854.943195",
    "longitude": "-89.99269635649384",
    "latitude": "30.02717049048631",
    "geocoded_column": {
      "latitude": "30.02717049048631",
      "longitude": "-89.99269635649384"
    }
  },
  {
    "service_request": "2022-861865",
    "request_type": "Traffic Signals/Signs/Striping/Streetlights",
    "request_reason": "Street Light Outage/Malfunction",
    "date_created": "2022-02-17T18:36:46.000",
    "date_modified": "2022-02-17T18:36:47.000",
    "request_status": "Pending",
    "responsible_agency": "Department of Public Works",
    "final_address": "5700 Crowder Blvd",
    "address_councildis": "E",
    "status": "Pending",
    "contractor": "Royal Engineering",
    "rowid": "861865",
    "final_x": "3705062.42065",
    "final_y": "557854.943195",
    "longitude": "-89.99269635649384",
    "latitude": "30.02717049048631",
    "geocoded_column": {
      "latitude": "30.02717049048631",
      "longitude": "-89.99269635649384"
    }
  },
  {
    "service_request": "2022-861864",
    "request_type": "Traffic Signals/Signs/Striping/Streetlights",
    "request_reason": "Street Light Outage/Malfunction",
    "date_created": "2022-02-17T18:36:26.000",
    "date_modified": "2022-02-17T18:36:27.000",
    "request_status": "Pending",
    "responsible_agency": "Department of Public Works",
    "final_address": "5700 Crowder Blvd",
    "address_councildis": "E",
    "status": "Pending",
    "contractor": "Royal Engineering",
    "rowid": "861864",
    "final_x": "3705062.42065",
    "final_y": "557854.943195",
    "longitude": "-89.99269635649384",
    "latitude": "30.02717049048631",
    "geocoded_column": {
      "latitude": "30.02717049048631",
      "longitude": "-89.99269635649384"
    }
  },
  {
    "service_request": "2022-861863",
    "request_type": "Traffic Signals/Signs/Striping/Streetlights",
    "request_reason": "Street Light Outage/Malfunction",
    "date_created": "2022-02-17T18:36:07.000",
    "date_modified": "2022-02-17T18:36:08.000",
    "request_status": "Pending",
    "responsible_agency": "Department of Public Works",
    "final_address": "5700 Crowder Blvd",
    "address_councildis": "E",
    "status": "Pending",
    "contractor": "Royal Engineering",
    "rowid": "861863",
    "final_x": "3705062.42065",
    "final_y": "557854.943195",
    "longitude": "-89.99269635649384",
    "latitude": "30.02717049048631",
    "geocoded_column": {
      "latitude": "30.02717049048631",
      "longitude": "-89.99269635649384"
    }
  },
  {
    "service_request": "2022-861862",
    "request_type": "Traffic Signals/Signs/Striping/Streetlights",
    "request_reason": "Street Light Outage/Malfunction",
    "date_created": "2022-02-17T18:35:44.000",
    "date_modified": "2022-02-17T18:35:45.000",
    "request_status": "Pending",
    "responsible_agency": "Department of Public Works",
    "final_address": "5700 Crowder Blvd",
    "address_councildis": "E",
    "status": "Pending",
    "contractor": "Royal Engineering",
    "rowid": "861862",
    "final_x": "3705062.42065",
    "final_y": "557854.943195",
    "longitude": "-89.99269635649384",
    "latitude": "30.02717049048631",
    "geocoded_column": {
      "latitude": "30.02717049048631",
      "longitude": "-89.99269635649384"
    }
  },
  {
    "service_request": "2022-861861",
    "request_type": "Traffic Signals/Signs/Striping/Streetlights",
    "request_reason": "Street Light Outage/Malfunction",
    "date_created": "2022-02-17T18:35:13.000",
    "date_modified": "2022-02-17T18:35:14.000",
    "request_status": "Pending",
    "responsible_agency": "Department of Public Works",
    "final_address": "5700 Crowder Blvd",
    "address_councildis": "E",
    "status": "Pending",
    "contractor": "Royal Engineering",
    "rowid": "861861",
    "final_x": "3705062.42065",
    "final_y": "557854.943195",
    "longitude": "-89.99269635649384",
    "latitude": "30.02717049048631",
    "geocoded_column": {
      "latitude": "30.02717049048631",
      "longitude": "-89.99269635649384"
    }
  },
  {
    "service_request": "2022-861860",
    "request_type": "Trash/Recycling",
    "request_reason": "Missed Trash Pick-Up",
    "date_created": "2022-02-17T18:34:20.000",
    "date_modified": "2022-02-17T18:34:20.000",
    "request_status": "Pending",
    "responsible_agency": "Department of Sanitation",
    "final_address": "3200 Chippewa St, New Orleans, Louisiana, 70115",
    "address_councildis": "B",
    "status": "Assigned to Contractor",
    "contractor": "Richards Disposal",
    "rowid": "861860",
    "final_x": "3676484.11368",
    "final_y": "518601.768375",
    "longitude": "-90.08435332636797",
    "latitude": "29.9201261285269",
    "geocoded_column": {
      "latitude": "29.9201261285269",
      "longitude": "-90.08435332636797"
    }
  },
  {
    "service_request": "2022-861859",
    "request_type": "COVID-19",
    "request_reason": "COVID-19 Business Non-Compliance",
    "date_created": "2022-02-17T18:19:07.000",
    "date_modified": "2022-02-17T18:19:09.000",
    "request_status": "Pending",
    "responsible_agency": "Safety and Permits",
    "final_address": "2601 Royal St",
    "address_councildis": "C",
    "status": "Pending",
    "rowid": "861859",
    "final_x": "3686778.46486",
    "final_y": "534992.593542",
    "longitude": "-90.05128018210614",
    "latitude": "29.964882793535896",
    "geocoded_column": {
      "latitude": "29.964882793535896",
      "longitude": "-90.05128018210614"
    }
  },
  {
    "service_request": "2022-861858",
    "request_type": "Trash/Recycling",
    "request_reason": "Request a Large Item Pick Up",
    "date_created": "2022-02-17T18:13:55.000",
    "date_modified": "2022-02-17T18:32:30.000",
    "request_status": "Pending",
    "responsible_agency": "Department of Sanitation",
    "final_address": "4226 S Miro St",
    "address_councildis": "B",
    "status": "Assigned to Contractor",
    "contractor": "Metro Disposal",
    "rowid": "861858",
    "final_x": "3670704.49723",
    "final_y": "527833.369791",
    "longitude": "-90.10228378682744",
    "latitude": "29.945682022307565",
    "geocoded_column": {
      "latitude": "29.945682022307565",
      "longitude": "-90.10228378682744"
    }
  },
  {
    "service_request": "2022-861857",
    "request_type": "Property Maintenance",
    "request_reason": "Property Maintenance",
    "date_created": "2022-02-17T18:11:34.000",
    "date_modified": "2022-02-17T18:14:23.000",
    "request_status": "Pending",
    "responsible_agency": "Department of Code Enforcement",
    "final_address": "1639 N Johnson St",
    "address_councildis": "D",
    "status": "Pending",
    "rowid": "861857",
    "final_x": "3681185.48636",
    "final_y": "538938.51329",
    "longitude": "-90.06880492788837",
    "latitude": "29.975903597000382",
    "geocoded_column": {
      "latitude": "29.975903597000382",
      "longitude": "-90.06880492788837"
    }
  },
  {
    "service_request": "2022-861856",
    "request_type": "Trash/Recycling",
    "request_reason": "Illegal Dumping",
    "date_created": "2022-02-17T18:09:56.000",
    "date_modified": "2022-02-17T18:09:56.000",
    "request_status": "Pending",
    "responsible_agency": "Department of Code Enforcement",
    "final_address": "1544 N Johnson St",
    "address_councildis": "D",
    "status": "Pending",
    "rowid": "861856",
    "final_x": "3680882.35253",
    "final_y": "538364.949065",
    "longitude": "-90.06978228636467",
    "latitude": "29.974335688994373",
    "geocoded_column": {
      "latitude": "29.974335688994373",
      "longitude": "-90.06978228636467"
    }
  },
  {
    "service_request": "2022-861855",
    "request_type": "Property Maintenance",
    "request_reason": "Property Maintenance",
    "date_created": "2022-02-17T18:09:33.000",
    "date_modified": "2022-02-17T18:09:33.000",
    "request_status": "Pending",
    "responsible_agency": "Department of Code Enforcement",
    "final_address": "1544 N Johnson St",
    "address_councildis": "D",
    "status": "Pending",
    "rowid": "861855",
    "final_x": "3680882.35253",
    "final_y": "538364.949065",
    "longitude": "-90.06978228636467",
    "latitude": "29.974335688994373",
    "geocoded_column": {
      "latitude": "29.974335688994373",
      "longitude": "-90.06978228636467"
    }
  },
  {
    "service_request": "2022-861854",
    "request_type": "Abandoned Vehicles",
    "request_reason": "Abandoned/Junk Vehicles",
    "date_created": "2022-02-17T18:05:51.000",
    "date_modified": "2022-02-17T18:05:51.000",
    "request_status": "Pending",
    "responsible_agency": "Department of Public Works",
    "final_address": "1000 St Ann St",
    "address_councildis": "C",
    "status": "Pending",
    "rowid": "861854",
    "final_x": "3681879.81032",
    "final_y": "533421.755908",
    "longitude": "-90.06680464275448",
    "latitude": "29.960713326771295",
    "geocoded_column": {
      "latitude": "29.960713326771295",
      "longitude": "-90.06680464275448"
    }
  },
  {
    "service_request": "2022-861853",
    "request_type": "Abandoned Vehicles",
    "request_reason": "Abandoned/Junk Vehicles",
    "date_created": "2022-02-17T17:54:23.000",
    "date_modified": "2022-02-17T17:56:35.000",
    "request_status": "Pending",
    "responsible_agency": "Department of Public Works",
    "final_address": "2400 Napoleon Ave",
    "address_councildis": "B",
    "status": "Pending",
    "rowid": "861853",
    "final_x": "3670433.47783",
    "final_y": "523797.044603",
    "longitude": "-90.1032762933551",
    "latitude": "29.93459144002167",
    "geocoded_column": {
      "latitude": "29.93459144002167",
      "longitude": "-90.1032762933551"
    }
  },
  {
    "service_request": "2022-861852",
    "request_type": "Abandoned Vehicles",
    "request_reason": "Abandoned/Junk Vehicles",
    "date_created": "2022-02-17T17:53:42.000",
    "date_modified": "2022-02-17T17:53:42.000",
    "request_status": "Pending",
    "responsible_agency": "Department of Public Works",
    "final_address": "2517 Soniat St",
    "address_councildis": "B",
    "status": "Pending",
    "rowid": "861852",
    "final_x": "3668576.81396",
    "final_y": "524788.205308",
    "longitude": "-90.10910432863942",
    "latitude": "29.937371487489603",
    "geocoded_column": {
      "latitude": "29.937371487489603",
      "longitude": "-90.10910432863942"
    }
  },
  {
    "service_request": "2022-861851",
    "request_type": "Abandoned Vehicles",
    "request_reason": "Abandoned/Junk Vehicles",
    "date_created": "2022-02-17T17:49:59.000",
    "date_modified": "2022-02-17T17:49:59.000",
    "request_status": "Pending",
    "responsible_agency": "Department of Public Works",
    "final_address": "2517 Soniat St",
    "address_councildis": "B",
    "status": "Pending",
    "rowid": "861851",
    "final_x": "3668576.81396",
    "final_y": "524788.205308",
    "longitude": "-90.10910432863942",
    "latitude": "29.937371487489603",
    "geocoded_column": {
      "latitude": "29.937371487489603",
      "longitude": "-90.10910432863942"
    }
  },
  {
    "service_request": "2022-861850",
    "request_type": "Abandoned Vehicles",
    "request_reason": "Abandoned/Junk Vehicles",
    "date_created": "2022-02-17T17:40:47.000",
    "date_modified": "2022-02-17T17:40:47.000",
    "request_status": "Pending",
    "responsible_agency": "Department of Public Works",
    "final_address": "1725 Henriette Delille St",
    "address_councildis": "C",
    "status": "Pending",
    "rowid": "861850",
    "final_x": "3683353.77365",
    "final_y": "536197.328327",
    "longitude": "-90.06205291766868",
    "latitude": "29.968300315701274",
    "geocoded_column": {
      "latitude": "29.968300315701274",
      "longitude": "-90.06205291766868"
    }
  },
  {
    "service_request": "2022-861849",
    "request_type": "Traffic Signals/Signs/Striping/Streetlights",
    "request_reason": "Traffic Sign Missing/Damaged",
    "date_created": "2022-02-17T17:38:24.000",
    "date_modified": "2022-02-17T17:38:24.000",
    "request_status": "Pending",
    "responsible_agency": "Department of Public Works",
    "final_address": "3439 Octavia St",
    "address_councildis": "A",
    "status": "Pending",
    "rowid": "861849",
    "final_x": "3668583.71322",
    "final_y": "528292.636608",
    "longitude": "-90.10896432743324",
    "latitude": "29.94700733744463",
    "geocoded_column": {
      "latitude": "29.94700733744463",
      "longitude": "-90.10896432743324"
    }
  },
  {
    "service_request": "2022-861848",
    "request_type": "Traffic Signals/Signs/Striping/Streetlights",
    "request_reason": "Request for Stop Sign",
    "date_created": "2022-02-17T17:29:52.000",
    "date_modified": "2022-02-17T17:29:52.000",
    "request_status": "Pending",
    "responsible_agency": "Department of Public Works",
    "final_address": "Poeyfarre St & Annunciation St, New Orleans, Louisiana, 70130",
    "address_councildis": "B",
    "status": "Pending",
    "rowid": "861848",
    "final_x": "3681665.1",
    "final_y": "526415.18",
    "longitude": "-90.06772703550023",
    "latitude": "29.94145413199034",
    "geocoded_column": {
      "latitude": "29.94145413199034",
      "longitude": "-90.06772703550023"
    }
  },
  {
    "service_request": "2022-861847",
    "request_type": "Trash/Recycling",
    "request_reason": "Request a Large Item Pick Up",
    "date_created": "2022-02-17T17:26:25.000",
    "date_modified": "2022-02-17T17:26:26.000",
    "request_status": "Pending",
    "responsible_agency": "Department of Sanitation",
    "final_address": "2131 Valentine Ct",
    "address_councildis": "C",
    "status": "Assigned to Contractor",
    "contractor": "Richards Disposal",
    "rowid": "861847",
    "final_x": "3699642.74973",
    "final_y": "523383.555451",
    "longitude": "-90.01107888475427",
    "latitude": "29.932559981947787",
    "geocoded_column": {
      "latitude": "29.932559981947787",
      "longitude": "-90.01107888475427"
    }
  },
  {
    "service_request": "2022-861846",
    "request_type": "Trash/Recycling",
    "request_reason": "Request a Large Item Pick Up",
    "date_created": "2022-02-17T17:25:01.000",
    "date_modified": "2022-02-17T17:25:02.000",
    "request_status": "Pending",
    "responsible_agency": "Department of Sanitation",
    "final_address": "2047 Mirabeau Ave",
    "address_councildis": "D",
    "status": "Assigned to Contractor",
    "contractor": "Metro Disposal",
    "rowid": "861846",
    "final_x": "3682807.56808",
    "final_y": "550727.522645",
    "longitude": "-90.06326924028967",
    "latitude": "30.0082698688392",
    "geocoded_column": {
      "latitude": "30.0082698688392",
      "longitude": "-90.06326924028967"
    }
  },
  {
    "service_request": "2022-861845",
    "request_type": "Abandoned Vehicles",
    "request_reason": "Abandoned/Junk Vehicles",
    "date_created": "2022-02-17T17:08:47.000",
    "date_modified": "2022-02-17T17:08:47.000",
    "request_status": "Pending",
    "responsible_agency": "Department of Public Works",
    "final_address": "8601 Leake Ave",
    "address_councildis": "A",
    "status": "Pending",
    "rowid": "861845",
    "final_x": "3660208.80339",
    "final_y": "529136.21248",
    "longitude": "-90.13537932999203",
    "latitude": "29.949570309269692",
    "geocoded_column": {
      "latitude": "29.949570309269692",
      "longitude": "-90.13537932999203"
    }
  },
  {
    "service_request": "2022-861844",
    "request_type": "Roads/Drainage",
    "request_reason": "Damaged Sidewalk",
    "date_created": "2022-02-17T17:06:45.000",
    "date_modified": "2022-02-17T17:06:45.000",
    "request_status": "Pending",
    "responsible_agency": "Department of Public Works",
    "final_address": "1847 State St",
    "address_councildis": "A",
    "status": "Pending",
    "rowid": "861844",
    "final_x": "3666240.24807",
    "final_y": "523730.800955",
    "longitude": "-90.1165165019383",
    "latitude": "29.934532399486308",
    "geocoded_column": {
      "latitude": "29.934532399486308",
      "longitude": "-90.1165165019383"
    }
  },
  {
    "service_request": "2022-861843",
    "request_type": "Trash/Recycling",
    "request_reason": "Missed Trash Pick-Up",
    "date_created": "2022-02-17T17:06:30.000",
    "date_modified": "2022-02-17T17:06:50.000",
    "request_status": "Pending",
    "responsible_agency": "Department of Sanitation",
    "final_address": "2909 Camp St",
    "address_councildis": "B",
    "status": "Assigned to Contractor",
    "contractor": "Richards Disposal",
    "rowid": "861843",
    "final_x": "3676312.93787",
    "final_y": "520835.189497",
    "longitude": "-90.08481683127776",
    "latitude": "29.92627244492342",
    "geocoded_column": {
      "latitude": "29.92627244492342",
      "longitude": "-90.08481683127776"
    }
  },
  {
    "service_request": "2022-861842",
    "request_type": "Abandoned Vehicles",
    "request_reason": "Abandoned/Junk Vehicles",
    "date_created": "2022-02-17T17:06:02.000",
    "date_modified": "2022-02-17T17:07:43.000",
    "request_status": "Pending",
    "responsible_agency": "Department of Public Works",
    "final_address": "4731 Banks St",
    "address_councildis": "A",
    "status": "Pending",
    "rowid": "861842",
    "final_x": "3668224.23809",
    "final_y": "539092.403658",
    "longitude": "-90.1097351986732",
    "latitude": "29.976713682841627",
    "geocoded_column": {
      "latitude": "29.976713682841627",
      "longitude": "-90.1097351986732"
    }
  },
  {
    "service_request": "2022-861841",
    "request_type": "Traffic Signals/Signs/Striping/Streetlights",
    "request_reason": "Traffic Signal Malfunctioning/Damaged",
    "date_created": "2022-02-17T17:04:01.000",
    "date_modified": "2022-02-17T17:04:01.000",
    "request_status": "Pending",
    "responsible_agency": "Department of Public Works",
    "final_address": "4400 Knight Dr",
    "address_councildis": "E",
    "status": "Pending",
    "rowid": "861841",
    "final_x": "3708244.82321",
    "final_y": "553688.404631",
    "longitude": "-89.98279552264754",
    "latitude": "30.015611367366485",
    "geocoded_column": {
      "latitude": "30.015611367366485",
      "longitude": "-89.98279552264754"
    }
  },
  {
    "service_request": "2022-861840",
    "request_type": "Traffic Signals/Signs/Striping/Streetlights",
    "request_reason": "Additional signage",
    "date_created": "2022-02-17T17:03:20.000",
    "date_modified": "2022-02-17T17:03:20.000",
    "request_status": "Pending",
    "responsible_agency": "Department of Public Works",
    "final_address": "3439 Octavia St",
    "address_councildis": "A",
    "status": "Pending",
    "rowid": "861840",
    "final_x": "3668583.71322",
    "final_y": "528292.636608",
    "longitude": "-90.10896432743324",
    "latitude": "29.94700733744463",
    "geocoded_column": {
      "latitude": "29.94700733744463",
      "longitude": "-90.10896432743324"
    }
  },
  {
    "service_request": "2022-861839",
    "request_type": "Traffic Signals/Signs/Striping/Streetlights",
    "request_reason": "Traffic Sign Missing/Damaged",
    "date_created": "2022-02-17T17:01:48.000",
    "date_modified": "2022-02-17T17:01:48.000",
    "request_status": "Pending",
    "responsible_agency": "Department of Public Works",
    "final_address": "3439 Octavia St",
    "address_councildis": "A",
    "status": "Pending",
    "rowid": "861839",
    "final_x": "3668583.71322",
    "final_y": "528292.636608",
    "longitude": "-90.10896432743324",
    "latitude": "29.94700733744463",
    "geocoded_column": {
      "latitude": "29.94700733744463",
      "longitude": "-90.10896432743324"
    }
  },
  {
    "service_request": "2022-861838",
    "request_type": "Trash/Recycling",
    "request_reason": "Missed Trash Pick-Up",
    "date_created": "2022-02-17T17:00:33.000",
    "date_modified": "2022-02-17T17:00:34.000",
    "request_status": "Pending",
    "responsible_agency": "Department of Sanitation",
    "final_address": "5921 Jamison St",
    "address_councildis": "D",
    "status": "Assigned to Contractor",
    "contractor": "Metro Disposal",
    "rowid": "861838",
    "final_x": "3696189.73008",
    "final_y": "553596.570391",
    "longitude": "-90.0208872339325",
    "latitude": "30.01574403449208",
    "geocoded_column": {
      "latitude": "30.01574403449208",
      "longitude": "-90.0208872339325"
    }
  },
  {
    "service_request": "2022-861837",
    "request_type": "Roads/Drainage",
    "request_reason": "Catch Basin - Clogged",
    "date_created": "2022-02-17T16:59:46.000",
    "date_modified": "2022-02-17T16:59:46.000",
    "request_status": "Pending",
    "responsible_agency": "Department of Public Works",
    "final_address": "1847 State St",
    "address_councildis": "A",
    "status": "Pending",
    "rowid": "861837",
    "final_x": "3666240.24807",
    "final_y": "523730.800955",
    "longitude": "-90.1165165019383",
    "latitude": "29.934532399486308",
    "geocoded_column": {
      "latitude": "29.934532399486308",
      "longitude": "-90.1165165019383"
    }
  },
  {
    "service_request": "2022-861836",
    "request_type": "Trash/Recycling",
    "request_reason": "Start Trash Service",
    "date_created": "2022-02-17T16:58:53.000",
    "date_modified": "2022-02-17T16:58:54.000",
    "request_status": "Pending",
    "responsible_agency": "Department of Sanitation",
    "final_address": "25636 Chef Menteur Hwy",
    "address_councildis": "E",
    "status": "Assigned to Contractor",
    "contractor": "Metro Disposal",
    "rowid": "861836",
    "final_x": "3781124.65477",
    "final_y": "600411.342595",
    "longitude": "-89.75049725689603",
    "latitude": "30.141513461898445",
    "geocoded_column": {
      "latitude": "30.141513461898445",
      "longitude": "-89.75049725689603"
    }
  },
  {
    "service_request": "2022-861835",
    "request_type": "Trash/Recycling",
    "request_reason": "Replace Trash Cart",
    "date_created": "2022-02-17T16:57:09.000",
    "date_modified": "2022-02-17T16:57:09.000",
    "request_status": "Pending",
    "responsible_agency": "Department of Sanitation",
    "final_address": "1847 State St",
    "address_councildis": "A",
    "status": "Pending",
    "rowid": "861835",
    "final_x": "3666240.24807",
    "final_y": "523730.800955",
    "longitude": "-90.1165165019383",
    "latitude": "29.934532399486308",
    "geocoded_column": {
      "latitude": "29.934532399486308",
      "longitude": "-90.1165165019383"
    }
  },
  {
    "service_request": "2022-861834",
    "request_type": "Trash/Recycling",
    "request_reason": "Order Recycling Cart",
    "date_created": "2022-02-17T16:54:35.000",
    "date_modified": "2022-02-17T16:54:35.000",
    "request_status": "Pending",
    "responsible_agency": "Department of Sanitation",
    "final_address": "2325 N Villere St",
    "address_councildis": "C",
    "status": "Pending",
    "rowid": "861834",
    "final_x": "3685886.87382",
    "final_y": "537519.597448",
    "longitude": "-90.05400666695385",
    "latitude": "29.97185857532504",
    "geocoded_column": {
      "latitude": "29.97185857532504",
      "longitude": "-90.05400666695385"
    }
  },
  {
    "service_request": "2022-861833",
    "request_type": "Trash/Recycling",
    "request_reason": "Change Size of Trash Cart",
    "date_created": "2022-02-17T16:52:27.000",
    "date_modified": "2022-02-17T16:52:30.000",
    "request_status": "Pending",
    "responsible_agency": "Department of Sanitation",
    "final_address": "2325 N Villere St",
    "address_councildis": "C",
    "status": "Assigned to Contractor",
    "contractor": "Metro Disposal",
    "rowid": "861833",
    "final_x": "3685886.87382",
    "final_y": "537519.597448",
    "longitude": "-90.05400666695385",
    "latitude": "29.97185857532504",
    "geocoded_column": {
      "latitude": "29.97185857532504",
      "longitude": "-90.05400666695385"
    }
  },
  {
    "service_request": "2022-861832",
    "request_type": "Trash/Recycling",
    "request_reason": "Repair Trash Cart",
    "date_created": "2022-02-17T16:51:14.000",
    "date_modified": "2022-02-17T16:51:15.000",
    "request_status": "Pending",
    "responsible_agency": "Department of Sanitation",
    "final_address": "6021 Tchoupitoulas St Apt A",
    "address_councildis": "A",
    "status": "Assigned to Contractor",
    "contractor": "Richards Disposal",
    "rowid": "861832",
    "final_x": "3663979.20576",
    "final_y": "517627.825462",
    "longitude": "-90.1238579621319",
    "latitude": "29.91781696128418",
    "geocoded_column": {
      "latitude": "29.91781696128418",
      "longitude": "-90.1238579621319"
    }
  },
  {
    "service_request": "2022-861831",
    "request_type": "Traffic Signals/Signs/Striping/Streetlights",
    "request_reason": "Street Light Outage/Malfunction",
    "date_created": "2022-02-17T16:47:26.000",
    "date_modified": "2022-02-17T16:47:27.000",
    "request_status": "Pending",
    "responsible_agency": "Department of Public Works",
    "final_address": "118 Chef Menteur Hwy",
    "address_councildis": "E",
    "status": "Pending",
    "contractor": "Royal Engineering",
    "rowid": "861831",
    "final_x": "3732643.06714",
    "final_y": "562608.713632",
    "longitude": "-89.90535831064192",
    "latitude": "30.039325249948895",
    "geocoded_column": {
      "latitude": "30.039325249948895",
      "longitude": "-89.90535831064192"
    }
  },
  {
    "service_request": "2022-861830",
    "request_type": "Trash/Recycling",
    "request_reason": "Change Size of Trash Cart",
    "date_created": "2022-02-17T16:47:22.000",
    "date_modified": "2022-02-17T16:47:23.000",
    "request_status": "Pending",
    "responsible_agency": "Department of Sanitation",
    "final_address": "2036 Royal St",
    "address_councildis": "C",
    "status": "Assigned to Contractor",
    "contractor": "Metro Disposal",
    "rowid": "861830",
    "final_x": "3684508.01865",
    "final_y": "534789.997894",
    "longitude": "-90.05845721482184",
    "latitude": "29.9643953809578",
    "geocoded_column": {
      "latitude": "29.9643953809578",
      "longitude": "-90.05845721482184"
    }
  },
  {
    "service_request": "2022-861829",
    "request_type": "Trash/Recycling",
    "request_reason": "Replace Recycling Cart",
    "date_created": "2022-02-17T16:45:36.000",
    "date_modified": "2022-02-17T16:45:36.000",
    "request_status": "Pending",
    "responsible_agency": "Department of Sanitation",
    "final_address": "2412 Calhoun St",
    "address_councildis": "A",
    "status": "Pending",
    "rowid": "861829",
    "final_x": "3666039.181",
    "final_y": "525833.002173",
    "longitude": "-90.11708082419001",
    "latitude": "29.940318650565125",
    "geocoded_column": {
      "latitude": "29.940318650565125",
      "longitude": "-90.11708082419001"
    }
  },
  {
    "service_request": "2022-861828",
    "request_type": "Trash/Recycling",
    "request_reason": "MIssed Recycling Pick-Up",
    "date_created": "2022-02-17T16:44:02.000",
    "date_modified": "2022-02-17T16:44:03.000",
    "request_status": "Pending",
    "responsible_agency": "Department of Sanitation",
    "final_address": "2309 Seminole Ln",
    "address_councildis": "B",
    "status": "Assigned to Contractor",
    "contractor": "Richards Disposal",
    "rowid": "861828",
    "final_x": "3673876.99803",
    "final_y": "528332.710464",
    "longitude": "-90.0922500643891",
    "latitude": "29.946960943205077",
    "geocoded_column": {
      "latitude": "29.946960943205077",
      "longitude": "-90.0922500643891"
    }
  },
  {
    "service_request": "2022-861826",
    "request_type": "Trash/Recycling",
    "request_reason": "Missed Trash Pick-Up",
    "date_created": "2022-02-17T16:38:39.000",
    "date_modified": "2022-02-17T16:38:39.000",
    "request_status": "Pending",
    "responsible_agency": "Department of Sanitation",
    "final_address": "632 Piety St",
    "address_councildis": "C",
    "status": "Assigned to Contractor",
    "contractor": "Metro Disposal",
    "rowid": "861826",
    "final_x": "3689410.15996",
    "final_y": "534218.577605",
    "longitude": "-90.042997006154",
    "latitude": "29.962673292644595",
    "geocoded_column": {
      "latitude": "29.962673292644595",
      "longitude": "-90.042997006154"
    }
  },
  {
    "service_request": "2022-861825",
    "request_type": "Trash/Recycling",
    "request_reason": "Missed Trash Pick-Up",
    "date_created": "2022-02-17T16:38:10.000",
    "date_modified": "2022-02-17T16:38:10.000",
    "request_status": "Pending",
    "responsible_agency": "Department of Sanitation",
    "final_address": "618 Piety St",
    "address_councildis": "C",
    "status": "Assigned to Contractor",
    "contractor": "Metro Disposal",
    "rowid": "861825",
    "final_x": "3689376.79043",
    "final_y": "534118.173189",
    "longitude": "-90.04310595252907",
    "latitude": "29.96239824869982",
    "geocoded_column": {
      "latitude": "29.96239824869982",
      "longitude": "-90.04310595252907"
    }
  },
  {
    "service_request": "2022-861824",
    "request_type": "Trash/Recycling",
    "request_reason": "Repair Trash Cart",
    "date_created": "2022-02-17T16:37:12.000",
    "date_modified": "2022-02-17T16:37:13.000",
    "request_status": "Pending",
    "responsible_agency": "Department of Sanitation",
    "final_address": "8339 Spruce St",
    "address_councildis": "A",
    "status": "Assigned to Contractor",
    "contractor": "Richards Disposal",
    "rowid": "861824",
    "final_x": "3663108.97683",
    "final_y": "531183.597698",
    "longitude": "-90.12615402078595",
    "latitude": "29.955116266961888",
    "geocoded_column": {
      "latitude": "29.955116266961888",
      "longitude": "-90.12615402078595"
    }
  },
  {
    "service_request": "2022-861823",
    "request_type": "Abandoned Vehicles",
    "request_reason": "Abandoned/Junk Vehicles",
    "date_created": "2022-02-17T16:21:24.000",
    "date_modified": "2022-02-17T16:21:24.000",
    "request_status": "Pending",
    "responsible_agency": "Department of Public Works",
    "final_address": "3635 Tchoupitoulas St",
    "address_councildis": "B",
    "status": "Pending",
    "rowid": "861823",
    "final_x": "3674412.92526",
    "final_y": "517882.58911",
    "longitude": "-90.0909157003082",
    "latitude": "29.918210530374967",
    "geocoded_column": {
      "latitude": "29.918210530374967",
      "longitude": "-90.0909157003082"
    }
  },
  {
    "service_request": "2022-861822",
    "request_type": "Traffic Signals/Signs/Striping/Streetlights",
    "request_reason": "Traffic Sign Missing/Damaged",
    "date_created": "2022-02-17T16:20:52.000",
    "date_modified": "2022-02-17T16:20:53.000",
    "request_status": "Pending",
    "responsible_agency": "Department of Public Works",
    "final_address": "ESPLANADE AVE & N CLAIBORNE AVE",
    "address_councildis": "D",
    "status": "Pending",
    "rowid": "861822",
    "final_x": "3681231.3",
    "final_y": "536639.18",
    "longitude": "-90.06874038104324",
    "latitude": "29.969579834804723",
    "geocoded_column": {
      "latitude": "29.969579834804723",
      "longitude": "-90.06874038104324"
    }
  },
  {
    "service_request": "2022-861821",
    "request_type": "Traffic Signals/Signs/Striping/Streetlights",
    "request_reason": "Additional signage",
    "date_created": "2022-02-17T16:19:52.000",
    "date_modified": "2022-02-17T16:19:52.000",
    "request_status": "Pending",
    "responsible_agency": "Department of Public Works",
    "final_address": "ST CLAUDE AVE & FRANKLIN AVE",
    "address_councildis": "C",
    "status": "Pending",
    "rowid": "861821",
    "final_x": "3687068.7",
    "final_y": "536547.68",
    "longitude": "-90.05030865196827",
    "latitude": "29.96914980739771",
    "geocoded_column": {
      "latitude": "29.96914980739771",
      "longitude": "-90.05030865196827"
    }
  },
  {
    "service_request": "2022-861820",
    "request_type": "Trash/Recycling",
    "request_reason": "Replace Trash Cart",
    "date_created": "2022-02-17T16:17:24.000",
    "date_modified": "2022-02-17T16:17:25.000",
    "request_status": "Pending",
    "responsible_agency": "Department of Sanitation",
    "final_address": "3223 Leonidas St",
    "address_councildis": "A",
    "status": "Assigned to Contractor",
    "contractor": "Richards Disposal",
    "rowid": "861820",
    "final_x": "3665611.37012",
    "final_y": "534970.68615",
    "longitude": "-90.11812554042399",
    "latitude": "29.965456790364904",
    "geocoded_column": {
      "latitude": "29.965456790364904",
      "longitude": "-90.11812554042399"
    }
  },
  {
    "service_request": "2022-861819",
    "request_type": "Trash/Recycling",
    "request_reason": "Missed Trash Pick-Up",
    "date_created": "2022-02-17T16:15:29.000",
    "date_modified": "2022-02-17T16:15:30.000",
    "request_status": "Pending",
    "responsible_agency": "Department of Sanitation",
    "final_address": "2206 Ursulines Ave",
    "address_councildis": "D",
    "status": "Assigned to Contractor",
    "contractor": "Richards Disposal",
    "rowid": "861819",
    "final_x": "3679167.87272",
    "final_y": "536880.164936",
    "longitude": "-90.07524850507848",
    "latitude": "29.970304916736975",
    "geocoded_column": {
      "latitude": "29.970304916736975",
      "longitude": "-90.07524850507848"
    }
  },
  {
    "service_request": "2022-861818",
    "request_type": "Traffic Signals/Signs/Striping/Streetlights",
    "request_reason": "Traffic Sign Missing/Damaged",
    "date_created": "2022-02-17T16:08:32.000",
    "date_modified": "2022-02-17T16:08:32.000",
    "request_status": "Pending",
    "responsible_agency": "Department of Public Works",
    "final_address": "4800 Press Dr",
    "address_councildis": "D",
    "status": "Pending",
    "rowid": "861818",
    "final_x": "3689458.35817",
    "final_y": "551061.851477",
    "longitude": "-90.04224549310759",
    "latitude": "30.008984775120304",
    "geocoded_column": {
      "latitude": "30.008984775120304",
      "longitude": "-90.04224549310759"
    }
  },
  {
    "service_request": "2022-861817",
    "request_type": "Traffic Signals/Signs/Striping/Streetlights",
    "request_reason": "Traffic Signal Malfunctioning/Damaged",
    "date_created": "2022-02-17T16:08:09.000",
    "date_modified": "2022-02-17T16:08:09.000",
    "request_status": "Pending",
    "responsible_agency": "Department of Public Works",
    "final_address": "2211 Prytania St",
    "address_councildis": "B",
    "status": "Pending",
    "rowid": "861817",
    "final_x": "3677796.74229",
    "final_y": "523297.160059",
    "longitude": "-90.08004787593886",
    "latitude": "29.93299752132463",
    "geocoded_column": {
      "latitude": "29.93299752132463",
      "longitude": "-90.08004787593886"
    }
  },
  {
    "service_request": "2022-861816",
    "request_type": "Trash/Recycling",
    "request_reason": "Request a Large Item Pick Up",
    "date_created": "2022-02-17T16:05:41.000",
    "date_modified": "2022-02-17T16:05:42.000",
    "request_status": "Pending",
    "responsible_agency": "Department of Sanitation",
    "final_address": "7834 Plum St",
    "address_councildis": "A",
    "status": "Assigned to Contractor",
    "contractor": "Richards Disposal",
    "rowid": "861816",
    "final_x": "3662860.93639",
    "final_y": "527976.741375",
    "longitude": "-90.1270438467827",
    "latitude": "29.946305627831915",
    "geocoded_column": {
      "latitude": "29.946305627831915",
      "longitude": "-90.1270438467827"
    }
  },
  {
    "service_request": "2022-861815",
    "request_type": "Trash/Recycling",
    "request_reason": "Request a Large Item Pick Up",
    "date_created": "2022-02-17T16:05:25.000",
    "date_modified": "2022-02-17T16:05:26.000",
    "request_status": "Pending",
    "responsible_agency": "Department of Sanitation",
    "final_address": "7224 Walmsley Ave, New Orleans, Louisiana, 70125",
    "address_councildis": "B",
    "status": "Assigned to Contractor",
    "contractor": "Richards Disposal",
    "rowid": "861815",
    "final_x": "3667133.42746",
    "final_y": "531347.688962",
    "longitude": "-90.11344074122005",
    "latitude": "29.955450267875644",
    "geocoded_column": {
      "latitude": "29.955450267875644",
      "longitude": "-90.11344074122005"
    }
  },
  {
    "service_request": "2022-861814",
    "request_type": "Trash/Recycling",
    "request_reason": "Request a Large Item Pick Up",
    "date_created": "2022-02-17T16:03:33.000",
    "date_modified": "2022-02-17T16:03:34.000",
    "request_status": "Pending",
    "responsible_agency": "Department of Sanitation",
    "final_address": "7224 Walmsley Ave, New Orleans, Louisiana, 70125",
    "address_councildis": "B",
    "status": "Assigned to Contractor",
    "contractor": "Richards Disposal",
    "rowid": "861814",
    "final_x": "3667133.42746",
    "final_y": "531347.688962",
    "longitude": "-90.11344074122005",
    "latitude": "29.955450267875644",
    "geocoded_column": {
      "latitude": "29.955450267875644",
      "longitude": "-90.11344074122005"
    }
  },
  {
    "service_request": "2022-861813",
    "request_type": "Property Maintenance",
    "request_reason": "Property Maintenance",
    "date_created": "2022-02-17T16:01:44.000",
    "date_modified": "2022-02-17T16:02:42.000",
    "request_status": "Pending",
    "responsible_agency": "Department of Code Enforcement",
    "final_address": "1700 Franklin Ave",
    "address_councildis": "D",
    "status": "Pending",
    "rowid": "861813",
    "final_x": "3687586.51894",
    "final_y": "538770.281993",
    "longitude": "-90.04859464681324",
    "latitude": "29.975245230293133",
    "geocoded_column": {
      "latitude": "29.975245230293133",
      "longitude": "-90.04859464681324"
    }
  },
  {
    "service_request": "2022-861812",
    "request_type": "Trash/Recycling",
    "request_reason": "Order Recycling Cart",
    "date_created": "2022-02-17T16:01:14.000",
    "date_modified": "2022-02-17T16:01:14.000",
    "request_status": "Pending",
    "responsible_agency": "Department of Sanitation",
    "final_address": "2733 Milan St",
    "address_councildis": "B",
    "status": "Pending",
    "rowid": "861812",
    "final_x": "3671228.80468",
    "final_y": "525073.397565",
    "longitude": "-90.10072211194637",
    "latitude": "29.938077497726592",
    "geocoded_column": {
      "latitude": "29.938077497726592",
      "longitude": "-90.10072211194637"
    }
  },
  {
    "service_request": "2022-861811",
    "request_type": "Trash/Recycling",
    "request_reason": "Replace Trash Cart",
    "date_created": "2022-02-17T15:59:40.000",
    "date_modified": "2022-02-17T15:59:40.000",
    "request_status": "Pending",
    "responsible_agency": "Department of Sanitation",
    "final_address": "2206 Harmony St",
    "address_councildis": "B",
    "status": "Assigned to Contractor",
    "contractor": "Richards Disposal",
    "rowid": "861811",
    "final_x": "3673829.31137",
    "final_y": "523801.075963",
    "longitude": "-90.09255556437165",
    "latitude": "29.934501851048136",
    "geocoded_column": {
      "latitude": "29.934501851048136",
      "longitude": "-90.09255556437165"
    }
  },
  {
    "service_request": "2022-861810",
    "request_type": "Abandoned Vehicles",
    "request_reason": "Abandoned/Junk Vehicles",
    "date_created": "2022-02-17T15:58:00.000",
    "date_modified": "2022-02-17T16:01:28.000",
    "request_status": "Pending",
    "responsible_agency": "Department of Public Works",
    "final_address": "GENERAL OGDEN ST & JEANNETTE ST",
    "address_councildis": "A",
    "status": "Pending",
    "rowid": "861810",
    "final_x": "3660583.3",
    "final_y": "531060.98",
    "longitude": "-90.13413326441648",
    "latitude": "29.95485203145204",
    "geocoded_column": {
      "latitude": "29.95485203145204",
      "longitude": "-90.13413326441648"
    }
  },
  {
    "service_request": "2022-861809",
    "request_type": "Trash/Recycling",
    "request_reason": "Missed Trash Pick-Up",
    "date_created": "2022-02-17T15:57:37.000",
    "date_modified": "2022-02-17T17:45:17.000",
    "request_status": "Pending",
    "responsible_agency": "Department of Sanitation",
    "final_address": "7224 Walmsley Ave, New Orleans, Louisiana, 70125",
    "address_councildis": "B",
    "status": "Assigned to Contractor",
    "contractor": "Richards Disposal",
    "rowid": "861809",
    "final_x": "3667133.42746",
    "final_y": "531347.688962",
    "longitude": "-90.11344074122005",
    "latitude": "29.955450267875644",
    "geocoded_column": {
      "latitude": "29.955450267875644",
      "longitude": "-90.11344074122005"
    }
  },
  {
    "service_request": "2022-861808",
    "request_type": "Trash/Recycling",
    "request_reason": "Order Trash Cart",
    "date_created": "2022-02-17T15:57:01.000",
    "date_modified": "2022-02-17T15:57:02.000",
    "request_status": "Pending",
    "responsible_agency": "Department of Sanitation",
    "final_address": "2886 Annette St",
    "address_councildis": "D",
    "status": "Assigned to Contractor",
    "contractor": "Metro Disposal",
    "rowid": "861808",
    "final_x": "3682547.25724",
    "final_y": "542988.068365",
    "longitude": "-90.06436243067326",
    "latitude": "29.986997062592756",
    "geocoded_column": {
      "latitude": "29.986997062592756",
      "longitude": "-90.06436243067326"
    }
  },
  {
    "service_request": "2022-861807",
    "request_type": "Roads/Drainage",
    "request_reason": "Pothole",
    "date_created": "2022-02-17T15:57:00.000",
    "date_modified": "2022-02-17T15:57:00.000",
    "request_status": "Pending",
    "responsible_agency": "Department of Public Works",
    "final_address": "6501 Canal Blvd",
    "address_councildis": "A",
    "status": "Pending",
    "rowid": "861807",
    "final_x": "3668955.58874",
    "final_y": "550745.783381",
    "longitude": "-90.10703146353163",
    "latitude": "30.00873497814201",
    "geocoded_column": {
      "latitude": "30.00873497814201",
      "longitude": "-90.10703146353163"
    }
  },
  {
    "service_request": "2022-861806",
    "request_type": "Trash/Recycling",
    "request_reason": "Request a Large Item Pick Up",
    "date_created": "2022-02-17T15:50:52.000",
    "date_modified": "2022-02-17T15:50:53.000",
    "request_status": "Pending",
    "responsible_agency": "Department of Sanitation",
    "final_address": "7711 Oak St",
    "address_councildis": "A",
    "status": "Assigned to Contractor",
    "contractor": "Richards Disposal",
    "rowid": "861806",
    "final_x": "3662989.33056",
    "final_y": "527492.776639",
    "longitude": "-90.12665455140784",
    "latitude": "29.944971162491683",
    "geocoded_column": {
      "latitude": "29.944971162491683",
      "longitude": "-90.12665455140784"
    }
  },
  {
    "service_request": "2022-861805",
    "request_type": "Traffic Signals/Signs/Striping/Streetlights",
    "request_reason": "Street Light Outage/Malfunction",
    "date_created": "2022-02-17T15:50:01.000",
    "date_modified": "2022-02-17T15:50:02.000",
    "request_status": "Pending",
    "responsible_agency": "Department of Public Works",
    "final_address": "6009 Warrington Dr",
    "address_councildis": "D",
    "status": "Pending",
    "contractor": "Royal Engineering",
    "rowid": "861805",
    "final_x": "3680810.39605",
    "final_y": "554703.861912",
    "longitude": "-90.06944035629968",
    "latitude": "30.01926407861352",
    "geocoded_column": {
      "latitude": "30.01926407861352",
      "longitude": "-90.06944035629968"
    }
  },
  {
    "service_request": "2022-861804",
    "request_type": "Roads/Drainage",
    "request_reason": "Pothole",
    "date_created": "2022-02-17T15:46:31.000",
    "date_modified": "2022-02-17T15:47:43.000",
    "request_status": "Pending",
    "responsible_agency": "Department of Public Works",
    "final_address": "1838 Alvar St",
    "address_councildis": "D",
    "status": "Pending",
    "rowid": "861804",
    "final_x": "3692175.72406",
    "final_y": "538346.217417",
    "longitude": "-90.03411596482296",
    "latitude": "29.973936921894115",
    "geocoded_column": {
      "latitude": "29.973936921894115",
      "longitude": "-90.03411596482296"
    }
  },
  {
    "service_request": "2022-861803",
    "request_type": "Trash/Recycling",
    "request_reason": "Request a Large Item Pick Up",
    "date_created": "2022-02-17T15:44:37.000",
    "date_modified": "2022-02-17T15:44:38.000",
    "request_status": "Pending",
    "responsible_agency": "Department of Sanitation",
    "final_address": "2228 General Taylor St",
    "address_councildis": "B",
    "status": "Assigned to Contractor",
    "contractor": "Richards Disposal",
    "rowid": "861803",
    "final_x": "3672038.59163",
    "final_y": "523390.934587",
    "longitude": "-90.0982227921917",
    "latitude": "29.933427291922325",
    "geocoded_column": {
      "latitude": "29.933427291922325",
      "longitude": "-90.0982227921917"
    }
  },
  {
    "service_request": "2022-861801",
    "request_type": "Traffic Signals/Signs/Striping/Streetlights",
    "request_reason": "Traffic Signal Malfunctioning/Damaged",
    "date_created": "2022-02-17T15:28:15.000",
    "date_modified": "2022-02-17T15:28:15.000",
    "request_status": "Pending",
    "responsible_agency": "Department of Public Works",
    "final_address": "Esplanade Ave & N Claiborne Ave, New Orleans, Louisiana, 70116",
    "address_councildis": "D",
    "status": "Pending",
    "rowid": "861801",
    "final_x": "3681231.3",
    "final_y": "536639.18",
    "longitude": "-90.06874038104324",
    "latitude": "29.969579834804723",
    "geocoded_column": {
      "latitude": "29.969579834804723",
      "longitude": "-90.06874038104324"
    }
  },
  {
    "service_request": "2022-861800",
    "request_type": "Property Maintenance",
    "request_reason": "Property Maintenance",
    "date_created": "2022-02-17T15:26:54.000",
    "date_modified": "2022-02-17T15:26:54.000",
    "request_status": "Pending",
    "responsible_agency": "Department of Code Enforcement",
    "final_address": "2400 Desire St",
    "address_councildis": "D",
    "status": "Pending",
    "rowid": "861800",
    "final_x": "3691357.01494",
    "final_y": "540661.984523",
    "longitude": "-90.03661885450047",
    "latitude": "29.980329956742178",
    "geocoded_column": {
      "latitude": "29.980329956742178",
      "longitude": "-90.03661885450047"
    }
  },
  {
    "service_request": "2022-861799",
    "request_type": "Abandoned Vehicles",
    "request_reason": "Abandoned/Junk Vehicles",
    "date_created": "2022-02-17T15:25:54.000",
    "date_modified": "2022-02-17T15:28:40.000",
    "request_status": "Pending",
    "responsible_agency": "Department of Public Works",
    "final_address": "PACE BLVD & WALL BLVD",
    "address_councildis": "C",
    "status": "Pending",
    "rowid": "861799",
    "final_x": "3694344.5",
    "final_y": "523730.88",
    "longitude": "-90.02779243447597",
    "latitude": "29.933682056272396",
    "geocoded_column": {
      "latitude": "29.933682056272396",
      "longitude": "-90.02779243447597"
    }
  },
  {
    "service_request": "2022-861798",
    "request_type": "Trash/Recycling",
    "request_reason": "Illegal Dumping",
    "date_created": "2022-02-17T15:25:23.000",
    "date_modified": "2022-02-17T15:25:23.000",
    "request_status": "Pending",
    "responsible_agency": "Department of Sanitation",
    "final_address": "3300 BLK N Rocheblave St",
    "address_councildis": "D",
    "status": "Pending",
    "rowid": "861798",
    "final_x": "3691229.04565",
    "final_y": "540646.033325",
    "longitude": "-90.03702360448966",
    "latitude": "29.98029007804223",
    "geocoded_column": {
      "latitude": "29.98029007804223",
      "longitude": "-90.03702360448966"
    }
  },
  {
    "service_request": "2022-861797",
    "request_type": "Traffic Signals/Signs/Striping/Streetlights",
    "request_reason": "Street Light Outage/Malfunction",
    "date_created": "2022-02-17T15:24:44.000",
    "date_modified": "2022-02-17T15:24:45.000",
    "request_status": "Pending",
    "responsible_agency": "Department of Public Works",
    "final_address": "4811 Desire Dr",
    "address_councildis": "D",
    "status": "Pending",
    "contractor": "Royal Engineering",
    "rowid": "861797",
    "final_x": "3691946.18582",
    "final_y": "551512.809429",
    "longitude": "-90.03436949610229",
    "latitude": "30.01014743060241",
    "geocoded_column": {
      "latitude": "30.01014743060241",
      "longitude": "-90.03436949610229"
    }
  },
  {
    "service_request": "2022-861796",
    "request_type": "Property Maintenance",
    "request_reason": "Property Maintenance",
    "date_created": "2022-02-17T15:23:33.000",
    "date_modified": "2022-02-17T15:23:33.000",
    "request_status": "Pending",
    "responsible_agency": "Department of Code Enforcement",
    "final_address": "2647 Hyman Pl",
    "address_councildis": "C",
    "status": "Pending",
    "rowid": "861796",
    "final_x": "3700989.34397",
    "final_y": "521242.195321",
    "longitude": "-90.00690608556941",
    "latitude": "29.926629186589224",
    "geocoded_column": {
      "latitude": "29.926629186589224",
      "longitude": "-90.00690608556941"
    }
  },
  {
    "service_request": "2022-861795",
    "request_type": "Abandoned Vehicles",
    "request_reason": "Abandoned/Junk Vehicles",
    "date_created": "2022-02-17T15:21:13.000",
    "date_modified": "2022-02-17T15:21:13.000",
    "request_status": "Pending",
    "responsible_agency": "Department of Public Works",
    "final_address": "2647 Hyman Pl",
    "address_councildis": "C",
    "status": "Pending",
    "rowid": "861795",
    "final_x": "3700989.34397",
    "final_y": "521242.195321",
    "longitude": "-90.00690608556941",
    "latitude": "29.926629186589224",
    "geocoded_column": {
      "latitude": "29.926629186589224",
      "longitude": "-90.00690608556941"
    }
  },
  {
    "service_request": "2022-861794",
    "request_type": "Property Maintenance",
    "request_reason": "Property Maintenance",
    "date_created": "2022-02-17T15:18:16.000",
    "date_modified": "2022-02-17T15:18:16.000",
    "request_status": "Pending",
    "responsible_agency": "Department of Code Enforcement",
    "final_address": "2637 Hyman Pl",
    "address_councildis": "C",
    "status": "Pending",
    "rowid": "861794",
    "final_x": "3700984.36612",
    "final_y": "521305.252921",
    "longitude": "-90.00691949493228",
    "latitude": "29.926802731673636",
    "geocoded_column": {
      "latitude": "29.926802731673636",
      "longitude": "-90.00691949493228"
    }
  },
  {
    "service_request": "2022-861793",
    "request_type": "Roads/Drainage",
    "request_reason": "Street Flooding / Drainage",
    "date_created": "2022-02-17T15:16:13.000",
    "date_modified": "2022-02-17T15:16:13.000",
    "request_status": "Pending",
    "responsible_agency": "Department of Public Works",
    "final_address": "7841 Trapier Ave",
    "address_councildis": "E",
    "status": "Pending",
    "rowid": "861793",
    "final_x": "3706284.21649",
    "final_y": "564252.679777",
    "longitude": "-89.9885983718336",
    "latitude": "30.044722382399204",
    "geocoded_column": {
      "latitude": "30.044722382399204",
      "longitude": "-89.9885983718336"
    }
  },
  {
    "service_request": "2022-861792",
    "request_type": "Trash/Recycling",
    "request_reason": "Repair Trash Cart",
    "date_created": "2022-02-17T15:15:44.000",
    "date_modified": "2022-02-17T15:15:45.000",
    "request_status": "Pending",
    "responsible_agency": "Department of Sanitation",
    "final_address": "2511 Hudson Pl",
    "address_councildis": "C",
    "status": "Assigned to Contractor",
    "contractor": "Richards Disposal",
    "rowid": "861792",
    "final_x": "3703367.07217",
    "final_y": "521977.782778",
    "longitude": "-89.99937327109326",
    "latitude": "29.928575898787244",
    "geocoded_column": {
      "latitude": "29.928575898787244",
      "longitude": "-89.99937327109326"
    }
  },
  {
    "service_request": "2022-861791",
    "request_type": "Abandoned Vehicles",
    "request_reason": "Abandoned/Junk Vehicles",
    "date_created": "2022-02-17T15:14:41.000",
    "date_modified": "2022-02-17T15:14:41.000",
    "request_status": "Pending",
    "responsible_agency": "Department of Public Works",
    "final_address": "2656 Hyman Pl",
    "address_councildis": "C",
    "status": "Pending",
    "rowid": "861791",
    "final_x": "3701105.29233",
    "final_y": "521186.602041",
    "longitude": "-90.00654210282562",
    "latitude": "29.926472633087375",
    "geocoded_column": {
      "latitude": "29.926472633087375",
      "longitude": "-90.00654210282562"
    }
  },
  {
    "service_request": "2022-861790",
    "request_type": "Abandoned Vehicles",
    "request_reason": "Abandoned/Junk Vehicles",
    "date_created": "2022-02-17T15:11:38.000",
    "date_modified": "2022-02-17T15:11:38.000",
    "request_status": "Pending",
    "responsible_agency": "Department of Public Works",
    "final_address": "2637 Hyman Pl",
    "address_councildis": "C",
    "status": "Pending",
    "rowid": "861790",
    "final_x": "3700984.36612",
    "final_y": "521305.252921",
    "longitude": "-90.00691949493228",
    "latitude": "29.926802731673636",
    "geocoded_column": {
      "latitude": "29.926802731673636",
      "longitude": "-90.00691949493228"
    }
  },
  {
    "service_request": "2022-861789",
    "request_type": "Trash/Recycling",
    "request_reason": "Replace Trash Cart",
    "date_created": "2022-02-17T15:09:53.000",
    "date_modified": "2022-02-17T15:11:13.000",
    "case_close_date": "2022-02-16T18:00:00.000",
    "request_status": "Closed",
    "responsible_agency": "Department of Sanitation",
    "final_address": "2444 First St",
    "address_councildis": "B",
    "status": "Canceled By Citizen",
    "contractor": "Richards Disposal",
    "rowid": "861789",
    "final_x": "3675129.81742",
    "final_y": "525913.614653",
    "longitude": "-90.08837743200742",
    "latitude": "29.940271855132327",
    "geocoded_column": {
      "latitude": "29.940271855132327",
      "longitude": "-90.08837743200742"
    }
  },
  {
    "service_request": "2022-861788",
    "request_type": "Trash/Recycling",
    "request_reason": "Missed Trash Pick-Up",
    "date_created": "2022-02-17T15:08:08.000",
    "date_modified": "2022-02-17T15:08:09.000",
    "request_status": "Pending",
    "responsible_agency": "Department of Sanitation",
    "final_address": "2333 Camp St",
    "address_councildis": "B",
    "status": "Assigned to Contractor",
    "contractor": "Richards Disposal",
    "rowid": "861788",
    "final_x": "3678069.17083",
    "final_y": "521984.925114",
    "longitude": "-90.07923317860285",
    "latitude": "29.929381108413114",
    "geocoded_column": {
      "latitude": "29.929381108413114",
      "longitude": "-90.07923317860285"
    }
  },
  {
    "service_request": "2022-861787",
    "request_type": "Traffic Signals/Signs/Striping/Streetlights",
    "request_reason": "Traffic Sign Missing/Damaged",
    "date_created": "2022-02-17T15:08:07.000",
    "date_modified": "2022-02-17T15:08:07.000",
    "request_status": "Pending",
    "responsible_agency": "Department of Public Works",
    "final_address": "LANE ST & MILNE BLVD",
    "address_councildis": "A",
    "status": "Pending",
    "rowid": "861787",
    "final_x": "3667328.0",
    "final_y": "550778.98",
    "longitude": "-90.11217244640252",
    "latitude": "30.008874052309505",
    "geocoded_column": {
      "latitude": "30.008874052309505",
      "longitude": "-90.11217244640252"
    }
  },
  {
    "service_request": "2022-861786",
    "request_type": "Traffic Signals/Signs/Striping/Streetlights",
    "request_reason": "Street Light Outage/Malfunction",
    "date_created": "2022-02-17T15:07:41.000",
    "date_modified": "2022-02-17T15:07:42.000",
    "request_status": "Pending",
    "responsible_agency": "Department of Public Works",
    "final_address": "9511 Dinkins St",
    "address_councildis": "E",
    "status": "Pending",
    "contractor": "Royal Engineering",
    "rowid": "861786",
    "final_x": "3706284.62801",
    "final_y": "564381.662625",
    "longitude": "-89.98859228719279",
    "latitude": "30.045077020600264",
    "geocoded_column": {
      "latitude": "30.045077020600264",
      "longitude": "-89.98859228719279"
    }
  },
  {
    "service_request": "2022-861785",
    "request_type": "Trash/Recycling",
    "request_reason": "Replace Trash Cart",
    "date_created": "2022-02-17T15:04:39.000",
    "date_modified": "2022-02-17T15:04:40.000",
    "request_status": "Pending",
    "responsible_agency": "Department of Sanitation",
    "final_address": "2113 Clara St",
    "address_councildis": "B",
    "status": "Assigned to Contractor",
    "contractor": "Richards Disposal",
    "rowid": "861785",
    "final_x": "3675194.25569",
    "final_y": "527268.334847",
    "longitude": "-90.08812751026697",
    "latitude": "29.943994964969768",
    "geocoded_column": {
      "latitude": "29.943994964969768",
      "longitude": "-90.08812751026697"
    }
  },
  {
    "service_request": "2022-861784",
    "request_type": "Trash/Recycling",
    "request_reason": "Replace Trash Cart",
    "date_created": "2022-02-17T14:54:18.000",
    "date_modified": "2022-02-17T14:54:19.000",
    "request_status": "Pending",
    "responsible_agency": "Department of Sanitation",
    "final_address": "1238 Philip St",
    "address_councildis": "B",
    "status": "Assigned to Contractor",
    "contractor": "Richards Disposal",
    "rowid": "861784",
    "final_x": "3678106.28245",
    "final_y": "522341.279994",
    "longitude": "-90.0791037105011",
    "latitude": "29.930359850995423",
    "geocoded_column": {
      "latitude": "29.930359850995423",
      "longitude": "-90.0791037105011"
    }
  },
  {
    "service_request": "2022-861783",
    "request_type": "Abandoned Vehicles",
    "request_reason": "Abandoned/Junk Vehicles",
    "date_created": "2022-02-17T14:50:20.000",
    "date_modified": "2022-02-17T14:50:20.000",
    "request_status": "Pending",
    "responsible_agency": "Department of Public Works",
    "final_address": "9009 Heaton St",
    "address_councildis": "A",
    "status": "Pending",
    "rowid": "861783",
    "final_x": "3666957.57972",
    "final_y": "538813.395849",
    "longitude": "-90.11374509395326",
    "latitude": "29.975983636399985",
    "geocoded_column": {
      "latitude": "29.975983636399985",
      "longitude": "-90.11374509395326"
    }
  },
  {
    "service_request": "2022-861782",
    "request_type": "Trash/Recycling",
    "request_reason": "Illegal Dumping",
    "date_created": "2022-02-17T14:47:46.000",
    "date_modified": "2022-02-17T14:48:24.000",
    "case_close_date": "2022-02-17T08:48:24.000",
    "request_status": "Closed",
    "responsible_agency": "Department of Sanitation",
    "final_address": "3000 BLK N dOrgenois St",
    "address_councildis": "D",
    "status": "Resolved",
    "rowid": "861782",
    "final_x": "3689905.93347",
    "final_y": "541375.606013",
    "longitude": "-90.0411765554291",
    "latitude": "29.98233723501042",
    "geocoded_column": {
      "latitude": "29.98233723501042",
      "longitude": "-90.0411765554291"
    }
  },
  {
    "service_request": "2022-861781",
    "request_type": "Trash/Recycling",
    "request_reason": "Missed Trash Pick-Up",
    "date_created": "2022-02-17T14:37:33.000",
    "date_modified": "2022-02-17T14:37:34.000",
    "request_status": "Pending",
    "responsible_agency": "Department of Sanitation",
    "final_address": "6124 Providence Pl",
    "address_councildis": "D",
    "status": "Assigned to Contractor",
    "contractor": "Metro Disposal",
    "rowid": "861781",
    "final_x": "3688328.3071",
    "final_y": "556008.284313",
    "longitude": "-90.04564007041843",
    "latitude": "30.02262060033185",
    "geocoded_column": {
      "latitude": "30.02262060033185",
      "longitude": "-90.04564007041843"
    }
  },
  {
    "service_request": "2022-861780",
    "request_type": "Trash/Recycling",
    "request_reason": "Request a Large Item Pick Up",
    "date_created": "2022-02-17T14:36:35.000",
    "date_modified": "2022-02-17T14:36:36.000",
    "request_status": "Pending",
    "responsible_agency": "Department of Sanitation",
    "final_address": "5179 Basinview Dr",
    "address_councildis": "E",
    "status": "Assigned to Contractor",
    "contractor": "Metro Disposal",
    "rowid": "861780",
    "final_x": "3698783.53636",
    "final_y": "556581.905242",
    "longitude": "-90.01258330893911",
    "latitude": "30.02387062498781",
    "geocoded_column": {
      "latitude": "30.02387062498781",
      "longitude": "-90.01258330893911"
    }
  },
  {
    "service_request": "2022-861779",
    "request_type": "Trash/Recycling",
    "request_reason": "Request a Large Item Pick Up",
    "date_created": "2022-02-17T14:32:25.000",
    "date_modified": "2022-02-17T14:32:26.000",
    "request_status": "Pending",
    "responsible_agency": "Department of Sanitation",
    "final_address": "3550 Rue Nichole",
    "address_councildis": "C",
    "status": "Assigned to Contractor",
    "contractor": "Richards Disposal",
    "rowid": "861779",
    "final_x": "3704058.70545",
    "final_y": "517493.254774",
    "longitude": "-89.99735500599729",
    "latitude": "29.916222841608757",
    "geocoded_column": {
      "latitude": "29.916222841608757",
      "longitude": "-89.99735500599729"
    }
  },
  {
    "service_request": "2022-861778",
    "request_type": "Property Maintenance",
    "request_reason": "Property Maintenance",
    "date_created": "2022-02-17T14:29:00.000",
    "date_modified": "2022-02-17T14:29:00.000",
    "request_status": "Pending",
    "responsible_agency": "Department of Code Enforcement",
    "final_address": "7914 Chef Menteur Hwy",
    "address_councildis": "E",
    "status": "Pending",
    "rowid": "861778",
    "final_x": "3704743.80458",
    "final_y": "552650.72623",
    "longitude": "-89.99389537912555",
    "latitude": "30.012871146895044",
    "geocoded_column": {
      "latitude": "30.012871146895044",
      "longitude": "-89.99389537912555"
    }
  },
  {
    "service_request": "2022-861776",
    "request_type": "Traffic Signals/Signs/Striping/Streetlights",
    "request_reason": "Traffic Signal Malfunctioning/Damaged",
    "date_created": "2022-02-17T14:27:36.000",
    "date_modified": "2022-02-17T14:27:36.000",
    "request_status": "Pending",
    "responsible_agency": "Department of Public Works",
    "final_address": "4808 Jefferson Hwy, New Orleans, Louisiana, 70121",
    "status": "Pending",
    "rowid": "861776",
    "longitude": "0.0",
    "latitude": "0.0",
    "geocoded_column": {
      "latitude": "0.0",
      "longitude": "0.0"
    }
  },
  {
    "service_request": "2022-861775",
    "request_type": "Trash/Recycling",
    "request_reason": "Request a Large Item Pick Up",
    "date_created": "2022-02-17T14:27:29.000",
    "date_modified": "2022-02-17T14:27:29.000",
    "request_status": "Pending",
    "responsible_agency": "Department of Sanitation",
    "final_address": "1567 N Dorgenois St",
    "address_councildis": "D",
    "status": "Assigned to Contractor",
    "contractor": "Metro Disposal",
    "rowid": "861775",
    "final_x": "3679416.04571",
    "final_y": "539704.511562",
    "longitude": "-90.07436674585944",
    "latitude": "29.978063401847226",
    "geocoded_column": {
      "latitude": "29.978063401847226",
      "longitude": "-90.07436674585944"
    }
  },
  {
    "service_request": "2022-861774",
    "request_type": "Trash/Recycling",
    "request_reason": "Repair Trash Cart",
    "date_created": "2022-02-17T14:24:43.000",
    "date_modified": "2022-02-17T14:24:59.000",
    "request_status": "Pending",
    "responsible_agency": "Department of Sanitation",
    "final_address": "5923 Stratford Pl",
    "address_councildis": "C",
    "status": "Assigned to Contractor",
    "contractor": "Richards Disposal",
    "rowid": "861774",
    "final_x": "3705659.86692",
    "final_y": "516120.937908",
    "longitude": "-89.99235183774253",
    "latitude": "29.91239801400088",
    "geocoded_column": {
      "latitude": "29.91239801400088",
      "longitude": "-89.99235183774253"
    }
  },
  {
    "service_request": "2022-861773",
    "request_type": "Trash/Recycling",
    "request_reason": "Replace Trash Cart",
    "date_created": "2022-02-17T14:23:47.000",
    "date_modified": "2022-02-17T14:23:55.000",
    "request_status": "Pending",
    "responsible_agency": "Department of Sanitation",
    "final_address": "1701 Eagle St Apt 2B",
    "address_councildis": "A",
    "status": "Assigned to Contractor",
    "contractor": "Richards Disposal",
    "rowid": "861773",
    "final_x": "3661387.86694",
    "final_y": "531332.410754",
    "longitude": "-90.1315837457813",
    "latitude": "29.955575200805225",
    "geocoded_column": {
      "latitude": "29.955575200805225",
      "longitude": "-90.1315837457813"
    }
  },
  {
    "service_request": "2022-861772",
    "request_type": "Roads/Drainage",
    "request_reason": "Street Subsidence (Sinking)",
    "date_created": "2022-02-17T14:23:31.000",
    "date_modified": "2022-02-17T14:23:31.000",
    "request_status": "Pending",
    "responsible_agency": "Department of Public Works",
    "final_address": "6122 Delord St",
    "address_councildis": "A",
    "status": "Pending",
    "rowid": "861772",
    "final_x": "3666744.59847",
    "final_y": "526123.728446",
    "longitude": "-90.11484393962584",
    "latitude": "29.94109744693584",
    "geocoded_column": {
      "latitude": "29.94109744693584",
      "longitude": "-90.11484393962584"
    }
  },
  {
    "service_request": "2022-861771",
    "request_type": "Roads/Drainage",
    "request_reason": "Catch Basin - Clogged",
    "date_created": "2022-02-17T14:23:28.000",
    "date_modified": "2022-02-17T14:23:28.000",
    "request_status": "Pending",
    "responsible_agency": "Department of Public Works",
    "final_address": "1458 Mirabeau Ave",
    "address_councildis": "D",
    "status": "Pending",
    "rowid": "861771",
    "final_x": "3677926.27624",
    "final_y": "550142.589844",
    "longitude": "-90.07871099775892",
    "latitude": "30.006809378329596",
    "geocoded_column": {
      "latitude": "30.006809378329596",
      "longitude": "-90.07871099775892"
    }
  },
  {
    "service_request": "2022-861770",
    "request_type": "Trash/Recycling",
    "request_reason": "Replace Trash Cart",
    "date_created": "2022-02-17T14:22:59.000",
    "date_modified": "2022-02-17T14:23:31.000",
    "request_status": "Pending",
    "responsible_agency": "Department of Sanitation",
    "final_address": "3046 St Philip St",
    "address_councildis": "A",
    "status": "Assigned to Contractor",
    "contractor": "Richards Disposal",
    "rowid": "861770",
    "final_x": "3676037.67029",
    "final_y": "538862.519369",
    "longitude": "-90.08506583232985",
    "latitude": "29.97584984440599",
    "geocoded_column": {
      "latitude": "29.97584984440599",
      "longitude": "-90.08506583232985"
    }
  },
  {
    "service_request": "2022-861769",
    "request_type": "Parks & Parkways",
    "request_reason": "Request Tree Service (Right of Way/Public Property)",
    "date_created": "2022-02-17T14:21:04.000",
    "date_modified": "2022-02-17T15:03:09.000",
    "request_status": "Pending",
    "responsible_agency": "Department of Parks & Parkway",
    "final_address": "New Orleans,LA",
    "address_councildis": "A",
    "rowid": "861769",
    "final_x": "3669754.04634",
    "final_y": "544811.768463",
    "longitude": "-90.10470988844547",
    "latitude": "29.992394978723574",
    "geocoded_column": {
      "latitude": "29.992394978723574",
      "longitude": "-90.10470988844547"
    }
  },
  {
    "service_request": "2022-861768",
    "request_type": "Trash/Recycling",
    "request_reason": "Missed Trash Pick-Up",
    "date_created": "2022-02-17T14:20:28.000",
    "date_modified": "2022-02-17T14:20:45.000",
    "request_status": "Pending",
    "responsible_agency": "Department of Sanitation",
    "final_address": "3046 St Philip St",
    "address_councildis": "A",
    "status": "Assigned to Contractor",
    "contractor": "Richards Disposal",
    "rowid": "861768",
    "final_x": "3676037.67029",
    "final_y": "538862.519369",
    "longitude": "-90.08506583232985",
    "latitude": "29.97584984440599",
    "geocoded_column": {
      "latitude": "29.97584984440599",
      "longitude": "-90.08506583232985"
    }
  },
  {
    "service_request": "2022-861767",
    "request_type": "Trash/Recycling",
    "request_reason": "Replace Trash Cart",
    "date_created": "2022-02-17T14:16:45.000",
    "date_modified": "2022-02-17T14:16:51.000",
    "request_status": "Pending",
    "responsible_agency": "Department of Sanitation",
    "final_address": "7421 Vanderkloot Ave",
    "address_councildis": "E",
    "status": "Assigned to Contractor",
    "contractor": "Metro Disposal",
    "rowid": "861767",
    "final_x": "3706250.45713",
    "final_y": "562761.04848",
    "longitude": "-89.98876038487965",
    "latitude": "30.040622077962066",
    "geocoded_column": {
      "latitude": "30.040622077962066",
      "longitude": "-89.98876038487965"
    }
  },
  {
    "service_request": "2022-861766",
    "request_type": "Trash/Recycling",
    "request_reason": "Repair Trash Cart",
    "date_created": "2022-02-17T14:16:33.000",
    "date_modified": "2022-02-17T14:50:19.000",
    "case_close_date": "2022-02-16T18:00:00.000",
    "request_status": "Pending",
    "responsible_agency": "Department of Sanitation",
    "final_address": "New Orleans,LA",
    "address_councildis": "E",
    "status": "Assigned to Contractor",
    "contractor": "Metro Disposal",
    "rowid": "861766",
    "final_x": "3719029.22015",
    "final_y": "570673.524455",
    "longitude": "-89.94807340710162",
    "latitude": "30.061959623380165",
    "geocoded_column": {
      "latitude": "30.061959623380165",
      "longitude": "-89.94807340710162"
    }
  },
  {
    "service_request": "2022-861765",
    "request_type": "Trash/Recycling",
    "request_reason": "Replace Trash Cart",
    "date_created": "2022-02-17T14:12:08.000",
    "date_modified": "2022-02-17T14:12:45.000",
    "request_status": "Pending",
    "responsible_agency": "Department of Sanitation",
    "final_address": "2325 N Villere St, New Orleans, Louisiana, 70117",
    "address_councildis": "C",
    "status": "Assigned to Contractor",
    "contractor": "Metro Disposal",
    "rowid": "861765",
    "final_x": "3685886.87382",
    "final_y": "537519.597448",
    "longitude": "-90.05400666695385",
    "latitude": "29.97185857532504",
    "geocoded_column": {
      "latitude": "29.97185857532504",
      "longitude": "-90.05400666695385"
    }
  },
  {
    "service_request": "2022-861764",
    "request_type": "Trash/Recycling",
    "request_reason": "Request a Large Item Pick Up",
    "date_created": "2022-02-17T14:09:44.000",
    "date_modified": "2022-02-17T14:09:57.000",
    "request_status": "Pending",
    "responsible_agency": "Department of Sanitation",
    "final_address": "739 Second St",
    "address_councildis": "B",
    "status": "Assigned to Contractor",
    "contractor": "Richards Disposal",
    "rowid": "861764",
    "final_x": "3678501.85224",
    "final_y": "520383.457784",
    "longitude": "-90.07792267331249",
    "latitude": "29.92496456695758",
    "geocoded_column": {
      "latitude": "29.92496456695758",
      "longitude": "-90.07792267331249"
    }
  },
  {
    "service_request": "2022-861763",
    "request_type": "Trash/Recycling",
    "request_reason": "MIssed Recycling Pick-Up",
    "date_created": "2022-02-17T14:06:30.000",
    "date_modified": "2022-02-17T14:06:34.000",
    "request_status": "Pending",
    "responsible_agency": "Department of Sanitation",
    "final_address": "2916 1st St, New Orleans, Louisiana, 70113",
    "status": "Assigned to Contractor",
    "rowid": "861763",
    "longitude": "0.0",
    "latitude": "0.0",
    "geocoded_column": {
      "latitude": "0.0",
      "longitude": "0.0"
    }
  },
  {
    "service_request": "2022-861762",
    "request_type": "Trash/Recycling",
    "request_reason": "Request a Large Item Pick Up",
    "date_created": "2022-02-17T14:00:21.000",
    "date_modified": "2022-02-17T14:00:23.000",
    "request_status": "Pending",
    "responsible_agency": "Department of Sanitation",
    "final_address": "817 Octavia St",
    "address_councildis": "A",
    "status": "Assigned to Contractor",
    "contractor": "Richards Disposal",
    "rowid": "861762",
    "final_x": "3666505.59226",
    "final_y": "518986.910839",
    "longitude": "-90.11583794246289",
    "latitude": "29.92148045270202",
    "geocoded_column": {
      "latitude": "29.92148045270202",
      "longitude": "-90.11583794246289"
    }
  },
  {
    "service_request": "2022-861761",
    "request_type": "Trash/Recycling",
    "request_reason": "Stop Trash Service",
    "date_created": "2022-02-17T14:00:08.000",
    "date_modified": "2022-02-17T14:00:09.000",
    "request_status": "Pending",
    "responsible_agency": "Department of Sanitation",
    "final_address": "1822 N Derbigny St",
    "address_councildis": "D",
    "status": "Assigned to Contractor",
    "contractor": "Metro Disposal",
    "rowid": "861761",
    "final_x": "3683536.72757",
    "final_y": "538341.749001",
    "longitude": "-90.06139996758668",
    "latitude": "29.974191145994354",
    "geocoded_column": {
      "latitude": "29.974191145994354",
      "longitude": "-90.06139996758668"
    }
  },
  {
    "service_request": "2022-861760",
    "request_type": "Traffic Signals/Signs/Striping/Streetlights",
    "request_reason": "Street Light Outage/Malfunction",
    "date_created": "2022-02-17T13:57:52.000",
    "date_modified": "2022-02-17T13:57:52.000",
    "request_status": "Pending",
    "responsible_agency": "Department of Public Works",
    "final_address": "350 John Churchill Chase St",
    "address_councildis": "B",
    "status": "Pending",
    "contractor": "Royal Engineering",
    "rowid": "861760",
    "final_x": "3682510.68015",
    "final_y": "526175.13779",
    "longitude": "-90.06506576452027",
    "latitude": "29.940768388270605",
    "geocoded_column": {
      "latitude": "29.940768388270605",
      "longitude": "-90.06506576452027"
    }
  },
  {
    "service_request": "2022-861759",
    "request_type": "Traffic Signals/Signs/Striping/Streetlights",
    "request_reason": "Traffic Sign Missing/Damaged",
    "date_created": "2022-02-17T13:56:12.000",
    "date_modified": "2022-02-17T13:56:12.000",
    "request_status": "Pending",
    "responsible_agency": "Department of Public Works",
    "final_address": "1021 Dauphine St",
    "address_councildis": "C",
    "status": "Pending",
    "rowid": "861759",
    "final_x": "3682725.29788",
    "final_y": "533934.325445",
    "longitude": "-90.06411683204031",
    "latitude": "29.96209699373402",
    "geocoded_column": {
      "latitude": "29.96209699373402",
      "longitude": "-90.06411683204031"
    }
  },
  {
    "service_request": "2022-861758",
    "request_type": "Trash/Recycling",
    "request_reason": "Replace Trash Cart",
    "date_created": "2022-02-17T13:53:32.000",
    "date_modified": "2022-02-17T13:53:33.000",
    "request_status": "Pending",
    "responsible_agency": "Department of Sanitation",
    "final_address": "2819 Laurel St, New Orleans, Louisiana, 70115",
    "address_councildis": "B",
    "status": "Assigned to Contractor",
    "contractor": "Richards Disposal",
    "rowid": "861758",
    "final_x": "3677285.53614",
    "final_y": "520144.11692",
    "longitude": "-90.08177044144665",
    "latitude": "29.924343043994913",
    "geocoded_column": {
      "latitude": "29.924343043994913",
      "longitude": "-90.08177044144665"
    }
  },
  {
    "service_request": "2022-861757",
    "request_type": "Trash/Recycling",
    "request_reason": "Repair Trash Cart",
    "date_created": "2022-02-17T13:38:01.000",
    "date_modified": "2022-02-17T13:38:02.000",
    "request_status": "Pending",
    "responsible_agency": "Department of Sanitation",
    "final_address": "1347 Sere St",
    "address_councildis": "D",
    "status": "Assigned to Contractor",
    "contractor": "Metro Disposal",
    "rowid": "861757",
    "final_x": "3677831.27451",
    "final_y": "545406.0116",
    "longitude": "-90.07917492030835",
    "latitude": "29.99378832497701",
    "geocoded_column": {
      "latitude": "29.99378832497701",
      "longitude": "-90.07917492030835"
    }
  },