[
  {
    "service_request": "2026-1264071",
    "request_type": "Trash/Recycling",
    "request_reason": "Replace Recycling Cart",
    "date_created": "2026-03-09T23:57:39.000",
    "date_modified": "2026-03-09T23:57:41.000",
    "request_status": "Pending",
    "responsible_agency": "Department of Sanitation",
    "final_address": "502 S Rendon St",
    "address_councildis": "B",
    "status": "Pending",
    "rowid": "1264071",
    "final_x": "3672615.4018",
    "final_y": "535105.489862",
    "longitude": "-90.09600248193516",
    "latitude": "29.96562135045492",
    "geocoded_column": {
      "latitude": "29.96562135045492",
      "longitude": "-90.09600248193516"
    }
  },
  {
    "service_request": "2026-1264070",
    "request_type": "Trash/Recycling",
    "request_reason": "Request a Large Item Pick Up",
    "date_created": "2026-03-09T23:25:40.000",
    "date_modified": "2026-03-09T23:25:42.000",
    "request_status": "Pending",
    "responsible_agency": "Department of Sanitation",
    "final_address": "2244 Killdeer St",
    "address_councildis": "D",
    "status": "Assigned to Contractor",
    "contractor": "IV Waste",
    "rowid": "1264070",
    "final_x": "3684063.82626",
    "final_y": "557452.551451",
    "longitude": "-90.05906405841488",
    "latitude": "30.026722885274488",
    "geocoded_column": {
      "latitude": "30.026722885274488",
      "longitude": "-90.05906405841488"
    }
  },
  {
    "service_request": "2026-1264069",
    "request_type": "Trash/Recycling",
    "request_reason": "Order Recycling Cart",
    "date_created": "2026-03-09T23:13:45.000",
    "date_modified": "2026-03-09T23:13:47.000",
    "request_status": "Pending",
    "responsible_agency": "Department of Sanitation",
    "final_address": "3700 Dryades St",
    "address_councildis": "B",
    "status": "Pending",
    "rowid": "1264069",
    "final_x": "3672856.82286",
    "final_y": "522184.421754",
    "longitude": "-90.09568081975824",
    "latitude": "29.930085494546063",
    "geocoded_column": {
      "latitude": "29.930085494546063",
      "longitude": "-90.09568081975824"
    }
  },
  {
    "service_request": "2026-1264068",
    "request_type": "Trash/Recycling",
    "request_reason": "Repair Recycling Cart",
    "date_created": "2026-03-09T22:59:35.000",
    "date_modified": "2026-03-09T22:59:37.000",
    "request_status": "Pending",
    "responsible_agency": "Department of Sanitation",
    "final_address": "2443 Laharpe St",
    "address_councildis": "D",
    "status": "Pending",
    "rowid": "1264068",
    "final_x": "3679456.65775",
    "final_y": "539453.228362",
    "longitude": "-90.07424719944933",
    "latitude": "29.977371233014768",
    "geocoded_column": {
      "latitude": "29.977371233014768",
      "longitude": "-90.07424719944933"
    }
  },
  {
    "service_request": "2026-1264067",
    "request_type": "Health Related Request",
    "request_reason": "Noise Ordinance Complaint",
    "date_created": "2026-03-09T22:48:09.000",
    "date_modified": "2026-03-09T22:48:11.000",
    "request_status": "Pending",
    "responsible_agency": "Health Department",
    "final_address": "801 Bourbon St, New Orleans, Louisiana, 70116",
    "address_councildis": "C",
    "status": "Pending",
    "rowid": "1264067",
    "final_x": "3682490.98735",
    "final_y": "533018.672772",
    "longitude": "-90.06488875731978",
    "latitude": "29.959586396383013",
    "geocoded_column": {
      "latitude": "29.959586396383013",
      "longitude": "-90.06488875731978"
    }
  },
  {
    "service_request": "2026-1264066",
    "request_type": "Health Related Request",
    "request_reason": "Noise Ordinance Complaint",
    "date_created": "2026-03-09T22:47:49.000",
    "date_modified": "2026-03-09T22:47:50.000",
    "request_status": "Pending",
    "responsible_agency": "Health Department",
    "final_address": "801 Bourbon St, New Orleans, Louisiana, 70116",
    "address_councildis": "C",
    "status": "Pending",
    "rowid": "1264066",
    "final_x": "3682490.98735",
    "final_y": "533018.672772",
    "longitude": "-90.06488875731978",
    "latitude": "29.959586396383013",
    "geocoded_column": {
      "latitude": "29.959586396383013",
      "longitude": "-90.06488875731978"
    }
  },
  {
    "service_request": "2026-1264065",
    "request_type": "Health Related Request",
    "request_reason": "Noise Ordinance Complaint",
    "date_created": "2026-03-09T22:45:59.000",
    "date_modified": "2026-03-09T22:46:01.000",
    "request_status": "Pending",
    "responsible_agency": "Health Department",
    "final_address": "801 Bourbon St, New Orleans, Louisiana, 70116",
    "address_councildis": "C",
    "status": "Pending",
    "rowid": "1264065",
    "final_x": "3682490.98735",
    "final_y": "533018.672772",
    "longitude": "-90.06488875731978",
    "latitude": "29.959586396383013",
    "geocoded_column": {
      "latitude": "29.959586396383013",
      "longitude": "-90.06488875731978"
    }
  },
  {
    "service_request": "2026-1264064",
    "request_type": "Trash/Recycling",
    "request_reason": "Order Recycling Cart",
    "date_created": "2026-03-09T22:43:15.000",
    "date_modified": "2026-03-09T22:43:17.000",
    "request_status": "Pending",
    "responsible_agency": "Department of Sanitation",
    "final_address": "1128 City Park Ave, New Orleans, Louisiana, 70119",
    "address_councildis": "A",
    "status": "Pending",
    "rowid": "1264064",
    "final_x": "3673266.73947",
    "final_y": "541458.925324",
    "longitude": "-90.09372852236545",
    "latitude": "29.983071784436344",
    "geocoded_column": {
      "latitude": "29.983071784436344",
      "longitude": "-90.09372852236545"
    }
  },
  {
    "service_request": "2026-1264063",
    "request_type": "Abandoned Vehicles",
    "request_reason": "Abandoned/Junk Vehicles",
    "date_created": "2026-03-09T22:34:44.000",
    "date_modified": "2026-03-09T22:34:46.000",
    "request_status": "Pending",
    "responsible_agency": "Department of Public Works",
    "final_address": "3604 Palmyra St",
    "address_councildis": "B",
    "status": "Pending",
    "rowid": "1264063",
    "final_x": "3672003.30817",
    "final_y": "536547.514951",
    "longitude": "-90.09788635369412",
    "latitude": "29.969604595165293",
    "geocoded_column": {
      "latitude": "29.969604595165293",
      "longitude": "-90.09788635369412"
    }
  },
  {
    "service_request": "2026-1264062",
    "request_type": "Trash/Recycling",
    "request_reason": "Request a Large Item Pick Up",
    "date_created": "2026-03-09T21:35:38.000",
    "date_modified": "2026-03-09T21:35:39.000",
    "request_status": "Pending",
    "responsible_agency": "Department of Sanitation",
    "final_address": "2244 Killdeer St",
    "address_councildis": "D",
    "status": "Assigned to Contractor",
    "contractor": "IV Waste",
    "rowid": "1264062",
    "final_x": "3684063.82626",
    "final_y": "557452.551451",
    "longitude": "-90.05906405841488",
    "latitude": "30.026722885274488",
    "geocoded_column": {
      "latitude": "30.026722885274488",
      "longitude": "-90.05906405841488"
    }
  },
  {
    "service_request": "2026-1264061",
    "request_type": "Trash/Recycling",
    "request_reason": "Request a Large Item Pick Up",
    "date_created": "2026-03-09T21:35:28.000",
    "date_modified": "2026-03-09T21:35:29.000",
    "request_status": "Pending",
    "responsible_agency": "Department of Sanitation",
    "final_address": "4937 Papania Dr",
    "address_councildis": "E",
    "status": "Assigned to Contractor",
    "contractor": "Waste Pro",
    "rowid": "1264061",
    "final_x": "3715541.49708",
    "final_y": "557725.120219",
    "longitude": "-89.95958872315475",
    "latitude": "30.026472246570233",
    "geocoded_column": {
      "latitude": "30.026472246570233",
      "longitude": "-89.95958872315475"
    }
  },
  {
    "service_request": "2026-1264060",
    "request_type": "Trash/Recycling",
    "request_reason": "Replace Trash Cart",
    "date_created": "2026-03-09T21:34:17.000",
    "date_modified": "2026-03-09T21:34:19.000",
    "request_status": "Pending",
    "responsible_agency": "Department of Sanitation",
    "final_address": "607 Clare Ct",
    "address_councildis": "A",
    "status": "Assigned to Contractor",
    "contractor": "IV Waste",
    "rowid": "1264060",
    "final_x": "3667852.45159",
    "final_y": "543505.497998",
    "longitude": "-90.11076070709905",
    "latitude": "29.988859109221835",
    "geocoded_column": {
      "latitude": "29.988859109221835",
      "longitude": "-90.11076070709905"
    }
  },
  {
    "service_request": "2026-1264059",
    "request_type": "Trash/Recycling",
    "request_reason": "Request a Large Item Pick Up",
    "date_created": "2026-03-09T21:33:00.000",
    "date_modified": "2026-03-09T21:33:03.000",
    "request_status": "Pending",
    "responsible_agency": "Department of Sanitation",
    "final_address": "4926 Gabriel Dr",
    "address_councildis": "E",
    "status": "Assigned to Contractor",
    "contractor": "Waste Pro",
    "rowid": "1264059",
    "final_x": "3708726.73336",
    "final_y": "556737.294106",
    "longitude": "-89.9811592437263",
    "latitude": "30.023979000539597",
    "geocoded_column": {
      "latitude": "30.023979000539597",
      "longitude": "-89.9811592437263"
    }
  },
  {
    "service_request": "2026-1264058",
    "request_type": "Trash/Recycling",
    "request_reason": "Request a Large Item Pick Up",
    "date_created": "2026-03-09T21:14:59.000",
    "date_modified": "2026-03-09T21:15:02.000",
    "request_status": "Pending",
    "responsible_agency": "Department of Sanitation",
    "final_address": "7880 Means Ave",
    "address_councildis": "E",
    "status": "Assigned to Contractor",
    "contractor": "Waste Pro",
    "rowid": "1264058",
    "final_x": "3707611.89572",
    "final_y": "565449.050274",
    "longitude": "-89.98435781075472",
    "latitude": "30.047969013102396",
    "geocoded_column": {
      "latitude": "30.047969013102396",
      "longitude": "-89.98435781075472"
    }
  },
  {
    "service_request": "2026-1264057",
    "request_type": "Trash/Recycling",
    "request_reason": "Request a Large Item Pick Up",
    "date_created": "2026-03-09T21:05:42.000",
    "date_modified": "2026-03-09T21:05:44.000",
    "request_status": "Pending",
    "responsible_agency": "Department of Sanitation",
    "final_address": "11 Kings Canyon Dr",
    "address_councildis": "C",
    "status": "Assigned to Contractor",
    "contractor": "Richards Disposal",
    "rowid": "1264057",
    "final_x": "3699394.932",
    "final_y": "515743.146292",
    "longitude": "-90.01213933200555",
    "latitude": "29.911559331126558",
    "geocoded_column": {
      "latitude": "29.911559331126558",
      "longitude": "-90.01213933200555"
    }
  },
  {
    "service_request": "2026-1264055",
    "request_type": "Trash/Recycling",
    "request_reason": "Replace Trash Cart",
    "date_created": "2026-03-09T20:48:35.000",
    "date_modified": "2026-03-09T20:48:36.000",
    "request_status": "Pending",
    "responsible_agency": "Department of Sanitation",
    "final_address": "2621 Baronne St",
    "address_councildis": "B",
    "status": "Assigned to Contractor",
    "contractor": "IV Waste",
    "rowid": "1264055",
    "final_x": "3675852.73371",
    "final_y": "523425.828155",
    "longitude": "-90.08618055652542",
    "latitude": "29.933409639687625",
    "geocoded_column": {
      "latitude": "29.933409639687625",
      "longitude": "-90.08618055652542"
    }
  },
  {
    "service_request": "2026-1264054",
    "request_type": "Trash/Recycling",
    "request_reason": "Request a Large Item Pick Up",
    "date_created": "2026-03-09T20:46:21.000",
    "date_modified": "2026-03-09T20:46:22.000",
    "request_status": "Pending",
    "responsible_agency": "Department of Sanitation",
    "final_address": "4619 Eastern St",
    "address_councildis": "D",
    "status": "Assigned to Contractor",
    "contractor": "IV Waste",
    "rowid": "1264054",
    "final_x": "3688118.33084",
    "final_y": "549935.059028",
    "longitude": "-90.04651905338132",
    "latitude": "30.00592795643473",
    "geocoded_column": {
      "latitude": "30.00592795643473",
      "longitude": "-90.04651905338132"
    }
  },
  {
    "service_request": "2026-1264053",
    "request_type": "Trash/Recycling",
    "request_reason": "Order Second Trash Cart",
    "date_created": "2026-03-09T20:41:44.000",
    "date_modified": "2026-03-09T20:41:45.000",
    "request_status": "Pending",
    "responsible_agency": "Department of Sanitation",
    "final_address": "10921 Willowbrae Dr",
    "address_councildis": "E",
    "status": "Assigned to Contractor",
    "contractor": "Waste Pro",
    "rowid": "1264053",
    "final_x": "3711219.65752",
    "final_y": "564499.065761",
    "longitude": "-89.97299099263039",
    "latitude": "30.04523965953626",
    "geocoded_column": {
      "latitude": "30.04523965953626",
      "longitude": "-89.97299099263039"
    }
  },
  {
    "service_request": "2026-1264052",
    "request_type": "Trash/Recycling",
    "request_reason": "Change Size of Trash Cart",
    "date_created": "2026-03-09T20:39:33.000",
    "date_modified": "2026-03-09T20:39:35.000",
    "request_status": "Pending",
    "responsible_agency": "Department of Sanitation",
    "final_address": "10921 Willowbrae Dr",
    "address_councildis": "E",
    "status": "Assigned to Contractor",
    "contractor": "Waste Pro",
    "rowid": "1264052",
    "final_x": "3711219.65752",
    "final_y": "564499.065761",
    "longitude": "-89.97299099263039",
    "latitude": "30.04523965953626",
    "geocoded_column": {
      "latitude": "30.04523965953626",
      "longitude": "-89.97299099263039"
    }
  },
  {
    "service_request": "2026-1264051",
    "request_type": "Trash/Recycling",
    "request_reason": "Missed Trash Pick-Up",
    "date_created": "2026-03-09T20:36:49.000",
    "date_modified": "2026-03-09T20:36:50.000",
    "request_status": "Pending",
    "responsible_agency": "Department of Sanitation",
    "final_address": "10921 Willowbrae Dr",
    "address_councildis": "E",
    "status": "Assigned to Contractor",
    "contractor": "Waste Pro",
    "rowid": "1264051",
    "final_x": "3711219.65752",
    "final_y": "564499.065761",
    "longitude": "-89.97299099263039",
    "latitude": "30.04523965953626",
    "geocoded_column": {
      "latitude": "30.04523965953626",
      "longitude": "-89.97299099263039"
    }
  },
  {
    "service_request": "2026-1264050",
    "request_type": "Streetlights",
    "request_reason": "Streetlight Outage/Malfunction",
    "date_created": "2026-03-09T20:35:14.000",
    "date_modified": "2026-03-09T20:35:15.000",
    "request_status": "Pending",
    "responsible_agency": "Department of Public Works",
    "final_address": "2012 Josephine St",
    "address_councildis": "B",
    "status": "Pending",
    "rowid": "1264050",
    "final_x": "3676836.64833",
    "final_y": "525280.831677",
    "longitude": "-90.08301049244704",
    "latitude": "29.938480808002033",
    "geocoded_column": {
      "latitude": "29.938480808002033",
      "longitude": "-90.08301049244704"
    }
  },
  {
    "service_request": "2026-1264049",
    "request_type": "Trash/Recycling",
    "request_reason": "Request a Large Item Pick Up",
    "date_created": "2026-03-09T20:32:37.000",
    "date_modified": "2026-03-09T20:32:39.000",
    "request_status": "Pending",
    "responsible_agency": "Department of Sanitation",
    "final_address": "5409 Shirley Taylor St",
    "address_councildis": "E",
    "status": "Assigned to Contractor",
    "contractor": "Waste Pro",
    "rowid": "1264049",
    "final_x": "3698595.23664",
    "final_y": "538864.213833",
    "longitude": "-90.01382299209688",
    "latitude": "29.97515952181722",
    "geocoded_column": {
      "latitude": "29.97515952181722",
      "longitude": "-90.01382299209688"
    }
  },
  {
    "service_request": "2026-1264048",
    "request_type": "Mosquito, Termite & Rodent Control",
    "request_reason": "Non-Rodent Complaint (Possums & Snakes)",
    "date_created": "2026-03-09T20:27:20.000",
    "date_modified": "2026-03-09T20:27:22.000",
    "request_status": "Pending",
    "responsible_agency": "Mosquito, Termite & Rodent Control Board",
    "final_address": "8937 Belfast St",
    "address_councildis": "A",
    "status": "Pending",
    "rowid": "1264048",
    "final_x": "3663294.26925",
    "final_y": "534502.245893",
    "longitude": "-90.12545846955054",
    "latitude": "29.96423609930488",
    "geocoded_column": {
      "latitude": "29.96423609930488",
      "longitude": "-90.12545846955054"
    }
  },
  {
    "service_request": "2026-1264047",
    "request_type": "Street and Traffic Signs",
    "request_reason": "Additional Signage Request",
    "date_created": "2026-03-09T20:07:33.000",
    "date_modified": "2026-03-09T20:07:35.000",
    "request_status": "Pending",
    "responsible_agency": "Department of Public Works",
    "final_address": "8224 Pritchard Pl",
    "address_councildis": "A",
    "status": "Pending",
    "rowid": "1264047",
    "final_x": "3665628.39642",
    "final_y": "533228.61658",
    "longitude": "-90.11813011599453",
    "latitude": "29.96066617564466",
    "geocoded_column": {
      "latitude": "29.96066617564466",
      "longitude": "-90.11813011599453"
    }
  },
  {
    "service_request": "2026-1264046",
    "request_type": "Streetlights",
    "request_reason": "Streetlight Outage/Malfunction",
    "date_created": "2026-03-09T19:52:05.000",
    "date_modified": "2026-03-09T19:52:07.000",
    "request_status": "Pending",
    "responsible_agency": "Department of Public Works",
    "final_address": "901 Harrison Ave",
    "address_councildis": "A",
    "status": "Pending",
    "rowid": "1264046",
    "final_x": "3670072.94868",
    "final_y": "549287.689171",
    "longitude": "-90.10355079095936",
    "latitude": "30.004692801781992",
    "geocoded_column": {
      "latitude": "30.004692801781992",
      "longitude": "-90.10355079095936"
    }
  },
  {
    "service_request": "2026-1264045",
    "request_type": "Trash/Recycling",
    "request_reason": "Request a Large Item Pick Up",
    "date_created": "2026-03-09T19:44:50.000",
    "date_modified": "2026-03-09T19:44:52.000",
    "request_status": "Pending",
    "responsible_agency": "Department of Sanitation",
    "final_address": "3200 BLK Chippewa St",
    "address_councildis": "B",
    "status": "Assigned to Contractor",
    "contractor": "IV Waste",
    "rowid": "1264045",
    "final_x": "3676371.31061",
    "final_y": "518572.162118",
    "longitude": "-90.08471041030595",
    "latitude": "29.92004810127682",
    "geocoded_column": {
      "latitude": "29.92004810127682",
      "longitude": "-90.08471041030595"
    }
  },
  {
    "service_request": "2026-1264044",
    "request_type": "Trash/Recycling",
    "request_reason": "Request a Large Item Pick Up",
    "date_created": "2026-03-09T19:19:39.000",
    "date_modified": "2026-03-09T19:19:41.000",
    "request_status": "Pending",
    "responsible_agency": "Department of Sanitation",
    "final_address": "10001 Flossmoor Dr",
    "address_councildis": "E",
    "status": "Assigned to Contractor",
    "contractor": "Waste Pro",
    "rowid": "1264044",
    "final_x": "3709214.14545",
    "final_y": "563424.249632",
    "longitude": "-89.97936945701574",
    "latitude": "30.042349659710577",
    "geocoded_column": {
      "latitude": "30.042349659710577",
      "longitude": "-89.97936945701574"
    }
  },
  {
    "service_request": "2026-1264043",
    "request_type": "Abandoned Vehicles",
    "request_reason": "Abandoned/Junk Vehicles",
    "date_created": "2026-03-09T19:17:17.000",
    "date_modified": "2026-03-09T19:17:19.000",
    "request_status": "Pending",
    "responsible_agency": "Department of Public Works",
    "final_address": "8144 Jeannette St",
    "address_councildis": "A",
    "status": "Pending",
    "rowid": "1264043",
    "final_x": "3662411.95309",
    "final_y": "529333.019457",
    "longitude": "-90.1284164205473",
    "latitude": "29.950047946800662",
    "geocoded_column": {
      "latitude": "29.950047946800662",
      "longitude": "-90.1284164205473"
    }
  },
  {
    "service_request": "2026-1264042",
    "request_type": "Trash/Recycling",
    "request_reason": "Request a Large Item Pick Up",
    "date_created": "2026-03-09T19:03:05.000",
    "date_modified": "2026-03-09T19:03:41.000",
    "request_status": "Pending",
    "responsible_agency": "Department of Sanitation",
    "final_address": "6833 E Coronet Ct",
    "address_councildis": "E",
    "status": "Assigned to Contractor",
    "contractor": "Waste Pro",
    "rowid": "1264042",
    "final_x": "3703514.84298",
    "final_y": "557661.121691",
    "longitude": "-89.99759366421445",
    "latitude": "30.026687252345102",
    "geocoded_column": {
      "latitude": "30.026687252345102",
      "longitude": "-89.99759366421445"
    }
  },
  {
    "service_request": "2026-1264041",
    "request_type": "Trash/Recycling",
    "request_reason": "Order Second Trash Cart",
    "date_created": "2026-03-09T19:01:37.000",
    "date_modified": "2026-03-09T19:01:39.000",
    "request_status": "Pending",
    "responsible_agency": "Department of Sanitation",
    "final_address": "7201 Restgate Rd",
    "address_councildis": "E",
    "status": "Assigned to Contractor",
    "contractor": "Waste Pro",
    "rowid": "1264041",
    "final_x": "3710742.88837",
    "final_y": "563343.774688",
    "longitude": "-89.97454109645405",
    "latitude": "30.042078627767488",
    "geocoded_column": {
      "latitude": "30.042078627767488",
      "longitude": "-89.97454109645405"
    }
  },
  {
    "service_request": "2026-1264040",
    "request_type": "Trash/Recycling",
    "request_reason": "Illegal Dumping",
    "date_created": "2026-03-09T19:01:25.000",
    "date_modified": "2026-03-09T19:01:27.000",
    "request_status": "Pending",
    "responsible_agency": "Department of Sanitation",
    "final_address": "3417 Clara St",
    "address_councildis": "B",
    "status": "Pending",
    "rowid": "1264040",
    "final_x": "3672288.69889",
    "final_y": "525461.054589",
    "longitude": "-90.0973627234373",
    "latitude": "29.939112035402673",
    "geocoded_column": {
      "latitude": "29.939112035402673",
      "longitude": "-90.0973627234373"
    }
  },
  {
    "service_request": "2026-1264039",
    "request_type": "Abandoned Vehicles",
    "request_reason": "Abandoned/Junk Vehicles",
    "date_created": "2026-03-09T18:58:23.000",
    "date_modified": "2026-03-09T18:58:25.000",
    "request_status": "Pending",
    "responsible_agency": "Department of Public Works",
    "final_address": "2520 Gravier St",
    "address_councildis": "B",
    "status": "Pending",
    "rowid": "1264039",
    "final_x": "3674705.75854",
    "final_y": "532944.245956",
    "longitude": "-90.08947529891414",
    "latitude": "29.959616423663462",
    "geocoded_column": {
      "latitude": "29.959616423663462",
      "longitude": "-90.08947529891414"
    }
  },
  {
    "service_request": "2026-1264038",
    "request_type": "Property Maintenance",
    "request_reason": "Property Maintenance",
    "date_created": "2026-03-09T18:56:35.000",
    "date_modified": "2026-03-09T18:56:54.000",
    "request_status": "Pending",
    "responsible_agency": "Department of Code Enforcement",
    "final_address": "613 S Rocheblave St",
    "address_councildis": "B",
    "status": "Pending",
    "rowid": "1264038",
    "final_x": "3674822.26664",
    "final_y": "532833.961028",
    "longitude": "-90.08911117416895",
    "latitude": "29.959309698929573",
    "geocoded_column": {
      "latitude": "29.959309698929573",
      "longitude": "-90.08911117416895"
    }
  },
  {
    "service_request": "2026-1264037",
    "request_type": "Trash/Recycling",
    "request_reason": "Damaged Caused By Contractor",
    "date_created": "2026-03-09T18:54:50.000",
    "date_modified": "2026-03-09T18:54:52.000",
    "request_status": "Pending",
    "responsible_agency": "Department of Sanitation",
    "final_address": "121 S Genois St",
    "address_councildis": "B",
    "status": "Assigned to Contractor",
    "contractor": "IV Waste",
    "rowid": "1264037",
    "final_x": "3672416.89627",
    "final_y": "537028.742856",
    "longitude": "-90.09656380046604",
    "latitude": "29.97091554150588",
    "geocoded_column": {
      "latitude": "29.97091554150588",
      "longitude": "-90.09656380046604"
    }
  },
  {
    "service_request": "2026-1264036",
    "request_type": "Roads and Streets",
    "request_reason": "Abandoned Service Cut",
    "date_created": "2026-03-09T18:53:19.000",
    "date_modified": "2026-03-09T18:53:22.000",
    "request_status": "Pending",
    "responsible_agency": "Department of Public Works",
    "final_address": "325 Elmira Ave",
    "address_councildis": "C",
    "status": "Pending",
    "rowid": "1264036",
    "final_x": "3688192.15011",
    "final_y": "530547.696706",
    "longitude": "-90.04697344615032",
    "latitude": "29.952617296970896",
    "geocoded_column": {
      "latitude": "29.952617296970896",
      "longitude": "-90.04697344615032"
    }
  },
  {
    "service_request": "2026-1264035",
    "request_type": "Safety & Permits",
    "request_reason": "Licenses & Permits",
    "date_created": "2026-03-09T18:35:10.000",
    "date_modified": "2026-03-09T18:35:12.000",
    "request_status": "Pending",
    "responsible_agency": "Safety and Permits",
    "final_address": "5524 Hawthorne Pl",
    "address_councildis": "A",
    "status": "Pending",
    "rowid": "1264035",
    "final_x": "3667722.81927",
    "final_y": "544490.092175",
    "longitude": "-90.11113700475914",
    "latitude": "29.99157020941061",
    "geocoded_column": {
      "latitude": "29.99157020941061",
      "longitude": "-90.11113700475914"
    }
  },
  {
    "service_request": "2026-1264034",
    "request_type": "Drainage",
    "request_reason": "Catch Basin Not Draining",
    "date_created": "2026-03-09T18:31:20.000",
    "date_modified": "2026-03-09T18:31:22.000",
    "request_status": "Pending",
    "responsible_agency": "Sewerage & Water Board",
    "final_address": "1900 BLK Short St",
    "address_councildis": "A",
    "status": "Pending",
    "rowid": "1264034",
    "final_x": "3664069.85982",
    "final_y": "530016.50734",
    "longitude": "-90.1231588177416",
    "latitude": "29.95187927623496",
    "geocoded_column": {
      "latitude": "29.95187927623496",
      "longitude": "-90.1231588177416"
    }
  },
  {
    "service_request": "2026-1264033",
    "request_type": "Trash/Recycling",
    "request_reason": "Request a Large Item Pick Up",
    "date_created": "2026-03-09T18:29:42.000",
    "date_modified": "2026-03-09T18:29:44.000",
    "request_status": "Pending",
    "responsible_agency": "Department of Sanitation",
    "final_address": "468 Flood St",
    "address_councildis": "E",
    "status": "Assigned to Contractor",
    "contractor": "Waste Pro",
    "rowid": "1264033",
    "final_x": "3697072.87338",
    "final_y": "531654.914435",
    "longitude": "-90.01889217853372",
    "latitude": "29.955384632585787",
    "geocoded_column": {
      "latitude": "29.955384632585787",
      "longitude": "-90.01889217853372"
    }
  },
  {
    "service_request": "2026-1264032",
    "request_type": "Trash/Recycling",
    "request_reason": "Return Trash Cart",
    "date_created": "2026-03-09T18:27:23.000",
    "date_modified": "2026-03-09T18:27:33.000",
    "request_status": "Pending",
    "responsible_agency": "Department of Sanitation",
    "final_address": "2630 N Rampart St",
    "address_councildis": "C",
    "status": "Assigned to Contractor",
    "contractor": "IV Waste",
    "rowid": "1264032",
    "final_x": "3687243.22038",
    "final_y": "535944.388807",
    "longitude": "-90.04977884757892",
    "latitude": "29.96748559272622",
    "geocoded_column": {
      "latitude": "29.96748559272622",
      "longitude": "-90.04977884757892"
    }
  },
  {
    "service_request": "2026-1264031",
    "request_type": "Trash/Recycling",
    "request_reason": "Repair Trash Cart",
    "date_created": "2026-03-09T18:06:01.000",
    "date_modified": "2026-03-09T18:06:03.000",
    "request_status": "Pending",
    "responsible_agency": "Department of Sanitation",
    "final_address": "33 Versailles Blvd",
    "address_councildis": "A",
    "status": "Assigned to Contractor",
    "contractor": "IV Waste",
    "rowid": "1264031",
    "final_x": "3667385.36794",
    "final_y": "529406.531009",
    "longitude": "-90.11271049664192",
    "latitude": "29.950105339545946",
    "geocoded_column": {
      "latitude": "29.950105339545946",
      "longitude": "-90.11271049664192"
    }
  },
  {
    "service_request": "2026-1264030",
    "request_type": "Trash/Recycling",
    "request_reason": "Missed Trash Pick-Up",
    "date_created": "2026-03-09T17:43:01.000",
    "date_modified": "2026-03-09T17:43:03.000",
    "request_status": "Pending",
    "responsible_agency": "Department of Sanitation",
    "final_address": "1439 N Claiborne Ave, New Orleans, Louisiana, 70116",
    "address_councildis": "D",
    "status": "Assigned to Contractor",
    "contractor": "IV Waste",
    "rowid": "1264030",
    "final_x": "3681375.98709",
    "final_y": "536921.434376",
    "longitude": "-90.06827360585392",
    "latitude": "29.970351545566505",
    "geocoded_column": {
      "latitude": "29.970351545566505",
      "longitude": "-90.06827360585392"
    }
  },
  {
    "service_request": "2026-1264029",
    "request_type": "Property Maintenance",
    "request_reason": "Property Maintenance",
    "date_created": "2026-03-09T17:40:00.000",
    "date_modified": "2026-03-09T17:40:01.000",
    "request_status": "Pending",
    "responsible_agency": "Department of Code Enforcement",
    "final_address": "505 S Genois St",
    "address_councildis": "B",
    "status": "Pending",
    "rowid": "1264029",
    "final_x": "3671554.21876",
    "final_y": "535881.310663",
    "longitude": "-90.09932727827552",
    "latitude": "29.96778606366794",
    "geocoded_column": {
      "latitude": "29.96778606366794",
      "longitude": "-90.09932727827552"
    }
  },
  {
    "service_request": "2026-1264028",
    "request_type": "Trash/Recycling",
    "request_reason": "Repair Recycling Cart",
    "date_created": "2026-03-09T17:36:51.000",
    "date_modified": "2026-03-09T17:36:53.000",
    "request_status": "Pending",
    "responsible_agency": "Department of Sanitation",
    "final_address": "4424 Duplessis St",
    "address_councildis": "D",
    "status": "Pending",
    "rowid": "1264028",
    "final_x": "3678170.72942",
    "final_y": "548705.547155",
    "longitude": "-90.07798844401295",
    "latitude": "30.00285066088251",
    "geocoded_column": {
      "latitude": "30.00285066088251",
      "longitude": "-90.07798844401295"
    }
  },
  {
    "service_request": "2026-1264027",
    "request_type": "Trash/Recycling",
    "request_reason": "Order Trash Cart",
    "date_created": "2026-03-09T17:25:45.000",
    "date_modified": "2026-03-09T17:25:47.000",
    "request_status": "Pending",
    "responsible_agency": "Department of Sanitation",
    "final_address": "4500 Palmyra St",
    "address_councildis": "A",
    "status": "Assigned to Contractor",
    "contractor": "IV Waste",
    "rowid": "1264027",
    "final_x": "3669175.3538",
    "final_y": "538760.147081",
    "longitude": "-90.10674250329562",
    "latitude": "29.975772127812668",
    "geocoded_column": {
      "latitude": "29.975772127812668",
      "longitude": "-90.10674250329562"
    }
  },
  {
    "service_request": "2026-1264026",
    "request_type": "Mosquito, Termite & Rodent Control",
    "request_reason": "Mosquito Complaint",
    "date_created": "2026-03-09T17:22:53.000",
    "date_modified": "2026-03-09T17:22:55.000",
    "request_status": "Pending",
    "responsible_agency": "Mosquito, Termite & Rodent Control Board",
    "final_address": "2016 Seventh St",
    "address_councildis": "B",
    "status": "Pending",
    "rowid": "1264026",
    "final_x": "3674350.60334",
    "final_y": "523387.842683",
    "longitude": "-90.09092400098878",
    "latitude": "29.933350062137272",
    "geocoded_column": {
      "latitude": "29.933350062137272",
      "longitude": "-90.09092400098878"
    }
  },
  {
    "service_request": "2026-1264025",
    "request_type": "Graffiti Removal",
    "request_reason": "Graffiti Removal",
    "date_created": "2026-03-09T17:13:28.000",
    "date_modified": "2026-03-09T17:13:29.000",
    "request_status": "Pending",
    "responsible_agency": "Department of Code Enforcement",
    "final_address": "7524 Kingsport Blvd",
    "address_councildis": "E",
    "status": "Pending",
    "rowid": "1264025",
    "final_x": "3720451.71609",
    "final_y": "572605.497321",
    "longitude": "-89.94350286579446",
    "latitude": "30.067224374749635",
    "geocoded_column": {
      "latitude": "30.067224374749635",
      "longitude": "-89.94350286579446"
    }
  },
  {
    "service_request": "2026-1264024",
    "request_type": "General Services",
    "request_reason": "General Service Request",
    "date_created": "2026-03-09T17:11:19.000",
    "date_modified": "2026-03-09T17:11:21.000",
    "request_status": "Pending",
    "responsible_agency": "Orleans Parish Communication District",
    "final_address": "1616 Lakeshore Dr",
    "address_councildis": "D",
    "status": "Pending",
    "rowid": "1264024",
    "final_x": "3677954.48418",
    "final_y": "557627.146651",
    "longitude": "-90.07836290422878",
    "latitude": "30.027388355762362",
    "geocoded_column": {
      "latitude": "30.027388355762362",
      "longitude": "-90.07836290422878"
    }
  },
  {
    "service_request": "2026-1264023",
    "request_type": "Trash/Recycling",
    "request_reason": "Replace Trash Cart",
    "date_created": "2026-03-09T17:05:08.000",
    "date_modified": "2026-03-09T17:05:10.000",
    "request_status": "Pending",
    "responsible_agency": "Department of Sanitation",
    "final_address": "1609 Fern St",
    "address_councildis": "A",
    "status": "Assigned to Contractor",
    "contractor": "IV Waste",
    "rowid": "1264023",
    "final_x": "3663577.19111",
    "final_y": "528931.34048",
    "longitude": "-90.12475057963981",
    "latitude": "29.948909715466925",
    "geocoded_column": {
      "latitude": "29.948909715466925",
      "longitude": "-90.12475057963981"
    }
  },
  {
    "service_request": "2026-1264022",
    "request_type": "Trash/Recycling",
    "request_reason": "Return Recycling Cart",
    "date_created": "2026-03-09T16:54:58.000",
    "date_modified": "2026-03-09T16:54:59.000",
    "request_status": "Pending",
    "responsible_agency": "Department of Sanitation",
    "final_address": "2618 S Carrollton Ave",
    "address_councildis": "A",
    "status": "Pending",
    "rowid": "1264022",
    "final_x": "3665469.27437",
    "final_y": "532254.613827",
    "longitude": "-90.11866519885308",
    "latitude": "29.957992626194024",
    "geocoded_column": {
      "latitude": "29.957992626194024",
      "longitude": "-90.11866519885308"
    }
  },
  {
    "service_request": "2026-1264021",
    "request_type": "Trash/Recycling",
    "request_reason": "Request a Large Item Pick Up",
    "date_created": "2026-03-09T16:54:18.000",
    "date_modified": "2026-03-09T16:54:20.000",
    "request_status": "Pending",
    "responsible_agency": "Department of Sanitation",
    "final_address": "5213 Sandhurst Dr",
    "address_councildis": "E",
    "status": "Assigned to Contractor",
    "contractor": "Waste Pro",
    "rowid": "1264021",
    "final_x": "3704964.23268",
    "final_y": "557092.397146",
    "longitude": "-89.99303480401484",
    "latitude": "30.02507694350194",
    "geocoded_column": {
      "latitude": "30.02507694350194",
      "longitude": "-89.99303480401484"
    }
  },
  {
    "service_request": "2026-1264020",
    "request_type": "Trash/Recycling",
    "request_reason": "Replace Trash Cart",
    "date_created": "2026-03-09T16:53:10.000",
    "date_modified": "2026-03-09T16:53:12.000",
    "request_status": "Pending",
    "responsible_agency": "Department of Sanitation",
    "final_address": "2420 Cambronne St",
    "address_councildis": "A",
    "status": "Assigned to Contractor",
    "contractor": "IV Waste",
    "rowid": "1264020",
    "final_x": "3664187.60218",
    "final_y": "532474.943876",
    "longitude": "-90.12270502660702",
    "latitude": "29.958635758343053",
    "geocoded_column": {
      "latitude": "29.958635758343053",
      "longitude": "-90.12270502660702"
    }
  },
  {
    "service_request": "2026-1264019",
    "request_type": "Trash/Recycling",
    "request_reason": "Request a Large Item Pick Up",
    "date_created": "2026-03-09T16:49:16.000",
    "date_modified": "2026-03-09T16:49:18.000",
    "request_status": "Pending",
    "responsible_agency": "Department of Sanitation",
    "final_address": "1637 Seventh St",
    "address_councildis": "B",
    "status": "Assigned to Contractor",
    "contractor": "IV Waste",
    "rowid": "1264019",
    "final_x": "3675086.31835",
    "final_y": "522376.093562",
    "longitude": "-90.08863608639302",
    "latitude": "29.930546125664993",
    "geocoded_column": {
      "latitude": "29.930546125664993",
      "longitude": "-90.08863608639302"
    }
  },
  {
    "service_request": "2026-1264018",
    "request_type": "Trash/Recycling",
    "request_reason": "Request a Large Item Pick Up",
    "date_created": "2026-03-09T16:48:31.000",
    "date_modified": "2026-03-09T16:48:33.000",
    "request_status": "Pending",
    "responsible_agency": "Department of Sanitation",
    "final_address": "5560 Maple Ridge Dr",
    "address_councildis": "E",
    "status": "Assigned to Contractor",
    "contractor": "Waste Pro",
    "rowid": "1264018",
    "final_x": "3724370.56774",
    "final_y": "563985.516577",
    "longitude": "-89.93144823422779",
    "latitude": "30.043391763074496",
    "geocoded_column": {
      "latitude": "30.043391763074496",
      "longitude": "-89.93144823422779"
    }
  },
  {
    "service_request": "2026-1264017",
    "request_type": "Trash/Recycling",
    "request_reason": "Request a Large Item Pick Up",
    "date_created": "2026-03-09T16:46:03.000",
    "date_modified": "2026-03-09T16:46:04.000",
    "request_status": "Pending",
    "responsible_agency": "Department of Sanitation",
    "final_address": "7039 West End Blvd",
    "address_councildis": "A",
    "status": "Assigned to Contractor",
    "contractor": "IV Waste",
    "rowid": "1264017",
    "final_x": "3666894.74868",
    "final_y": "554420.404248",
    "longitude": "-90.1134187532635",
    "latitude": "30.0188993800944",
    "geocoded_column": {
      "latitude": "30.0188993800944",
      "longitude": "-90.1134187532635"
    }
  },
  {
    "service_request": "2026-1264016",
    "request_type": "Trash/Recycling",
    "request_reason": "Request a Large Item Pick Up",
    "date_created": "2026-03-09T16:45:27.000",
    "date_modified": "2026-03-09T16:45:29.000",
    "request_status": "Pending",
    "responsible_agency": "Department of Sanitation",
    "final_address": "621 St Peter St Unit 4",
    "address_councildis": "C",
    "status": "Assigned to Contractor",
    "contractor": "IV Waste",
    "rowid": "1264016",
    "final_x": "3682695.15688",
    "final_y": "532384.741251",
    "longitude": "-90.06426620860525",
    "latitude": "29.95783708483443",
    "geocoded_column": {
      "latitude": "29.95783708483443",
      "longitude": "-90.06426620860525"
    }
  },
  {
    "service_request": "2026-1264015",
    "request_type": "Trash/Recycling",
    "request_reason": "Request a Large Item Pick Up",
    "date_created": "2026-03-09T16:44:34.000",
    "date_modified": "2026-03-09T16:44:36.000",
    "request_status": "Pending",
    "responsible_agency": "Department of Sanitation",
    "final_address": "1322 Lesseps St",
    "address_councildis": "D",
    "status": "Assigned to Contractor",
    "contractor": "IV Waste",
    "rowid": "1264015",
    "final_x": "3692896.12944",
    "final_y": "536014.741191",
    "longitude": "-90.03192440333586",
    "latitude": "29.967503709413325",
    "geocoded_column": {
      "latitude": "29.967503709413325",
      "longitude": "-90.03192440333586"
    }
  },
  {
    "service_request": "2026-1264014",
    "request_type": "Trash/Recycling",
    "request_reason": "Request a Large Item Pick Up",
    "date_created": "2026-03-09T16:42:52.000",
    "date_modified": "2026-03-09T16:43:21.000",
    "request_status": "Pending",
    "responsible_agency": "Department of Sanitation",
    "final_address": "6940 Bundy Rd",
    "address_councildis": "E",
    "status": "Assigned to Contractor",
    "contractor": "Waste Pro",
    "rowid": "1264014",
    "final_x": "3707076.93988",
    "final_y": "560551.857118",
    "longitude": "-89.98623052560575",
    "latitude": "30.034520982988756",
    "geocoded_column": {
      "latitude": "30.034520982988756",
      "longitude": "-89.98623052560575"
    }
  },
  {
    "service_request": "2026-1264013",
    "request_type": "Roads and Streets",
    "request_reason": "Pothole",
    "date_created": "2026-03-09T16:42:13.000",
    "date_modified": "2026-03-09T16:45:52.000",
    "request_status": "Pending",
    "responsible_agency": "Department of Public Works",
    "final_address": "1904 Poydras St, New Orleans, Louisiana, 70112",
    "address_councildis": "B",
    "status": "Pending",
    "rowid": "1264013",
    "final_x": "3676673.84801",
    "final_y": "530737.709314",
    "longitude": "-90.08333653067666",
    "latitude": "29.95349029636172",
    "geocoded_column": {
      "latitude": "29.95349029636172",
      "longitude": "-90.08333653067666"
    }
  },
  {
    "service_request": "2026-1264012",
    "request_type": "Property Maintenance",
    "request_reason": "Property Maintenance",
    "date_created": "2026-03-09T16:40:34.000",
    "date_modified": "2026-03-09T16:43:47.000",
    "request_status": "Pending",
    "responsible_agency": "Department of Code Enforcement",
    "final_address": "5219 Toulon St",
    "address_councildis": "E",
    "status": "Pending",
    "rowid": "1264012",
    "final_x": "3723644.12396",
    "final_y": "562649.7064",
    "longitude": "-89.933795635804",
    "latitude": "30.039743253717187",
    "geocoded_column": {
      "latitude": "30.039743253717187",
      "longitude": "-89.933795635804"
    }
  },
  {
    "service_request": "2026-1264011",
    "request_type": "Trash/Recycling",
    "request_reason": "Order Recycling Cart",
    "date_created": "2026-03-09T16:40:25.000",
    "date_modified": "2026-03-09T16:40:27.000",
    "request_status": "Pending",
    "responsible_agency": "Department of Sanitation",
    "final_address": "104 Kingston Ct",
    "address_councildis": "C",
    "status": "Pending",
    "rowid": "1264011",
    "final_x": "3705758.34775",
    "final_y": "517847.94975",
    "longitude": "-89.99197719750389",
    "latitude": "29.91714353119783",
    "geocoded_column": {
      "latitude": "29.91714353119783",
      "longitude": "-89.99197719750389"
    }
  },
  {
    "service_request": "2026-1264009",
    "request_type": "Property Maintenance",
    "request_reason": "Property Maintenance",
    "date_created": "2026-03-09T16:39:04.000",
    "date_modified": "2026-03-09T16:44:21.000",
    "request_status": "Pending",
    "responsible_agency": "Department of Code Enforcement",
    "final_address": "13046 Lemans St",
    "address_councildis": "E",
    "status": "Pending",
    "rowid": "1264009",
    "final_x": "3723909.73119",
    "final_y": "562660.66032",
    "longitude": "-89.93295582412425",
    "latitude": "30.03976444966118",
    "geocoded_column": {
      "latitude": "30.03976444966118",
      "longitude": "-89.93295582412425"
    }
  },
  {
    "service_request": "2026-1264008",
    "request_type": "Trash/Recycling",
    "request_reason": "Replace Trash Cart",
    "date_created": "2026-03-09T16:37:00.000",
    "date_modified": "2026-03-09T16:37:02.000",
    "request_status": "Pending",
    "responsible_agency": "Department of Sanitation",
    "final_address": "5319 Magazine St",
    "address_councildis": "B",
    "status": "Assigned to Contractor",
    "contractor": "IV Waste",
    "rowid": "1264008",
    "final_x": "3667346.26701",
    "final_y": "518723.573815",
    "longitude": "-90.1131931408558",
    "latitude": "29.920731770609418",
    "geocoded_column": {
      "latitude": "29.920731770609418",
      "longitude": "-90.1131931408558"
    }
  },
  {
    "service_request": "2026-1264007",
    "request_type": "Trash/Recycling",
    "request_reason": "Request a Large Item Pick Up",
    "date_created": "2026-03-09T16:36:27.000",
    "date_modified": "2026-03-09T16:36:29.000",
    "request_status": "Pending",
    "responsible_agency": "Department of Sanitation",
    "final_address": "10911 Kinneil Rd",
    "address_councildis": "E",
    "status": "Assigned to Contractor",
    "contractor": "Waste Pro",
    "rowid": "1264007",
    "final_x": "3711290.28382",
    "final_y": "564277.110049",
    "longitude": "-89.97277611107886",
    "latitude": "30.044627065017497",
    "geocoded_column": {
      "latitude": "30.044627065017497",
      "longitude": "-89.97277611107886"
    }
  },
  {
    "service_request": "2026-1264006",
    "request_type": "Trash/Recycling",
    "request_reason": "Request a Large Item Pick Up",
    "date_created": "2026-03-09T16:35:20.000",
    "date_modified": "2026-03-09T16:35:21.000",
    "request_status": "Pending",
    "responsible_agency": "Department of Sanitation",
    "final_address": "534 Elmira Ave",
    "address_councildis": "C",
    "status": "Assigned to Contractor",
    "contractor": "Richards Disposal",
    "rowid": "1264006",
    "final_x": "3688241.26089",
    "final_y": "529610.221953",
    "longitude": "-90.0468516113597",
    "latitude": "29.950038047047368",
    "geocoded_column": {
      "latitude": "29.950038047047368",
      "longitude": "-90.0468516113597"
    }
  },
  {
    "service_request": "2026-1264005",
    "request_type": "Trash/Recycling",
    "request_reason": "Request a Large Item Pick Up",
    "date_created": "2026-03-09T16:34:21.000",
    "date_modified": "2026-03-09T16:34:23.000",
    "request_status": "Pending",
    "responsible_agency": "Department of Sanitation",
    "final_address": "9125 Belfast St",
    "address_councildis": "A",
    "status": "Assigned to Contractor",
    "contractor": "IV Waste",
    "rowid": "1264005",
    "final_x": "3662852.69779",
    "final_y": "534903.77191",
    "longitude": "-90.12683957103309",
    "latitude": "29.965352956056837",
    "geocoded_column": {
      "latitude": "29.965352956056837",
      "longitude": "-90.12683957103309"
    }
  },
  {
    "service_request": "2026-1264004",
    "request_type": "Trash/Recycling",
    "request_reason": "Repair Trash Cart",
    "date_created": "2026-03-09T16:32:18.000",
    "date_modified": "2026-03-09T16:32:20.000",
    "request_status": "Pending",
    "responsible_agency": "Department of Sanitation",
    "final_address": "521 River Oaks Dr",
    "address_councildis": "C",
    "status": "Assigned to Contractor",
    "contractor": "Richards Disposal",
    "rowid": "1264004",
    "final_x": "3701455.56964",
    "final_y": "521040.671801",
    "longitude": "-90.00544172093308",
    "latitude": "29.92606021821838",
    "geocoded_column": {
      "latitude": "29.92606021821838",
      "longitude": "-90.00544172093308"
    }
  },
  {
    "service_request": "2026-1264003",
    "request_type": "Trash/Recycling",
    "request_reason": "Repair Trash Cart",
    "date_created": "2026-03-09T16:32:02.000",
    "date_modified": "2026-03-09T16:32:04.000",
    "request_status": "Pending",
    "responsible_agency": "Department of Sanitation",
    "final_address": "4936 Coliseum St",
    "address_councildis": "B",
    "status": "Assigned to Contractor",
    "contractor": "IV Waste",
    "rowid": "1264003",
    "final_x": "3668719.76238",
    "final_y": "519601.147576",
    "longitude": "-90.10882803104927",
    "latitude": "29.923104533931323",
    "geocoded_column": {
      "latitude": "29.923104533931323",
      "longitude": "-90.10882803104927"
    }
  },
  {
    "service_request": "2026-1264002",
    "request_type": "Trash/Recycling",
    "request_reason": "Request a Large Item Pick Up",
    "date_created": "2026-03-09T16:31:19.000",
    "date_modified": "2026-03-09T16:31:20.000",
    "request_status": "Pending",
    "responsible_agency": "Department of Sanitation",
    "final_address": "6021 Craigie Rd",
    "address_councildis": "E",
    "status": "Assigned to Contractor",
    "contractor": "Waste Pro",
    "rowid": "1264002",
    "final_x": "3695410.4177",
    "final_y": "558727.274972",
    "longitude": "-90.02316414090564",
    "latitude": "30.02987605020238",
    "geocoded_column": {
      "latitude": "30.02987605020238",
      "longitude": "-90.02316414090564"
    }
  },
  {
    "service_request": "2026-1264001",
    "request_type": "Street and Traffic Signs",
    "request_reason": "Additional Signage Request",
    "date_created": "2026-03-09T16:28:26.000",
    "date_modified": "2026-03-09T16:28:27.000",
    "request_status": "Pending",
    "responsible_agency": "Department of Public Works",
    "final_address": "2452 Madrid St",
    "address_councildis": "D",
    "status": "Pending",
    "rowid": "1264001",
    "final_x": "3685435.61109",
    "final_y": "555442.077593",
    "longitude": "-90.05480025599607",
    "latitude": "30.02115280919469",
    "geocoded_column": {
      "latitude": "30.02115280919469",
      "longitude": "-90.05480025599607"
    }
  },
  {
    "service_request": "2026-1264000",
    "request_type": "Trash/Recycling",
    "request_reason": "Order Recycling Cart",
    "date_created": "2026-03-09T16:28:16.000",
    "date_modified": "2026-03-09T16:28:17.000",
    "request_status": "Pending",
    "responsible_agency": "Department of Sanitation",
    "final_address": "302 S Scott St",
    "address_councildis": "A",
    "status": "Pending",
    "rowid": "1264000",
    "final_x": "3671294.31003",
    "final_y": "537134.281224",
    "longitude": "-90.10010549253754",
    "latitude": "29.97123900551795",
    "geocoded_column": {
      "latitude": "29.97123900551795",
      "longitude": "-90.10010549253754"
    }
  },
  {
    "service_request": "2026-1263999",
    "request_type": "Trash/Recycling",
    "request_reason": "Repair Recycling Cart",
    "date_created": "2026-03-09T16:27:56.000",
    "date_modified": "2026-03-09T16:27:58.000",
    "request_status": "Pending",
    "responsible_agency": "Department of Sanitation",
    "final_address": "240 Simmons Dr",
    "address_councildis": "D",
    "status": "Pending",
    "rowid": "1263999",
    "final_x": "3689768.2255",
    "final_y": "546027.758864",
    "longitude": "-90.04144583714495",
    "latitude": "29.995133253172835",
    "geocoded_column": {
      "latitude": "29.995133253172835",
      "longitude": "-90.04144583714495"
    }
  },
  {
    "service_request": "2026-1263998",
    "request_type": "Trash/Recycling",
    "request_reason": "Replace Trash Cart",
    "date_created": "2026-03-09T16:26:14.000",
    "date_modified": "2026-03-09T16:26:15.000",
    "request_status": "Pending",
    "responsible_agency": "Department of Sanitation",
    "final_address": "3419 Somerset Dr",
    "address_councildis": "C",
    "status": "Assigned to Contractor",
    "contractor": "Richards Disposal",
    "rowid": "1263998",
    "final_x": "3702439.09213",
    "final_y": "518534.848823",
    "longitude": "-90.00242892619501",
    "latitude": "29.919138692350113",
    "geocoded_column": {
      "latitude": "29.919138692350113",
      "longitude": "-90.00242892619501"
    }
  },
  {
    "service_request": "2026-1263997",
    "request_type": "Trash/Recycling",
    "request_reason": "Request a Large Item Pick Up",
    "date_created": "2026-03-09T16:25:53.000",
    "date_modified": "2026-03-09T16:25:54.000",
    "request_status": "Pending",
    "responsible_agency": "Department of Sanitation",
    "final_address": "908 Montegut St",
    "address_councildis": "C",
    "status": "Assigned to Contractor",
    "contractor": "IV Waste",
    "rowid": "1263997",
    "final_x": "3688237.63804",
    "final_y": "535450.784838",
    "longitude": "-90.04665597012085",
    "latitude": "29.966097687364243",
    "geocoded_column": {
      "latitude": "29.966097687364243",
      "longitude": "-90.04665597012085"
    }
  },
  {
    "service_request": "2026-1263996",
    "request_type": "Trash/Recycling",
    "request_reason": "Request a Large Item Pick Up",
    "date_created": "2026-03-09T16:24:54.000",
    "date_modified": "2026-03-09T16:24:56.000",
    "request_status": "Pending",
    "responsible_agency": "Department of Sanitation",
    "final_address": "2314 State St",
    "address_councildis": "A",
    "status": "Assigned to Contractor",
    "contractor": "IV Waste",
    "rowid": "1263996",
    "final_x": "3666556.93466",
    "final_y": "525188.014845",
    "longitude": "-90.11546783031146",
    "latitude": "29.938530020781233",
    "geocoded_column": {
      "latitude": "29.938530020781233",
      "longitude": "-90.11546783031146"
    }
  },
  {
    "service_request": "2026-1263995",
    "request_type": "Trash/Recycling",
    "request_reason": "Request a Large Item Pick Up",
    "date_created": "2026-03-09T16:23:55.000",
    "date_modified": "2026-03-09T16:23:57.000",
    "request_status": "Pending",
    "responsible_agency": "Department of Sanitation",
    "final_address": "5106 Lafaye St",
    "address_councildis": "D",
    "status": "Assigned to Contractor",
    "contractor": "IV Waste",
    "rowid": "1263995",
    "final_x": "3687302.93193",
    "final_y": "551726.994517",
    "longitude": "-90.04903163268375",
    "latitude": "30.01088027794011",
    "geocoded_column": {
      "latitude": "30.01088027794011",
      "longitude": "-90.04903163268375"
    }
  },
  {
    "service_request": "2026-1263994",
    "request_type": "Parks & Parkways",
    "request_reason": "Request Tree Service (Right of Way/Public Property)",
    "date_created": "2026-03-09T16:22:42.000",
    "date_modified": "2026-03-09T16:22:46.000",
    "request_status": "Pending",
    "responsible_agency": "Department of Parks & Parkway",
    "final_address": "537 St Ann St",
    "address_councildis": "C",
    "status": "Pending",
    "rowid": "1263994",
    "final_x": "3683167.04533",
    "final_y": "532373.044099",
    "longitude": "-90.06277653120603",
    "latitude": "29.95779054248961",
    "geocoded_column": {
      "latitude": "29.95779054248961",
      "longitude": "-90.06277653120603"
    }
  },
  {
    "service_request": "2026-1263993",
    "request_type": "Trash/Recycling",
    "request_reason": "Request a Large Item Pick Up",
    "date_created": "2026-03-09T16:20:34.000",
    "date_modified": "2026-03-09T16:20:36.000",
    "request_status": "Pending",
    "responsible_agency": "Department of Sanitation",
    "final_address": "1214 Desire St",
    "address_councildis": "C",
    "status": "Assigned to Contractor",
    "contractor": "IV Waste",
    "rowid": "1263993",
    "final_x": "3690266.45532",
    "final_y": "536189.913927",
    "longitude": "-90.04022269535092",
    "latitude": "29.96806723480544",
    "geocoded_column": {
      "latitude": "29.96806723480544",
      "longitude": "-90.04022269535092"
    }
  },
  {
    "service_request": "2026-1263992",
    "request_type": "Trash/Recycling",
    "request_reason": "Repair Trash Cart",
    "date_created": "2026-03-09T16:20:32.000",
    "date_modified": "2026-03-09T16:20:33.000",
    "request_status": "Pending",
    "responsible_agency": "Department of Sanitation",
    "final_address": "2121 Simon Bolivar Ave",
    "address_councildis": "B",
    "status": "Assigned to Contractor",
    "contractor": "IV Waste",
    "rowid": "1263992",
    "final_x": "3676342.05403",
    "final_y": "525666.676733",
    "longitude": "-90.08455870243498",
    "latitude": "29.93955658563941",
    "geocoded_column": {
      "latitude": "29.93955658563941",
      "longitude": "-90.08455870243498"
    }
  },
  {
    "service_request": "2026-1263991",
    "request_type": "General Services",
    "request_reason": "General Service Request",
    "date_created": "2026-03-09T16:18:39.000",
    "date_modified": "2026-03-09T16:28:24.000",
    "case_close_date": "2026-03-09T11:28:23.000",
    "request_status": "Closed",
    "responsible_agency": "Orleans Parish Communication District",
    "final_address": "801 Fourth St",
    "address_councildis": "B",
    "status": "Question Answered.",
    "rowid": "1263991",
    "final_x": "3677936.3211",
    "final_y": "520120.60236",
    "longitude": "-90.07971694947304",
    "latitude": "29.92425882502048",
    "geocoded_column": {
      "latitude": "29.92425882502048",
      "longitude": "-90.07971694947304"
    }
  },
  {
    "service_request": "2026-1263990",
    "request_type": "Drainage",
    "request_reason": "Ditch and Culvert Maintenance",
    "date_created": "2026-03-09T16:15:15.000",
    "date_modified": "2026-03-09T16:15:58.000",
    "request_status": "Pending",
    "responsible_agency": "Department of Public Works",
    "final_address": "3200 Sabine St",
    "address_councildis": "C",
    "status": "Pending",
    "rowid": "1263990",
    "final_x": "3694708.22218",
    "final_y": "518221.942582",
    "longitude": "-90.02684248467068",
    "latitude": "29.91852294812501",
    "geocoded_column": {
      "latitude": "29.91852294812501",
      "longitude": "-90.02684248467068"
    }
  },
  {
    "service_request": "2026-1263989",
    "request_type": "Streetlights",
    "request_reason": "Streetlight Outage/Malfunction",
    "date_created": "2026-03-09T16:10:41.000",
    "date_modified": "2026-03-09T16:10:45.000",
    "request_status": "Pending",
    "responsible_agency": "Department of Public Works",
    "final_address": "7351 Weaver Ave",
    "address_councildis": "E",
    "status": "Pending",
    "rowid": "1263989",
    "final_x": "3707899.29457",
    "final_y": "563583.128673",
    "longitude": "-89.98351894674416",
    "latitude": "30.04282916825636",
    "geocoded_column": {
      "latitude": "30.04282916825636",
      "longitude": "-89.98351894674416"
    }
  },
  {
    "service_request": "2026-1263988",
    "request_type": "Trash/Recycling",
    "request_reason": "Request a Large Item Pick Up",
    "date_created": "2026-03-09T16:08:12.000",
    "date_modified": "2026-03-09T16:08:17.000",
    "request_status": "Pending",
    "responsible_agency": "Department of Sanitation",
    "final_address": "8812 Dinkins St",
    "address_councildis": "E",
    "status": "Assigned to Contractor",
    "contractor": "Waste Pro",
    "rowid": "1263988",
    "final_x": "3704521.52017",
    "final_y": "563264.19984",
    "longitude": "-89.99420577928596",
    "latitude": "30.042061216442303",
    "geocoded_column": {
      "latitude": "30.042061216442303",
      "longitude": "-89.99420577928596"
    }
  },
  {
    "service_request": "2026-1263987",
    "request_type": "Trash/Recycling",
    "request_reason": "Request a Large Item Pick Up",
    "date_created": "2026-03-09T16:06:45.000",
    "date_modified": "2026-03-09T16:06:48.000",
    "request_status": "Pending",
    "responsible_agency": "Department of Sanitation",
    "final_address": "11010 Yardley Rd",
    "address_councildis": "E",
    "status": "Assigned to Contractor",
    "contractor": "Waste Pro",
    "rowid": "1263987",
    "final_x": "3712014.41496",
    "final_y": "563703.492897",
    "longitude": "-89.97050910724337",
    "latitude": "30.043026187121722",
    "geocoded_column": {
      "latitude": "30.043026187121722",
      "longitude": "-89.97050910724337"
    }
  },
  {
    "service_request": "2026-1263986",
    "request_type": "Trash/Recycling",
    "request_reason": "Repair Trash Cart",
    "date_created": "2026-03-09T16:05:34.000",
    "date_modified": "2026-03-09T16:05:35.000",
    "request_status": "Pending",
    "responsible_agency": "Department of Sanitation",
    "final_address": "4329 St Bernard Ave",
    "address_councildis": "D",
    "status": "Assigned to Contractor",
    "contractor": "IV Waste",
    "rowid": "1263986",
    "final_x": "3676931.59189",
    "final_y": "548492.05429",
    "longitude": "-90.08191042038688",
    "latitude": "30.002300900952623",
    "geocoded_column": {
      "latitude": "30.002300900952623",
      "longitude": "-90.08191042038688"
    }
  },
  {
    "service_request": "2026-1263985",
    "request_type": "Trash/Recycling",
    "request_reason": "Replace Trash Cart",
    "date_created": "2026-03-09T16:05:00.000",
    "date_modified": "2026-03-09T16:05:01.000",
    "request_status": "Pending",
    "responsible_agency": "Department of Sanitation",
    "final_address": "1128 St Roch Ave",
    "address_councildis": "C",
    "status": "Assigned to Contractor",
    "contractor": "IV Waste",
    "rowid": "1263985",
    "final_x": "3686392.09186",
    "final_y": "536750.650631",
    "longitude": "-90.05243825903001",
    "latitude": "29.96972872030276",
    "geocoded_column": {
      "latitude": "29.96972872030276",
      "longitude": "-90.05243825903001"
    }
  },
  {
    "service_request": "2026-1263984",
    "request_type": "Trash/Recycling",
    "request_reason": "Order Trash Cart",
    "date_created": "2026-03-09T16:01:45.000",
    "date_modified": "2026-03-09T16:01:47.000",
    "request_status": "Pending",
    "responsible_agency": "Department of Sanitation",
    "final_address": "1122 St Roch Ave",
    "address_councildis": "C",
    "status": "Assigned to Contractor",
    "contractor": "IV Waste",
    "rowid": "1263984",
    "final_x": "3686401.57577",
    "final_y": "536695.953287",
    "longitude": "-90.05241023908307",
    "latitude": "29.969578030166307",
    "geocoded_column": {
      "latitude": "29.969578030166307",
      "longitude": "-90.05241023908307"
    }
  },
  {
    "service_request": "2026-1263983",
    "request_type": "Trash/Recycling",
    "request_reason": "Request a Large Item Pick Up",
    "date_created": "2026-03-09T15:58:55.000",
    "date_modified": "2026-03-09T15:58:57.000",
    "request_status": "Pending",
    "responsible_agency": "Department of Sanitation",
    "final_address": "4520 Flake Ave",
    "address_councildis": "E",
    "status": "Assigned to Contractor",
    "contractor": "Waste Pro",
    "rowid": "1263983",
    "final_x": "3706168.64299",
    "final_y": "554011.47196",
    "longitude": "-89.98934327572003",
    "latitude": "30.016566800251983",
    "geocoded_column": {
      "latitude": "30.016566800251983",
      "longitude": "-89.98934327572003"
    }
  },
  {
    "service_request": "2026-1263982",
    "request_type": "Trash/Recycling",
    "request_reason": "Request a Large Item Pick Up",
    "date_created": "2026-03-09T15:57:54.000",
    "date_modified": "2026-03-09T15:57:56.000",
    "request_status": "Pending",
    "responsible_agency": "Department of Sanitation",
    "final_address": "4761 Flake Ave",
    "address_councildis": "E",
    "status": "Assigned to Contractor",
    "contractor": "Waste Pro",
    "rowid": "1263982",
    "final_x": "3706178.98129",
    "final_y": "555616.755033",
    "longitude": "-89.98925111636584",
    "latitude": "30.020980375104553",
    "geocoded_column": {
      "latitude": "30.020980375104553",
      "longitude": "-89.98925111636584"
    }
  },
  {
    "service_request": "2026-1263981",
    "request_type": "Trash/Recycling",
    "request_reason": "Missed Trash Pick-Up",
    "date_created": "2026-03-09T15:57:03.000",
    "date_modified": "2026-03-09T17:21:35.000",
    "case_close_date": "2026-03-09T12:21:33.000",
    "request_status": "Closed",
    "responsible_agency": "Department of Sanitation",
    "final_address": "206 S Norman C Francis Prkwy",
    "address_councildis": "B",
    "status": "Invalid Request",
    "contractor": "IV Waste",
    "contractor_action": "Invalid Request",
    "rowid": "1263981",
    "final_x": "3673011.05473",
    "final_y": "536240.500295",
    "longitude": "-90.09471427793976",
    "latitude": "29.9687304934256",
    "geocoded_column": {
      "latitude": "29.9687304934256",
      "longitude": "-90.09471427793976"
    }
  },
  {
    "service_request": "2026-1263980",
    "request_type": "Trash/Recycling",
    "request_reason": "Request a Large Item Pick Up",
    "date_created": "2026-03-09T15:53:16.000",
    "date_modified": "2026-03-09T15:53:18.000",
    "request_status": "Pending",
    "responsible_agency": "Department of Sanitation",
    "final_address": "13535 N Lemans St",
    "address_councildis": "E",
    "status": "Assigned to Contractor",
    "contractor": "Waste Pro",
    "rowid": "1263980",
    "final_x": "3725703.75488",
    "final_y": "563176.068512",
    "longitude": "-89.92726625273671",
    "latitude": "30.04112120027843",
    "geocoded_column": {
      "latitude": "30.04112120027843",
      "longitude": "-89.92726625273671"
    }
  },
  {
    "service_request": "2026-1263979",
    "request_type": "Trash/Recycling",
    "request_reason": "Request a Large Item Pick Up",
    "date_created": "2026-03-09T15:51:27.000",
    "date_modified": "2026-03-09T15:51:29.000",
    "request_status": "Pending",
    "responsible_agency": "Department of Sanitation",
    "final_address": "8712 Morrison Rd",
    "address_councildis": "E",
    "status": "Assigned to Contractor",
    "contractor": "Waste Pro",
    "rowid": "1263979",
    "final_x": "3705236.33201",
    "final_y": "561516.378783",
    "longitude": "-89.99201138094902",
    "latitude": "30.037232409128308",
    "geocoded_column": {
      "latitude": "30.037232409128308",
      "longitude": "-89.99201138094902"
    }
  },
  {
    "service_request": "2026-1263978",
    "request_type": "Health Related Request",
    "request_reason": "Homeless Encampment Complaint",
    "date_created": "2026-03-09T15:49:17.000",
    "date_modified": "2026-03-09T15:49:18.000",
    "request_status": "Pending",
    "responsible_agency": "Office Of Homeless Services And Strategy",
    "final_address": "3865 Gentilly Blvd",
    "address_councildis": "D",
    "status": "Pending",
    "rowid": "1263978",
    "final_x": "3688184.19951",
    "final_y": "548882.075027",
    "longitude": "-90.04634832320612",
    "latitude": "30.003030600110506",
    "geocoded_column": {
      "latitude": "30.003030600110506",
      "longitude": "-90.04634832320612"
    }
  },
  {
    "service_request": "2026-1263977",
    "request_type": "Trash/Recycling",
    "request_reason": "Order Recycling Cart",
    "date_created": "2026-03-09T15:48:50.000",
    "date_modified": "2026-03-09T15:48:52.000",
    "request_status": "Pending",
    "responsible_agency": "Department of Sanitation",
    "final_address": "3944 Annunciation St",
    "address_councildis": "B",
    "status": "Pending",
    "rowid": "1263977",
    "final_x": "3673018.31598",
    "final_y": "517890.345462",
    "longitude": "-90.09531747320457",
    "latitude": "29.918273363576176",
    "geocoded_column": {
      "latitude": "29.918273363576176",
      "longitude": "-90.09531747320457"
    }
  },
  {
    "service_request": "2026-1263976",
    "request_type": "Trash/Recycling",
    "request_reason": "Request a Large Item Pick Up",
    "date_created": "2026-03-09T15:48:39.000",
    "date_modified": "2026-03-09T15:48:41.000",
    "request_status": "Pending",
    "responsible_agency": "Department of Sanitation",
    "final_address": "5320 Baccich St",
    "address_councildis": "D",
    "status": "Assigned to Contractor",
    "contractor": "IV Waste",
    "rowid": "1263976",
    "final_x": "3687526.97295",
    "final_y": "552494.939158",
    "longitude": "-90.04829659103243",
    "latitude": "30.012984937141223",
    "geocoded_column": {
      "latitude": "30.012984937141223",
      "longitude": "-90.04829659103243"
    }
  },
  {
    "service_request": "2026-1263975",
    "request_type": "Health Related Request",
    "request_reason": "Homeless Encampment Complaint",
    "date_created": "2026-03-09T15:47:34.000",
    "date_modified": "2026-03-09T15:47:36.000",
    "request_status": "Pending",
    "responsible_agency": "Office Of Homeless Services And Strategy",
    "final_address": "3865 Gentilly Blvd",
    "address_councildis": "D",
    "status": "Pending",
    "rowid": "1263975",
    "final_x": "3688184.19951",
    "final_y": "548882.075027",
    "longitude": "-90.04634832320612",
    "latitude": "30.003030600110506",
    "geocoded_column": {
      "latitude": "30.003030600110506",
      "longitude": "-90.04634832320612"
    }
  },
  {
    "service_request": "2026-1263974",
    "request_type": "Trash/Recycling",
    "request_reason": "Repair Trash Cart",
    "date_created": "2026-03-09T15:45:31.000",
    "date_modified": "2026-03-09T15:45:33.000",
    "request_status": "Pending",
    "responsible_agency": "Department of Sanitation",
    "final_address": "1214 N Tonti St",
    "address_councildis": "D",
    "status": "Assigned to Contractor",
    "contractor": "IV Waste",
    "rowid": "1263974",
    "final_x": "3679025.3037",
    "final_y": "537662.883848",
    "longitude": "-90.07567162211993",
    "latitude": "29.97246142850661",
    "geocoded_column": {
      "latitude": "29.97246142850661",
      "longitude": "-90.07567162211993"
    }
  },
  {
    "service_request": "2026-1263973",
    "request_type": "Parks & Parkways",
    "request_reason": "Request Tree Service (Right of Way/Public Property)",
    "date_created": "2026-03-09T15:44:32.000",
    "date_modified": "2026-03-09T15:44:34.000",
    "request_status": "Pending",
    "responsible_agency": "Department of Parks & Parkway",
    "final_address": "7904 St Charles Ave Apt R6",
    "address_councildis": "A",
    "status": "Pending",
    "rowid": "1263973",
    "final_x": "3661024.13094",
    "final_y": "526277.861182",
    "longitude": "-90.13289950942824",
    "latitude": "29.941687290378585",
    "geocoded_column": {
      "latitude": "29.941687290378585",
      "longitude": "-90.13289950942824"
    }
  },
  {
    "service_request": "2026-1263972",
    "request_type": "Trash/Recycling",
    "request_reason": "Request a Large Item Pick Up",
    "date_created": "2026-03-09T15:43:11.000",
    "date_modified": "2026-03-09T15:43:13.000",
    "request_status": "Pending",
    "responsible_agency": "Department of Sanitation",
    "final_address": "9537 Palm St",
    "address_councildis": "A",
    "status": "Assigned to Contractor",
    "contractor": "IV Waste",
    "rowid": "1263972",
    "final_x": "3663882.91712",
    "final_y": "538246.349833",
    "longitude": "-90.12347471861092",
    "latitude": "29.974514074111802",
    "geocoded_column": {
      "latitude": "29.974514074111802",
      "longitude": "-90.12347471861092"
    }
  },
  {
    "service_request": "2026-1263971",
    "request_type": "Roads and Streets",
    "request_reason": "Pothole",
    "date_created": "2026-03-09T15:42:03.000",
    "date_modified": "2026-03-09T15:42:06.000",
    "request_status": "Pending",
    "responsible_agency": "Department of Public Works",
    "final_address": "1207 Ursulines Ave",
    "address_councildis": "C",
    "status": "Pending",
    "rowid": "1263971",
    "final_x": "3681912.54018",
    "final_y": "534855.273286",
    "longitude": "-90.06665124667397",
    "latitude": "29.964654014215245",
    "geocoded_column": {
      "latitude": "29.964654014215245",
      "longitude": "-90.06665124667397"
    }
  },
  {
    "service_request": "2026-1263970",
    "request_type": "Trash/Recycling",
    "request_reason": "Illegal Dumping",
    "date_created": "2026-03-09T15:41:32.000",
    "date_modified": "2026-03-09T15:42:06.000",
    "case_close_date": "2026-03-09T10:42:04.000",
    "request_status": "Closed",
    "responsible_agency": "Department of Sanitation",
    "final_address": "2000 Benton St",
    "address_councildis": "E",
    "status": "Resolved",
    "rowid": "1263970",
    "final_x": "3700097.39754",
    "final_y": "536835.62292",
    "longitude": "-90.0091528445622",
    "latitude": "29.969533980350974",
    "geocoded_column": {
      "latitude": "29.969533980350974",
      "longitude": "-90.0091528445622"
    }
  },
  {
    "service_request": "2026-1263969",
    "request_type": "Property Maintenance",
    "request_reason": "Property Maintenance",
    "date_created": "2026-03-09T15:40:51.000",
    "date_modified": "2026-03-09T15:40:52.000",
    "request_status": "Pending",
    "responsible_agency": "Department of Code Enforcement",
    "final_address": "2658 N Galvez St",
    "address_councildis": "D",
    "status": "Pending",
    "rowid": "1263969",
    "final_x": "3688269.56214",
    "final_y": "540144.682571",
    "longitude": "-90.04638866889428",
    "latitude": "29.979003270679687",
    "geocoded_column": {
      "latitude": "29.979003270679687",
      "longitude": "-90.04638866889428"
    }
  },
  {
    "service_request": "2026-1263968",
    "request_type": "Trash/Recycling",
    "request_reason": "Request a Large Item Pick Up",
    "date_created": "2026-03-09T15:40:07.000",
    "date_modified": "2026-03-09T15:40:10.000",
    "request_status": "Pending",
    "responsible_agency": "Department of Sanitation",
    "final_address": "4650 Knight Dr",
    "address_councildis": "E",
    "status": "Assigned to Contractor",
    "contractor": "Waste Pro",
    "rowid": "1263968",
    "final_x": "3708120.95704",
    "final_y": "554951.786712",
    "longitude": "-89.98313984369432",
    "latitude": "30.019089192317633",
    "geocoded_column": {
      "latitude": "30.019089192317633",
      "longitude": "-89.98313984369432"
    }
  },
  {
    "service_request": "2026-1263967",
    "request_type": "Trash/Recycling",
    "request_reason": "Request a Large Item Pick Up",
    "date_created": "2026-03-09T15:38:48.000",
    "date_modified": "2026-03-09T15:38:51.000",
    "request_status": "Pending",
    "responsible_agency": "Department of Sanitation",
    "final_address": "7539 Wayfarer St",
    "address_councildis": "E",
    "status": "Assigned to Contractor",
    "contractor": "Waste Pro",
    "rowid": "1263967",
    "final_x": "3725581.15993",
    "final_y": "570373.678823",
    "longitude": "-89.92737458355799",
    "latitude": "30.060915752051585",
    "geocoded_column": {
      "latitude": "30.060915752051585",
      "longitude": "-89.92737458355799"
    }
  },
  {
    "service_request": "2026-1263966",
    "request_type": "Trash/Recycling",
    "request_reason": "Request a Large Item Pick Up",
    "date_created": "2026-03-09T15:37:55.000",
    "date_modified": "2026-03-09T15:37:56.000",
    "request_status": "Pending",
    "responsible_agency": "Department of Sanitation",
    "final_address": "1631 Seventh St",
    "address_councildis": "B",
    "status": "Assigned to Contractor",
    "contractor": "IV Waste",
    "rowid": "1263966",
    "final_x": "3675104.87969",
    "final_y": "522345.878714",
    "longitude": "-90.08857852711994",
    "latitude": "29.93046249021485",
    "geocoded_column": {
      "latitude": "29.93046249021485",
      "longitude": "-90.08857852711994"
    }
  },
  {
    "service_request": "2026-1263965",
    "request_type": "Roads and Streets",
    "request_reason": "Street Subsidence (Sinking)",
    "date_created": "2026-03-09T15:36:21.000",
    "date_modified": "2026-03-09T15:36:23.000",
    "request_status": "Pending",
    "responsible_agency": "Sewerage & Water Board",
    "final_address": "6554 Argonne Blvd",
    "address_councildis": "A",
    "status": "Pending",
    "rowid": "1263965",
    "final_x": "3670451.92199",
    "final_y": "551062.737813",
    "longitude": "-90.10229328935854",
    "latitude": "30.009562373502806",
    "geocoded_column": {
      "latitude": "30.009562373502806",
      "longitude": "-90.10229328935854"
    }
  },
  {
    "service_request": "2026-1263964",
    "request_type": "Street and Traffic Signs",
    "request_reason": "Stop Sign Missing or Damaged",
    "date_created": "2026-03-09T15:35:57.000",
    "date_modified": "2026-03-09T15:35:58.000",
    "request_status": "Pending",
    "responsible_agency": "Department of Public Works",
    "final_address": "4000 BLK Velie St",
    "address_councildis": "D",
    "status": "Pending",
    "rowid": "1263964",
    "final_x": "3689596.64308",
    "final_y": "548270.325819",
    "longitude": "-90.0419080053224",
    "latitude": "30.00130481620698",
    "geocoded_column": {
      "latitude": "30.00130481620698",
      "longitude": "-90.0419080053224"
    }
  },
  {
    "service_request": "2026-1263963",
    "request_type": "Trash/Recycling",
    "request_reason": "Request a Large Item Pick Up",
    "date_created": "2026-03-09T15:31:39.000",
    "date_modified": "2026-03-09T15:31:41.000",
    "request_status": "Pending",
    "responsible_agency": "Department of Sanitation",
    "final_address": "14642 Curran Rd",
    "address_councildis": "E",
    "status": "Assigned to Contractor",
    "contractor": "Waste Pro",
    "rowid": "1263963",
    "final_x": "3720051.78162",
    "final_y": "573549.251946",
    "longitude": "-89.9447309595081",
    "latitude": "30.069832634127796",
    "geocoded_column": {
      "latitude": "30.069832634127796",
      "longitude": "-89.9447309595081"
    }
  },
  {
    "service_request": "2026-1263962",
    "request_type": "Trash/Recycling",
    "request_reason": "Request a Large Item Pick Up",
    "date_created": "2026-03-09T15:31:31.000",
    "date_modified": "2026-03-09T15:31:32.000",
    "request_status": "Pending",
    "responsible_agency": "Department of Sanitation",
    "final_address": "7432 Briarheath Dr",
    "address_councildis": "E",
    "status": "Assigned to Contractor",
    "contractor": "Waste Pro",
    "rowid": "1263962",
    "final_x": "3714300.75506",
    "final_y": "566868.280036",
    "longitude": "-89.96316380955287",
    "latitude": "30.051653097031366",
    "geocoded_column": {
      "latitude": "30.051653097031366",
      "longitude": "-89.96316380955287"
    }
  },
  {
    "service_request": "2026-1263961",
    "request_type": "Trash/Recycling",
    "request_reason": "Illegal Dumping",
    "date_created": "2026-03-09T15:30:26.000",
    "date_modified": "2026-03-09T15:31:11.000",
    "request_status": "Pending",
    "responsible_agency": "Department of Sanitation",
    "final_address": "S ROMAN ST & THALIA ST",
    "address_councildis": "B",
    "status": "Pending",
    "rowid": "1263961",
    "final_x": "3674634.3",
    "final_y": "528781.68",
    "longitude": "-90.0898435949858",
    "latitude": "29.948172885249654",
    "geocoded_column": {
      "latitude": "29.948172885249654",
      "longitude": "-90.0898435949858"
    }
  },
  {
    "service_request": "2026-1263960",
    "request_type": "Trash/Recycling",
    "request_reason": "Illegal Dumping",
    "date_created": "2026-03-09T15:27:21.000",
    "date_modified": "2026-03-09T15:33:03.000",
    "request_status": "Pending",
    "responsible_agency": "Department of Sanitation",
    "final_address": "6304 St Roch Ave",
    "address_councildis": "D",
    "status": "Pending",
    "rowid": "1263960",
    "final_x": "3684768.41103",
    "final_y": "556374.023834",
    "longitude": "-90.05687561335914",
    "latitude": "30.023735770285754",
    "geocoded_column": {
      "latitude": "30.023735770285754",
      "longitude": "-90.05687561335914"
    }
  },
  {
    "service_request": "2026-1263959",
    "request_type": "Trash/Recycling",
    "request_reason": "Request a Large Item Pick Up",
    "date_created": "2026-03-09T15:22:59.000",
    "date_modified": "2026-03-09T15:23:01.000",
    "request_status": "Pending",
    "responsible_agency": "Department of Sanitation",
    "final_address": "4901 Camelia St",
    "address_councildis": "E",
    "status": "Assigned to Contractor",
    "contractor": "Waste Pro",
    "rowid": "1263959",
    "final_x": "3701543.4058",
    "final_y": "555058.780825",
    "longitude": "-90.00391855885208",
    "latitude": "30.01959485820813",
    "geocoded_column": {
      "latitude": "30.01959485820813",
      "longitude": "-90.00391855885208"
    }
  },
  {
    "service_request": "2026-1263958",
    "request_type": "Streetlights",
    "request_reason": "Streetlight Outage/Malfunction",
    "date_created": "2026-03-09T15:22:09.000",
    "date_modified": "2026-03-09T15:22:11.000",
    "request_status": "Pending",
    "responsible_agency": "Department of Public Works",
    "final_address": "7801 Townsend Pl",
    "address_councildis": "D",
    "status": "Pending",
    "rowid": "1263958",
    "final_x": "3693881.20733",
    "final_y": "558843.983644",
    "longitude": "-90.02799221501766",
    "latitude": "30.030244943751118",
    "geocoded_column": {
      "latitude": "30.030244943751118",
      "longitude": "-90.02799221501766"
    }
  },
  {
    "service_request": "2026-1263957",
    "request_type": "Trash/Recycling",
    "request_reason": "Replace Recycling Cart",
    "date_created": "2026-03-09T15:20:01.000",
    "date_modified": "2026-03-09T15:20:02.000",
    "request_status": "Pending",
    "responsible_agency": "Department of Sanitation",
    "final_address": "3434 Roger Williams St",
    "address_councildis": "D",
    "status": "Pending",
    "rowid": "1263957",
    "final_x": "3676551.78254",
    "final_y": "543889.74971",
    "longitude": "-90.08326890240023",
    "latitude": "29.98965757981341",
    "geocoded_column": {
      "latitude": "29.98965757981341",
      "longitude": "-90.08326890240023"
    }
  },
  {
    "service_request": "2026-1263956",
    "request_type": "Trash/Recycling",
    "request_reason": "Dead Animal Pick Up",
    "date_created": "2026-03-09T15:19:39.000",
    "date_modified": "2026-03-09T15:25:03.000",
    "case_close_date": "2026-03-09T10:25:02.000",
    "request_status": "Closed",
    "responsible_agency": "Department of Sanitation",
    "final_address": "HOLLYGROVE ST & BELFAST ST",
    "address_councildis": "A",
    "status": "Invalid Request",
    "contractor": "IV Waste",
    "contractor_action": "Invalid Request",
    "rowid": "1263956",
    "final_x": "3663244.4",
    "final_y": "534502.18",
    "longitude": "-90.12561595541573",
    "latitude": "29.964237363500295",
    "geocoded_column": {
      "latitude": "29.964237363500295",
      "longitude": "-90.12561595541573"
    }
  },
  {
    "service_request": "2026-1263955",
    "request_type": "Safety & Permits",
    "request_reason": "Licenses & Permits",
    "date_created": "2026-03-09T15:17:58.000",
    "date_modified": "2026-03-09T15:18:00.000",
    "request_status": "Pending",
    "responsible_agency": "Safety and Permits",
    "final_address": "4600 BLK Press Dr",
    "address_councildis": "D",
    "status": "Pending",
    "rowid": "1263955",
    "final_x": "3689620.91698",
    "final_y": "550896.767745",
    "longitude": "-90.04173779626754",
    "latitude": "30.008525818162184",
    "geocoded_column": {
      "latitude": "30.008525818162184",
      "longitude": "-90.04173779626754"
    }
  },
  {
    "service_request": "2026-1263954",
    "request_type": "Trash/Recycling",
    "request_reason": "Repair Trash Cart",
    "date_created": "2026-03-09T15:16:13.000",
    "date_modified": "2026-03-09T15:16:17.000",
    "request_status": "Pending",
    "responsible_agency": "Department of Sanitation",
    "final_address": "869 Navarre St",
    "address_councildis": "A",
    "status": "Assigned to Contractor",
    "contractor": "IV Waste",
    "rowid": "1263954",
    "final_x": "3669258.12161",
    "final_y": "543823.529614",
    "longitude": "-90.1063098523507",
    "latitude": "29.989692273043453",
    "geocoded_column": {
      "latitude": "29.989692273043453",
      "longitude": "-90.1063098523507"
    }
  },
  {
    "service_request": "2026-1263953",
    "request_type": "Abandoned Vehicles",
    "request_reason": "Abandoned/Junk Vehicles",
    "date_created": "2026-03-09T15:13:24.000",
    "date_modified": "2026-03-09T15:13:26.000",
    "request_status": "Pending",
    "responsible_agency": "Department of Public Works",
    "final_address": "7850 Townsend Pl",
    "address_councildis": "D",
    "status": "Pending",
    "rowid": "1263953",
    "final_x": "3693577.55926",
    "final_y": "558972.072732",
    "longitude": "-90.02894713306785",
    "latitude": "30.030606647914578",
    "geocoded_column": {
      "latitude": "30.030606647914578",
      "longitude": "-90.02894713306785"
    }
  },
  {
    "service_request": "2026-1263952",
    "request_type": "Trash/Recycling",
    "request_reason": "Request a Large Item Pick Up",
    "date_created": "2026-03-09T15:12:57.000",
    "date_modified": "2026-03-09T15:12:58.000",
    "request_status": "Pending",
    "responsible_agency": "Department of Sanitation",
    "final_address": "4807 Laurel St",
    "address_councildis": "B",
    "status": "Assigned to Contractor",
    "contractor": "IV Waste",
    "rowid": "1263952",
    "final_x": "3669593.20846",
    "final_y": "517949.160182",
    "longitude": "-90.10612673970918",
    "latitude": "29.918536396759233",
    "geocoded_column": {
      "latitude": "29.918536396759233",
      "longitude": "-90.10612673970918"
    }
  },
  {
    "service_request": "2026-1263951",
    "request_type": "Trash/Recycling",
    "request_reason": "MIssed Recycling Pick-Up",
    "date_created": "2026-03-09T15:11:02.000",
    "date_modified": "2026-03-09T15:54:31.000",
    "case_close_date": "2026-03-09T10:54:29.000",
    "request_status": "Closed",
    "responsible_agency": "Department of Sanitation",
    "final_address": "2513 S Rocheblave St",
    "address_councildis": "B",
    "status": "Invalid Request",
    "contractor": "IV Waste",
    "contractor_action": "Invalid Request",
    "rowid": "1263951",
    "final_x": "3672345.75873",
    "final_y": "529421.366977",
    "longitude": "-90.09704767704643",
    "latitude": "29.94999990548092",
    "geocoded_column": {
      "latitude": "29.94999990548092",
      "longitude": "-90.09704767704643"
    }
  },
  {
    "service_request": "2026-1263950",
    "request_type": "Trash/Recycling",
    "request_reason": "Request a Large Item Pick Up",
    "date_created": "2026-03-09T15:05:34.000",
    "date_modified": "2026-03-09T15:05:37.000",
    "request_status": "Pending",
    "responsible_agency": "Department of Sanitation",
    "final_address": "0 BLK Alice Ct",
    "address_councildis": "E",
    "status": "Assigned to Contractor",
    "contractor": "Waste Pro",
    "rowid": "1263950",
    "final_x": "3696830.85368",
    "final_y": "533835.980016",
    "longitude": "-90.01957742212986",
    "latitude": "29.961389424106756",
    "geocoded_column": {
      "latitude": "29.961389424106756",
      "longitude": "-90.01957742212986"
    }
  },
  {
    "service_request": "2026-1263949",
    "request_type": "Drainage",
    "request_reason": "Drainage Manhole Cover Missing or Damaged",
    "date_created": "2026-03-09T15:02:29.000",
    "date_modified": "2026-03-09T15:02:31.000",
    "request_status": "Pending",
    "responsible_agency": "Sewerage & Water Board",
    "final_address": "2615 Dante St",
    "address_councildis": "A",
    "status": "Pending",
    "rowid": "1263949",
    "final_x": "3664932.4656",
    "final_y": "532658.096452",
    "longitude": "-90.1203468097667",
    "latitude": "29.95911770775208",
    "geocoded_column": {
      "latitude": "29.95911770775208",
      "longitude": "-90.1203468097667"
    }
  },
  {
    "service_request": "2026-1263948",
    "request_type": "Streetlights",
    "request_reason": "Streetlight Outage/Malfunction",
    "date_created": "2026-03-09T15:02:09.000",
    "date_modified": "2026-03-09T15:02:11.000",
    "request_status": "Pending",
    "responsible_agency": "Department of Public Works",
    "final_address": "BEHRMAN HWY & BEHRMAN PL",
    "address_councildis": "C",
    "status": "Pending",
    "rowid": "1263948",
    "final_x": "3697572.8",
    "final_y": "516509.18",
    "longitude": "-90.01786264684245",
    "latitude": "29.913723309954605",
    "geocoded_column": {
      "latitude": "29.913723309954605",
      "longitude": "-90.01786264684245"
    }
  },
  {
    "service_request": "2026-1263947",
    "request_type": "Drainage",
    "request_reason": "Catch Basin Frame and Cover Missing or Damaged",
    "date_created": "2026-03-09T15:02:00.000",
    "date_modified": "2026-03-09T15:02:01.000",
    "request_status": "Pending",
    "responsible_agency": "Sewerage & Water Board",
    "final_address": "1330 Toledano St",
    "address_councildis": "B",
    "status": "Pending",
    "rowid": "1263947",
    "final_x": "3674960.21909",
    "final_y": "520678.930361",
    "longitude": "-90.08909234135399",
    "latitude": "29.92588324177793",
    "geocoded_column": {
      "latitude": "29.92588324177793",
      "longitude": "-90.08909234135399"
    }
  },
  {
    "service_request": "2026-1263946",
    "request_type": "Trash/Recycling",
    "request_reason": "Request a Large Item Pick Up",
    "date_created": "2026-03-09T15:01:35.000",
    "date_modified": "2026-03-09T15:01:37.000",
    "request_status": "Pending",
    "responsible_agency": "Department of Sanitation",
    "final_address": "4640 Bonita Dr",
    "address_councildis": "E",
    "status": "Assigned to Contractor",
    "contractor": "Waste Pro",
    "rowid": "1263946",
    "final_x": "3704491.77322",
    "final_y": "554657.494552",
    "longitude": "-89.99461757973802",
    "latitude": "30.01839708863543",
    "geocoded_column": {
      "latitude": "30.01839708863543",
      "longitude": "-89.99461757973802"
    }
  },
  {
    "service_request": "2026-1263945",
    "request_type": "Trash/Recycling",
    "request_reason": "Request a Large Item Pick Up",
    "date_created": "2026-03-09T15:00:51.000",
    "date_modified": "2026-03-09T15:00:53.000",
    "request_status": "Pending",
    "responsible_agency": "Department of Sanitation",
    "final_address": "5501 Wilton Dr",
    "address_councildis": "D",
    "status": "Assigned to Contractor",
    "contractor": "IV Waste",
    "rowid": "1263945",
    "final_x": "3681914.75842",
    "final_y": "552941.870679",
    "longitude": "-90.06601252601729",
    "latitude": "30.014385704288138",
    "geocoded_column": {
      "latitude": "30.014385704288138",
      "longitude": "-90.06601252601729"
    }
  },
  {
    "service_request": "2026-1263944",
    "request_type": "Trash/Recycling",
    "request_reason": "Request a Large Item Pick Up",
    "date_created": "2026-03-09T14:57:38.000",
    "date_modified": "2026-03-09T15:18:07.000",
    "request_status": "Pending",
    "responsible_agency": "Department of Sanitation",
    "final_address": "2226 S Salcedo St",
    "address_councildis": "A",
    "status": "Assigned to Contractor",
    "contractor": "IV Waste",
    "rowid": "1263944",
    "final_x": "3669237.29134",
    "final_y": "528811.762304",
    "longitude": "-90.10688318863669",
    "latitude": "29.948415544815173",
    "geocoded_column": {
      "latitude": "29.948415544815173",
      "longitude": "-90.10688318863669"
    }
  },
  {
    "service_request": "2026-1263943",
    "request_type": "Parks & Parkways",
    "request_reason": "Request Tree Service (Right of Way/Public Property)",
    "date_created": "2026-03-09T14:57:34.000",
    "date_modified": "2026-03-09T14:57:36.000",
    "request_status": "Pending",
    "responsible_agency": "Department of Parks & Parkway",
    "final_address": "4939 S Claiborne Ave",
    "address_councildis": "B",
    "status": "Pending",
    "rowid": "1263943",
    "final_x": "3668931.30106",
    "final_y": "526101.09267",
    "longitude": "-90.10794085942668",
    "latitude": "29.94097108539879",
    "geocoded_column": {
      "latitude": "29.94097108539879",
      "longitude": "-90.10794085942668"
    }
  },
  {
    "service_request": "2026-1263942",
    "request_type": "Trash/Recycling",
    "request_reason": "Request a Large Item Pick Up",
    "date_created": "2026-03-09T14:51:48.000",
    "date_modified": "2026-03-09T14:51:50.000",
    "request_status": "Pending",
    "responsible_agency": "Department of Sanitation",
    "final_address": "7231 Salem Dr",
    "address_councildis": "E",
    "status": "Assigned to Contractor",
    "contractor": "Waste Pro",
    "rowid": "1263942",
    "final_x": "3706333.50379",
    "final_y": "561686.403935",
    "longitude": "-89.98853779101984",
    "latitude": "30.037664550762216",
    "geocoded_column": {
      "latitude": "30.037664550762216",
      "longitude": "-89.98853779101984"
    }
  },
  {
    "service_request": "2026-1263941",
    "request_type": "Trash/Recycling",
    "request_reason": "Repair Trash Cart",
    "date_created": "2026-03-09T14:50:57.000",
    "date_modified": "2026-03-09T14:50:59.000",
    "request_status": "Pending",
    "responsible_agency": "Department of Sanitation",
    "final_address": "2675 Gladiolus St",
    "address_councildis": "D",
    "status": "Assigned to Contractor",
    "contractor": "IV Waste",
    "rowid": "1263941",
    "final_x": "3687666.41871",
    "final_y": "547599.883282",
    "longitude": "-90.04802949982337",
    "latitude": "29.999521018563033",
    "geocoded_column": {
      "latitude": "29.999521018563033",
      "longitude": "-90.04802949982337"
    }
  },
  {
    "service_request": "2026-1263940",
    "request_type": "Streetlights",
    "request_reason": "New Streetlight Request",
    "date_created": "2026-03-09T14:50:32.000",
    "date_modified": "2026-03-09T14:50:34.000",
    "request_status": "Pending",
    "responsible_agency": "Department of Public Works",
    "final_address": "5159 Cameron Blvd",
    "address_councildis": "D",
    "status": "Pending",
    "rowid": "1263940",
    "final_x": "3682710.7878",
    "final_y": "551941.80623",
    "longitude": "-90.06353248573167",
    "latitude": "30.011611658123655",
    "geocoded_column": {
      "latitude": "30.011611658123655",
      "longitude": "-90.06353248573167"
    }
  },
  {
    "service_request": "2026-1263939",
    "request_type": "Trash/Recycling",
    "request_reason": "Order Trash Cart",
    "date_created": "2026-03-09T14:42:06.000",
    "date_modified": "2026-03-09T14:42:08.000",
    "request_status": "Pending",
    "responsible_agency": "Department of Sanitation",
    "final_address": "8817 Plum St",
    "address_councildis": "A",
    "status": "Assigned to Contractor",
    "contractor": "IV Waste",
    "rowid": "1263939",
    "final_x": "3660280.96326",
    "final_y": "530433.171842",
    "longitude": "-90.13510866426407",
    "latitude": "29.95313445761062",
    "geocoded_column": {
      "latitude": "29.95313445761062",
      "longitude": "-90.13510866426407"
    }
  },
  {
    "service_request": "2026-1263938",
    "request_type": "Roads and Streets",
    "request_reason": "Sidewalk Damaged or Missing",
    "date_created": "2026-03-09T14:38:12.000",
    "date_modified": "2026-03-09T14:38:14.000",
    "request_status": "Pending",
    "responsible_agency": "Department of Public Works",
    "final_address": "7502 Jeannette St",
    "address_councildis": "A",
    "status": "Pending",
    "rowid": "1263938",
    "final_x": "3664216.52871",
    "final_y": "527698.329855",
    "longitude": "-90.12277303642513",
    "latitude": "29.945500775249887",
    "geocoded_column": {
      "latitude": "29.945500775249887",
      "longitude": "-90.12277303642513"
    }
  },
  {
    "service_request": "2026-1263937",
    "request_type": "Trash/Recycling",
    "request_reason": "Request a Large Item Pick Up",
    "date_created": "2026-03-09T14:35:56.000",
    "date_modified": "2026-03-09T14:35:57.000",
    "request_status": "Pending",
    "responsible_agency": "Department of Sanitation",
    "final_address": "3715 Octavia St",
    "address_councildis": "A",
    "status": "Assigned to Contractor",
    "contractor": "IV Waste",
    "rowid": "1263937",
    "final_x": "3668786.80993",
    "final_y": "529202.459648",
    "longitude": "-90.10829236160939",
    "latitude": "29.949503085555282",
    "geocoded_column": {
      "latitude": "29.949503085555282",
      "longitude": "-90.10829236160939"
    }
  },
  {
    "service_request": "2026-1263936",
    "request_type": "Parks & Parkways",
    "request_reason": "Request Grass Cutting Service (City Owned Property)",
    "date_created": "2026-03-09T14:35:48.000",
    "date_modified": "2026-03-09T14:35:50.000",
    "request_status": "Pending",
    "responsible_agency": "Department of Parks & Parkway",
    "final_address": "13733 Chef Menteur Hwy",
    "address_councildis": "E",
    "status": "Pending",
    "rowid": "1263936",
    "final_x": "3727514.7175",
    "final_y": "560443.380638",
    "longitude": "-89.92164946180709",
    "latitude": "30.033546212632437",
    "geocoded_column": {
      "latitude": "30.033546212632437",
      "longitude": "-89.92164946180709"
    }
  },
  {
    "service_request": "2026-1263935",
    "request_type": "Trash/Recycling",
    "request_reason": "Request a Large Item Pick Up",
    "date_created": "2026-03-09T14:33:32.000",
    "date_modified": "2026-03-09T14:33:33.000",
    "request_status": "Pending",
    "responsible_agency": "Department of Sanitation",
    "final_address": "3510 Rue Michelle",
    "address_councildis": "C",
    "status": "Assigned to Contractor",
    "contractor": "Richards Disposal",
    "rowid": "1263935",
    "final_x": "3703676.80951",
    "final_y": "517757.160054",
    "longitude": "-89.9985507088665",
    "latitude": "29.916960728224762",
    "geocoded_column": {
      "latitude": "29.916960728224762",
      "longitude": "-89.9985507088665"
    }
  },
  {
    "service_request": "2026-1263934",
    "request_type": "Trash/Recycling",
    "request_reason": "Return Trash Cart",
    "date_created": "2026-03-09T14:33:27.000",
    "date_modified": "2026-03-09T14:33:28.000",
    "request_status": "Pending",
    "responsible_agency": "Department of Sanitation",
    "final_address": "5616 Annunciation St",
    "address_councildis": "A",
    "status": "Assigned to Contractor",
    "contractor": "IV Waste",
    "rowid": "1263934",
    "final_x": "3665652.35284",
    "final_y": "517499.833334",
    "longitude": "-90.11858102181755",
    "latitude": "29.917416355685777",
    "geocoded_column": {
      "latitude": "29.917416355685777",
      "longitude": "-90.11858102181755"
    }
  },
  {
    "service_request": "2026-1263933",
    "request_type": "Street and Traffic Signs",
    "request_reason": "Additional Signage Request",
    "date_created": "2026-03-09T14:32:31.000",
    "date_modified": "2026-03-09T14:33:19.000",
    "request_status": "Pending",
    "responsible_agency": "Department of Public Works",
    "final_address": "CAMBRONNE ST & PALMETTO ST",
    "address_councildis": "A",
    "status": "Pending",
    "rowid": "1263933",
    "final_x": "3667400.3",
    "final_y": "535946.08",
    "longitude": "-90.11244334027134",
    "latitude": "29.968086511116468",
    "geocoded_column": {
      "latitude": "29.968086511116468",
      "longitude": "-90.11244334027134"
    }
  },
  {
    "service_request": "2026-1263932",
    "request_type": "Streetlights",
    "request_reason": "Streetlight Outage/Malfunction",
    "date_created": "2026-03-09T14:31:44.000",
    "date_modified": "2026-03-09T14:31:46.000",
    "request_status": "Pending",
    "responsible_agency": "Department of Public Works",
    "final_address": "5620 Annunciation St",
    "address_councildis": "A",
    "status": "Pending",
    "rowid": "1263932",
    "final_x": "3665630.79732",
    "final_y": "517508.211574",
    "longitude": "-90.11864878035743",
    "latitude": "29.917440021567266",
    "geocoded_column": {
      "latitude": "29.917440021567266",
      "longitude": "-90.11864878035743"
    }
  },