[
  {
    "service_request": "2026-1290277",
    "request_type": "Streetlights",
    "request_reason": "Streetlight Knocked Down/Leaning",
    "date_created": "2026-06-12T23:51:59.000",
    "date_modified": "2026-06-12T23:52:01.000",
    "request_status": "Pending",
    "responsible_agency": "Department of Public Works",
    "final_address": "2900 St Philip St",
    "address_councildis": "A",
    "status": "Pending",
    "rowid": "1290277",
    "final_x": "3676647.14625",
    "final_y": "538393.743689",
    "longitude": "-90.0831570860125",
    "latitude": "29.974542601347054",
    "geocoded_column": {
      "latitude": "29.974542601347054",
      "longitude": "-90.0831570860125"
    }
  },
  {
    "service_request": "2026-1290276",
    "request_type": "Streetlights",
    "request_reason": "Streetlight Outage/Malfunction",
    "date_created": "2026-06-12T23:49:41.000",
    "date_modified": "2026-06-12T23:49:43.000",
    "request_status": "Pending",
    "responsible_agency": "Department of Public Works",
    "final_address": "3025 St Philip St",
    "address_councildis": "A",
    "status": "Pending",
    "rowid": "1290276",
    "final_x": "3676213.28501",
    "final_y": "538810.365897",
    "longitude": "-90.08451298584785",
    "latitude": "29.975701178610414",
    "geocoded_column": {
      "latitude": "29.975701178610414",
      "longitude": "-90.08451298584785"
    }
  },
  {
    "service_request": "2026-1290275",
    "request_type": "Mosquito, Termite & Rodent Control",
    "request_reason": "Mosquito Complaint",
    "date_created": "2026-06-12T23:23:03.000",
    "date_modified": "2026-06-12T23:23:06.000",
    "request_status": "Pending",
    "responsible_agency": "Mosquito, Termite & Rodent Control Board",
    "final_address": "304 S Murat St",
    "address_councildis": "A",
    "status": "Pending",
    "rowid": "1290275",
    "final_x": "3669217.2818",
    "final_y": "538690.464905",
    "longitude": "-90.10661243857403",
    "latitude": "29.975579291112652",
    "geocoded_column": {
      "latitude": "29.975579291112652",
      "longitude": "-90.10661243857403"
    }
  },
  {
    "service_request": "2026-1290274",
    "request_type": "Health Related Request",
    "request_reason": "Noise Ordinance Complaint",
    "date_created": "2026-06-12T22:38:35.000",
    "date_modified": "2026-06-12T22:38:36.000",
    "request_status": "Pending",
    "responsible_agency": "Health Department",
    "final_address": "800 Bourbon St, New Orleans, Louisiana, 70116",
    "address_councildis": "C",
    "status": "Pending",
    "rowid": "1290274",
    "final_x": "3682553.51528",
    "final_y": "533013.631428",
    "longitude": "-90.06469148499534",
    "latitude": "29.95957063099051",
    "geocoded_column": {
      "latitude": "29.95957063099051",
      "longitude": "-90.06469148499534"
    }
  },
  {
    "service_request": "2026-1290273",
    "request_type": "Health Related Request",
    "request_reason": "Noise Ordinance Complaint",
    "date_created": "2026-06-12T22:38:08.000",
    "date_modified": "2026-06-12T22:38:10.000",
    "request_status": "Pending",
    "responsible_agency": "Health Department",
    "final_address": "801 Bourbon St, New Orleans, Louisiana, 70116",
    "address_councildis": "C",
    "status": "Pending",
    "rowid": "1290273",
    "final_x": "3682490.98735",
    "final_y": "533018.672772",
    "longitude": "-90.06488875731978",
    "latitude": "29.959586396383013",
    "geocoded_column": {
      "latitude": "29.959586396383013",
      "longitude": "-90.06488875731978"
    }
  },
  {
    "service_request": "2026-1290272",
    "request_type": "Health Related Request",
    "request_reason": "Noise Ordinance Complaint",
    "date_created": "2026-06-12T22:25:17.000",
    "date_modified": "2026-06-12T22:25:19.000",
    "request_status": "Pending",
    "responsible_agency": "Health Department",
    "final_address": "1535 Port St",
    "address_councildis": "C",
    "status": "Pending",
    "rowid": "1290272",
    "final_x": "3687917.45225",
    "final_y": "538185.675337",
    "longitude": "-90.04757019257639",
    "latitude": "29.97362756100885",
    "geocoded_column": {
      "latitude": "29.97362756100885",
      "longitude": "-90.04757019257639"
    }
  },
  {
    "service_request": "2026-1290271",
    "request_type": "Streetlights",
    "request_reason": "Streetlight Outage/Malfunction",
    "date_created": "2026-06-12T22:08:18.000",
    "date_modified": "2026-06-12T22:08:20.000",
    "request_status": "Pending",
    "responsible_agency": "Department of Public Works",
    "final_address": "400 BLK Fairway Dr",
    "address_councildis": "A",
    "status": "Pending",
    "rowid": "1290271",
    "final_x": "3664271.281",
    "final_y": "542619.411596",
    "longitude": "-90.12210217232244",
    "latitude": "29.986527248732937",
    "geocoded_column": {
      "latitude": "29.986527248732937",
      "longitude": "-90.12210217232244"
    }
  },
  {
    "service_request": "2026-1290270",
    "request_type": "Streetlights",
    "request_reason": "Streetlight Outage/Malfunction",
    "date_created": "2026-06-12T22:06:45.000",
    "date_modified": "2026-06-12T22:06:46.000",
    "request_status": "Pending",
    "responsible_agency": "Department of Public Works",
    "final_address": "400 Bellaire Dr",
    "address_councildis": "A",
    "status": "Pending",
    "rowid": "1290270",
    "final_x": "3663910.07475",
    "final_y": "542261.559629",
    "longitude": "-90.12325502842957",
    "latitude": "29.985553770114223",
    "geocoded_column": {
      "latitude": "29.985553770114223",
      "longitude": "-90.12325502842957"
    }
  },
  {
    "service_request": "2026-1290269",
    "request_type": "Health Related Request",
    "request_reason": "Noise Ordinance Complaint",
    "date_created": "2026-06-12T22:04:56.000",
    "date_modified": "2026-06-12T22:04:57.000",
    "request_status": "Pending",
    "responsible_agency": "Health Department",
    "final_address": "800 Bourbon St, New Orleans, Louisiana, 70116",
    "address_councildis": "C",
    "status": "Pending",
    "rowid": "1290269",
    "final_x": "3682553.51528",
    "final_y": "533013.631428",
    "longitude": "-90.06469148499534",
    "latitude": "29.95957063099051",
    "geocoded_column": {
      "latitude": "29.95957063099051",
      "longitude": "-90.06469148499534"
    }
  },
  {
    "service_request": "2026-1290268",
    "request_type": "Streetlights",
    "request_reason": "Streetlight Outage/Malfunction",
    "date_created": "2026-06-12T21:12:50.000",
    "date_modified": "2026-06-12T21:12:53.000",
    "request_status": "Pending",
    "responsible_agency": "Department of Public Works",
    "final_address": "11235 Lake Forest Blvd",
    "address_councildis": "E",
    "status": "Pending",
    "rowid": "1290268",
    "final_x": "3716022.91871",
    "final_y": "561662.083743",
    "longitude": "-89.95791817494204",
    "latitude": "30.037281438664227",
    "geocoded_column": {
      "latitude": "30.037281438664227",
      "longitude": "-89.95791817494204"
    }
  },
  {
    "service_request": "2026-1290267",
    "request_type": "Trash/Recycling",
    "request_reason": "Replace Trash Cart",
    "date_created": "2026-06-12T21:09:09.000",
    "date_modified": "2026-06-12T21:09:10.000",
    "request_status": "Pending",
    "responsible_agency": "Department of Sanitation",
    "final_address": "2900 Aurora Dr",
    "address_councildis": "C",
    "status": "Assigned to Contractor",
    "contractor": "Richards Disposal",
    "rowid": "1290267",
    "final_x": "3707090.00433",
    "final_y": "519996.893496",
    "longitude": "-89.98769430061435",
    "latitude": "29.923009447280553",
    "geocoded_column": {
      "latitude": "29.923009447280553",
      "longitude": "-89.98769430061435"
    }
  },
  {
    "service_request": "2026-1290266",
    "request_type": "Health Related Request",
    "request_reason": "Noise Ordinance Complaint",
    "date_created": "2026-06-12T19:49:51.000",
    "date_modified": "2026-06-12T19:49:52.000",
    "request_status": "Pending",
    "responsible_agency": "Health Department",
    "final_address": "1709 Prytania St",
    "address_councildis": "B",
    "status": "Pending",
    "rowid": "1290266",
    "final_x": "3679224.59707",
    "final_y": "524657.101948",
    "longitude": "-90.07549311217129",
    "latitude": "29.936693893441053",
    "geocoded_column": {
      "latitude": "29.936693893441053",
      "longitude": "-90.07549311217129"
    }
  },
  {
    "service_request": "2026-1290265",
    "request_type": "Street and Traffic Signs",
    "request_reason": "Street Name Sign Damaged or Missing",
    "date_created": "2026-06-12T19:46:43.000",
    "date_modified": "2026-06-12T19:46:45.000",
    "request_status": "Pending",
    "responsible_agency": "Department of Public Works",
    "final_address": "711 Tchoupitoulas St",
    "address_councildis": "B",
    "status": "Pending",
    "rowid": "1290265",
    "final_x": "3681720.19951",
    "final_y": "528129.372735",
    "longitude": "-90.06749328746801",
    "latitude": "29.94616591449753",
    "geocoded_column": {
      "latitude": "29.94616591449753",
      "longitude": "-90.06749328746801"
    }
  },
  {
    "service_request": "2026-1290264",
    "request_type": "Tree Service",
    "request_reason": "Dead or Dying Tree",
    "date_created": "2026-06-12T19:40:46.000",
    "date_modified": "2026-06-12T19:40:49.000",
    "request_status": "Pending",
    "responsible_agency": "Department of Parks & Parkways",
    "final_address": "8333 Green St",
    "address_councildis": "A",
    "status": "Pending",
    "rowid": "1290264",
    "final_x": "3662428.50899",
    "final_y": "530370.332802",
    "longitude": "-90.12832970155549",
    "latitude": "29.952899745802675",
    "geocoded_column": {
      "latitude": "29.952899745802675",
      "longitude": "-90.12832970155549"
    }
  },
  {
    "service_request": "2026-1290263",
    "request_type": "Trash/Recycling",
    "request_reason": "Damaged Caused By Contractor",
    "date_created": "2026-06-12T19:34:35.000",
    "date_modified": "2026-06-12T19:34:37.000",
    "request_status": "Pending",
    "responsible_agency": "Department of Sanitation",
    "final_address": "6501 Argonne Blvd",
    "address_councildis": "A",
    "status": "Assigned to Contractor",
    "contractor": "IV Waste",
    "rowid": "1290263",
    "final_x": "3670550.16148",
    "final_y": "550626.822676",
    "longitude": "-90.10199771515559",
    "latitude": "30.00836085774595",
    "geocoded_column": {
      "latitude": "30.00836085774595",
      "longitude": "-90.10199771515559"
    }
  },
  {
    "service_request": "2026-1290262",
    "request_type": "Safety & Permits",
    "request_reason": "Licenses & Permits",
    "date_created": "2026-06-12T19:31:30.000",
    "date_modified": "2026-06-12T19:31:32.000",
    "request_status": "Pending",
    "responsible_agency": "Safety and Permits",
    "final_address": "2352 Marais St",
    "address_councildis": "C",
    "status": "Pending",
    "rowid": "1290262",
    "final_x": "3686208.1494",
    "final_y": "536726.643911",
    "longitude": "-90.05302001181774",
    "latitude": "29.9696683628287",
    "geocoded_column": {
      "latitude": "29.9696683628287",
      "longitude": "-90.05302001181774"
    }
  },
  {
    "service_request": "2026-1290261",
    "request_type": "Trash/Recycling",
    "request_reason": "Repair Recycling Cart",
    "date_created": "2026-06-12T18:53:34.000",
    "date_modified": "2026-06-12T18:53:43.000",
    "request_status": "Pending",
    "responsible_agency": "Department of Sanitation",
    "final_address": "1004 Nashville Ave",
    "address_councildis": "A",
    "status": "Pending",
    "rowid": "1290261",
    "final_x": "3665624.38036",
    "final_y": "519741.183096",
    "longitude": "-90.11859431469335",
    "latitude": "29.923580180981503",
    "geocoded_column": {
      "latitude": "29.923580180981503",
      "longitude": "-90.11859431469335"
    }
  },
  {
    "service_request": "2026-1290260",
    "request_type": "Trash/Recycling",
    "request_reason": "Repair Recycling Cart",
    "date_created": "2026-06-12T18:52:35.000",
    "date_modified": "2026-06-12T18:52:37.000",
    "request_status": "Pending",
    "responsible_agency": "Department of Sanitation",
    "final_address": "5412 Chatham Dr",
    "address_councildis": "D",
    "status": "Pending",
    "rowid": "1290260",
    "final_x": "3679681.96943",
    "final_y": "552387.187606",
    "longitude": "-90.07308630659819",
    "latitude": "30.01292823973804",
    "geocoded_column": {
      "latitude": "30.01292823973804",
      "longitude": "-90.07308630659819"
    }
  },
  {
    "service_request": "2026-1290259",
    "request_type": "Trash/Recycling",
    "request_reason": "Request a Large Item Pick Up",
    "date_created": "2026-06-12T18:49:44.000",
    "date_modified": "2026-06-12T18:50:11.000",
    "request_status": "Pending",
    "responsible_agency": "Department of Sanitation",
    "final_address": "3131 Aurora Dr",
    "address_councildis": "C",
    "status": "Assigned to Contractor",
    "contractor": "Richards Disposal",
    "rowid": "1290259",
    "final_x": "3706861.81252",
    "final_y": "519208.505143",
    "longitude": "-89.9884438168663",
    "latitude": "29.92084902074034",
    "geocoded_column": {
      "latitude": "29.92084902074034",
      "longitude": "-89.9884438168663"
    }
  },
  {
    "service_request": "2026-1290258",
    "request_type": "Trash/Recycling",
    "request_reason": "Order Trash Cart",
    "date_created": "2026-06-12T18:45:40.000",
    "date_modified": "2026-06-12T18:45:42.000",
    "request_status": "Pending",
    "responsible_agency": "Department of Sanitation",
    "final_address": "3228 Chestnut St",
    "address_councildis": "B",
    "status": "Assigned to Contractor",
    "contractor": "IV Waste",
    "rowid": "1290258",
    "final_x": "3675263.14216",
    "final_y": "520511.74444",
    "longitude": "-90.08814183715248",
    "latitude": "29.925414486296614",
    "geocoded_column": {
      "latitude": "29.925414486296614",
      "longitude": "-90.08814183715248"
    }
  },
  {
    "service_request": "2026-1290257",
    "request_type": "Street and Traffic Signs",
    "request_reason": "Street Name Sign Damaged or Missing",
    "date_created": "2026-06-12T18:29:53.000",
    "date_modified": "2026-06-12T18:29:56.000",
    "request_status": "Pending",
    "responsible_agency": "Department of Public Works",
    "final_address": "7210 Willowbrae Dr",
    "address_councildis": "E",
    "status": "Pending",
    "rowid": "1290257",
    "final_x": "3711070.19358",
    "final_y": "563498.3784",
    "longitude": "-89.97350089884198",
    "latitude": "30.042493049680697",
    "geocoded_column": {
      "latitude": "30.042493049680697",
      "longitude": "-89.97350089884198"
    }
  },
  {
    "service_request": "2026-1290256",
    "request_type": "Property Maintenance",
    "request_reason": "Property Maintenance",
    "date_created": "2026-06-12T18:27:24.000",
    "date_modified": "2026-06-12T18:27:27.000",
    "request_status": "Pending",
    "responsible_agency": "Department of Code Enforcement",
    "final_address": "7210 Willowbrae Dr",
    "address_councildis": "E",
    "status": "Pending",
    "rowid": "1290256",
    "final_x": "3711070.19358",
    "final_y": "563498.3784",
    "longitude": "-89.97350089884198",
    "latitude": "30.042493049680697",
    "geocoded_column": {
      "latitude": "30.042493049680697",
      "longitude": "-89.97350089884198"
    }
  },
  {
    "service_request": "2026-1290255",
    "request_type": "Trash/Recycling",
    "request_reason": "Missed Trash Pick-Up",
    "date_created": "2026-06-12T18:16:18.000",
    "date_modified": "2026-06-12T18:16:20.000",
    "request_status": "Pending",
    "responsible_agency": "Department of Sanitation",
    "final_address": "1533 St Andrew St",
    "address_councildis": "B",
    "status": "Assigned to Contractor",
    "contractor": "IV Waste",
    "rowid": "1290255",
    "final_x": "3678370.75323",
    "final_y": "524000.83398",
    "longitude": "-90.07821143103696",
    "latitude": "29.93491511761264",
    "geocoded_column": {
      "latitude": "29.93491511761264",
      "longitude": "-90.07821143103696"
    }
  },
  {
    "service_request": "2026-1290254",
    "request_type": "Property Maintenance",
    "request_reason": "Property Maintenance",
    "date_created": "2026-06-12T18:08:10.000",
    "date_modified": "2026-06-12T18:08:11.000",
    "request_status": "Pending",
    "responsible_agency": "Department of Code Enforcement",
    "final_address": "12330 S Interstate 10 Service Rd",
    "address_councildis": "E",
    "status": "Pending",
    "rowid": "1290254",
    "final_x": "3717035.68165",
    "final_y": "566171.364003",
    "longitude": "-89.9545461761855",
    "latitude": "30.04964665808399",
    "geocoded_column": {
      "latitude": "30.04964665808399",
      "longitude": "-89.9545461761855"
    }
  },
  {
    "service_request": "2026-1290253",
    "request_type": "Utility Poles",
    "request_reason": "Utility Pole Leaning",
    "date_created": "2026-06-12T18:04:35.000",
    "date_modified": "2026-06-12T18:04:37.000",
    "request_status": "Pending",
    "responsible_agency": "Utility Company Collective",
    "final_address": "1747 Independence St",
    "address_councildis": "D",
    "status": "Pending",
    "rowid": "1290253",
    "final_x": "3691631.41148",
    "final_y": "538091.275977",
    "longitude": "-90.03584413626358",
    "latitude": "29.973252882222475",
    "geocoded_column": {
      "latitude": "29.973252882222475",
      "longitude": "-90.03584413626358"
    }
  },
  {
    "service_request": "2026-1290252",
    "request_type": "Roads and Streets",
    "request_reason": "Pothole",
    "date_created": "2026-06-12T18:03:04.000",
    "date_modified": "2026-06-12T18:03:05.000",
    "request_status": "Pending",
    "responsible_agency": "Department of Public Works",
    "final_address": "330 Baronne St",
    "address_councildis": "B",
    "status": "Pending",
    "rowid": "1290252",
    "final_x": "3680107.22959",
    "final_y": "530097.099329",
    "longitude": "-90.07251762620628",
    "latitude": "29.951625400088634",
    "geocoded_column": {
      "latitude": "29.951625400088634",
      "longitude": "-90.07251762620628"
    }
  },
  {
    "service_request": "2026-1290251",
    "request_type": "Property Maintenance",
    "request_reason": "Property Maintenance",
    "date_created": "2026-06-12T18:02:22.000",
    "date_modified": "2026-06-12T18:02:23.000",
    "request_status": "Pending",
    "responsible_agency": "Department of Code Enforcement",
    "final_address": "8455 Beechwood Ct",
    "address_councildis": "E",
    "status": "Pending",
    "rowid": "1290251",
    "final_x": "3704475.90398",
    "final_y": "560822.887454",
    "longitude": "-89.9944400963957",
    "latitude": "30.035350034287728",
    "geocoded_column": {
      "latitude": "30.035350034287728",
      "longitude": "-89.9944400963957"
    }
  },
  {
    "service_request": "2026-1290250",
    "request_type": "Roads and Streets",
    "request_reason": "Street Subsidence (Sinking)",
    "date_created": "2026-06-12T17:53:30.000",
    "date_modified": "2026-06-12T17:53:31.000",
    "request_status": "Pending",
    "responsible_agency": "Sewerage & Water Board",
    "final_address": "8455 Beechwood Ct",
    "address_councildis": "E",
    "status": "Pending",
    "rowid": "1290250",
    "final_x": "3704475.90398",
    "final_y": "560822.887454",
    "longitude": "-89.9944400963957",
    "latitude": "30.035350034287728",
    "geocoded_column": {
      "latitude": "30.035350034287728",
      "longitude": "-89.9944400963957"
    }
  },
  {
    "service_request": "2026-1290249",
    "request_type": "Trash/Recycling",
    "request_reason": "Order Trash Cart",
    "date_created": "2026-06-12T17:52:00.000",
    "date_modified": "2026-06-12T17:52:02.000",
    "request_status": "Pending",
    "responsible_agency": "Department of Sanitation",
    "final_address": "821 N Roman St",
    "address_councildis": "C",
    "status": "Assigned to Contractor",
    "contractor": "IV Waste",
    "rowid": "1290249",
    "final_x": "3679496.30536",
    "final_y": "535493.41703",
    "longitude": "-90.07425940211922",
    "latitude": "29.96648191534969",
    "geocoded_column": {
      "latitude": "29.96648191534969",
      "longitude": "-90.07425940211922"
    }
  },
  {
    "service_request": "2026-1290248",
    "request_type": "Trash/Recycling",
    "request_reason": "Order Trash Cart",
    "date_created": "2026-06-12T16:55:57.000",
    "date_modified": "2026-06-12T16:56:00.000",
    "request_status": "Pending",
    "responsible_agency": "Department of Sanitation",
    "final_address": "14642 Beekman Rd",
    "address_councildis": "E",
    "status": "Assigned to Contractor",
    "contractor": "Waste Pro",
    "rowid": "1290248",
    "final_x": "3721311.31641",
    "final_y": "573368.960362",
    "longitude": "-89.94075622052408",
    "latitude": "30.069294878929615",
    "geocoded_column": {
      "latitude": "30.069294878929615",
      "longitude": "-89.94075622052408"
    }
  },
  {
    "service_request": "2026-1290247",
    "request_type": "Utility Poles",
    "request_reason": "Utility Pole Leaning",
    "date_created": "2026-06-12T16:48:35.000",
    "date_modified": "2026-06-12T16:48:38.000",
    "request_status": "Pending",
    "responsible_agency": "Utility Company Collective",
    "final_address": "4319 Lotus St",
    "address_councildis": "D",
    "status": "Pending",
    "rowid": "1290247",
    "final_x": "3687735.20175",
    "final_y": "548636.915731",
    "longitude": "-90.047775457693",
    "latitude": "30.002370360075975",
    "geocoded_column": {
      "latitude": "30.002370360075975",
      "longitude": "-90.047775457693"
    }
  },
  {
    "service_request": "2026-1290246",
    "request_type": "Trash/Recycling",
    "request_reason": "Request a Large Item Pick Up",
    "date_created": "2026-06-12T16:45:13.000",
    "date_modified": "2026-06-12T16:45:15.000",
    "request_status": "Pending",
    "responsible_agency": "Department of Sanitation",
    "final_address": "2932 Johnny Jackson Jr Blvd",
    "address_councildis": "D",
    "status": "Assigned to Contractor",
    "contractor": "IV Waste",
    "rowid": "1290246",
    "final_x": "3691364.04259",
    "final_y": "543294.616142",
    "longitude": "-90.03650255181947",
    "latitude": "29.987568530717983",
    "geocoded_column": {
      "latitude": "29.987568530717983",
      "longitude": "-90.03650255181947"
    }
  },
  {
    "service_request": "2026-1290245",
    "request_type": "Trash/Recycling",
    "request_reason": "Request a Large Item Pick Up",
    "date_created": "2026-06-12T16:39:00.000",
    "date_modified": "2026-06-12T16:39:01.000",
    "request_status": "Pending",
    "responsible_agency": "Department of Sanitation",
    "final_address": "0 BLK Agriculture Pl",
    "address_councildis": "D",
    "status": "Assigned to Contractor",
    "contractor": "IV Waste",
    "rowid": "1290245",
    "final_x": "3689891.40135",
    "final_y": "543419.290574",
    "longitude": "-90.04114966127275",
    "latitude": "29.987957086684915",
    "geocoded_column": {
      "latitude": "29.987957086684915",
      "longitude": "-90.04114966127275"
    }
  },
  {
    "service_request": "2026-1290244",
    "request_type": "Trash/Recycling",
    "request_reason": "Order Trash Cart",
    "date_created": "2026-06-12T16:36:46.000",
    "date_modified": "2026-06-12T16:36:47.000",
    "request_status": "Pending",
    "responsible_agency": "Department of Sanitation",
    "final_address": "0 BLK Agriculture Pl",
    "address_councildis": "D",
    "status": "Assigned to Contractor",
    "contractor": "IV Waste",
    "rowid": "1290244",
    "final_x": "3689891.40135",
    "final_y": "543419.290574",
    "longitude": "-90.04114966127275",
    "latitude": "29.987957086684915",
    "geocoded_column": {
      "latitude": "29.987957086684915",
      "longitude": "-90.04114966127275"
    }
  },
  {
    "service_request": "2026-1290243",
    "request_type": "Trash/Recycling",
    "request_reason": "Request a Large Item Pick Up",
    "date_created": "2026-06-12T16:35:21.000",
    "date_modified": "2026-06-12T16:35:22.000",
    "request_status": "Pending",
    "responsible_agency": "Department of Sanitation",
    "final_address": "6001 General Haig St",
    "address_councildis": "A",
    "status": "Assigned to Contractor",
    "contractor": "IV Waste",
    "rowid": "1290243",
    "final_x": "3670609.21691",
    "final_y": "547148.856081",
    "longitude": "-90.10192922511796",
    "latitude": "29.998795920007282",
    "geocoded_column": {
      "latitude": "29.998795920007282",
      "longitude": "-90.10192922511796"
    }
  },
  {
    "service_request": "2026-1290241",
    "request_type": "Trash/Recycling",
    "request_reason": "Order Recycling Cart",
    "date_created": "2026-06-12T16:33:39.000",
    "date_modified": "2026-06-12T16:33:42.000",
    "request_status": "Pending",
    "responsible_agency": "Department of Sanitation",
    "final_address": "0 BLK Agriculture Pl",
    "address_councildis": "D",
    "status": "Pending",
    "rowid": "1290241",
    "final_x": "3689891.40135",
    "final_y": "543419.290574",
    "longitude": "-90.04114966127275",
    "latitude": "29.987957086684915",
    "geocoded_column": {
      "latitude": "29.987957086684915",
      "longitude": "-90.04114966127275"
    }
  },
  {
    "service_request": "2026-1290242",
    "request_type": "Trash/Recycling",
    "request_reason": "Order Recycling Cart",
    "date_created": "2026-06-12T16:33:39.000",
    "date_modified": "2026-06-12T16:33:42.000",
    "request_status": "Pending",
    "responsible_agency": "Department of Sanitation",
    "final_address": "0 BLK Agriculture Pl",
    "address_councildis": "D",
    "status": "Pending",
    "rowid": "1290242",
    "final_x": "3689891.40135",
    "final_y": "543419.290574",
    "longitude": "-90.04114966127275",
    "latitude": "29.987957086684915",
    "geocoded_column": {
      "latitude": "29.987957086684915",
      "longitude": "-90.04114966127275"
    }
  },
  {
    "service_request": "2026-1290240",
    "request_type": "Trash/Recycling",
    "request_reason": "Illegal Dumping",
    "date_created": "2026-06-12T16:16:24.000",
    "date_modified": "2026-06-12T16:16:26.000",
    "request_status": "Pending",
    "responsible_agency": "Department of Sanitation",
    "final_address": "DWYER RD & AMERICA ST",
    "address_councildis": "E",
    "status": "Pending",
    "rowid": "1290240",
    "final_x": "3699656.9",
    "final_y": "555573.38",
    "longitude": "-90.00986047535794",
    "latitude": "30.021069857126363",
    "geocoded_column": {
      "latitude": "30.021069857126363",
      "longitude": "-90.00986047535794"
    }
  },
  {
    "service_request": "2026-1290239",
    "request_type": "Streetlights",
    "request_reason": "Streetlight Outage/Malfunction",
    "date_created": "2026-06-12T16:15:36.000",
    "date_modified": "2026-06-12T16:15:38.000",
    "request_status": "Pending",
    "responsible_agency": "Department of Public Works",
    "final_address": "8434 Beechwood Ct",
    "address_councildis": "E",
    "status": "Pending",
    "rowid": "1290239",
    "final_x": "3704324.07434",
    "final_y": "560654.595358",
    "longitude": "-89.99492611197138",
    "latitude": "30.034892174218314",
    "geocoded_column": {
      "latitude": "30.034892174218314",
      "longitude": "-89.99492611197138"
    }
  },
  {
    "service_request": "2026-1290238",
    "request_type": "Trash/Recycling",
    "request_reason": "Missed Trash Pick-Up",
    "date_created": "2026-06-12T16:13:51.000",
    "date_modified": "2026-06-12T16:13:52.000",
    "request_status": "Pending",
    "responsible_agency": "Department of Sanitation",
    "final_address": "7241 Thornley Dr",
    "address_councildis": "E",
    "status": "Assigned to Contractor",
    "contractor": "Waste Pro",
    "rowid": "1290238",
    "final_x": "3702918.9907",
    "final_y": "560366.594205",
    "longitude": "-89.99937695539374",
    "latitude": "30.034145335945688",
    "geocoded_column": {
      "latitude": "30.034145335945688",
      "longitude": "-89.99937695539374"
    }
  },
  {
    "service_request": "2026-1290237",
    "request_type": "Trash/Recycling",
    "request_reason": "Request a Large Item Pick Up",
    "date_created": "2026-06-12T16:12:04.000",
    "date_modified": "2026-06-12T16:12:05.000",
    "request_status": "Pending",
    "responsible_agency": "Department of Sanitation",
    "final_address": "6121 Erin Dr",
    "address_councildis": "E",
    "status": "Assigned to Contractor",
    "contractor": "Waste Pro",
    "rowid": "1290237",
    "final_x": "3695998.32662",
    "final_y": "558669.785308",
    "longitude": "-90.02130844136796",
    "latitude": "30.02969947887221",
    "geocoded_column": {
      "latitude": "30.02969947887221",
      "longitude": "-90.02130844136796"
    }
  },
  {
    "service_request": "2026-1290236",
    "request_type": "Trash/Recycling",
    "request_reason": "Request a Large Item Pick Up",
    "date_created": "2026-06-12T16:10:48.000",
    "date_modified": "2026-06-12T16:10:50.000",
    "request_status": "Pending",
    "responsible_agency": "Department of Sanitation",
    "final_address": "827 Fats Domino Ave",
    "address_councildis": "E",
    "status": "Assigned to Contractor",
    "contractor": "Waste Pro",
    "rowid": "1290236",
    "final_x": "3697830.81968",
    "final_y": "532827.997316",
    "longitude": "-90.01645630280541",
    "latitude": "29.958586266455015",
    "geocoded_column": {
      "latitude": "29.958586266455015",
      "longitude": "-90.01645630280541"
    }
  },
  {
    "service_request": "2026-1290235",
    "request_type": "Trash/Recycling",
    "request_reason": "Request a Large Item Pick Up",
    "date_created": "2026-06-12T16:03:00.000",
    "date_modified": "2026-06-12T16:03:02.000",
    "request_status": "Pending",
    "responsible_agency": "Department of Sanitation",
    "final_address": "1921 Carnot St",
    "address_councildis": "D",
    "status": "Assigned to Contractor",
    "contractor": "IV Waste",
    "rowid": "1290235",
    "final_x": "3681854.42447",
    "final_y": "549843.834708",
    "longitude": "-90.06631138564023",
    "latitude": "30.005869060246898",
    "geocoded_column": {
      "latitude": "30.005869060246898",
      "longitude": "-90.06631138564023"
    }
  },
  {
    "service_request": "2026-1290234",
    "request_type": "Trash/Recycling",
    "request_reason": "Order Trash Cart",
    "date_created": "2026-06-12T16:01:16.000",
    "date_modified": "2026-06-12T16:01:17.000",
    "request_status": "Pending",
    "responsible_agency": "Department of Sanitation",
    "final_address": "3018 St Anthony Ave",
    "address_councildis": "D",
    "status": "Assigned to Contractor",
    "contractor": "IV Waste",
    "rowid": "1290234",
    "final_x": "3682816.56981",
    "final_y": "543719.244686",
    "longitude": "-90.06348617633597",
    "latitude": "29.988999335660566",
    "geocoded_column": {
      "latitude": "29.988999335660566",
      "longitude": "-90.06348617633597"
    }
  },
  {
    "service_request": "2026-1290232",
    "request_type": "Trash/Recycling",
    "request_reason": "Order Trash Cart",
    "date_created": "2026-06-12T15:57:12.000",
    "date_modified": "2026-06-12T15:57:14.000",
    "request_status": "Pending",
    "responsible_agency": "Department of Sanitation",
    "final_address": "2107 Harmony St",
    "address_councildis": "B",
    "status": "Assigned to Contractor",
    "contractor": "IV Waste",
    "rowid": "1290232",
    "final_x": "3674025.3403",
    "final_y": "523529.158843",
    "longitude": "-90.09194600500096",
    "latitude": "29.933748329107623",
    "geocoded_column": {
      "latitude": "29.933748329107623",
      "longitude": "-90.09194600500096"
    }
  },
  {
    "service_request": "2026-1290231",
    "request_type": "Drainage",
    "request_reason": "Catch Basin Frame and Cover Missing or Damaged",
    "date_created": "2026-06-12T15:55:56.000",
    "date_modified": "2026-06-12T16:00:13.000",
    "request_status": "Pending",
    "responsible_agency": "Sewerage & Water Board",
    "final_address": "AMAZON ST & IDAHO ST",
    "address_councildis": "C",
    "status": "Pending",
    "rowid": "1290231",
    "final_x": "3693488.4",
    "final_y": "521556.18",
    "longitude": "-90.03057314345152",
    "latitude": "29.927729163705283",
    "geocoded_column": {
      "latitude": "29.927729163705283",
      "longitude": "-90.03057314345152"
    }
  },
  {
    "service_request": "2026-1290230",
    "request_type": "Abandoned Vehicles",
    "request_reason": "Abandoned/Junk Vehicles",
    "date_created": "2026-06-12T15:54:29.000",
    "date_modified": "2026-06-12T15:54:31.000",
    "request_status": "Pending",
    "responsible_agency": "Department of Public Works",
    "final_address": "3059 Dumaine St",
    "address_councildis": "A",
    "status": "Pending",
    "rowid": "1290230",
    "final_x": "3675769.23931",
    "final_y": "538616.800201",
    "longitude": "-90.08592206292198",
    "latitude": "29.975182238750538",
    "geocoded_column": {
      "latitude": "29.975182238750538",
      "longitude": "-90.08592206292198"
    }
  },
  {
    "service_request": "2026-1290229",
    "request_type": "Trash/Recycling",
    "request_reason": "Repair Trash Cart",
    "date_created": "2026-06-12T15:50:13.000",
    "date_modified": "2026-06-12T15:50:15.000",
    "request_status": "Pending",
    "responsible_agency": "Department of Sanitation",
    "final_address": "5801 Tall Timbers Dr",
    "address_councildis": "C",
    "status": "Assigned to Contractor",
    "contractor": "Richards Disposal",
    "rowid": "1290229",
    "final_x": "3705256.51972",
    "final_y": "513957.769458",
    "longitude": "-89.99370472516962",
    "latitude": "29.906463015591186",
    "geocoded_column": {
      "latitude": "29.906463015591186",
      "longitude": "-89.99370472516962"
    }
  },
  {
    "service_request": "2026-1290228",
    "request_type": "Trash/Recycling",
    "request_reason": "Request a Large Item Pick Up",
    "date_created": "2026-06-12T15:48:32.000",
    "date_modified": "2026-06-12T15:48:33.000",
    "request_status": "Pending",
    "responsible_agency": "Department of Sanitation",
    "final_address": "4920 Gilbert St",
    "address_councildis": "E",
    "status": "Assigned to Contractor",
    "contractor": "Waste Pro",
    "rowid": "1290228",
    "final_x": "3729348.70637",
    "final_y": "562621.733216",
    "longitude": "-89.915768784021",
    "latitude": "30.039473522618636",
    "geocoded_column": {
      "latitude": "30.039473522618636",
      "longitude": "-89.915768784021"
    }
  },
  {
    "service_request": "2026-1290227",
    "request_type": "Trash/Recycling",
    "request_reason": "Request a Large Item Pick Up",
    "date_created": "2026-06-12T15:47:31.000",
    "date_modified": "2026-06-12T15:47:33.000",
    "request_status": "Pending",
    "responsible_agency": "Department of Sanitation",
    "final_address": "7 Pointe Coupee Pl",
    "address_councildis": "E",
    "status": "Assigned to Contractor",
    "contractor": "Waste Pro",
    "rowid": "1290227",
    "final_x": "3725480.57619",
    "final_y": "564434.884961",
    "longitude": "-89.92792277044596",
    "latitude": "30.044589951833",
    "geocoded_column": {
      "latitude": "30.044589951833",
      "longitude": "-89.92792277044596"
    }
  },
  {
    "service_request": "2026-1290226",
    "request_type": "Trash/Recycling",
    "request_reason": "Request a Large Item Pick Up",
    "date_created": "2026-06-12T15:46:19.000",
    "date_modified": "2026-06-12T15:46:21.000",
    "request_status": "Pending",
    "responsible_agency": "Department of Sanitation",
    "final_address": "4921 Metropolitan Dr",
    "address_councildis": "D",
    "status": "Assigned to Contractor",
    "contractor": "IV Waste",
    "rowid": "1290226",
    "final_x": "3690599.5222",
    "final_y": "551642.674645",
    "longitude": "-90.03861945398937",
    "latitude": "30.01054641988861",
    "geocoded_column": {
      "latitude": "30.01054641988861",
      "longitude": "-90.03861945398937"
    }
  },
  {
    "service_request": "2026-1290225",
    "request_type": "Trash/Recycling",
    "request_reason": "Request a Large Item Pick Up",
    "date_created": "2026-06-12T15:44:26.000",
    "date_modified": "2026-06-12T15:44:28.000",
    "request_status": "Pending",
    "responsible_agency": "Department of Sanitation",
    "final_address": "4721 Eastview Dr",
    "address_councildis": "E",
    "status": "Assigned to Contractor",
    "contractor": "Waste Pro",
    "rowid": "1290225",
    "final_x": "3705164.69527",
    "final_y": "555205.642713",
    "longitude": "-89.99247114417035",
    "latitude": "30.019882650166096",
    "geocoded_column": {
      "latitude": "30.019882650166096",
      "longitude": "-89.99247114417035"
    }
  },
  {
    "service_request": "2026-1290224",
    "request_type": "Trash/Recycling",
    "request_reason": "Replace Trash Cart",
    "date_created": "2026-06-12T15:40:07.000",
    "date_modified": "2026-06-12T15:40:08.000",
    "request_status": "Pending",
    "responsible_agency": "Department of Sanitation",
    "final_address": "4618 Mandeville St",
    "address_councildis": "D",
    "status": "Assigned to Contractor",
    "contractor": "IV Waste",
    "rowid": "1290224",
    "final_x": "3684672.98101",
    "final_y": "549653.515668",
    "longitude": "-90.057413614373",
    "latitude": "30.005259754202093",
    "geocoded_column": {
      "latitude": "30.005259754202093",
      "longitude": "-90.057413614373"
    }
  },
  {
    "service_request": "2026-1290223",
    "request_type": "Trash/Recycling",
    "request_reason": "Illegal Dumping",
    "date_created": "2026-06-12T15:39:32.000",
    "date_modified": "2026-06-12T15:39:34.000",
    "request_status": "Pending",
    "responsible_agency": "Department of Sanitation",
    "final_address": "3205 St Philip St",
    "address_councildis": "A",
    "status": "Pending",
    "rowid": "1290223",
    "final_x": "3675642.76693",
    "final_y": "539262.44353",
    "longitude": "-90.0862993044398",
    "latitude": "29.976961322126005",
    "geocoded_column": {
      "latitude": "29.976961322126005",
      "longitude": "-90.0862993044398"
    }
  },
  {
    "service_request": "2026-1290222",
    "request_type": "Trash/Recycling",
    "request_reason": "Order Trash Cart",
    "date_created": "2026-06-12T15:36:31.000",
    "date_modified": "2026-06-12T15:36:33.000",
    "request_status": "Pending",
    "responsible_agency": "Department of Sanitation",
    "final_address": "5973 Tullis Dr",
    "address_councildis": "C",
    "status": "Assigned to Contractor",
    "contractor": "Richards Disposal",
    "rowid": "1290222",
    "final_x": "3706437.79351",
    "final_y": "513598.435378",
    "longitude": "-89.98998984707157",
    "latitude": "29.905436942661552",
    "geocoded_column": {
      "latitude": "29.905436942661552",
      "longitude": "-89.98998984707157"
    }
  },
  {
    "service_request": "2026-1290221",
    "request_type": "Property Maintenance",
    "request_reason": "Property Maintenance",
    "date_created": "2026-06-12T15:34:42.000",
    "date_modified": "2026-06-12T15:34:45.000",
    "request_status": "Pending",
    "responsible_agency": "Department of Code Enforcement",
    "final_address": "2701 New Orleans St",
    "address_councildis": "D",
    "status": "Pending",
    "rowid": "1290221",
    "final_x": "3681932.15983",
    "final_y": "542393.870349",
    "longitude": "-90.06632605171168",
    "latitude": "29.985381943107488",
    "geocoded_column": {
      "latitude": "29.985381943107488",
      "longitude": "-90.06632605171168"
    }
  },
  {
    "service_request": "2026-1290220",
    "request_type": "Trash/Recycling",
    "request_reason": "Request a Large Item Pick Up",
    "date_created": "2026-06-12T15:33:37.000",
    "date_modified": "2026-06-12T15:33:38.000",
    "request_status": "Pending",
    "responsible_agency": "Department of Sanitation",
    "final_address": "2514 Chartres St",
    "address_councildis": "C",
    "status": "Assigned to Contractor",
    "contractor": "IV Waste",
    "rowid": "1290220",
    "final_x": "3686385.9078",
    "final_y": "534581.172101",
    "longitude": "-90.05253437251712",
    "latitude": "29.96376359845379",
    "geocoded_column": {
      "latitude": "29.96376359845379",
      "longitude": "-90.05253437251712"
    }
  },
  {
    "service_request": "2026-1290219",
    "request_type": "Trash/Recycling",
    "request_reason": "Request a Large Item Pick Up",
    "date_created": "2026-06-12T15:33:35.000",
    "date_modified": "2026-06-12T15:33:36.000",
    "request_status": "Pending",
    "responsible_agency": "Department of Sanitation",
    "final_address": "9044 Hickory St",
    "address_councildis": "A",
    "status": "Assigned to Contractor",
    "contractor": "IV Waste",
    "rowid": "1290219",
    "final_x": "3660723.92051",
    "final_y": "532294.962371",
    "longitude": "-90.13364844039343",
    "latitude": "29.958241037545225",
    "geocoded_column": {
      "latitude": "29.958241037545225",
      "longitude": "-90.13364844039343"
    }
  },
  {
    "service_request": "2026-1290218",
    "request_type": "Mosquito, Termite & Rodent Control",
    "request_reason": "Mosquito Complaint",
    "date_created": "2026-06-12T15:33:02.000",
    "date_modified": "2026-06-12T15:33:04.000",
    "request_status": "Pending",
    "responsible_agency": "Mosquito, Termite & Rodent Control Board",
    "final_address": "13513 St Marie Dr",
    "address_councildis": "E",
    "status": "Pending",
    "rowid": "1290218",
    "final_x": "3724006.63679",
    "final_y": "569033.871014",
    "longitude": "-89.93240332593814",
    "latitude": "30.057284871593595",
    "geocoded_column": {
      "latitude": "30.057284871593595",
      "longitude": "-89.93240332593814"
    }
  },
  {
    "service_request": "2026-1290217",
    "request_type": "Trash/Recycling",
    "request_reason": "Request a Large Item Pick Up",
    "date_created": "2026-06-12T15:31:36.000",
    "date_modified": "2026-06-12T15:31:38.000",
    "request_status": "Pending",
    "responsible_agency": "Department of Sanitation",
    "final_address": "2306 Esplanade Ave",
    "address_councildis": "C",
    "status": "Assigned to Contractor",
    "contractor": "IV Waste",
    "rowid": "1290217",
    "final_x": "3679158.27259",
    "final_y": "538070.858377",
    "longitude": "-90.07523753602261",
    "latitude": "29.973579204469257",
    "geocoded_column": {
      "latitude": "29.973579204469257",
      "longitude": "-90.07523753602261"
    }
  },
  {
    "service_request": "2026-1290216",
    "request_type": "Drainage",
    "request_reason": "Catch Basin Not Draining",
    "date_created": "2026-06-12T15:31:10.000",
    "date_modified": "2026-06-12T15:31:12.000",
    "request_status": "Pending",
    "responsible_agency": "Sewerage & Water Board",
    "final_address": "1301 Pine St",
    "address_councildis": "A",
    "status": "Pending",
    "rowid": "1290216",
    "final_x": "3664168.13364",
    "final_y": "526962.422718",
    "longitude": "-90.12295037978565",
    "latitude": "29.943478672427396",
    "geocoded_column": {
      "latitude": "29.943478672427396",
      "longitude": "-90.12295037978565"
    }
  },
  {
    "service_request": "2026-1290215",
    "request_type": "Trash/Recycling",
    "request_reason": "Repair Trash Cart",
    "date_created": "2026-06-12T15:30:00.000",
    "date_modified": "2026-06-12T15:30:01.000",
    "request_status": "Pending",
    "responsible_agency": "Department of Sanitation",
    "final_address": "4613 Erickson Ave",
    "address_councildis": "C",
    "status": "Assigned to Contractor",
    "contractor": "Richards Disposal",
    "rowid": "1290215",
    "final_x": "3701958.55383",
    "final_y": "519430.691383",
    "longitude": "-90.00391292226163",
    "latitude": "29.92161729002681",
    "geocoded_column": {
      "latitude": "29.92161729002681",
      "longitude": "-90.00391292226163"
    }
  },
  {
    "service_request": "2026-1290214",
    "request_type": "Trash/Recycling",
    "request_reason": "Request a Large Item Pick Up",
    "date_created": "2026-06-12T15:29:03.000",
    "date_modified": "2026-06-12T15:29:05.000",
    "request_status": "Pending",
    "responsible_agency": "Department of Sanitation",
    "final_address": "224 Abalon Ct",
    "address_councildis": "C",
    "status": "Assigned to Contractor",
    "contractor": "Richards Disposal",
    "rowid": "1290214",
    "final_x": "3689062.45315",
    "final_y": "530924.937154",
    "longitude": "-90.04421202909664",
    "latitude": "29.953627684453252",
    "geocoded_column": {
      "latitude": "29.953627684453252",
      "longitude": "-90.04421202909664"
    }
  },
  {
    "service_request": "2026-1290213",
    "request_type": "Property Maintenance",
    "request_reason": "Property Maintenance",
    "date_created": "2026-06-12T15:27:40.000",
    "date_modified": "2026-06-12T15:32:15.000",
    "request_status": "Pending",
    "responsible_agency": "Department of Code Enforcement",
    "final_address": "174 Huntlee Dr",
    "address_councildis": "C",
    "status": "Pending",
    "rowid": "1290213",
    "final_x": "3702401.80836",
    "final_y": "523329.206843",
    "longitude": "-90.00237082875383",
    "latitude": "29.93232270881407",
    "geocoded_column": {
      "latitude": "29.93232270881407",
      "longitude": "-90.00237082875383"
    }
  },
  {
    "service_request": "2026-1290212",
    "request_type": "Trash/Recycling",
    "request_reason": "Request a Large Item Pick Up",
    "date_created": "2026-06-12T15:26:30.000",
    "date_modified": "2026-06-12T15:26:33.000",
    "request_status": "Pending",
    "responsible_agency": "Department of Sanitation",
    "final_address": "1339 Hillary St",
    "address_councildis": "A",
    "status": "Assigned to Contractor",
    "contractor": "IV Waste",
    "rowid": "1290212",
    "final_x": "3663770.57402",
    "final_y": "527631.004799",
    "longitude": "-90.12418330929687",
    "latitude": "29.9453286002959",
    "geocoded_column": {
      "latitude": "29.9453286002959",
      "longitude": "-90.12418330929687"
    }
  },
  {
    "service_request": "2026-1290211",
    "request_type": "Property Maintenance",
    "request_reason": "Property Maintenance",
    "date_created": "2026-06-12T15:21:04.000",
    "date_modified": "2026-06-12T15:46:47.000",
    "case_close_date": "2026-06-12T10:46:46.000",
    "request_status": "Closed",
    "responsible_agency": "Department of Code Enforcement",
    "final_address": "2672 New Orleans St",
    "address_councildis": "D",
    "status": "Resolved",
    "rowid": "1290211",
    "final_x": "3681883.18044",
    "final_y": "542236.896141",
    "longitude": "-90.06648623896405",
    "latitude": "29.984951808240332",
    "geocoded_column": {
      "latitude": "29.984951808240332",
      "longitude": "-90.06648623896405"
    }
  },
  {
    "service_request": "2026-1290210",
    "request_type": "Trash/Recycling",
    "request_reason": "Replace Trash Cart",
    "date_created": "2026-06-12T15:20:57.000",
    "date_modified": "2026-06-12T15:20:59.000",
    "request_status": "Pending",
    "responsible_agency": "Department of Sanitation",
    "final_address": "2130 Simon Bolivar Ave",
    "address_councildis": "B",
    "status": "Assigned to Contractor",
    "contractor": "IV Waste",
    "rowid": "1290210",
    "final_x": "3676379.56008",
    "final_y": "525510.999549",
    "longitude": "-90.08444564759597",
    "latitude": "29.939127400571692",
    "geocoded_column": {
      "latitude": "29.939127400571692",
      "longitude": "-90.08444564759597"
    }
  },
  {
    "service_request": "2026-1290209",
    "request_type": "Trash/Recycling",
    "request_reason": "Repair Recycling Cart",
    "date_created": "2026-06-12T15:19:08.000",
    "date_modified": "2026-06-12T15:23:22.000",
    "request_status": "Pending",
    "responsible_agency": "Department of Sanitation",
    "final_address": "4429 S Liberty St",
    "address_councildis": "B",
    "status": "Pending",
    "rowid": "1290209",
    "final_x": "3670311.06625",
    "final_y": "523357.326459",
    "longitude": "-90.1036776423614",
    "latitude": "29.93338596936739",
    "geocoded_column": {
      "latitude": "29.93338596936739",
      "longitude": "-90.1036776423614"
    }
  },
  {
    "service_request": "2026-1290208",
    "request_type": "Trash/Recycling",
    "request_reason": "Order Recycling Cart",
    "date_created": "2026-06-12T15:14:53.000",
    "date_modified": "2026-06-12T15:14:54.000",
    "request_status": "Pending",
    "responsible_agency": "Department of Sanitation",
    "final_address": "8126 Belfast St",
    "address_councildis": "A",
    "status": "Pending",
    "rowid": "1290208",
    "final_x": "3665420.04167",
    "final_y": "532468.916804",
    "longitude": "-90.11881348981704",
    "latitude": "29.958583324268453",
    "geocoded_column": {
      "latitude": "29.958583324268453",
      "longitude": "-90.11881348981704"
    }
  },
  {
    "service_request": "2026-1290207",
    "request_type": "Trash/Recycling",
    "request_reason": "Start Trash Service",
    "date_created": "2026-06-12T15:13:45.000",
    "date_modified": "2026-06-12T15:13:47.000",
    "request_status": "Pending",
    "responsible_agency": "Department of Sanitation",
    "final_address": "8126 Belfast St",
    "address_councildis": "A",
    "status": "Assigned to Contractor",
    "contractor": "IV Waste",
    "rowid": "1290207",
    "final_x": "3665420.04167",
    "final_y": "532468.916804",
    "longitude": "-90.11881348981704",
    "latitude": "29.958583324268453",
    "geocoded_column": {
      "latitude": "29.958583324268453",
      "longitude": "-90.11881348981704"
    }
  },
  {
    "service_request": "2026-1290206",
    "request_type": "Road Striping",
    "request_reason": "Lane Striping or other Pavement Markings",
    "date_created": "2026-06-12T15:12:25.000",
    "date_modified": "2026-06-12T15:12:27.000",
    "request_status": "Pending",
    "responsible_agency": "Department of Public Works",
    "final_address": "1400 BLK Carondelet St",
    "address_councildis": "B",
    "status": "Pending",
    "rowid": "1290206",
    "final_x": "3678896.11461",
    "final_y": "525920.628393",
    "longitude": "-90.07648639164175",
    "latitude": "29.94017808451656",
    "geocoded_column": {
      "latitude": "29.94017808451656",
      "longitude": "-90.07648639164175"
    }
  },
  {
    "service_request": "2026-1290205",
    "request_type": "Streetlights",
    "request_reason": "Streetlight Outage/Malfunction",
    "date_created": "2026-06-12T15:10:27.000",
    "date_modified": "2026-06-12T15:12:48.000",
    "request_status": "Pending",
    "responsible_agency": "Department of Public Works",
    "final_address": "507 Aurora Oaks Dr",
    "address_councildis": "C",
    "status": "Pending",
    "rowid": "1290205",
    "final_x": "3701267.71082",
    "final_y": "521523.185977",
    "longitude": "-90.00601708858761",
    "latitude": "29.927392950418184",
    "geocoded_column": {
      "latitude": "29.927392950418184",
      "longitude": "-90.00601708858761"
    }
  },
  {
    "service_request": "2026-1290204",
    "request_type": "Streetlights",
    "request_reason": "Streetlight Outage/Malfunction",
    "date_created": "2026-06-12T15:09:55.000",
    "date_modified": "2026-06-12T15:09:56.000",
    "request_status": "Pending",
    "responsible_agency": "Department of Public Works",
    "final_address": "1127 Royal St",
    "address_councildis": "C",
    "status": "Pending",
    "rowid": "1290204",
    "final_x": "3683553.9565",
    "final_y": "533825.355845",
    "longitude": "-90.06150387633606",
    "latitude": "29.961772100076704",
    "geocoded_column": {
      "latitude": "29.961772100076704",
      "longitude": "-90.06150387633606"
    }
  },
  {
    "service_request": "2026-1290203",
    "request_type": "Property Maintenance",
    "request_reason": "Property Maintenance",
    "date_created": "2026-06-12T15:09:54.000",
    "date_modified": "2026-06-12T15:09:56.000",
    "request_status": "Pending",
    "responsible_agency": "Department of Code Enforcement",
    "final_address": "3400 BLK Desire Pkwy",
    "address_councildis": "D",
    "status": "Pending",
    "rowid": "1290203",
    "final_x": "3693098.35458",
    "final_y": "544803.903946",
    "longitude": "-90.03097029665561",
    "latitude": "29.991664439739413",
    "geocoded_column": {
      "latitude": "29.991664439739413",
      "longitude": "-90.03097029665561"
    }
  },
  {
    "service_request": "2026-1290202",
    "request_type": "Road Striping",
    "request_reason": "Lane Striping or other Pavement Markings",
    "date_created": "2026-06-12T15:08:25.000",
    "date_modified": "2026-06-12T15:08:26.000",
    "request_status": "Pending",
    "responsible_agency": "Department of Public Works",
    "final_address": "1700 BLK Robert C Blakes Sr Dr",
    "address_councildis": "B",
    "status": "Pending",
    "rowid": "1290202",
    "final_x": "3678268.87144",
    "final_y": "524925.942062",
    "longitude": "-90.07850108722181",
    "latitude": "29.93746192853866",
    "geocoded_column": {
      "latitude": "29.93746192853866",
      "longitude": "-90.07850108722181"
    }
  },
  {
    "service_request": "2026-1290201",
    "request_type": "Trash/Recycling",
    "request_reason": "Request a Large Item Pick Up",
    "date_created": "2026-06-12T15:07:40.000",
    "date_modified": "2026-06-12T15:07:42.000",
    "request_status": "Pending",
    "responsible_agency": "Department of Sanitation",
    "final_address": "1130 Frenchmen St",
    "address_councildis": "C",
    "status": "Assigned to Contractor",
    "contractor": "IV Waste",
    "rowid": "1290201",
    "final_x": "3684540.24431",
    "final_y": "536518.108807",
    "longitude": "-90.05829472327176",
    "latitude": "29.969146102103718",
    "geocoded_column": {
      "latitude": "29.969146102103718",
      "longitude": "-90.05829472327176"
    }
  },
  {
    "service_request": "2026-1290200",
    "request_type": "Trash/Recycling",
    "request_reason": "Order Trash Cart",
    "date_created": "2026-06-12T15:05:54.000",
    "date_modified": "2026-06-12T15:05:55.000",
    "request_status": "Pending",
    "responsible_agency": "Department of Sanitation",
    "final_address": "7827 Bass St",
    "address_councildis": "E",
    "status": "Assigned to Contractor",
    "contractor": "Waste Pro",
    "rowid": "1290200",
    "final_x": "3719937.91788",
    "final_y": "573896.336682",
    "longitude": "-89.9450776144253",
    "latitude": "30.07079076414743",
    "geocoded_column": {
      "latitude": "30.07079076414743",
      "longitude": "-89.9450776144253"
    }
  },
  {
    "service_request": "2026-1290199",
    "request_type": "Traffic Signals",
    "request_reason": "Traffic Signal Malfunctioning or Damaged",
    "date_created": "2026-06-12T15:05:26.000",
    "date_modified": "2026-06-12T15:07:35.000",
    "request_status": "Pending",
    "responsible_agency": "Department of Public Works",
    "final_address": "CAFFIN AVE & N CLAIBORNE AVE",
    "address_councildis": "E",
    "status": "Pending",
    "rowid": "1290199",
    "final_x": "3698509.13",
    "final_y": "535619.05",
    "longitude": "-90.01421292755714",
    "latitude": "29.966239214269713",
    "geocoded_column": {
      "latitude": "29.966239214269713",
      "longitude": "-90.01421292755714"
    }
  },
  {
    "service_request": "2026-1290198",
    "request_type": "Street and Traffic Signs",
    "request_reason": "Street Name Sign Damaged or Missing",
    "date_created": "2026-06-12T15:05:10.000",
    "date_modified": "2026-06-12T15:05:12.000",
    "request_status": "Pending",
    "responsible_agency": "Department of Public Works",
    "final_address": "0 BLK Agriculture Pl",
    "address_councildis": "D",
    "status": "Pending",
    "rowid": "1290198",
    "final_x": "3689891.40135",
    "final_y": "543419.290574",
    "longitude": "-90.04114966127275",
    "latitude": "29.987957086684915",
    "geocoded_column": {
      "latitude": "29.987957086684915",
      "longitude": "-90.04114966127275"
    }
  },
  {
    "service_request": "2026-1290197",
    "request_type": "Trash/Recycling",
    "request_reason": "Request a Large Item Pick Up",
    "date_created": "2026-06-12T15:02:18.000",
    "date_modified": "2026-06-12T15:02:19.000",
    "request_status": "Pending",
    "responsible_agency": "Department of Sanitation",
    "final_address": "7203 Bunker Hill Rd",
    "address_councildis": "E",
    "status": "Assigned to Contractor",
    "contractor": "Waste Pro",
    "rowid": "1290197",
    "final_x": "3705604.83467",
    "final_y": "561123.974622",
    "longitude": "-89.99086136692105",
    "latitude": "30.03614158602768",
    "geocoded_column": {
      "latitude": "30.03614158602768",
      "longitude": "-89.99086136692105"
    }
  },
  {
    "service_request": "2026-1290196",
    "request_type": "Trash/Recycling",
    "request_reason": "Repair Trash Cart",
    "date_created": "2026-06-12T15:02:16.000",
    "date_modified": "2026-06-12T15:02:18.000",
    "request_status": "Pending",
    "responsible_agency": "Department of Sanitation",
    "final_address": "4223 Stephen Girard Ave",
    "address_councildis": "D",
    "status": "Assigned to Contractor",
    "contractor": "IV Waste",
    "rowid": "1290196",
    "final_x": "3690076.62179",
    "final_y": "550010.109844",
    "longitude": "-90.04032969433759",
    "latitude": "30.006073702625734",
    "geocoded_column": {
      "latitude": "30.006073702625734",
      "longitude": "-90.04032969433759"
    }
  },
  {
    "service_request": "2026-1290195",
    "request_type": "Trash/Recycling",
    "request_reason": "Damaged Caused By Contractor",
    "date_created": "2026-06-12T15:00:32.000",
    "date_modified": "2026-06-12T15:00:33.000",
    "request_status": "Pending",
    "responsible_agency": "Department of Sanitation",
    "final_address": "17 Spanish Fort Blvd",
    "address_councildis": "D",
    "status": "Assigned to Contractor",
    "contractor": "IV Waste",
    "rowid": "1290195",
    "final_x": "3674141.40392",
    "final_y": "554839.1926",
    "longitude": "-90.0905074909738",
    "latitude": "30.01983676875857",
    "geocoded_column": {
      "latitude": "30.01983676875857",
      "longitude": "-90.0905074909738"
    }
  },
  {
    "service_request": "2026-1290194",
    "request_type": "Traffic Signals",
    "request_reason": "Traffic Signal Malfunctioning or Damaged",
    "date_created": "2026-06-12T14:56:20.000",
    "date_modified": "2026-06-12T14:56:22.000",
    "request_status": "Pending",
    "responsible_agency": "Department of Public Works",
    "final_address": "N CLAIBORNE AVE & CAFFIN AVE",
    "address_councildis": "E",
    "status": "Pending",
    "rowid": "1290194",
    "final_x": "3698499.71",
    "final_y": "535503.6",
    "longitude": "-90.01424687267114",
    "latitude": "29.965922066251796",
    "geocoded_column": {
      "latitude": "29.965922066251796",
      "longitude": "-90.01424687267114"
    }
  },
  {
    "service_request": "2026-1290193",
    "request_type": "Safety & Permits",
    "request_reason": "Licenses & Permits",
    "date_created": "2026-06-12T14:52:05.000",
    "date_modified": "2026-06-12T14:52:06.000",
    "request_status": "Pending",
    "responsible_agency": "Safety and Permits",
    "final_address": "1746 Prytania St",
    "address_councildis": "B",
    "status": "Pending",
    "rowid": "1290193",
    "final_x": "3679143.58632",
    "final_y": "524372.401468",
    "longitude": "-90.07575873134762",
    "latitude": "29.93591350605689",
    "geocoded_column": {
      "latitude": "29.93591350605689",
      "longitude": "-90.07575873134762"
    }
  },
  {
    "service_request": "2026-1290192",
    "request_type": "Trash/Recycling",
    "request_reason": "Request a Large Item Pick Up",
    "date_created": "2026-06-12T14:50:56.000",
    "date_modified": "2026-06-12T14:50:58.000",
    "request_status": "Pending",
    "responsible_agency": "Department of Sanitation",
    "final_address": "1816 Benefit St",
    "address_councildis": "D",
    "status": "Assigned to Contractor",
    "contractor": "IV Waste",
    "rowid": "1290192",
    "final_x": "3681538.69314",
    "final_y": "544150.024974",
    "longitude": "-90.067507571057",
    "latitude": "29.990222707410656",
    "geocoded_column": {
      "latitude": "29.990222707410656",
      "longitude": "-90.067507571057"
    }
  },
  {
    "service_request": "2026-1290191",
    "request_type": "Abandoned Vehicles",
    "request_reason": "Abandoned/Junk Vehicles",
    "date_created": "2026-06-12T14:49:04.000",
    "date_modified": "2026-06-12T14:49:05.000",
    "request_status": "Pending",
    "responsible_agency": "Department of Public Works",
    "final_address": "3618 Trafalgar St",
    "address_councildis": "A",
    "status": "Pending",
    "rowid": "1290191",
    "final_x": "3677159.87272",
    "final_y": "543164.686733",
    "longitude": "-90.08137313768246",
    "latitude": "29.987645654182916",
    "geocoded_column": {
      "latitude": "29.987645654182916",
      "longitude": "-90.08137313768246"
    }
  },
  {
    "service_request": "2026-1290190",
    "request_type": "Trash/Recycling",
    "request_reason": "Request a Large Item Pick Up",
    "date_created": "2026-06-12T14:43:11.000",
    "date_modified": "2026-06-12T14:43:13.000",
    "request_status": "Pending",
    "responsible_agency": "Department of Sanitation",
    "final_address": "3127 Derby Pl",
    "address_councildis": "A",
    "status": "Assigned to Contractor",
    "contractor": "IV Waste",
    "rowid": "1290190",
    "final_x": "3678277.87912",
    "final_y": "542928.460109",
    "longitude": "-90.07784991297075",
    "latitude": "29.986962477729037",
    "geocoded_column": {
      "latitude": "29.986962477729037",
      "longitude": "-90.07784991297075"
    }
  },
  {
    "service_request": "2026-1290189",
    "request_type": "Trash/Recycling",
    "request_reason": "Request a Large Item Pick Up",
    "date_created": "2026-06-12T14:41:21.000",
    "date_modified": "2026-06-12T14:41:24.000",
    "request_status": "Pending",
    "responsible_agency": "Department of Sanitation",
    "final_address": "1300 Treme St",
    "address_councildis": "C",
    "status": "Assigned to Contractor",
    "contractor": "IV Waste",
    "rowid": "1290189",
    "final_x": "3682185.7316",
    "final_y": "535554.563014",
    "longitude": "-90.06576409908153",
    "latitude": "29.96656851384437",
    "geocoded_column": {
      "latitude": "29.96656851384437",
      "longitude": "-90.06576409908153"
    }
  },
  {
    "service_request": "2026-1290188",
    "request_type": "Trash/Recycling",
    "request_reason": "Replace Trash Cart",
    "date_created": "2026-06-12T14:34:27.000",
    "date_modified": "2026-06-12T14:34:30.000",
    "request_status": "Pending",
    "responsible_agency": "Department of Sanitation",
    "final_address": "7400 Spring Lake Dr",
    "address_councildis": "E",
    "status": "Assigned to Contractor",
    "contractor": "Waste Pro",
    "rowid": "1290188",
    "final_x": "3700826.70775",
    "final_y": "558969.759708",
    "longitude": "-90.00603992985664",
    "latitude": "30.030371391244962",
    "geocoded_column": {
      "latitude": "30.030371391244962",
      "longitude": "-90.00603992985664"
    }
  },
  {
    "service_request": "2026-1290187",
    "request_type": "Trash/Recycling",
    "request_reason": "Request a Large Item Pick Up",
    "date_created": "2026-06-12T14:29:36.000",
    "date_modified": "2026-06-12T14:29:38.000",
    "request_status": "Pending",
    "responsible_agency": "Department of Sanitation",
    "final_address": "7809 Unity Dr",
    "address_councildis": "E",
    "status": "Assigned to Contractor",
    "contractor": "Waste Pro",
    "rowid": "1290187",
    "final_x": "3711808.69118",
    "final_y": "567499.79722",
    "longitude": "-89.97101662722679",
    "latitude": "30.053471214118208",
    "geocoded_column": {
      "latitude": "30.053471214118208",
      "longitude": "-89.97101662722679"
    }
  },
  {
    "service_request": "2026-1290186",
    "request_type": "Parks & Grass Service",
    "request_reason": "Request Grass Cutting Service (City Owned Property)",
    "date_created": "2026-06-12T14:28:19.000",
    "date_modified": "2026-06-12T14:28:21.000",
    "request_status": "Pending",
    "responsible_agency": "Department of Parks & Parkways",
    "final_address": "4601 Conti St",
    "address_councildis": "A",
    "status": "Pending",
    "rowid": "1290186",
    "final_x": "3670116.93134",
    "final_y": "540602.184651",
    "longitude": "-90.1037062973921",
    "latitude": "29.980809359046724",
    "geocoded_column": {
      "latitude": "29.980809359046724",
      "longitude": "-90.1037062973921"
    }
  },
  {
    "service_request": "2026-1290185",
    "request_type": "Streetlights",
    "request_reason": "Streetlight Outage/Malfunction",
    "date_created": "2026-06-12T14:26:18.000",
    "date_modified": "2026-06-12T14:26:20.000",
    "request_status": "Pending",
    "responsible_agency": "Department of Public Works",
    "final_address": "ONYX ST & JEWEL ST",
    "address_councildis": "D",
    "status": "Pending",
    "rowid": "1290185",
    "final_x": "3668919.3",
    "final_y": "555966.38",
    "longitude": "-90.10696958524211",
    "latitude": "30.023090841687814",
    "geocoded_column": {
      "latitude": "30.023090841687814",
      "longitude": "-90.10696958524211"
    }
  },
  {
    "service_request": "2026-1290184",
    "request_type": "Trash/Recycling",
    "request_reason": "Illegal Dumping",
    "date_created": "2026-06-12T14:20:57.000",
    "date_modified": "2026-06-12T14:20:59.000",
    "request_status": "Pending",
    "responsible_agency": "Department of Sanitation",
    "final_address": "2800 BLK Monticello Ave",
    "address_councildis": "A",
    "status": "Pending",
    "rowid": "1290184",
    "final_x": "3662520.09979",
    "final_y": "535868.422801",
    "longitude": "-90.12785785597015",
    "latitude": "29.968015054911838",
    "geocoded_column": {
      "latitude": "29.968015054911838",
      "longitude": "-90.12785785597015"
    }
  },
  {
    "service_request": "2026-1290183",
    "request_type": "Roads and Streets",
    "request_reason": "Road Shoulder Damage",
    "date_created": "2026-06-12T14:16:30.000",
    "date_modified": "2026-06-12T14:16:32.000",
    "request_status": "Pending",
    "responsible_agency": "Department of Public Works",
    "final_address": "2516 Dublin St",
    "address_councildis": "A",
    "status": "Pending",
    "rowid": "1290183",
    "final_x": "3664922.38157",
    "final_y": "532196.465155",
    "longitude": "-90.1203940836171",
    "latitude": "29.957848665996288",
    "geocoded_column": {
      "latitude": "29.957848665996288",
      "longitude": "-90.1203940836171"
    }
  },
  {
    "service_request": "2026-1290182",
    "request_type": "Trash/Recycling",
    "request_reason": "Request a Large Item Pick Up",
    "date_created": "2026-06-12T14:13:59.000",
    "date_modified": "2026-06-12T14:14:01.000",
    "request_status": "Pending",
    "responsible_agency": "Department of Sanitation",
    "final_address": "1325 Eagle St",
    "address_councildis": "A",
    "status": "Assigned to Contractor",
    "contractor": "IV Waste",
    "rowid": "1290182",
    "final_x": "3660546.91213",
    "final_y": "530449.567426",
    "longitude": "-90.13426836699034",
    "latitude": "29.953171890494932",
    "geocoded_column": {
      "latitude": "29.953171890494932",
      "longitude": "-90.13426836699034"
    }
  },
  {
    "service_request": "2026-1290181",
    "request_type": "Trash/Recycling",
    "request_reason": "MIssed Recycling Pick-Up",
    "date_created": "2026-06-12T14:11:27.000",
    "date_modified": "2026-06-12T14:11:29.000",
    "request_status": "Pending",
    "responsible_agency": "Department of Sanitation",
    "final_address": "7925 Pompano St",
    "address_councildis": "E",
    "status": "Assigned to Contractor",
    "contractor": "Waste Pro",
    "rowid": "1290181",
    "final_x": "3700240.42039",
    "final_y": "561644.345887",
    "longitude": "-90.00779482059595",
    "latitude": "30.037744126373003",
    "geocoded_column": {
      "latitude": "30.037744126373003",
      "longitude": "-90.00779482059595"
    }
  },
  {
    "service_request": "2026-1290180",
    "request_type": "Trash/Recycling",
    "request_reason": "Order Second Trash Cart",
    "date_created": "2026-06-12T14:10:35.000",
    "date_modified": "2026-06-12T14:10:36.000",
    "request_status": "Pending",
    "responsible_agency": "Department of Sanitation",
    "final_address": "5801 Waterford Blvd",
    "address_councildis": "E",
    "status": "Assigned to Contractor",
    "contractor": "Waste Pro",
    "rowid": "1290180",
    "final_x": "3714023.74047",
    "final_y": "561014.297118",
    "longitude": "-89.96426042781142",
    "latitude": "30.03556611705029",
    "geocoded_column": {
      "latitude": "30.03556611705029",
      "longitude": "-89.96426042781142"
    }
  },
  {
    "service_request": "2026-1290179",
    "request_type": "Drainage",
    "request_reason": "Catch Basin Not Draining",
    "date_created": "2026-06-12T14:10:33.000",
    "date_modified": "2026-06-12T14:10:35.000",
    "request_status": "Pending",
    "responsible_agency": "Sewerage & Water Board",
    "final_address": "1604 Robert C. Blakes, Sr. Dr",
    "address_councildis": "B",
    "status": "Pending",
    "rowid": "1290179",
    "final_x": "3678647.1204",
    "final_y": "525437.572413",
    "longitude": "-90.07728922277693",
    "latitude": "29.938857347755224",
    "geocoded_column": {
      "latitude": "29.938857347755224",
      "longitude": "-90.07728922277693"
    }
  },
  {
    "service_request": "2026-1290178",
    "request_type": "Trash/Recycling",
    "request_reason": "Order Recycling Cart",
    "date_created": "2026-06-12T14:08:08.000",
    "date_modified": "2026-06-12T14:08:09.000",
    "request_status": "Pending",
    "responsible_agency": "Department of Sanitation",
    "final_address": "631 Broadway St Apt 1C",
    "address_councildis": "A",
    "status": "Pending",
    "rowid": "1290178",
    "final_x": "3663217.36327",
    "final_y": "524902.933308",
    "longitude": "-90.1260207349382",
    "latitude": "29.937843313994907",
    "geocoded_column": {
      "latitude": "29.937843313994907",
      "longitude": "-90.1260207349382"
    }
  },
  {
    "service_request": "2026-1290177",
    "request_type": "Trash/Recycling",
    "request_reason": "Order Trash Cart",
    "date_created": "2026-06-12T14:06:49.000",
    "date_modified": "2026-06-12T14:06:51.000",
    "request_status": "Pending",
    "responsible_agency": "Department of Sanitation",
    "final_address": "631 Broadway St Apt 1C",
    "address_councildis": "A",
    "status": "Assigned to Contractor",
    "contractor": "IV Waste",
    "rowid": "1290177",
    "final_x": "3663217.36327",
    "final_y": "524902.933308",
    "longitude": "-90.1260207349382",
    "latitude": "29.937843313994907",
    "geocoded_column": {
      "latitude": "29.937843313994907",
      "longitude": "-90.1260207349382"
    }
  },
  {
    "service_request": "2026-1290176",
    "request_type": "Trash/Recycling",
    "request_reason": "Illegal Dumping",
    "date_created": "2026-06-12T14:05:58.000",
    "date_modified": "2026-06-12T14:05:59.000",
    "request_status": "Pending",
    "responsible_agency": "Department of Code Enforcement",
    "final_address": "9300 BLK Pritchard Pl",
    "address_councildis": "A",
    "status": "Pending",
    "rowid": "1290176",
    "final_x": "3662807.86989",
    "final_y": "535843.567536",
    "longitude": "-90.12694988960831",
    "latitude": "29.967938383442338",
    "geocoded_column": {
      "latitude": "29.967938383442338",
      "longitude": "-90.12694988960831"
    }
  },
  {
    "service_request": "2026-1290175",
    "request_type": "Streetlights",
    "request_reason": "New Streetlight Request",
    "date_created": "2026-06-12T14:05:41.000",
    "date_modified": "2026-06-12T14:05:42.000",
    "request_status": "Pending",
    "responsible_agency": "Department of Public Works",
    "final_address": "PONTCHARTRAIN BLVD & NO HAMMOND HWY",
    "address_councildis": "A",
    "status": "Pending",
    "rowid": "1290175",
    "final_x": "3666497.1",
    "final_y": "554648.88",
    "longitude": "-90.11466750976797",
    "latitude": "30.01953924253659",
    "geocoded_column": {
      "latitude": "30.01953924253659",
      "longitude": "-90.11466750976797"
    }
  },
  {
    "service_request": "2026-1290174",
    "request_type": "Trash/Recycling",
    "request_reason": "Request a Large Item Pick Up",
    "date_created": "2026-06-12T14:05:32.000",
    "date_modified": "2026-06-12T14:05:34.000",
    "request_status": "Pending",
    "responsible_agency": "Department of Sanitation",
    "final_address": "3813 Dumaine St",
    "address_councildis": "A",
    "status": "Assigned to Contractor",
    "contractor": "IV Waste",
    "rowid": "1290174",
    "final_x": "3673701.25102",
    "final_y": "540208.491467",
    "longitude": "-90.09239888270663",
    "latitude": "29.979620587591707",
    "geocoded_column": {
      "latitude": "29.979620587591707",
      "longitude": "-90.09239888270663"
    }
  },
  {
    "service_request": "2026-1290173",
    "request_type": "Trash/Recycling",
    "request_reason": "Return Recycling Cart",
    "date_created": "2026-06-12T14:05:11.000",
    "date_modified": "2026-06-12T14:05:12.000",
    "request_status": "Pending",
    "responsible_agency": "Department of Sanitation",
    "final_address": "724 Lesseps St",
    "address_councildis": "C",
    "status": "Pending",
    "rowid": "1290173",
    "final_x": "3692346.49437",
    "final_y": "533789.083461",
    "longitude": "-90.03373987274932",
    "latitude": "29.96140108702598",
    "geocoded_column": {
      "latitude": "29.96140108702598",
      "longitude": "-90.03373987274932"
    }
  },
  {
    "service_request": "2026-1290172",
    "request_type": "Trash/Recycling",
    "request_reason": "Request a Large Item Pick Up",
    "date_created": "2026-06-12T14:03:35.000",
    "date_modified": "2026-06-12T14:03:36.000",
    "request_status": "Pending",
    "responsible_agency": "Department of Sanitation",
    "final_address": "4040 Virgil Blvd",
    "address_councildis": "D",
    "status": "Assigned to Contractor",
    "contractor": "IV Waste",
    "rowid": "1290172",
    "final_x": "3679671.16443",
    "final_y": "547254.479249",
    "longitude": "-90.07329877170346",
    "latitude": "29.998815455686035",
    "geocoded_column": {
      "latitude": "29.998815455686035",
      "longitude": "-90.07329877170346"
    }
  },
  {
    "service_request": "2026-1290171",
    "request_type": "Trash/Recycling",
    "request_reason": "Return Trash Cart",
    "date_created": "2026-06-12T14:03:19.000",
    "date_modified": "2026-06-12T14:03:21.000",
    "request_status": "Pending",
    "responsible_agency": "Department of Sanitation",
    "final_address": "724 Lesseps St",
    "address_councildis": "C",
    "status": "Assigned to Contractor",
    "contractor": "IV Waste",
    "rowid": "1290171",
    "final_x": "3692346.49437",
    "final_y": "533789.083461",
    "longitude": "-90.03373987274932",
    "latitude": "29.96140108702598",
    "geocoded_column": {
      "latitude": "29.96140108702598",
      "longitude": "-90.03373987274932"
    }
  },
  {
    "service_request": "2026-1290170",
    "request_type": "Streetlights",
    "request_reason": "Streetlight Outage/Malfunction",
    "date_created": "2026-06-12T14:02:06.000",
    "date_modified": "2026-06-12T14:02:08.000",
    "request_status": "Pending",
    "responsible_agency": "Department of Public Works",
    "final_address": "PONTCHARTRAIN BLVD & FILMORE AVE",
    "address_councildis": "A",
    "status": "Pending",
    "rowid": "1290170",
    "final_x": "3666344.5",
    "final_y": "552293.18",
    "longitude": "-90.11522880347272",
    "latitude": "30.013066357280845",
    "geocoded_column": {
      "latitude": "30.013066357280845",
      "longitude": "-90.11522880347272"
    }
  },
  {
    "service_request": "2026-1290169",
    "request_type": "Roads and Streets",
    "request_reason": "Pothole",
    "date_created": "2026-06-12T14:01:41.000",
    "date_modified": "2026-06-12T14:01:43.000",
    "request_status": "Pending",
    "responsible_agency": "Department of Public Works",
    "final_address": "5701 Lewis Rd",
    "address_councildis": "D",
    "status": "Pending",
    "rowid": "1290169",
    "final_x": "3694619.10934",
    "final_y": "556140.430362",
    "longitude": "-90.02575794177883",
    "latitude": "30.022788063970353",
    "geocoded_column": {
      "latitude": "30.022788063970353",
      "longitude": "-90.02575794177883"
    }
  },
  {
    "service_request": "2026-1290168",
    "request_type": "Trash/Recycling",
    "request_reason": "Illegal Dumping",
    "date_created": "2026-06-12T14:00:13.000",
    "date_modified": "2026-06-12T14:03:11.000",
    "request_status": "Pending",
    "responsible_agency": "Department of Sanitation",
    "final_address": "N ROMAN ST & PORT ST",
    "address_councildis": "D",
    "status": "Pending",
    "rowid": "1290168",
    "final_x": "3688089.6",
    "final_y": "539014.88",
    "longitude": "-90.04699711562681",
    "latitude": "29.97590226919062",
    "geocoded_column": {
      "latitude": "29.97590226919062",
      "longitude": "-90.04699711562681"
    }
  },
  {
    "service_request": "2026-1290167",
    "request_type": "Trash/Recycling",
    "request_reason": "Repair Trash Cart",
    "date_created": "2026-06-12T13:58:13.000",
    "date_modified": "2026-06-12T13:58:14.000",
    "request_status": "Pending",
    "responsible_agency": "Department of Sanitation",
    "final_address": "4117 State Street Dr",
    "address_councildis": "B",
    "status": "Assigned to Contractor",
    "contractor": "IV Waste",
    "rowid": "1290167",
    "final_x": "3668378.35233",
    "final_y": "530635.861314",
    "longitude": "-90.1095337120783",
    "latitude": "29.953456472978882",
    "geocoded_column": {
      "latitude": "29.953456472978882",
      "longitude": "-90.1095337120783"
    }
  },
  {
    "service_request": "2026-1290166",
    "request_type": "Trash/Recycling",
    "request_reason": "Request a Large Item Pick Up",
    "date_created": "2026-06-12T13:54:39.000",
    "date_modified": "2026-06-12T13:54:41.000",
    "request_status": "Pending",
    "responsible_agency": "Department of Sanitation",
    "final_address": "4910 Michoud Blvd",
    "address_councildis": "E",
    "status": "Assigned to Contractor",
    "contractor": "Waste Pro",
    "rowid": "1290166",
    "final_x": "3724864.60793",
    "final_y": "561167.939806",
    "longitude": "-89.92999593867127",
    "latitude": "30.035627960467746",
    "geocoded_column": {
      "latitude": "30.035627960467746",
      "longitude": "-89.92999593867127"
    }
  },
  {
    "service_request": "2026-1290165",
    "request_type": "Abandoned Vehicles",
    "request_reason": "Abandoned/Junk Vehicles",
    "date_created": "2026-06-12T13:54:38.000",
    "date_modified": "2026-06-12T13:54:39.000",
    "request_status": "Pending",
    "responsible_agency": "Department of Public Works",
    "final_address": "MALVERN ST & ABERDEEN RD",
    "address_councildis": "E",
    "status": "Pending",
    "rowid": "1290165",
    "final_x": "3702590.2",
    "final_y": "561230.98",
    "longitude": "-90.00038419317919",
    "latitude": "30.036532579946428",
    "geocoded_column": {
      "latitude": "30.036532579946428",
      "longitude": "-90.00038419317919"
    }
  },
  {
    "service_request": "2026-1290164",
    "request_type": "Streetlights",
    "request_reason": "Streetlight Outage/Malfunction",
    "date_created": "2026-06-12T13:52:40.000",
    "date_modified": "2026-06-12T13:52:42.000",
    "request_status": "Pending",
    "responsible_agency": "Department of Public Works",
    "final_address": "WEST END BLVD & CHAPELLE ST",
    "address_councildis": "A",
    "status": "Pending",
    "rowid": "1290164",
    "final_x": "3666743.5",
    "final_y": "552737.08",
    "longitude": "-90.11395324824491",
    "latitude": "30.01427525760423",
    "geocoded_column": {
      "latitude": "30.01427525760423",
      "longitude": "-90.11395324824491"
    }
  },
  {
    "service_request": "2026-1290163",
    "request_type": "Trash/Recycling",
    "request_reason": "Request a Large Item Pick Up",
    "date_created": "2026-06-12T13:50:33.000",
    "date_modified": "2026-06-12T13:50:36.000",
    "request_status": "Pending",
    "responsible_agency": "Department of Sanitation",
    "final_address": "2355 Holiday Dr",
    "address_councildis": "C",
    "status": "Assigned to Contractor",
    "contractor": "Richards Disposal",
    "rowid": "1290163",
    "final_x": "3698780.08496",
    "final_y": "522536.007098",
    "longitude": "-90.01383303846384",
    "latitude": "29.930256860474415",
    "geocoded_column": {
      "latitude": "29.930256860474415",
      "longitude": "-90.01383303846384"
    }
  },
  {
    "service_request": "2026-1290162",
    "request_type": "Trash/Recycling",
    "request_reason": "Illegal Dumping",
    "date_created": "2026-06-12T13:48:41.000",
    "date_modified": "2026-06-12T13:48:42.000",
    "request_status": "Pending",
    "responsible_agency": "Department of Sanitation",
    "final_address": "CANAL ST & S GALVEZ ST & N GALVEZ ST",
    "address_councildis": "B",
    "status": "Pending",
    "rowid": "1290162",
    "final_x": "3677037.6",
    "final_y": "533879.68",
    "longitude": "-90.08207961809202",
    "latitude": "29.962118743098863",
    "geocoded_column": {
      "latitude": "29.962118743098863",
      "longitude": "-90.08207961809202"
    }
  },
  {
    "service_request": "2026-1290161",
    "request_type": "Traffic Signals",
    "request_reason": "Traffic Signal Malfunctioning or Damaged",
    "date_created": "2026-06-12T13:48:31.000",
    "date_modified": "2026-06-12T13:48:33.000",
    "request_status": "Pending",
    "responsible_agency": "Department of Public Works",
    "final_address": "BASIN ST & CANAL ST",
    "address_councildis": "C",
    "status": "Pending",
    "rowid": "1290161",
    "final_x": "3679876.4",
    "final_y": "531731.68",
    "longitude": "-90.07318971378146",
    "latitude": "29.956126927794102",
    "geocoded_column": {
      "latitude": "29.956126927794102",
      "longitude": "-90.07318971378146"
    }
  },
  {
    "service_request": "2026-1290160",
    "request_type": "Trash/Recycling",
    "request_reason": "Order Recycling Cart",
    "date_created": "2026-06-12T13:47:19.000",
    "date_modified": "2026-06-12T13:47:20.000",
    "request_status": "Pending",
    "responsible_agency": "Department of Sanitation",
    "final_address": "2125 St Anthony St",
    "address_councildis": "D",
    "status": "Pending",
    "rowid": "1290160",
    "final_x": "3683245.19554",
    "final_y": "540097.015691",
    "longitude": "-90.06225919798115",
    "latitude": "29.979026412136488",
    "geocoded_column": {
      "latitude": "29.979026412136488",
      "longitude": "-90.06225919798115"
    }
  },
  {
    "service_request": "2026-1290159",
    "request_type": "Trash/Recycling",
    "request_reason": "Order Trash Cart",
    "date_created": "2026-06-12T13:45:26.000",
    "date_modified": "2026-06-12T13:45:29.000",
    "request_status": "Pending",
    "responsible_agency": "Department of Sanitation",
    "final_address": "2125 St Anthony St",
    "address_councildis": "D",
    "status": "Assigned to Contractor",
    "contractor": "IV Waste",
    "rowid": "1290159",
    "final_x": "3683245.19554",
    "final_y": "540097.015691",
    "longitude": "-90.06225919798115",
    "latitude": "29.979026412136488",
    "geocoded_column": {
      "latitude": "29.979026412136488",
      "longitude": "-90.06225919798115"
    }
  },
  {
    "service_request": "2026-1290158",
    "request_type": "Trash/Recycling",
    "request_reason": "Order Recycling Cart",
    "date_created": "2026-06-12T13:41:13.000",
    "date_modified": "2026-06-12T13:41:16.000",
    "request_status": "Pending",
    "responsible_agency": "Department of Sanitation",
    "final_address": "2612 DAbadie St",
    "address_councildis": "D",
    "status": "Pending",
    "rowid": "1290158",
    "final_x": "3679397.54927",
    "final_y": "540822.361163",
    "longitude": "-90.07438637347619",
    "latitude": "29.981137659356808",
    "geocoded_column": {
      "latitude": "29.981137659356808",
      "longitude": "-90.07438637347619"
    }
  },
  {
    "service_request": "2026-1290157",
    "request_type": "Trash/Recycling",
    "request_reason": "Request a Large Item Pick Up",
    "date_created": "2026-06-12T13:39:57.000",
    "date_modified": "2026-06-12T13:39:59.000",
    "request_status": "Pending",
    "responsible_agency": "Department of Sanitation",
    "final_address": "2331 Lapeyrouse St",
    "address_councildis": "D",
    "status": "Assigned to Contractor",
    "contractor": "IV Waste",
    "rowid": "1290157",
    "final_x": "3680042.58389",
    "final_y": "539470.846858",
    "longitude": "-90.07239603816716",
    "latitude": "29.977401961546636",
    "geocoded_column": {
      "latitude": "29.977401961546636",
      "longitude": "-90.07239603816716"
    }
  },
  {
    "service_request": "2026-1290156",
    "request_type": "Trash/Recycling",
    "request_reason": "Order Trash Cart",
    "date_created": "2026-06-12T13:38:46.000",
    "date_modified": "2026-06-12T13:38:48.000",
    "request_status": "Pending",
    "responsible_agency": "Department of Sanitation",
    "final_address": "2030 Congress St",
    "address_councildis": "D",
    "status": "Assigned to Contractor",
    "contractor": "IV Waste",
    "rowid": "1290156",
    "final_x": "3691576.35068",
    "final_y": "539216.083978",
    "longitude": "-90.03597780774838",
    "latitude": "29.9763474189549",
    "geocoded_column": {
      "latitude": "29.9763474189549",
      "longitude": "-90.03597780774838"
    }
  },
  {
    "service_request": "2026-1290155",
    "request_type": "Trash/Recycling",
    "request_reason": "Return Recycling Cart",
    "date_created": "2026-06-12T13:38:43.000",
    "date_modified": "2026-06-12T13:38:44.000",
    "request_status": "Pending",
    "responsible_agency": "Department of Sanitation",
    "final_address": "1613 N Lopez St",
    "address_councildis": "A",
    "status": "Pending",
    "rowid": "1290155",
    "final_x": "3676560.78459",
    "final_y": "540647.454283",
    "longitude": "-90.0833521905969",
    "latitude": "29.98074212154528",
    "geocoded_column": {
      "latitude": "29.98074212154528",
      "longitude": "-90.0833521905969"
    }
  },
  {
    "service_request": "2026-1290154",
    "request_type": "Trash/Recycling",
    "request_reason": "Request a Large Item Pick Up",
    "date_created": "2026-06-12T13:38:04.000",
    "date_modified": "2026-06-12T13:38:06.000",
    "request_status": "Pending",
    "responsible_agency": "Department of Sanitation",
    "final_address": "13211 Dwyer Blvd",
    "address_councildis": "E",
    "status": "Assigned to Contractor",
    "contractor": "Waste Pro",
    "rowid": "1290154",
    "final_x": "3724365.33728",
    "final_y": "561532.289055",
    "longitude": "-89.93155961390502",
    "latitude": "30.036646574891197",
    "geocoded_column": {
      "latitude": "30.036646574891197",
      "longitude": "-89.93155961390502"
    }
  },
  {
    "service_request": "2026-1290153",
    "request_type": "Trash/Recycling",
    "request_reason": "Repair Trash Cart",
    "date_created": "2026-06-12T13:34:12.000",
    "date_modified": "2026-06-12T13:35:45.000",
    "request_status": "Pending",
    "responsible_agency": "Department of Sanitation",
    "final_address": "3430 Frenchmen St",
    "address_councildis": "D",
    "status": "Assigned to Contractor",
    "contractor": "IV Waste",
    "rowid": "1290153",
    "final_x": "3683811.95458",
    "final_y": "545359.903824",
    "longitude": "-90.06028448174146",
    "latitude": "29.99348019628021",
    "geocoded_column": {
      "latitude": "29.99348019628021",
      "longitude": "-90.06028448174146"
    }
  },
  {
    "service_request": "2026-1290152",
    "request_type": "Trash/Recycling",
    "request_reason": "Order Trash Cart",
    "date_created": "2026-06-12T13:30:52.000",
    "date_modified": "2026-06-12T13:30:54.000",
    "request_status": "Pending",
    "responsible_agency": "Department of Sanitation",
    "final_address": "2501 Danbury Dr",
    "address_councildis": "C",
    "status": "Assigned to Contractor",
    "contractor": "Richards Disposal",
    "rowid": "1290152",
    "final_x": "3703660.61489",
    "final_y": "521900.313274",
    "longitude": "-89.99844947492788",
    "latitude": "29.928353484770778",
    "geocoded_column": {
      "latitude": "29.928353484770778",
      "longitude": "-89.99844947492788"
    }
  },
  {
    "service_request": "2026-1290151",
    "request_type": "Tree Service",
    "request_reason": "Dead or Dying Tree",
    "date_created": "2026-06-12T13:30:34.000",
    "date_modified": "2026-06-12T13:30:35.000",
    "request_status": "Pending",
    "responsible_agency": "Department of Parks & Parkways",
    "final_address": "2631 Arts St",
    "address_councildis": "D",
    "status": "Pending",
    "rowid": "1290151",
    "final_x": "3686787.0998",
    "final_y": "542287.546253",
    "longitude": "-90.05099510103653",
    "latitude": "29.984941086208515",
    "geocoded_column": {
      "latitude": "29.984941086208515",
      "longitude": "-90.05099510103653"
    }
  },
  {
    "service_request": "2026-1290150",
    "request_type": "Abandoned Vehicles",
    "request_reason": "Abandoned/Junk Vehicles",
    "date_created": "2026-06-12T13:28:16.000",
    "date_modified": "2026-06-12T13:28:17.000",
    "request_status": "Pending",
    "responsible_agency": "Department of Public Works",
    "final_address": "400 BLK Celeste St",
    "address_councildis": "B",
    "status": "Pending",
    "rowid": "1290150",
    "final_x": "3682160.12646",
    "final_y": "521462.597282",
    "longitude": "-90.06633703721815",
    "latitude": "29.927821129339833",
    "geocoded_column": {
      "latitude": "29.927821129339833",
      "longitude": "-90.06633703721815"
    }
  },
  {
    "service_request": "2026-1290149",
    "request_type": "Abandoned Vehicles",
    "request_reason": "Abandoned/Junk Vehicles",
    "date_created": "2026-06-12T13:25:29.000",
    "date_modified": "2026-06-12T13:53:41.000",
    "case_close_date": "2026-06-12T08:47:28.000",
    "request_status": "Closed",
    "responsible_agency": "Department of Public Works",
    "final_address": "7800 Zimple St",
    "address_councildis": "A",
    "status": "Invalid Case",
    "rowid": "1290149",
    "final_x": "3662458.98995",
    "final_y": "527386.907199",
    "longitude": "-90.12833252300581",
    "latitude": "29.94469540158799",
    "geocoded_column": {
      "latitude": "29.94469540158799",
      "longitude": "-90.12833252300581"
    }
  },
  {
    "service_request": "2026-1290148",
    "request_type": "Trash/Recycling",
    "request_reason": "Request a Large Item Pick Up",
    "date_created": "2026-06-12T13:24:34.000",
    "date_modified": "2026-06-12T13:24:35.000",
    "request_status": "Pending",
    "responsible_agency": "Department of Sanitation",
    "final_address": "1326 Mendez St",
    "address_councildis": "D",
    "status": "Assigned to Contractor",
    "contractor": "IV Waste",
    "rowid": "1290148",
    "final_x": "3677177.89429",
    "final_y": "552875.491671",
    "longitude": "-90.0809809702767",
    "latitude": "30.014346390502308",
    "geocoded_column": {
      "latitude": "30.014346390502308",
      "longitude": "-90.0809809702767"
    }
  },
  {
    "service_request": "2026-1290147",
    "request_type": "Abandoned Vehicles",
    "request_reason": "Abandoned/Junk Vehicles",
    "date_created": "2026-06-12T13:24:31.000",
    "date_modified": "2026-06-12T13:24:33.000",
    "request_status": "Pending",
    "responsible_agency": "Department of Public Works",
    "final_address": "3541 Robert St",
    "address_councildis": "B",
    "status": "Pending",
    "rowid": "1290147",
    "final_x": "3668978.86298",
    "final_y": "527926.946943",
    "longitude": "-90.10772903903445",
    "latitude": "29.94599019398048",
    "geocoded_column": {
      "latitude": "29.94599019398048",
      "longitude": "-90.10772903903445"
    }
  },
  {
    "service_request": "2026-1290146",
    "request_type": "Property Maintenance",
    "request_reason": "Property Maintenance",
    "date_created": "2026-06-12T13:17:24.000",
    "date_modified": "2026-06-12T15:14:46.000",
    "case_close_date": "2026-06-12T10:14:45.000",
    "request_status": "Closed",
    "responsible_agency": "Department of Code Enforcement",
    "final_address": "8017 Burthe St",
    "address_councildis": "A",
    "status": "Resolved",
    "rowid": "1290146",
    "final_x": "3661491.57562",
    "final_y": "527441.495167",
    "longitude": "-90.13138514663514",
    "latitude": "29.94487343977359",
    "geocoded_column": {
      "latitude": "29.94487343977359",
      "longitude": "-90.13138514663514"
    }
  },
  {
    "service_request": "2026-1290145",
    "request_type": "Trash/Recycling",
    "request_reason": "Request a Large Item Pick Up",
    "date_created": "2026-06-12T13:12:34.000",
    "date_modified": "2026-06-12T13:14:56.000",
    "request_status": "Pending",
    "responsible_agency": "Department of Sanitation",
    "final_address": "7918 Michigan St",
    "address_councildis": "E",
    "status": "Pending",
    "contractor": "Waste Pro",
    "rowid": "1290145",
    "final_x": "3711078.42872",
    "final_y": "567500.563108",
    "longitude": "-89.97332474727531",
    "latitude": "30.05349717262902",
    "geocoded_column": {
      "latitude": "30.05349717262902",
      "longitude": "-89.97332474727531"
    }
  },
  {
    "service_request": "2026-1290144",
    "request_type": "Utility Poles",
    "request_reason": "Wires Sagging/Hanging Low",
    "date_created": "2026-06-12T13:11:40.000",
    "date_modified": "2026-06-12T13:13:13.000",
    "request_status": "Pending",
    "responsible_agency": "Utility Company Collective",
    "final_address": "4626 St Charles Ave",
    "address_councildis": "B",
    "status": "Pending",
    "rowid": "1290144",
    "final_x": "3669886.67777",
    "final_y": "520635.569656",
    "longitude": "-90.10510951736264",
    "latitude": "29.925914524874848",
    "geocoded_column": {
      "latitude": "29.925914524874848",
      "longitude": "-90.10510951736264"
    }
  },
  {
    "service_request": "2026-1290143",
    "request_type": "Trash/Recycling",
    "request_reason": "Illegal Dumping",
    "date_created": "2026-06-12T13:09:02.000",
    "date_modified": "2026-06-12T13:10:12.000",
    "request_status": "Pending",
    "responsible_agency": "Department of Sanitation",
    "final_address": "13610 Curran Rd",
    "address_councildis": "E",
    "status": "Pending",
    "rowid": "1290143",
    "final_x": "3717382.942",
    "final_y": "571172.42788",
    "longitude": "-89.95325825508601",
    "latitude": "30.063386021621874",
    "geocoded_column": {
      "latitude": "30.063386021621874",
      "longitude": "-89.95325825508601"
    }
  },
  {
    "service_request": "2026-1290142",
    "request_type": "Abandoned Vehicles",
    "request_reason": "Abandoned/Junk Vehicles",
    "date_created": "2026-06-12T13:06:07.000",
    "date_modified": "2026-06-12T13:07:29.000",
    "request_status": "Pending",
    "responsible_agency": "Department of Public Works",
    "final_address": "1740 Piety St",
    "address_councildis": "D",
    "status": "Pending",
    "rowid": "1290142",
    "final_x": "3690452.98051",
    "final_y": "538395.588105",
    "longitude": "-90.03955499467652",
    "latitude": "29.974126271463533",
    "geocoded_column": {
      "latitude": "29.974126271463533",
      "longitude": "-90.03955499467652"
    }
  },
  {
    "service_request": "2026-1290141",
    "request_type": "Trash/Recycling",
    "request_reason": "Repair Recycling Cart",
    "date_created": "2026-06-12T13:04:54.000",
    "date_modified": "2026-06-12T13:04:56.000",
    "request_status": "Pending",
    "responsible_agency": "Department of Sanitation",
    "final_address": "2118 Joliet St",
    "address_councildis": "A",
    "status": "Pending",
    "rowid": "1290141",
    "final_x": "3663110.19155",
    "final_y": "531820.776131",
    "longitude": "-90.12612898789273",
    "latitude": "29.956868265867172",
    "geocoded_column": {
      "latitude": "29.956868265867172",
      "longitude": "-90.12612898789273"
    }
  },
  {
    "service_request": "2026-1290140",
    "request_type": "Trash/Recycling",
    "request_reason": "Replace Recycling Cart",
    "date_created": "2026-06-12T13:02:00.000",
    "date_modified": "2026-06-12T13:02:01.000",
    "request_status": "Pending",
    "responsible_agency": "Department of Sanitation",
    "final_address": "5642 Woodlawn Pl",
    "address_councildis": "A",
    "status": "Pending",
    "rowid": "1290140",
    "final_x": "3667447.62132",
    "final_y": "545013.549519",
    "longitude": "-90.11198867362258",
    "latitude": "29.993017606341606",
    "geocoded_column": {
      "latitude": "29.993017606341606",
      "longitude": "-90.11198867362258"
    }
  },
  {
    "service_request": "2026-1290139",
    "request_type": "Trash/Recycling",
    "request_reason": "Request a Large Item Pick Up",
    "date_created": "2026-06-12T12:56:49.000",
    "date_modified": "2026-06-12T12:56:51.000",
    "request_status": "Pending",
    "responsible_agency": "Department of Sanitation",
    "final_address": "14 Curtis Dr",
    "address_councildis": "E",
    "status": "Assigned to Contractor",
    "contractor": "Waste Pro",
    "rowid": "1290139",
    "final_x": "3697957.93315",
    "final_y": "560552.156062",
    "longitude": "-90.01504770672234",
    "latitude": "30.034813431548613",
    "geocoded_column": {
      "latitude": "30.034813431548613",
      "longitude": "-90.01504770672234"
    }
  },
  {
    "service_request": "2026-1290138",
    "request_type": "Trash/Recycling",
    "request_reason": "Request a Large Item Pick Up",
    "date_created": "2026-06-12T12:56:44.000",
    "date_modified": "2026-06-12T12:56:45.000",
    "request_status": "Pending",
    "responsible_agency": "Department of Sanitation",
    "final_address": "12980 Mcraven Ct",
    "address_councildis": "E",
    "status": "Assigned to Contractor",
    "contractor": "Waste Pro",
    "rowid": "1290138",
    "final_x": "3716713.01292",
    "final_y": "568375.015653",
    "longitude": "-89.9554822464823",
    "latitude": "30.05571646601886",
    "geocoded_column": {
      "latitude": "30.05571646601886",
      "longitude": "-89.9554822464823"
    }
  },