[
  {
    "service_request": "2025-1176769",
    "request_type": "Drainage",
    "request_reason": "Catch Basin Clogged",
    "date_created": "2025-03-18T23:53:00.000",
    "date_modified": "2025-03-18T23:53:03.000",
    "request_status": "Pending",
    "responsible_agency": "Sewerage & Water Board ",
    "final_address": "1200 Simon Bolivar Ave",
    "address_councildis": "B",
    "status": "Pending",
    "rowid": "1176769",
    "final_x": "3677875.3739",
    "final_y": "527486.009023",
    "longitude": "-90.07965495718794",
    "latitude": "29.94451310953524",
    "geocoded_column": {
      "latitude": "29.94451310953524",
      "longitude": "-90.07965495718794"
    }
  },
  {
    "service_request": "2025-1176768",
    "request_type": "Trash/Recycling",
    "request_reason": "Missed Trash Pick-Up",
    "date_created": "2025-03-18T23:25:59.000",
    "date_modified": "2025-03-18T23:26:00.000",
    "request_status": "Pending",
    "responsible_agency": "Department of Sanitation",
    "final_address": "8222 Hickory St",
    "address_councildis": "A",
    "status": "Assigned to Contractor",
    "contractor": "IV Waste",
    "rowid": "1176768",
    "final_x": "3662955.12627",
    "final_y": "530261.915649",
    "longitude": "-90.12667047411851",
    "latitude": "29.952586395243806",
    "geocoded_column": {
      "latitude": "29.952586395243806",
      "longitude": "-90.12667047411851"
    }
  },
  {
    "service_request": "2025-1176767",
    "request_type": "Trash/Recycling",
    "request_reason": "Order Recycling Cart",
    "date_created": "2025-03-18T22:54:57.000",
    "date_modified": "2025-03-18T22:54:58.000",
    "request_status": "Pending",
    "responsible_agency": "Department of Sanitation",
    "final_address": "24 Admiralty Ct",
    "address_councildis": "C",
    "status": "Pending",
    "rowid": "1176767",
    "final_x": "3703966.5395",
    "final_y": "522989.236219",
    "longitude": "-89.99744366905331",
    "latitude": "29.931337839741488",
    "geocoded_column": {
      "latitude": "29.931337839741488",
      "longitude": "-89.99744366905331"
    }
  },
  {
    "service_request": "2025-1176766",
    "request_type": "Abandoned Vehicles",
    "request_reason": "Abandoned/Junk Vehicles",
    "date_created": "2025-03-18T22:37:14.000",
    "date_modified": "2025-03-18T22:37:16.000",
    "request_status": "Pending",
    "responsible_agency": "Department of Public Works",
    "final_address": "129 S Rendon St",
    "address_councildis": "B",
    "status": "Pending",
    "rowid": "1176766",
    "final_x": "3673390.92155",
    "final_y": "536268.317127",
    "longitude": "-90.09351368359762",
    "latitude": "29.968795684079414",
    "geocoded_column": {
      "latitude": "29.968795684079414",
      "longitude": "-90.09351368359762"
    }
  },
  {
    "service_request": "2025-1176765",
    "request_type": "Streetlights",
    "request_reason": "Streetlight Outage/Malfunction",
    "date_created": "2025-03-18T22:32:54.000",
    "date_modified": "2025-03-18T22:32:55.000",
    "request_status": "Pending",
    "responsible_agency": "Department of Public Works",
    "final_address": "5632 Elysian Fields Ave",
    "address_councildis": "D",
    "status": "Pending",
    "contractor": "Legacy Professional Services",
    "rowid": "1176765",
    "final_x": "3683446.04124",
    "final_y": "553635.688599",
    "longitude": "-90.06115009926017",
    "latitude": "30.01624679272331",
    "geocoded_column": {
      "latitude": "30.01624679272331",
      "longitude": "-90.06115009926017"
    }
  },
  {
    "service_request": "2025-1176764",
    "request_type": "Abandoned Vehicles",
    "request_reason": "Abandoned/Junk Vehicles",
    "date_created": "2025-03-18T22:13:11.000",
    "date_modified": "2025-03-18T22:13:12.000",
    "request_status": "Pending",
    "responsible_agency": "Department of Public Works",
    "final_address": "4734 Galahad Dr",
    "address_councildis": "E",
    "status": "Pending",
    "rowid": "1176764",
    "final_x": "3707144.55518",
    "final_y": "555403.048089",
    "longitude": "-89.98620814514143",
    "latitude": "30.020361585532832",
    "geocoded_column": {
      "latitude": "30.020361585532832",
      "longitude": "-89.98620814514143"
    }
  },
  {
    "service_request": "2025-1176763",
    "request_type": "Trash/Recycling",
    "request_reason": "Illegal Dumping",
    "date_created": "2025-03-18T22:10:23.000",
    "date_modified": "2025-03-18T22:10:25.000",
    "request_status": "Pending",
    "responsible_agency": "Department of Sanitation",
    "final_address": "1621 Tupelo St",
    "address_councildis": "E",
    "status": "Pending",
    "rowid": "1176763",
    "final_x": "3700310.75159",
    "final_y": "535240.254726",
    "longitude": "-90.00853731062404",
    "latitude": "29.965140510531874",
    "geocoded_column": {
      "latitude": "29.965140510531874",
      "longitude": "-90.00853731062404"
    }
  },
  {
    "service_request": "2025-1176762",
    "request_type": "Abandoned Vehicles",
    "request_reason": "Abandoned/Junk Vehicles",
    "date_created": "2025-03-18T22:09:01.000",
    "date_modified": "2025-03-18T22:09:03.000",
    "request_status": "Pending",
    "responsible_agency": "Department of Public Works",
    "final_address": "4734 Galahad Dr",
    "address_councildis": "E",
    "status": "Pending",
    "rowid": "1176762",
    "final_x": "3707144.55518",
    "final_y": "555403.048089",
    "longitude": "-89.98620814514143",
    "latitude": "30.020361585532832",
    "geocoded_column": {
      "latitude": "30.020361585532832",
      "longitude": "-89.98620814514143"
    }
  },
  {
    "service_request": "2025-1176761",
    "request_type": "Roads and Streets",
    "request_reason": "Pothole",
    "date_created": "2025-03-18T22:02:45.000",
    "date_modified": "2025-03-18T22:02:47.000",
    "request_status": "Pending",
    "responsible_agency": "Department of Public Works",
    "final_address": "3415 Louisiana Avenue Pkwy, New Orleans, Louisiana, 70125",
    "status": "Pending",
    "rowid": "1176761",
    "longitude": "0.0",
    "latitude": "0.0",
    "geocoded_column": {
      "latitude": "0.0",
      "longitude": "0.0"
    }
  },
  {
    "service_request": "2025-1176760",
    "request_type": "Abandoned Vehicles",
    "request_reason": "Abandoned/Junk Vehicles",
    "date_created": "2025-03-18T21:49:14.000",
    "date_modified": "2025-03-18T21:49:16.000",
    "request_status": "Pending",
    "responsible_agency": "Department of Public Works",
    "final_address": "4634 Galahad Dr",
    "address_councildis": "E",
    "status": "Pending",
    "rowid": "1176760",
    "final_x": "3707217.45732",
    "final_y": "554678.827096",
    "longitude": "-89.98600470566834",
    "latitude": "30.01836790157996",
    "geocoded_column": {
      "latitude": "30.01836790157996",
      "longitude": "-89.98600470566834"
    }
  },
  {
    "service_request": "2025-1176759",
    "request_type": "Trash/Recycling",
    "request_reason": "Order Second Trash Cart",
    "date_created": "2025-03-18T21:44:31.000",
    "date_modified": "2025-03-18T21:44:32.000",
    "request_status": "Pending",
    "responsible_agency": "Department of Sanitation",
    "final_address": "7420 W Laverne St",
    "address_councildis": "D",
    "status": "Assigned to Contractor",
    "contractor": "Waste Pro",
    "rowid": "1176759",
    "final_x": "3695288.63542",
    "final_y": "558073.425371",
    "longitude": "-90.02357258776958",
    "latitude": "30.02808204131781",
    "geocoded_column": {
      "latitude": "30.02808204131781",
      "longitude": "-90.02357258776958"
    }
  },
  {
    "service_request": "2025-1176758",
    "request_type": "Trash/Recycling",
    "request_reason": "Request a Large Item Pick Up",
    "date_created": "2025-03-18T21:00:19.000",
    "date_modified": "2025-03-18T21:00:22.000",
    "request_status": "Pending",
    "responsible_agency": "Department of Sanitation",
    "final_address": "2331 Terpsichore St",
    "address_councildis": "B",
    "status": "Assigned to Contractor",
    "contractor": "IV Waste",
    "rowid": "1176758",
    "final_x": "3676297.80705",
    "final_y": "527084.981374",
    "longitude": "-90.08464959949258",
    "latitude": "29.94345778196578",
    "geocoded_column": {
      "latitude": "29.94345778196578",
      "longitude": "-90.08464959949258"
    }
  },
  {
    "service_request": "2025-1176757",
    "request_type": "Trash/Recycling",
    "request_reason": "Request a Large Item Pick Up",
    "date_created": "2025-03-18T20:34:08.000",
    "date_modified": "2025-03-18T20:34:16.000",
    "request_status": "Pending",
    "responsible_agency": "Department of Sanitation",
    "final_address": "5264 Laurel St",
    "address_councildis": "B",
    "status": "Assigned to Contractor",
    "contractor": "IV Waste",
    "rowid": "1176757",
    "final_x": "3667445.89031",
    "final_y": "517846.126006",
    "longitude": "-90.1129081746618",
    "latitude": "29.91831614758881",
    "geocoded_column": {
      "latitude": "29.91831614758881",
      "longitude": "-90.1129081746618"
    }
  },
  {
    "service_request": "2025-1176756",
    "request_type": "Trash/Recycling",
    "request_reason": "Request a Large Item Pick Up",
    "date_created": "2025-03-18T20:25:34.000",
    "date_modified": "2025-03-18T20:25:36.000",
    "request_status": "Pending",
    "responsible_agency": "Department of Sanitation",
    "final_address": "7880 Means Ave Apt A",
    "address_councildis": "E",
    "status": "Assigned to Contractor",
    "contractor": "Waste Pro",
    "rowid": "1176756",
    "final_x": "3707602.17758",
    "final_y": "565445.186466",
    "longitude": "-89.98438866909274",
    "latitude": "30.04795870375798",
    "geocoded_column": {
      "latitude": "30.04795870375798",
      "longitude": "-89.98438866909274"
    }
  },
  {
    "service_request": "2025-1176755",
    "request_type": "Trash/Recycling",
    "request_reason": "Replace Recycling Cart",
    "date_created": "2025-03-18T19:59:40.000",
    "date_modified": "2025-03-18T19:59:42.000",
    "request_status": "Pending",
    "responsible_agency": "Department of Sanitation",
    "final_address": "4936 Metropolitan Dr",
    "address_councildis": "D",
    "status": "Pending",
    "rowid": "1176755",
    "final_x": "3690431.44476",
    "final_y": "551745.390933",
    "longitude": "-90.03914680778425",
    "latitude": "30.010834072670452",
    "geocoded_column": {
      "latitude": "30.010834072670452",
      "longitude": "-90.03914680778425"
    }
  },
  {
    "service_request": "2025-1176754",
    "request_type": "Drainage",
    "request_reason": "Street Flooding",
    "date_created": "2025-03-18T19:45:34.000",
    "date_modified": "2025-03-18T19:45:35.000",
    "request_status": "Pending",
    "responsible_agency": "Sewerage & Water Board ",
    "final_address": "4701 Marigny St",
    "address_councildis": "D",
    "status": "Pending",
    "rowid": "1176754",
    "final_x": "3684512.56917",
    "final_y": "550159.0125",
    "longitude": "-90.05790261324752",
    "latitude": "30.006654597983687",
    "geocoded_column": {
      "latitude": "30.006654597983687",
      "longitude": "-90.05790261324752"
    }
  },
  {
    "service_request": "2025-1176753",
    "request_type": "Abandoned Vehicles",
    "request_reason": "Abandoned/Junk Vehicles",
    "date_created": "2025-03-18T19:38:13.000",
    "date_modified": "2025-03-18T19:38:14.000",
    "request_status": "Pending",
    "responsible_agency": "Department of Public Works",
    "final_address": "531 S Pierce St",
    "address_councildis": "A",
    "status": "Pending",
    "rowid": "1176753",
    "final_x": "3670260.28839",
    "final_y": "536583.126727",
    "longitude": "-90.10338976826979",
    "latitude": "29.96975407557143",
    "geocoded_column": {
      "latitude": "29.96975407557143",
      "longitude": "-90.10338976826979"
    }
  },
  {
    "service_request": "2025-1176752",
    "request_type": "Abandoned Vehicles",
    "request_reason": "Abandoned/Junk Vehicles",
    "date_created": "2025-03-18T19:33:43.000",
    "date_modified": "2025-03-18T19:33:45.000",
    "request_status": "Pending",
    "responsible_agency": "Department of Public Works",
    "final_address": "528 S Pierce St",
    "address_councildis": "B",
    "status": "Pending",
    "rowid": "1176752",
    "final_x": "3670419.30177",
    "final_y": "536516.661191",
    "longitude": "-90.10288984223283",
    "latitude": "29.969566623435377",
    "geocoded_column": {
      "latitude": "29.969566623435377",
      "longitude": "-90.10288984223283"
    }
  },
  {
    "service_request": "2025-1176751",
    "request_type": "Trash/Recycling",
    "request_reason": "Request a Large Item Pick Up",
    "date_created": "2025-03-18T19:33:23.000",
    "date_modified": "2025-03-18T19:33:25.000",
    "request_status": "Pending",
    "responsible_agency": "Department of Sanitation",
    "final_address": "6069 Argonne Blvd",
    "address_councildis": "A",
    "status": "Assigned to Contractor",
    "contractor": "IV Waste",
    "rowid": "1176751",
    "final_x": "3670253.09473",
    "final_y": "547651.432082",
    "longitude": "-90.10303717522396",
    "latitude": "30.00018834788651",
    "geocoded_column": {
      "latitude": "30.00018834788651",
      "longitude": "-90.10303717522396"
    }
  },
  {
    "service_request": "2025-1176750",
    "request_type": "Trash/Recycling",
    "request_reason": "Request a Large Item Pick Up",
    "date_created": "2025-03-18T19:29:44.000",
    "date_modified": "2025-03-18T19:29:45.000",
    "request_status": "Pending",
    "responsible_agency": "Department of Sanitation",
    "final_address": "4 Warbler St",
    "address_councildis": "D",
    "status": "Assigned to Contractor",
    "contractor": "IV Waste",
    "rowid": "1176750",
    "final_x": "3672537.4283",
    "final_y": "557184.388059",
    "longitude": "-90.09549549598373",
    "latitude": "30.026332952158143",
    "geocoded_column": {
      "latitude": "30.026332952158143",
      "longitude": "-90.09549549598373"
    }
  },
  {
    "service_request": "2025-1176749",
    "request_type": "Trash/Recycling",
    "request_reason": "Request a Large Item Pick Up",
    "date_created": "2025-03-18T19:15:42.000",
    "date_modified": "2025-03-18T19:15:43.000",
    "request_status": "Pending",
    "responsible_agency": "Department of Sanitation",
    "final_address": "4800 Camelia St",
    "address_councildis": "E",
    "status": "Assigned to Contractor",
    "contractor": "Waste Pro",
    "rowid": "1176749",
    "final_x": "3701437.31223",
    "final_y": "554502.125912",
    "longitude": "-90.00427417792105",
    "latitude": "30.018067654044028",
    "geocoded_column": {
      "latitude": "30.018067654044028",
      "longitude": "-90.00427417792105"
    }
  },
  {
    "service_request": "2025-1176748",
    "request_type": "Trash/Recycling",
    "request_reason": "Replace Trash Cart",
    "date_created": "2025-03-18T19:00:47.000",
    "date_modified": "2025-03-18T19:00:50.000",
    "request_status": "Pending",
    "responsible_agency": "Department of Sanitation",
    "final_address": "2721 Memorial Park Dr",
    "address_councildis": "C",
    "status": "Assigned to Contractor",
    "contractor": "Richards Disposal",
    "rowid": "1176748",
    "final_x": "3693274.32989",
    "final_y": "520611.37228",
    "longitude": "-90.03128280013001",
    "latitude": "29.9251379526816",
    "geocoded_column": {
      "latitude": "29.9251379526816",
      "longitude": "-90.03128280013001"
    }
  },
  {
    "service_request": "2025-1176747",
    "request_type": "Street and Traffic Signs",
    "request_reason": "Additional Signage Request",
    "date_created": "2025-03-18T18:50:43.000",
    "date_modified": "2025-03-18T18:50:45.000",
    "request_status": "Pending",
    "responsible_agency": "Department of Public Works",
    "final_address": "1831 Marengo St",
    "address_councildis": "B",
    "status": "Pending",
    "rowid": "1176747",
    "final_x": "3671918.13319",
    "final_y": "521947.719738",
    "longitude": "-90.09865216732038",
    "latitude": "29.92946248578887",
    "geocoded_column": {
      "latitude": "29.92946248578887",
      "longitude": "-90.09865216732038"
    }
  },
  {
    "service_request": "2025-1176746",
    "request_type": "Roads and Streets",
    "request_reason": "Pothole",
    "date_created": "2025-03-18T18:41:00.000",
    "date_modified": "2025-03-18T18:41:02.000",
    "request_status": "Pending",
    "responsible_agency": "Department of Public Works",
    "final_address": "614 Valence St",
    "address_councildis": "B",
    "status": "Pending",
    "rowid": "1176746",
    "final_x": "3669986.24564",
    "final_y": "517792.605238",
    "longitude": "-90.10489142371483",
    "latitude": "29.91809433958799",
    "geocoded_column": {
      "latitude": "29.91809433958799",
      "longitude": "-90.10489142371483"
    }
  },
  {
    "service_request": "2025-1176745",
    "request_type": "Roads and Streets",
    "request_reason": "Pothole",
    "date_created": "2025-03-18T18:21:07.000",
    "date_modified": "2025-03-18T18:21:08.000",
    "request_status": "Pending",
    "responsible_agency": "Department of Public Works",
    "final_address": "738 Toulouse St",
    "address_councildis": "C",
    "status": "Pending",
    "rowid": "1176745",
    "final_x": "3682055.2004",
    "final_y": "532311.350531",
    "longitude": "-90.06628956898791",
    "latitude": "29.957654758842732",
    "geocoded_column": {
      "latitude": "29.957654758842732",
      "longitude": "-90.06628956898791"
    }
  },
  {
    "service_request": "2025-1176744",
    "request_type": "Parks & Parkways",
    "request_reason": "Request Tree Service (Right of Way/Public Property)",
    "date_created": "2025-03-18T18:04:55.000",
    "date_modified": "2025-03-18T18:04:57.000",
    "request_status": "Pending",
    "responsible_agency": "Department of Parks & Parkway",
    "final_address": "7836 Belfast St",
    "address_councildis": "A",
    "status": "Pending",
    "rowid": "1176744",
    "final_x": "3666173.67994",
    "final_y": "531775.457539",
    "longitude": "-90.11645694386692",
    "latitude": "29.95665455215164",
    "geocoded_column": {
      "latitude": "29.95665455215164",
      "longitude": "-90.11645694386692"
    }
  },
  {
    "service_request": "2025-1176743",
    "request_type": "Utility Poles",
    "request_reason": "Utility Pole Leaning",
    "date_created": "2025-03-18T18:00:41.000",
    "date_modified": "2025-03-18T18:00:44.000",
    "request_status": "Pending",
    "responsible_agency": "Utility Company Collective",
    "final_address": "200 Alonzo St",
    "address_councildis": "A",
    "status": "Pending",
    "rowid": "1176743",
    "final_x": "3664456.84813",
    "final_y": "517096.615925",
    "longitude": "-90.12236802251839",
    "latitude": "29.916342428615057",
    "geocoded_column": {
      "latitude": "29.916342428615057",
      "longitude": "-90.12236802251839"
    }
  },
  {
    "service_request": "2025-1176742",
    "request_type": "Trash/Recycling",
    "request_reason": "Replace Recycling Cart",
    "date_created": "2025-03-18T17:57:41.000",
    "date_modified": "2025-03-18T17:57:43.000",
    "request_status": "Pending",
    "responsible_agency": "Department of Sanitation",
    "final_address": "617 Leontine St",
    "address_councildis": "B",
    "status": "Pending",
    "rowid": "1176742",
    "final_x": "3667077.94721",
    "final_y": "517735.998582",
    "longitude": "-90.11407327685262",
    "latitude": "29.91802410237883",
    "geocoded_column": {
      "latitude": "29.91802410237883",
      "longitude": "-90.11407327685262"
    }
  },
  {
    "service_request": "2025-1176741",
    "request_type": "Street and Traffic Signs",
    "request_reason": "Stop Sign Missing or Damaged",
    "date_created": "2025-03-18T17:54:36.000",
    "date_modified": "2025-03-18T17:54:40.000",
    "request_status": "Pending",
    "responsible_agency": "Department of Public Works",
    "final_address": "200 Alonzo St",
    "address_councildis": "A",
    "status": "Pending",
    "rowid": "1176741",
    "final_x": "3664456.84813",
    "final_y": "517096.615925",
    "longitude": "-90.12236802251839",
    "latitude": "29.916342428615057",
    "geocoded_column": {
      "latitude": "29.916342428615057",
      "longitude": "-90.12236802251839"
    }
  },
  {
    "service_request": "2025-1176740",
    "request_type": "Trash/Recycling",
    "request_reason": "Repair Trash Cart",
    "date_created": "2025-03-18T17:53:32.000",
    "date_modified": "2025-03-18T17:53:34.000",
    "request_status": "Pending",
    "responsible_agency": "Department of Sanitation",
    "final_address": "214 N Alexander St",
    "address_councildis": "A",
    "status": "Assigned to Contractor",
    "contractor": "IV Waste",
    "rowid": "1176740",
    "final_x": "3670354.9954",
    "final_y": "539588.490634",
    "longitude": "-90.10298876225767",
    "latitude": "29.97801501768856",
    "geocoded_column": {
      "latitude": "29.97801501768856",
      "longitude": "-90.10298876225767"
    }
  },
  {
    "service_request": "2025-1176739",
    "request_type": "Trash/Recycling",
    "request_reason": "Replace Trash Cart",
    "date_created": "2025-03-18T17:50:20.000",
    "date_modified": "2025-03-18T17:50:22.000",
    "request_status": "Pending",
    "responsible_agency": "Department of Sanitation",
    "final_address": "1439 Louisiana Ave",
    "address_councildis": "B",
    "status": "Assigned to Contractor",
    "contractor": "IV Waste",
    "rowid": "1176739",
    "final_x": "3674567.20648",
    "final_y": "520902.567993",
    "longitude": "-90.0903253090172",
    "latitude": "29.926509901896985",
    "geocoded_column": {
      "latitude": "29.926509901896985",
      "longitude": "-90.0903253090172"
    }
  },
  {
    "service_request": "2025-1176738",
    "request_type": "Trash/Recycling",
    "request_reason": "Repair Trash Cart",
    "date_created": "2025-03-18T17:49:54.000",
    "date_modified": "2025-03-18T17:49:55.000",
    "request_status": "Pending",
    "responsible_agency": "Department of Sanitation",
    "final_address": "4127 Walmsley Ave",
    "address_councildis": "B",
    "status": "Assigned to Contractor",
    "contractor": "IV Waste",
    "rowid": "1176738",
    "final_x": "3670216.49287",
    "final_y": "529727.430465",
    "longitude": "-90.10376040967024",
    "latitude": "29.950904477062902",
    "geocoded_column": {
      "latitude": "29.950904477062902",
      "longitude": "-90.10376040967024"
    }
  },
  {
    "service_request": "2025-1176737",
    "request_type": "Property Maintenance",
    "request_reason": "Property Maintenance",
    "date_created": "2025-03-18T17:37:23.000",
    "date_modified": "2025-03-18T17:37:24.000",
    "request_status": "Pending",
    "responsible_agency": "Department of Code Enforcement",
    "final_address": "5222 Dauphine St",
    "address_councildis": "E",
    "status": "Pending",
    "rowid": "1176737",
    "final_x": "3696397.28951",
    "final_y": "532919.927044",
    "longitude": "-90.02097966625836",
    "latitude": "29.958884263743702",
    "geocoded_column": {
      "latitude": "29.958884263743702",
      "longitude": "-90.02097966625836"
    }
  },
  {
    "service_request": "2025-1176736",
    "request_type": "General Services",
    "request_reason": "General Service Request",
    "date_created": "2025-03-18T17:29:07.000",
    "date_modified": "2025-03-18T17:29:11.000",
    "request_status": "Pending",
    "responsible_agency": "Orleans Parish Communication District",
    "final_address": "4701 Citrus Dr",
    "address_councildis": "E",
    "status": "Pending",
    "rowid": "1176736",
    "final_x": "3710885.21003",
    "final_y": "555492.231833",
    "longitude": "-89.9743855975947",
    "latitude": "30.020485353466555",
    "geocoded_column": {
      "latitude": "30.020485353466555",
      "longitude": "-89.9743855975947"
    }
  },
  {
    "service_request": "2025-1176735",
    "request_type": "Trash/Recycling",
    "request_reason": "Illegal Dumping",
    "date_created": "2025-03-18T17:06:14.000",
    "date_modified": "2025-03-18T17:06:15.000",
    "request_status": "Pending",
    "responsible_agency": "Department of Sanitation",
    "final_address": "2619 Tupelo St",
    "address_councildis": "E",
    "status": "Pending",
    "rowid": "1176735",
    "final_x": "3701752.63882",
    "final_y": "538808.876361",
    "longitude": "-90.00385318587246",
    "latitude": "29.974907010127378",
    "geocoded_column": {
      "latitude": "29.974907010127378",
      "longitude": "-90.00385318587246"
    }
  },
  {
    "service_request": "2025-1176734",
    "request_type": "Trash/Recycling",
    "request_reason": "Illegal Dumping",
    "date_created": "2025-03-18T17:06:11.000",
    "date_modified": "2025-03-18T17:06:13.000",
    "request_status": "Pending",
    "responsible_agency": "Department of Sanitation",
    "final_address": "2619 Tupelo St",
    "address_councildis": "E",
    "status": "Pending",
    "rowid": "1176734",
    "final_x": "3701752.63882",
    "final_y": "538808.876361",
    "longitude": "-90.00385318587246",
    "latitude": "29.974907010127378",
    "geocoded_column": {
      "latitude": "29.974907010127378",
      "longitude": "-90.00385318587246"
    }
  },
  {
    "service_request": "2025-1176733",
    "request_type": "General Services",
    "request_reason": "General Service Request",
    "date_created": "2025-03-18T17:02:32.000",
    "date_modified": "2025-03-18T17:02:34.000",
    "request_status": "Pending",
    "responsible_agency": "Orleans Parish Communication District",
    "final_address": "7501 Jahncke Rd",
    "address_councildis": "E",
    "status": "Pending",
    "rowid": "1176733",
    "final_x": "3714614.70757",
    "final_y": "567756.029028",
    "longitude": "-89.96213793832732",
    "latitude": "30.054083717152526",
    "geocoded_column": {
      "latitude": "30.054083717152526",
      "longitude": "-89.96213793832732"
    }
  },
  {
    "service_request": "2025-1176732",
    "request_type": "Traffic Safety",
    "request_reason": "Request for Traffic Calming due to Speeding",
    "date_created": "2025-03-18T16:56:38.000",
    "date_modified": "2025-03-18T16:56:39.000",
    "request_status": "Pending",
    "responsible_agency": "Department of Public Works",
    "final_address": "BANKS ST & S GAYOSO ST",
    "address_councildis": "B",
    "status": "Pending",
    "rowid": "1176732",
    "final_x": "3673602.5",
    "final_y": "534891.98",
    "longitude": "-90.09289255895986",
    "latitude": "29.965004924216554",
    "geocoded_column": {
      "latitude": "29.965004924216554",
      "longitude": "-90.09289255895986"
    }
  },
  {
    "service_request": "2025-1176731",
    "request_type": "Trash/Recycling",
    "request_reason": "Request a Large Item Pick Up",
    "date_created": "2025-03-18T16:54:44.000",
    "date_modified": "2025-03-18T16:54:46.000",
    "request_status": "Pending",
    "responsible_agency": "Department of Sanitation",
    "final_address": "7812 Haney Dr",
    "address_councildis": "E",
    "status": "Assigned to Contractor",
    "contractor": "Waste Pro",
    "rowid": "1176731",
    "final_x": "3712217.36837",
    "final_y": "567785.708324",
    "longitude": "-89.96971416267708",
    "latitude": "30.054243986808753",
    "geocoded_column": {
      "latitude": "30.054243986808753",
      "longitude": "-89.96971416267708"
    }
  },
  {
    "service_request": "2025-1176730",
    "request_type": "Street and Traffic Signs",
    "request_reason": "Street Name Sign Damaged or Missing",
    "date_created": "2025-03-18T16:54:07.000",
    "date_modified": "2025-03-18T16:54:08.000",
    "request_status": "Pending",
    "responsible_agency": "Department of Public Works",
    "final_address": "1729 General Pershing St",
    "address_councildis": "B",
    "status": "Pending",
    "rowid": "1176730",
    "final_x": "3671230.12564",
    "final_y": "521526.095033",
    "longitude": "-90.10083840251973",
    "latitude": "29.92832351987896",
    "geocoded_column": {
      "latitude": "29.92832351987896",
      "longitude": "-90.10083840251973"
    }
  },
  {
    "service_request": "2025-1176729",
    "request_type": "Trash/Recycling",
    "request_reason": "Order Second Trash Cart",
    "date_created": "2025-03-18T16:52:19.000",
    "date_modified": "2025-03-18T16:52:20.000",
    "request_status": "Pending",
    "responsible_agency": "Department of Sanitation",
    "final_address": "7824 Devine Ave",
    "address_councildis": "E",
    "status": "Assigned to Contractor",
    "contractor": "Waste Pro",
    "rowid": "1176729",
    "final_x": "3705291.3363",
    "final_y": "563572.182816",
    "longitude": "-89.9917614905701",
    "latitude": "30.042883287565605",
    "geocoded_column": {
      "latitude": "30.042883287565605",
      "longitude": "-89.9917614905701"
    }
  },
  {
    "service_request": "2025-1176728",
    "request_type": "Abandoned Vehicles",
    "request_reason": "Abandoned/Junk Vehicles",
    "date_created": "2025-03-18T16:49:34.000",
    "date_modified": "2025-03-18T16:49:36.000",
    "request_status": "Pending",
    "responsible_agency": "Department of Public Works",
    "final_address": "5939 West End Blvd",
    "address_councildis": "A",
    "status": "Pending",
    "rowid": "1176728",
    "final_x": "3666554.31277",
    "final_y": "547468.000785",
    "longitude": "-90.11472803639829",
    "latitude": "29.99979265615956",
    "geocoded_column": {
      "latitude": "29.99979265615956",
      "longitude": "-90.11472803639829"
    }
  },
  {
    "service_request": "2025-1176727",
    "request_type": "Trash/Recycling",
    "request_reason": "Request a Large Item Pick Up",
    "date_created": "2025-03-18T16:48:40.000",
    "date_modified": "2025-03-18T16:48:42.000",
    "request_status": "Pending",
    "responsible_agency": "Department of Sanitation",
    "final_address": "3984 Tchoupitoulas St",
    "address_councildis": "B",
    "status": "Assigned to Contractor",
    "contractor": "IV Waste",
    "rowid": "1176727",
    "final_x": "3672735.91169",
    "final_y": "517576.32223",
    "longitude": "-90.0962195750975",
    "latitude": "29.91741828639736",
    "geocoded_column": {
      "latitude": "29.91741828639736",
      "longitude": "-90.0962195750975"
    }
  },
  {
    "service_request": "2025-1176726",
    "request_type": "Trash/Recycling",
    "request_reason": "Request a Large Item Pick Up",
    "date_created": "2025-03-18T16:46:23.000",
    "date_modified": "2025-03-18T16:46:25.000",
    "request_status": "Pending",
    "responsible_agency": "Department of Sanitation",
    "final_address": "728 Philip St",
    "address_councildis": "B",
    "status": "Assigned to Contractor",
    "contractor": "IV Waste",
    "rowid": "1176726",
    "final_x": "3679257.93647",
    "final_y": "520858.939065",
    "longitude": "-90.07551948566586",
    "latitude": "29.926249185892427",
    "geocoded_column": {
      "latitude": "29.926249185892427",
      "longitude": "-90.07551948566586"
    }
  },
  {
    "service_request": "2025-1176725",
    "request_type": "Trash/Recycling",
    "request_reason": "Repair Trash Cart",
    "date_created": "2025-03-18T16:45:31.000",
    "date_modified": "2025-03-18T16:45:33.000",
    "request_status": "Pending",
    "responsible_agency": "Department of Sanitation",
    "final_address": "1014 N Salcedo St",
    "address_councildis": "A",
    "status": "Assigned to Contractor",
    "contractor": "IV Waste",
    "rowid": "1176725",
    "final_x": "3676309.15259",
    "final_y": "538895.238666",
    "longitude": "-90.08420728684374",
    "latitude": "29.97593167635318",
    "geocoded_column": {
      "latitude": "29.97593167635318",
      "longitude": "-90.08420728684374"
    }
  },
  {
    "service_request": "2025-1176724",
    "request_type": "Trash/Recycling",
    "request_reason": "Repair Trash Cart",
    "date_created": "2025-03-18T16:44:06.000",
    "date_modified": "2025-03-18T16:44:08.000",
    "request_status": "Pending",
    "responsible_agency": "Department of Sanitation",
    "final_address": "1012 N Salcedo St",
    "address_councildis": "A",
    "status": "Assigned to Contractor",
    "contractor": "IV Waste",
    "rowid": "1176724",
    "final_x": "3676278.31925",
    "final_y": "538916.905354",
    "longitude": "-90.08430392153505",
    "latitude": "29.9759921765147",
    "geocoded_column": {
      "latitude": "29.9759921765147",
      "longitude": "-90.08430392153505"
    }
  },
  {
    "service_request": "2025-1176723",
    "request_type": "Trash/Recycling",
    "request_reason": "Request a Large Item Pick Up",
    "date_created": "2025-03-18T16:43:47.000",
    "date_modified": "2025-03-18T17:21:36.000",
    "case_close_date": "2025-03-18T12:17:59.000",
    "request_status": "Closed",
    "responsible_agency": "Department of Sanitation",
    "final_address": "7700 BLK Quaker St",
    "address_councildis": "E",
    "status": "Assigned to Contractor",
    "contractor": "Waste Pro",
    "contractor_action": "Additional information required from resident",
    "rowid": "1176723",
    "final_x": "3715209.92191",
    "final_y": "569613.786413",
    "longitude": "-89.96018626117143",
    "latitude": "30.059172187053925",
    "geocoded_column": {
      "latitude": "30.059172187053925",
      "longitude": "-89.96018626117143"
    }
  },
  {
    "service_request": "2025-1176722",
    "request_type": "Trash/Recycling",
    "request_reason": "Request a Large Item Pick Up",
    "date_created": "2025-03-18T16:33:56.000",
    "date_modified": "2025-03-18T16:33:58.000",
    "request_status": "Pending",
    "responsible_agency": "Department of Sanitation",
    "final_address": "5286 Beaver Dr",
    "address_councildis": "E",
    "status": "Assigned to Contractor",
    "contractor": "Waste Pro",
    "rowid": "1176722",
    "final_x": "3717472.07685",
    "final_y": "559497.640477",
    "longitude": "-89.95342093184709",
    "latitude": "30.03128218343359",
    "geocoded_column": {
      "latitude": "30.03128218343359",
      "longitude": "-89.95342093184709"
    }
  },
  {
    "service_request": "2025-1176721",
    "request_type": "Property Maintenance",
    "request_reason": "Property Maintenance",
    "date_created": "2025-03-18T16:33:01.000",
    "date_modified": "2025-03-18T16:33:03.000",
    "request_status": "Pending",
    "responsible_agency": "Department of Code Enforcement",
    "final_address": "1661 N Rocheblave St",
    "address_councildis": "D",
    "status": "Pending",
    "rowid": "1176721",
    "final_x": "3680236.94888",
    "final_y": "539961.85153",
    "longitude": "-90.07176509516326",
    "latitude": "29.978746171444566",
    "geocoded_column": {
      "latitude": "29.978746171444566",
      "longitude": "-90.07176509516326"
    }
  },
  {
    "service_request": "2025-1176720",
    "request_type": "Abandoned Vehicles",
    "request_reason": "Abandoned/Junk Vehicles",
    "date_created": "2025-03-18T16:32:41.000",
    "date_modified": "2025-03-18T16:33:20.000",
    "request_status": "Pending",
    "responsible_agency": "Department of Public Works",
    "final_address": "7800 BLK Edinburgh St",
    "address_councildis": "B",
    "status": "Inspected",
    "rowid": "1176720",
    "final_x": "3668171.7358",
    "final_y": "533803.514858",
    "longitude": "-90.11007934285377",
    "latitude": "29.962172544223193",
    "geocoded_column": {
      "latitude": "29.962172544223193",
      "longitude": "-90.11007934285377"
    }
  },
  {
    "service_request": "2025-1176719",
    "request_type": "Trash/Recycling",
    "request_reason": "Missed Trash Pick-Up",
    "date_created": "2025-03-18T16:31:58.000",
    "date_modified": "2025-03-18T16:32:00.000",
    "request_status": "Pending",
    "responsible_agency": "Department of Sanitation",
    "final_address": "212 S Alexander St",
    "address_councildis": "A",
    "status": "Assigned to Contractor",
    "contractor": "IV Waste",
    "rowid": "1176719",
    "final_x": "3669670.461",
    "final_y": "538686.390665",
    "longitude": "-90.10518130764832",
    "latitude": "29.97555474010241",
    "geocoded_column": {
      "latitude": "29.97555474010241",
      "longitude": "-90.10518130764832"
    }
  },
  {
    "service_request": "2025-1176718",
    "request_type": "Healthy Homes",
    "request_reason": "Healthy Homes",
    "date_created": "2025-03-18T16:31:53.000",
    "date_modified": "2025-03-18T16:31:55.000",
    "request_status": "Pending",
    "responsible_agency": "Department of Code Enforcement",
    "final_address": "1661 N Rocheblave St",
    "address_councildis": "D",
    "status": "Pending",
    "rowid": "1176718",
    "final_x": "3680236.94888",
    "final_y": "539961.85153",
    "longitude": "-90.07176509516326",
    "latitude": "29.978746171444566",
    "geocoded_column": {
      "latitude": "29.978746171444566",
      "longitude": "-90.07176509516326"
    }
  },
  {
    "service_request": "2025-1176717",
    "request_type": "Street and Traffic Signs",
    "request_reason": "Additional Signage Request",
    "date_created": "2025-03-18T16:25:53.000",
    "date_modified": "2025-03-18T16:25:55.000",
    "request_status": "Pending",
    "responsible_agency": "Department of Public Works",
    "final_address": "1600 S Claiborne Ave",
    "address_councildis": "B",
    "status": "Pending",
    "rowid": "1176717",
    "final_x": "3675196.79099",
    "final_y": "527962.610879",
    "longitude": "-90.08809568390262",
    "latitude": "29.94590391928964",
    "geocoded_column": {
      "latitude": "29.94590391928964",
      "longitude": "-90.08809568390262"
    }
  },
  {
    "service_request": "2025-1176716",
    "request_type": "Abandoned Vehicles",
    "request_reason": "Abandoned/Junk Vehicles",
    "date_created": "2025-03-18T16:21:33.000",
    "date_modified": "2025-03-18T16:21:53.000",
    "request_status": "Pending",
    "responsible_agency": "Department of Public Works",
    "final_address": "7800 BLK Edinburgh St",
    "address_councildis": "B",
    "status": "Inspected",
    "rowid": "1176716",
    "final_x": "3668171.7358",
    "final_y": "533803.514858",
    "longitude": "-90.11007934285377",
    "latitude": "29.962172544223193",
    "geocoded_column": {
      "latitude": "29.962172544223193",
      "longitude": "-90.11007934285377"
    }
  },
  {
    "service_request": "2025-1176715",
    "request_type": "Trash/Recycling",
    "request_reason": "Request a Large Item Pick Up",
    "date_created": "2025-03-18T16:19:49.000",
    "date_modified": "2025-03-18T16:19:50.000",
    "request_status": "Pending",
    "responsible_agency": "Department of Sanitation",
    "final_address": "811 Toledano St",
    "address_councildis": "B",
    "status": "Assigned to Contractor",
    "contractor": "IV Waste",
    "rowid": "1176715",
    "final_x": "3675829.27534",
    "final_y": "518890.740087",
    "longitude": "-90.08641041342675",
    "latitude": "29.92094031828154",
    "geocoded_column": {
      "latitude": "29.92094031828154",
      "longitude": "-90.08641041342675"
    }
  },
  {
    "service_request": "2025-1176714",
    "request_type": "Trash/Recycling",
    "request_reason": "Repair Trash Cart",
    "date_created": "2025-03-18T16:17:30.000",
    "date_modified": "2025-03-18T16:21:01.000",
    "request_status": "Pending",
    "responsible_agency": "Department of Sanitation",
    "final_address": "15 Allard Blvd",
    "address_councildis": "A",
    "status": "Assigned to Contractor",
    "contractor": "IV Waste",
    "rowid": "1176714",
    "final_x": "3672854.20788",
    "final_y": "541306.611788",
    "longitude": "-90.09503671013593",
    "latitude": "29.982665239370665",
    "geocoded_column": {
      "latitude": "29.982665239370665",
      "longitude": "-90.09503671013593"
    }
  },
  {
    "service_request": "2025-1176713",
    "request_type": "Trash/Recycling",
    "request_reason": "Request a Large Item Pick Up",
    "date_created": "2025-03-18T16:17:02.000",
    "date_modified": "2025-03-18T16:17:04.000",
    "request_status": "Pending",
    "responsible_agency": "Department of Sanitation",
    "final_address": "8050 Driftwood Dr",
    "address_councildis": "E",
    "status": "Assigned to Contractor",
    "contractor": "Waste Pro",
    "rowid": "1176713",
    "final_x": "3702287.5041",
    "final_y": "561861.579743",
    "longitude": "-90.0013176015962",
    "latitude": "30.038276161180363",
    "geocoded_column": {
      "latitude": "30.038276161180363",
      "longitude": "-90.0013176015962"
    }
  },
  {
    "service_request": "2025-1176712",
    "request_type": "Trash/Recycling",
    "request_reason": "Replace Trash Cart",
    "date_created": "2025-03-18T16:16:14.000",
    "date_modified": "2025-03-18T16:16:16.000",
    "request_status": "Pending",
    "responsible_agency": "Department of Sanitation",
    "final_address": "725 Topaz St",
    "address_councildis": "D",
    "status": "Assigned to Contractor",
    "contractor": "IV Waste",
    "rowid": "1176712",
    "final_x": "3669924.39258",
    "final_y": "556514.450906",
    "longitude": "-90.10377512170504",
    "latitude": "30.024568223813432",
    "geocoded_column": {
      "latitude": "30.024568223813432",
      "longitude": "-90.10377512170504"
    }
  },
  {
    "service_request": "2025-1176711",
    "request_type": "Drainage",
    "request_reason": "Ditch and Culvert Maintenance",
    "date_created": "2025-03-18T16:15:35.000",
    "date_modified": "2025-03-18T16:15:37.000",
    "request_status": "Pending",
    "responsible_agency": "Department of Public Works",
    "final_address": "8227 Plum St",
    "address_councildis": "A",
    "status": "Pending",
    "rowid": "1176711",
    "final_x": "3661788.70592",
    "final_y": "529062.383104",
    "longitude": "-90.1303932844971",
    "latitude": "29.949321789717484",
    "geocoded_column": {
      "latitude": "29.949321789717484",
      "longitude": "-90.1303932844971"
    }
  },
  {
    "service_request": "2025-1176710",
    "request_type": "Roads and Streets",
    "request_reason": "Pothole",
    "date_created": "2025-03-18T16:15:14.000",
    "date_modified": "2025-03-18T16:15:16.000",
    "request_status": "Pending",
    "responsible_agency": "Department of Public Works",
    "final_address": "LAW ST & GALLIER ST",
    "address_councildis": "D",
    "status": "Pending",
    "rowid": "1176710",
    "final_x": "3691864.6",
    "final_y": "541289.28",
    "longitude": "-90.03499324145812",
    "latitude": "29.98203899045606",
    "geocoded_column": {
      "latitude": "29.98203899045606",
      "longitude": "-90.03499324145812"
    }
  },
  {
    "service_request": "2025-1176709",
    "request_type": "Trash/Recycling",
    "request_reason": "Repair Recycling Cart",
    "date_created": "2025-03-18T16:12:46.000",
    "date_modified": "2025-03-18T16:12:48.000",
    "request_status": "Pending",
    "responsible_agency": "Department of Sanitation",
    "final_address": "8227 Plum St",
    "address_councildis": "A",
    "status": "Pending",
    "rowid": "1176709",
    "final_x": "3661788.70592",
    "final_y": "529062.383104",
    "longitude": "-90.1303932844971",
    "latitude": "29.949321789717484",
    "geocoded_column": {
      "latitude": "29.949321789717484",
      "longitude": "-90.1303932844971"
    }
  },
  {
    "service_request": "2025-1176708",
    "request_type": "Graffiti Removal",
    "request_reason": "Graffiti Removal",
    "date_created": "2025-03-18T16:12:34.000",
    "date_modified": "2025-03-18T16:12:36.000",
    "request_status": "Pending",
    "responsible_agency": "Department of Code Enforcement",
    "final_address": "755 Carondelet St",
    "address_councildis": "B",
    "status": "Pending",
    "rowid": "1176708",
    "final_x": "3679985.24514",
    "final_y": "528239.737536",
    "longitude": "-90.07296730232298",
    "latitude": "29.946521968229245",
    "geocoded_column": {
      "latitude": "29.946521968229245",
      "longitude": "-90.07296730232298"
    }
  },
  {
    "service_request": "2025-1176707",
    "request_type": "Abandoned Vehicles",
    "request_reason": "Abandoned/Junk Vehicles",
    "date_created": "2025-03-18T16:11:15.000",
    "date_modified": "2025-03-18T16:11:16.000",
    "request_status": "Pending",
    "responsible_agency": "Department of Public Works",
    "final_address": "221 N Prieur St",
    "address_councildis": "B",
    "status": "Pending",
    "rowid": "1176707",
    "final_x": "3677853.54664",
    "final_y": "533979.019397",
    "longitude": "-90.07949954772619",
    "latitude": "29.962367367799168",
    "geocoded_column": {
      "latitude": "29.962367367799168",
      "longitude": "-90.07949954772619"
    }
  },
  {
    "service_request": "2025-1176706",
    "request_type": "Abandoned Vehicles",
    "request_reason": "Abandoned/Junk Vehicles",
    "date_created": "2025-03-18T16:08:05.000",
    "date_modified": "2025-03-18T16:08:43.000",
    "request_status": "Pending",
    "responsible_agency": "Department of Public Works",
    "final_address": "7700 BLK Olive St",
    "address_councildis": "B",
    "status": "Inspected",
    "rowid": "1176706",
    "final_x": "3668208.94012",
    "final_y": "533298.320658",
    "longitude": "-90.10997888927173",
    "latitude": "29.960782334954832",
    "geocoded_column": {
      "latitude": "29.960782334954832",
      "longitude": "-90.10997888927173"
    }
  },
  {
    "service_request": "2025-1176705",
    "request_type": "Trash/Recycling",
    "request_reason": "Request a Large Item Pick Up",
    "date_created": "2025-03-18T16:05:05.000",
    "date_modified": "2025-03-18T16:05:06.000",
    "request_status": "Pending",
    "responsible_agency": "Department of Sanitation",
    "final_address": "10942 S Hardy St",
    "address_councildis": "E",
    "status": "Assigned to Contractor",
    "contractor": "Waste Pro",
    "rowid": "1176705",
    "final_x": "3713129.49893",
    "final_y": "561641.270559",
    "longitude": "-89.96706273271425",
    "latitude": "30.037319391155414",
    "geocoded_column": {
      "latitude": "30.037319391155414",
      "longitude": "-89.96706273271425"
    }
  },
  {
    "service_request": "2025-1176704",
    "request_type": "Property Maintenance",
    "request_reason": "Property Maintenance",
    "date_created": "2025-03-18T15:55:58.000",
    "date_modified": "2025-03-18T15:56:00.000",
    "request_status": "Pending",
    "responsible_agency": "Department of Code Enforcement",
    "final_address": "3435 Upperline St",
    "address_councildis": "B",
    "status": "Pending",
    "rowid": "1176704",
    "final_x": "3669327.65684",
    "final_y": "527686.614655",
    "longitude": "-90.10663589884156",
    "latitude": "29.945319095464626",
    "geocoded_column": {
      "latitude": "29.945319095464626",
      "longitude": "-90.10663589884156"
    }
  },
  {
    "service_request": "2025-1176703",
    "request_type": "Property Maintenance",
    "request_reason": "Property Maintenance",
    "date_created": "2025-03-18T15:55:57.000",
    "date_modified": "2025-03-18T15:55:58.000",
    "request_status": "Pending",
    "responsible_agency": "Department of Code Enforcement",
    "final_address": "3435 Upperline St",
    "address_councildis": "B",
    "status": "Pending",
    "rowid": "1176703",
    "final_x": "3669327.65684",
    "final_y": "527686.614655",
    "longitude": "-90.10663589884156",
    "latitude": "29.945319095464626",
    "geocoded_column": {
      "latitude": "29.945319095464626",
      "longitude": "-90.10663589884156"
    }
  },
  {
    "service_request": "2025-1176702",
    "request_type": "Property Maintenance",
    "request_reason": "Property Maintenance",
    "date_created": "2025-03-18T15:55:52.000",
    "date_modified": "2025-03-18T15:55:53.000",
    "request_status": "Pending",
    "responsible_agency": "Department of Code Enforcement",
    "final_address": "3435 Upperline St",
    "address_councildis": "B",
    "status": "Pending",
    "rowid": "1176702",
    "final_x": "3669327.65684",
    "final_y": "527686.614655",
    "longitude": "-90.10663589884156",
    "latitude": "29.945319095464626",
    "geocoded_column": {
      "latitude": "29.945319095464626",
      "longitude": "-90.10663589884156"
    }
  },
  {
    "service_request": "2025-1176701",
    "request_type": "Trash/Recycling",
    "request_reason": "Request a Large Item Pick Up",
    "date_created": "2025-03-18T15:53:43.000",
    "date_modified": "2025-03-18T15:53:45.000",
    "request_status": "Pending",
    "responsible_agency": "Department of Sanitation",
    "final_address": "4706 W Adams Ct",
    "address_councildis": "E",
    "status": "Assigned to Contractor",
    "contractor": "Waste Pro",
    "rowid": "1176701",
    "final_x": "3718486.30373",
    "final_y": "556767.886682",
    "longitude": "-89.95032009037851",
    "latitude": "30.02374283268497",
    "geocoded_column": {
      "latitude": "30.02374283268497",
      "longitude": "-89.95032009037851"
    }
  },
  {
    "service_request": "2025-1176700",
    "request_type": "Trash/Recycling",
    "request_reason": "Request a Large Item Pick Up",
    "date_created": "2025-03-18T15:46:05.000",
    "date_modified": "2025-03-18T15:46:08.000",
    "request_status": "Pending",
    "responsible_agency": "Department of Sanitation",
    "final_address": "1637 De Battista Pl",
    "address_councildis": "C",
    "status": "Assigned to Contractor",
    "contractor": "Richards Disposal",
    "rowid": "1176700",
    "final_x": "3699693.97194",
    "final_y": "524708.34214",
    "longitude": "-90.01086891272321",
    "latitude": "29.936201060602922",
    "geocoded_column": {
      "latitude": "29.936201060602922",
      "longitude": "-90.01086891272321"
    }
  },
  {
    "service_request": "2025-1176699",
    "request_type": "Trash/Recycling",
    "request_reason": "Request a Large Item Pick Up",
    "date_created": "2025-03-18T15:43:23.000",
    "date_modified": "2025-03-18T15:43:25.000",
    "request_status": "Pending",
    "responsible_agency": "Department of Sanitation",
    "final_address": "7582 Forum Blvd",
    "address_councildis": "E",
    "status": "Assigned to Contractor",
    "contractor": "Waste Pro",
    "rowid": "1176699",
    "final_x": "3720367.02425",
    "final_y": "572953.870505",
    "longitude": "-89.94375723316313",
    "latitude": "30.068185078422527",
    "geocoded_column": {
      "latitude": "30.068185078422527",
      "longitude": "-89.94375723316313"
    }
  },
  {
    "service_request": "2025-1176698",
    "request_type": "Trash/Recycling",
    "request_reason": "Missed Trash Pick-Up",
    "date_created": "2025-03-18T15:37:56.000",
    "date_modified": "2025-03-18T15:37:58.000",
    "request_status": "Pending",
    "responsible_agency": "Department of Sanitation",
    "final_address": "7582 Forum Blvd",
    "address_councildis": "E",
    "status": "Assigned to Contractor",
    "contractor": "Waste Pro",
    "rowid": "1176698",
    "final_x": "3720367.02425",
    "final_y": "572953.870505",
    "longitude": "-89.94375723316313",
    "latitude": "30.068185078422527",
    "geocoded_column": {
      "latitude": "30.068185078422527",
      "longitude": "-89.94375723316313"
    }
  },
  {
    "service_request": "2025-1176697",
    "request_type": "Abandoned Vehicles",
    "request_reason": "Abandoned/Junk Vehicles",
    "date_created": "2025-03-18T15:37:13.000",
    "date_modified": "2025-03-18T15:38:46.000",
    "request_status": "Pending",
    "responsible_agency": "Department of Public Works",
    "final_address": "5250 Chamberlain Dr",
    "address_councildis": "D",
    "status": "Pending",
    "rowid": "1176697",
    "final_x": "3679461.31413",
    "final_y": "551779.154006",
    "longitude": "-90.07380457434593",
    "latitude": "30.01126303764705",
    "geocoded_column": {
      "latitude": "30.01126303764705",
      "longitude": "-90.07380457434593"
    }
  },
  {
    "service_request": "2025-1176696",
    "request_type": "Trash/Recycling",
    "request_reason": "Replace Trash Cart",
    "date_created": "2025-03-18T15:36:58.000",
    "date_modified": "2025-03-18T15:37:00.000",
    "request_status": "Pending",
    "responsible_agency": "Department of Sanitation",
    "final_address": "125 Sherwood Forest Dr",
    "address_councildis": "A",
    "status": "Assigned to Contractor",
    "contractor": "IV Waste",
    "rowid": "1176696",
    "final_x": "3673234.14561",
    "final_y": "541090.015692",
    "longitude": "-90.0938440750508",
    "latitude": "29.982058378968688",
    "geocoded_column": {
      "latitude": "29.982058378968688",
      "longitude": "-90.0938440750508"
    }
  },
  {
    "service_request": "2025-1176695",
    "request_type": "Drainage",
    "request_reason": "Drainage Manhole Cover Missing or Damaged",
    "date_created": "2025-03-18T15:35:32.000",
    "date_modified": "2025-03-18T15:35:33.000",
    "request_status": "Pending",
    "responsible_agency": "Sewerage & Water Board ",
    "final_address": "13000 Lincoln Beach Blvd",
    "address_councildis": "E",
    "status": "Pending",
    "rowid": "1176695",
    "final_x": "3715368.53855",
    "final_y": "570913.981223",
    "longitude": "-89.95963562121273",
    "latitude": "30.06274195731509",
    "geocoded_column": {
      "latitude": "30.06274195731509",
      "longitude": "-89.95963562121273"
    }
  },
  {
    "service_request": "2025-1176694",
    "request_type": "Trash/Recycling",
    "request_reason": "Replace Recycling Cart",
    "date_created": "2025-03-18T15:34:34.000",
    "date_modified": "2025-03-18T15:34:35.000",
    "request_status": "Pending",
    "responsible_agency": "Department of Sanitation",
    "final_address": "1816 General Taylor St",
    "address_councildis": "B",
    "status": "Pending",
    "rowid": "1176694",
    "final_x": "3672387.01153",
    "final_y": "521907.191546",
    "longitude": "-90.09717338171049",
    "latitude": "29.929337145742284",
    "geocoded_column": {
      "latitude": "29.929337145742284",
      "longitude": "-90.09717338171049"
    }
  },
  {
    "service_request": "2025-1176693",
    "request_type": "Trash/Recycling",
    "request_reason": "Replace Trash Cart",
    "date_created": "2025-03-18T15:32:48.000",
    "date_modified": "2025-03-18T15:32:50.000",
    "request_status": "Pending",
    "responsible_agency": "Department of Sanitation",
    "final_address": "1816 General Taylor St",
    "address_councildis": "B",
    "status": "Assigned to Contractor",
    "contractor": "IV Waste",
    "rowid": "1176693",
    "final_x": "3672387.01153",
    "final_y": "521907.191546",
    "longitude": "-90.09717338171049",
    "latitude": "29.929337145742284",
    "geocoded_column": {
      "latitude": "29.929337145742284",
      "longitude": "-90.09717338171049"
    }
  },
  {
    "service_request": "2025-1176692",
    "request_type": "Trash/Recycling",
    "request_reason": "Request a Large Item Pick Up",
    "date_created": "2025-03-18T15:32:35.000",
    "date_modified": "2025-03-18T15:32:37.000",
    "request_status": "Pending",
    "responsible_agency": "Department of Sanitation",
    "final_address": "3026 Robert St",
    "address_councildis": "B",
    "status": "Assigned to Contractor",
    "contractor": "IV Waste",
    "rowid": "1176692",
    "final_x": "3668824.71425",
    "final_y": "526483.243326",
    "longitude": "-90.10826447481786",
    "latitude": "29.942025009960354",
    "geocoded_column": {
      "latitude": "29.942025009960354",
      "longitude": "-90.10826447481786"
    }
  },
  {
    "service_request": "2025-1176691",
    "request_type": "Trash/Recycling",
    "request_reason": "Request a Large Item Pick Up",
    "date_created": "2025-03-18T15:31:37.000",
    "date_modified": "2025-03-18T15:31:39.000",
    "request_status": "Pending",
    "responsible_agency": "Department of Sanitation",
    "final_address": "8419 Curran Rd",
    "address_councildis": "E",
    "status": "Assigned to Contractor",
    "contractor": "Waste Pro",
    "rowid": "1176691",
    "final_x": "3703473.16158",
    "final_y": "562290.101855",
    "longitude": "-89.99755485526966",
    "latitude": "30.039416477239463",
    "geocoded_column": {
      "latitude": "30.039416477239463",
      "longitude": "-89.99755485526966"
    }
  },
  {
    "service_request": "2025-1176690",
    "request_type": "Trash/Recycling",
    "request_reason": "Request a Large Item Pick Up",
    "date_created": "2025-03-18T15:31:05.000",
    "date_modified": "2025-03-18T15:31:06.000",
    "request_status": "Pending",
    "responsible_agency": "Department of Sanitation",
    "final_address": "1919 Fourth St",
    "address_councildis": "B",
    "status": "Assigned to Contractor",
    "contractor": "IV Waste",
    "rowid": "1176690",
    "final_x": "3675519.41499",
    "final_y": "523769.864187",
    "longitude": "-90.08722101384092",
    "latitude": "29.934365597932743",
    "geocoded_column": {
      "latitude": "29.934365597932743",
      "longitude": "-90.08722101384092"
    }
  },
  {
    "service_request": "2025-1176689",
    "request_type": "Trash/Recycling",
    "request_reason": "Order Trash Cart",
    "date_created": "2025-03-18T15:30:23.000",
    "date_modified": "2025-03-18T15:30:25.000",
    "request_status": "Pending",
    "responsible_agency": "Department of Sanitation",
    "final_address": "1417 Third St",
    "address_councildis": "B",
    "status": "Assigned to Contractor",
    "contractor": "IV Waste",
    "rowid": "1176689",
    "final_x": "3676914.75547",
    "final_y": "522288.494522",
    "longitude": "-90.08286699733344",
    "latitude": "29.930250516642626",
    "geocoded_column": {
      "latitude": "29.930250516642626",
      "longitude": "-90.08286699733344"
    }
  },
  {
    "service_request": "2025-1176688",
    "request_type": "Drainage",
    "request_reason": "Drainage Manhole Cover Missing or Damaged",
    "date_created": "2025-03-18T15:30:15.000",
    "date_modified": "2025-03-18T15:30:17.000",
    "request_status": "Pending",
    "responsible_agency": "Sewerage & Water Board ",
    "final_address": "14000 Lincoln Beach Blvd",
    "address_councildis": "E",
    "status": "Pending",
    "rowid": "1176688",
    "final_x": "3717914.11583",
    "final_y": "573229.521833",
    "longitude": "-89.95150078675579",
    "latitude": "30.069024567408636",
    "geocoded_column": {
      "latitude": "30.069024567408636",
      "longitude": "-89.95150078675579"
    }
  },
  {
    "service_request": "2025-1176687",
    "request_type": "Trash/Recycling",
    "request_reason": "Request a Large Item Pick Up",
    "date_created": "2025-03-18T15:29:31.000",
    "date_modified": "2025-03-18T15:29:33.000",
    "request_status": "Pending",
    "responsible_agency": "Department of Sanitation",
    "final_address": "5843 Brighton Pl",
    "address_councildis": "C",
    "status": "Assigned to Contractor",
    "contractor": "Richards Disposal",
    "rowid": "1176687",
    "final_x": "3705259.76606",
    "final_y": "520014.885176",
    "longitude": "-89.9934709422231",
    "latitude": "29.923117891913655",
    "geocoded_column": {
      "latitude": "29.923117891913655",
      "longitude": "-89.9934709422231"
    }
  },
  {
    "service_request": "2025-1176686",
    "request_type": "Trash/Recycling",
    "request_reason": "Request a Large Item Pick Up",
    "date_created": "2025-03-18T15:26:26.000",
    "date_modified": "2025-03-18T15:26:27.000",
    "request_status": "Pending",
    "responsible_agency": "Department of Sanitation",
    "final_address": "601 N Claiborne Ave Apt 100",
    "address_councildis": "D",
    "status": "Assigned to Contractor",
    "contractor": "IV Waste",
    "rowid": "1176686",
    "final_x": "3679481.34562",
    "final_y": "534492.573125",
    "longitude": "-90.07434137245093",
    "latitude": "29.963730387999856",
    "geocoded_column": {
      "latitude": "29.963730387999856",
      "longitude": "-90.07434137245093"
    }
  },
  {
    "service_request": "2025-1176685",
    "request_type": "Trash/Recycling",
    "request_reason": "Missed Trash Pick-Up",
    "date_created": "2025-03-18T15:25:55.000",
    "date_modified": "2025-03-18T15:25:57.000",
    "request_status": "Pending",
    "responsible_agency": "Department of Sanitation",
    "final_address": "1808 Leonidas St",
    "address_councildis": "A",
    "status": "Assigned to Contractor",
    "contractor": "IV Waste",
    "rowid": "1176685",
    "final_x": "3662110.05536",
    "final_y": "531230.051842",
    "longitude": "-90.1293067177122",
    "latitude": "29.95527290041778",
    "geocoded_column": {
      "latitude": "29.95527290041778",
      "longitude": "-90.1293067177122"
    }
  },
  {
    "service_request": "2025-1176684",
    "request_type": "Trash/Recycling",
    "request_reason": "Request a Large Item Pick Up",
    "date_created": "2025-03-18T15:24:46.000",
    "date_modified": "2025-03-18T15:25:13.000",
    "request_status": "Pending",
    "responsible_agency": "Department of Sanitation",
    "final_address": "6920 Coventry St",
    "address_councildis": "E",
    "status": "Assigned to Contractor",
    "contractor": "Waste Pro",
    "rowid": "1176684",
    "final_x": "3698915.83108",
    "final_y": "559734.374749",
    "longitude": "-90.01205042252808",
    "latitude": "30.032534511770212",
    "geocoded_column": {
      "latitude": "30.032534511770212",
      "longitude": "-90.01205042252808"
    }
  },
  {
    "service_request": "2025-1176683",
    "request_type": "Trash/Recycling",
    "request_reason": "Request a Large Item Pick Up",
    "date_created": "2025-03-18T15:24:28.000",
    "date_modified": "2025-03-18T15:24:31.000",
    "request_status": "Pending",
    "responsible_agency": "Department of Sanitation",
    "final_address": "4673 Nottingham Dr",
    "address_councildis": "E",
    "status": "Assigned to Contractor",
    "contractor": "Waste Pro",
    "rowid": "1176683",
    "final_x": "3716506.37452",
    "final_y": "556580.917722",
    "longitude": "-89.95658329664846",
    "latitude": "30.023294302826834",
    "geocoded_column": {
      "latitude": "30.023294302826834",
      "longitude": "-89.95658329664846"
    }
  },
  {
    "service_request": "2025-1176682",
    "request_type": "Trash/Recycling",
    "request_reason": "Repair Trash Cart",
    "date_created": "2025-03-18T15:21:35.000",
    "date_modified": "2025-03-18T15:21:36.000",
    "request_status": "Pending",
    "responsible_agency": "Department of Sanitation",
    "final_address": "2445 Pressburg St",
    "address_councildis": "D",
    "status": "Assigned to Contractor",
    "contractor": "IV Waste",
    "rowid": "1176682",
    "final_x": "3685437.53986",
    "final_y": "554810.500056",
    "longitude": "-90.05481642840404",
    "latitude": "30.0194161448398",
    "geocoded_column": {
      "latitude": "30.0194161448398",
      "longitude": "-90.05481642840404"
    }
  },
  {
    "service_request": "2025-1176681",
    "request_type": "Roads and Streets",
    "request_reason": "Curb Damage",
    "date_created": "2025-03-18T15:20:42.000",
    "date_modified": "2025-03-18T15:20:44.000",
    "request_status": "Pending",
    "responsible_agency": "Department of Public Works",
    "final_address": "1037 Camp St",
    "address_councildis": "B",
    "status": "Pending",
    "rowid": "1176681",
    "final_x": "3680459.04098",
    "final_y": "526764.364414",
    "longitude": "-90.07152265815661",
    "latitude": "29.94245084655697",
    "geocoded_column": {
      "latitude": "29.94245084655697",
      "longitude": "-90.07152265815661"
    }
  },
  {
    "service_request": "2025-1176680",
    "request_type": "Trash/Recycling",
    "request_reason": "Request a Large Item Pick Up",
    "date_created": "2025-03-18T15:20:36.000",
    "date_modified": "2025-03-18T15:20:38.000",
    "request_status": "Pending",
    "responsible_agency": "Department of Sanitation",
    "final_address": "3810 Tall Pines Dr",
    "address_councildis": "C",
    "status": "Assigned to Contractor",
    "contractor": "Richards Disposal",
    "rowid": "1176680",
    "final_x": "3704212.64503",
    "final_y": "513465.738994",
    "longitude": "-89.99701737142392",
    "latitude": "29.905143615648345",
    "geocoded_column": {
      "latitude": "29.905143615648345",
      "longitude": "-89.99701737142392"
    }
  },
  {
    "service_request": "2025-1176679",
    "request_type": "Trash/Recycling",
    "request_reason": "Repair Recycling Cart",
    "date_created": "2025-03-18T15:18:23.000",
    "date_modified": "2025-03-18T15:19:03.000",
    "request_status": "Pending",
    "responsible_agency": "Department of Sanitation",
    "final_address": "2445 Pressburg St",
    "address_councildis": "D",
    "status": "Pending",
    "rowid": "1176679",
    "final_x": "3685437.53986",
    "final_y": "554810.500056",
    "longitude": "-90.05481642840404",
    "latitude": "30.0194161448398",
    "geocoded_column": {
      "latitude": "30.0194161448398",
      "longitude": "-90.05481642840404"
    }
  },
  {
    "service_request": "2025-1176678",
    "request_type": "Streetlights",
    "request_reason": "Streetlight Outage/Malfunction",
    "date_created": "2025-03-18T15:17:58.000",
    "date_modified": "2025-03-18T15:17:59.000",
    "request_status": "Pending",
    "responsible_agency": "Department of Public Works",
    "final_address": "500 BLK S Peters St",
    "address_councildis": "B",
    "status": "Pending",
    "contractor": "Legacy Professional Services",
    "rowid": "1176678",
    "final_x": "3682215.14603",
    "final_y": "528748.318931",
    "longitude": "-90.06590895624842",
    "latitude": "29.94785276437557",
    "geocoded_column": {
      "latitude": "29.94785276437557",
      "longitude": "-90.06590895624842"
    }
  },
  {
    "service_request": "2025-1176677",
    "request_type": "Trash/Recycling",
    "request_reason": "Request a Large Item Pick Up",
    "date_created": "2025-03-18T15:12:55.000",
    "date_modified": "2025-03-18T15:12:57.000",
    "request_status": "Pending",
    "responsible_agency": "Department of Sanitation",
    "final_address": "6112 Morrison Rd",
    "address_councildis": "D",
    "status": "Assigned to Contractor",
    "contractor": "Waste Pro",
    "rowid": "1176677",
    "final_x": "3696036.08822",
    "final_y": "557581.947099",
    "longitude": "-90.02122847921898",
    "latitude": "30.026707149941533",
    "geocoded_column": {
      "latitude": "30.026707149941533",
      "longitude": "-90.02122847921898"
    }
  },
  {
    "service_request": "2025-1176676",
    "request_type": "Trash/Recycling",
    "request_reason": "Replace Trash Cart",
    "date_created": "2025-03-18T15:10:44.000",
    "date_modified": "2025-03-18T15:10:47.000",
    "request_status": "Pending",
    "responsible_agency": "Department of Sanitation",
    "final_address": "1226 Baronne St",
    "address_councildis": "B",
    "status": "Assigned to Contractor",
    "contractor": "IV Waste",
    "rowid": "1176676",
    "final_x": "3678859.30773",
    "final_y": "526614.71347",
    "longitude": "-90.07657856219268",
    "latitude": "29.94208769847803",
    "geocoded_column": {
      "latitude": "29.94208769847803",
      "longitude": "-90.07657856219268"
    }
  },
  {
    "service_request": "2025-1176675",
    "request_type": "Abandoned Vehicles",
    "request_reason": "Abandoned/Junk Vehicles",
    "date_created": "2025-03-18T15:10:28.000",
    "date_modified": "2025-03-18T15:10:29.000",
    "request_status": "Pending",
    "responsible_agency": "Department of Public Works",
    "final_address": "4232 Orleans Ave",
    "address_councildis": "A",
    "status": "Pending",
    "rowid": "1176675",
    "final_x": "3671724.04327",
    "final_y": "540719.853195",
    "longitude": "-90.09862631296802",
    "latitude": "29.981085388220155",
    "geocoded_column": {
      "latitude": "29.981085388220155",
      "longitude": "-90.09862631296802"
    }
  },
  {
    "service_request": "2025-1176674",
    "request_type": "General Services",
    "request_reason": "General Service Request",
    "date_created": "2025-03-18T15:08:32.000",
    "date_modified": "2025-03-18T15:08:36.000",
    "request_status": "Pending",
    "responsible_agency": "Orleans Parish Communication District",
    "final_address": "940 Royal St",
    "address_councildis": "C",
    "status": "Pending",
    "rowid": "1176674",
    "final_x": "3683225.25109",
    "final_y": "533299.278404",
    "longitude": "-90.06256029764143",
    "latitude": "29.960335595360508",
    "geocoded_column": {
      "latitude": "29.960335595360508",
      "longitude": "-90.06256029764143"
    }
  },
  {
    "service_request": "2025-1176673",
    "request_type": "Property Maintenance",
    "request_reason": "Property Maintenance",
    "date_created": "2025-03-18T15:06:18.000",
    "date_modified": "2025-03-18T15:06:20.000",
    "request_status": "Pending",
    "responsible_agency": "Department of Code Enforcement",
    "final_address": "4802 Constance St",
    "address_councildis": "B",
    "status": "Pending",
    "rowid": "1176673",
    "final_x": "3669586.51719",
    "final_y": "518235.30079",
    "longitude": "-90.10613818734679",
    "latitude": "29.919323390114982",
    "geocoded_column": {
      "latitude": "29.919323390114982",
      "longitude": "-90.10613818734679"
    }
  },
  {
    "service_request": "2025-1176672",
    "request_type": "Trash/Recycling",
    "request_reason": "Illegal Dumping",
    "date_created": "2025-03-18T15:04:11.000",
    "date_modified": "2025-03-18T15:04:13.000",
    "request_status": "Pending",
    "responsible_agency": "Department of Sanitation",
    "final_address": "7570 Berg Rd",
    "address_councildis": "E",
    "status": "Pending",
    "rowid": "1176672",
    "final_x": "3712144.43749",
    "final_y": "566382.016675",
    "longitude": "-89.96999746660347",
    "latitude": "30.050386792051675",
    "geocoded_column": {
      "latitude": "30.050386792051675",
      "longitude": "-89.96999746660347"
    }
  },
  {
    "service_request": "2025-1176671",
    "request_type": "Trash/Recycling",
    "request_reason": "Request a Large Item Pick Up",
    "date_created": "2025-03-18T15:02:52.000",
    "date_modified": "2025-03-18T15:02:54.000",
    "request_status": "Pending",
    "responsible_agency": "Department of Sanitation",
    "final_address": "3201 De Soto St",
    "address_councildis": "A",
    "status": "Assigned to Contractor",
    "contractor": "IV Waste",
    "rowid": "1176671",
    "final_x": "3676040.08539",
    "final_y": "540004.445707",
    "longitude": "-90.08501891409719",
    "latitude": "29.978989677644122",
    "geocoded_column": {
      "latitude": "29.978989677644122",
      "longitude": "-90.08501891409719"
    }
  },
  {
    "service_request": "2025-1176670",
    "request_type": "Roads and Streets",
    "request_reason": "Pothole",
    "date_created": "2025-03-18T15:00:43.000",
    "date_modified": "2025-03-18T15:00:46.000",
    "request_status": "Pending",
    "responsible_agency": "Department of Public Works",
    "final_address": "0 BLK New Orleans-Hammond Hwy",
    "address_councildis": "A",
    "status": "Pending",
    "rowid": "1176670",
    "final_x": "3666653.9803",
    "final_y": "554765.136976",
    "longitude": "-90.1141679099044",
    "latitude": "30.019854319421437",
    "geocoded_column": {
      "latitude": "30.019854319421437",
      "longitude": "-90.1141679099044"
    }
  },
  {
    "service_request": "2025-1176669",
    "request_type": "Trash/Recycling",
    "request_reason": "Request a Large Item Pick Up",
    "date_created": "2025-03-18T14:59:12.000",
    "date_modified": "2025-03-18T14:59:13.000",
    "request_status": "Pending",
    "responsible_agency": "Department of Sanitation",
    "final_address": "4100 Roneagle Way",
    "address_councildis": "D",
    "status": "Assigned to Contractor",
    "contractor": "IV Waste",
    "rowid": "1176669",
    "final_x": "3676865.46485",
    "final_y": "547204.307921",
    "longitude": "-90.08216374494326",
    "latitude": "29.998762039079953",
    "geocoded_column": {
      "latitude": "29.998762039079953",
      "longitude": "-90.08216374494326"
    }
  },
  {
    "service_request": "2025-1176668",
    "request_type": "Trash/Recycling",
    "request_reason": "Request a Large Item Pick Up",
    "date_created": "2025-03-18T14:58:13.000",
    "date_modified": "2025-03-18T14:58:16.000",
    "request_status": "Pending",
    "responsible_agency": "Department of Sanitation",
    "final_address": "5409 Zeno Pl",
    "address_councildis": "E",
    "status": "Assigned to Contractor",
    "contractor": "Waste Pro",
    "rowid": "1176668",
    "final_x": "3718266.92057",
    "final_y": "561799.330015",
    "longitude": "-89.95082146825258",
    "latitude": "30.037584555659418",
    "geocoded_column": {
      "latitude": "30.037584555659418",
      "longitude": "-89.95082146825258"
    }
  },
  {
    "service_request": "2025-1176667",
    "request_type": "Trash/Recycling",
    "request_reason": "Order Trash Cart",
    "date_created": "2025-03-18T14:55:33.000",
    "date_modified": "2025-03-18T14:56:12.000",
    "request_status": "Pending",
    "responsible_agency": "Department of Sanitation",
    "final_address": "7830 Means Ave Apt A",
    "address_councildis": "E",
    "status": "Assigned to Contractor",
    "contractor": "Waste Pro",
    "rowid": "1176667",
    "final_x": "3707700.70187",
    "final_y": "565274.613538",
    "longitude": "-89.98408362721112",
    "latitude": "30.047486506958364",
    "geocoded_column": {
      "latitude": "30.047486506958364",
      "longitude": "-89.98408362721112"
    }
  },
  {
    "service_request": "2025-1176666",
    "request_type": "Trash/Recycling",
    "request_reason": "Order Trash Cart",
    "date_created": "2025-03-18T14:55:23.000",
    "date_modified": "2025-03-18T14:55:24.000",
    "request_status": "Pending",
    "responsible_agency": "Department of Sanitation",
    "final_address": "1829 Lapeyrouse St",
    "address_councildis": "D",
    "status": "Assigned to Contractor",
    "contractor": "IV Waste",
    "rowid": "1176666",
    "final_x": "3681433.46479",
    "final_y": "538397.913353",
    "longitude": "-90.06804059526687",
    "latitude": "29.974409607455623",
    "geocoded_column": {
      "latitude": "29.974409607455623",
      "longitude": "-90.06804059526687"
    }
  },
  {
    "service_request": "2025-1176665",
    "request_type": "Trash/Recycling",
    "request_reason": "Request a Large Item Pick Up",
    "date_created": "2025-03-18T14:55:05.000",
    "date_modified": "2025-03-18T14:55:07.000",
    "request_status": "Pending",
    "responsible_agency": "Department of Sanitation",
    "final_address": "624 Webster St A",
    "address_councildis": "A",
    "status": "Assigned to Contractor",
    "contractor": "IV Waste",
    "rowid": "1176665",
    "final_x": "3663917.37895",
    "final_y": "518988.279095",
    "longitude": "-90.12400779486175",
    "latitude": "29.92155957927547",
    "geocoded_column": {
      "latitude": "29.92155957927547",
      "longitude": "-90.12400779486175"
    }
  },
  {
    "service_request": "2025-1176664",
    "request_type": "Trash/Recycling",
    "request_reason": "Missed Trash Pick-Up",
    "date_created": "2025-03-18T14:52:06.000",
    "date_modified": "2025-03-18T14:52:08.000",
    "request_status": "Pending",
    "responsible_agency": "Department of Sanitation",
    "final_address": "4543 Downman Rd",
    "address_councildis": "D",
    "status": "Assigned to Contractor",
    "contractor": "Waste Pro",
    "rowid": "1176664",
    "final_x": "3696103.8961",
    "final_y": "553666.993943",
    "longitude": "-90.02115588097693",
    "latitude": "30.01594037576969",
    "geocoded_column": {
      "latitude": "30.01594037576969",
      "longitude": "-90.02115588097693"
    }
  },
  {
    "service_request": "2025-1176663",
    "request_type": "Trash/Recycling",
    "request_reason": "Request a Large Item Pick Up",
    "date_created": "2025-03-18T14:49:56.000",
    "date_modified": "2025-03-18T14:49:58.000",
    "request_status": "Pending",
    "responsible_agency": "Department of Sanitation",
    "final_address": "7965 Edgelake Ct",
    "address_councildis": "E",
    "status": "Assigned to Contractor",
    "contractor": "Waste Pro",
    "rowid": "1176663",
    "final_x": "3702715.00586",
    "final_y": "562288.538207",
    "longitude": "-89.9999508928236",
    "latitude": "30.039436457999617",
    "geocoded_column": {
      "latitude": "30.039436457999617",
      "longitude": "-89.9999508928236"
    }
  },
  {
    "service_request": "2025-1176662",
    "request_type": "Trash/Recycling",
    "request_reason": "Request a Large Item Pick Up",
    "date_created": "2025-03-18T14:44:25.000",
    "date_modified": "2025-03-18T14:44:27.000",
    "request_status": "Pending",
    "responsible_agency": "Department of Sanitation",
    "final_address": "924 N Dupre St",
    "address_councildis": "A",
    "status": "Assigned to Contractor",
    "contractor": "IV Waste",
    "rowid": "1176662",
    "final_x": "3676599.72936",
    "final_y": "538214.972361",
    "longitude": "-90.08331299954779",
    "latitude": "29.974052463834358",
    "geocoded_column": {
      "latitude": "29.974052463834358",
      "longitude": "-90.08331299954779"
    }
  },
  {
    "service_request": "2025-1176661",
    "request_type": "Trash/Recycling",
    "request_reason": "Missed Trash Pick-Up",
    "date_created": "2025-03-18T14:38:26.000",
    "date_modified": "2025-03-18T16:22:43.000",
    "request_status": "Pending",
    "responsible_agency": "Department of Sanitation",
    "final_address": "1632 N Galvez St",
    "address_councildis": "D",
    "status": "Assigned to Contractor",
    "contractor": "IV Waste",
    "rowid": "1176661",
    "final_x": "3680969.73551",
    "final_y": "539067.076234",
    "longitude": "-90.06948185179465",
    "latitude": "29.97626364564886",
    "geocoded_column": {
      "latitude": "29.97626364564886",
      "longitude": "-90.06948185179465"
    }
  },
  {
    "service_request": "2025-1176660",
    "request_type": "Roads and Streets",
    "request_reason": "Pothole",
    "date_created": "2025-03-18T14:37:28.000",
    "date_modified": "2025-03-18T14:39:55.000",
    "request_status": "Pending",
    "responsible_agency": "Department of Public Works",
    "final_address": "10900 BLK Lake Forest Blvd",
    "address_councildis": "E",
    "status": "Pending",
    "rowid": "1176660",
    "final_x": "3713969.75313",
    "final_y": "560231.600781",
    "longitude": "-89.96446058434005",
    "latitude": "30.033415788970792",
    "geocoded_column": {
      "latitude": "30.033415788970792",
      "longitude": "-89.96446058434005"
    }
  },
  {
    "service_request": "2025-1176659",
    "request_type": "Trash/Recycling",
    "request_reason": "Order Recycling Cart",
    "date_created": "2025-03-18T14:36:45.000",
    "date_modified": "2025-03-18T14:36:47.000",
    "request_status": "Pending",
    "responsible_agency": "Department of Sanitation",
    "final_address": "42 Bluebird St",
    "address_councildis": "D",
    "status": "Pending",
    "rowid": "1176659",
    "final_x": "3672842.74958",
    "final_y": "554884.970648",
    "longitude": "-90.09460926344155",
    "latitude": "30.02000130873889",
    "geocoded_column": {
      "latitude": "30.02000130873889",
      "longitude": "-90.09460926344155"
    }
  },
  {
    "service_request": "2025-1176658",
    "request_type": "Drainage",
    "request_reason": "Catch Basin Damaged",
    "date_created": "2025-03-18T14:30:15.000",
    "date_modified": "2025-03-18T14:48:12.000",
    "request_status": "Pending",
    "responsible_agency": "Sewerage & Water Board ",
    "final_address": "2320 Bristol Pl",
    "address_councildis": "C",
    "status": "Pending",
    "rowid": "1176658",
    "final_x": "3702688.11198",
    "final_y": "522371.980602",
    "longitude": "-90.00150212520417",
    "latitude": "29.929681522537113",
    "geocoded_column": {
      "latitude": "29.929681522537113",
      "longitude": "-90.00150212520417"
    }
  },
  {
    "service_request": "2025-1176657",
    "request_type": "Streetlights",
    "request_reason": "Streetlight Outage/Malfunction",
    "date_created": "2025-03-18T14:29:11.000",
    "date_modified": "2025-03-18T14:29:12.000",
    "request_status": "Pending",
    "responsible_agency": "Department of Public Works",
    "final_address": "2320 Bristol Pl",
    "address_councildis": "C",
    "status": "Pending",
    "contractor": "Legacy Professional Services",
    "rowid": "1176657",
    "final_x": "3702688.11198",
    "final_y": "522371.980602",
    "longitude": "-90.00150212520417",
    "latitude": "29.929681522537113",
    "geocoded_column": {
      "latitude": "29.929681522537113",
      "longitude": "-90.00150212520417"
    }
  },
  {
    "service_request": "2025-1176656",
    "request_type": "Trash/Recycling",
    "request_reason": "Repair Trash Cart",
    "date_created": "2025-03-18T14:28:24.000",
    "date_modified": "2025-03-18T14:28:26.000",
    "request_status": "Pending",
    "responsible_agency": "Department of Sanitation",
    "final_address": "2425 Second St",
    "address_councildis": "B",
    "status": "Assigned to Contractor",
    "contractor": "IV Waste",
    "rowid": "1176656",
    "final_x": "3675019.1851",
    "final_y": "525651.792381",
    "longitude": "-90.08873569477812",
    "latitude": "29.939555234414136",
    "geocoded_column": {
      "latitude": "29.939555234414136",
      "longitude": "-90.08873569477812"
    }
  },
  {
    "service_request": "2025-1176655",
    "request_type": "Trash/Recycling",
    "request_reason": "Request a Large Item Pick Up",
    "date_created": "2025-03-18T14:26:59.000",
    "date_modified": "2025-03-18T14:27:42.000",
    "request_status": "Pending",
    "responsible_agency": "Department of Sanitation",
    "final_address": "225 Simmons Dr",
    "address_councildis": "D",
    "status": "Assigned to Contractor",
    "contractor": "IV Waste",
    "rowid": "1176655",
    "final_x": "3689661.54838",
    "final_y": "546003.835024",
    "longitude": "-90.04178366966934",
    "latitude": "29.995070777945216",
    "geocoded_column": {
      "latitude": "29.995070777945216",
      "longitude": "-90.04178366966934"
    }
  },
  {
    "service_request": "2025-1176654",
    "request_type": "Abandoned Vehicles",
    "request_reason": "Abandoned/Junk Vehicles",
    "date_created": "2025-03-18T14:24:27.000",
    "date_modified": "2025-03-18T14:24:29.000",
    "request_status": "Pending",
    "responsible_agency": "Department of Public Works",
    "final_address": "4672 Knight Dr",
    "address_councildis": "E",
    "status": "Pending",
    "rowid": "1176654",
    "final_x": "3708103.06948",
    "final_y": "555130.448153",
    "longitude": "-89.983189710091",
    "latitude": "30.019581021453618",
    "geocoded_column": {
      "latitude": "30.019581021453618",
      "longitude": "-89.983189710091"
    }
  },
  {
    "service_request": "2025-1176653",
    "request_type": "Streetlights",
    "request_reason": "Streetlight Outage/Malfunction",
    "date_created": "2025-03-18T14:21:40.000",
    "date_modified": "2025-03-18T14:21:41.000",
    "request_status": "Pending",
    "responsible_agency": "Department of Public Works",
    "final_address": "1702 Louisa St",
    "address_councildis": "D",
    "status": "Pending",
    "contractor": "Legacy Professional Services",
    "rowid": "1176653",
    "final_x": "3690103.3544",
    "final_y": "538158.498825",
    "longitude": "-90.04066763776727",
    "latitude": "29.97348520981644",
    "geocoded_column": {
      "latitude": "29.97348520981644",
      "longitude": "-90.04066763776727"
    }
  },
  {
    "service_request": "2025-1176652",
    "request_type": "Streetlights",
    "request_reason": "Streetlight Outage/Malfunction",
    "date_created": "2025-03-18T14:17:40.000",
    "date_modified": "2025-03-18T14:17:41.000",
    "request_status": "Pending",
    "responsible_agency": "Department of Public Works",
    "final_address": "7545 Lehigh St",
    "address_councildis": "E",
    "status": "Pending",
    "contractor": "Legacy Professional Services",
    "rowid": "1176652",
    "final_x": "3710840.54718",
    "final_y": "565302.769506",
    "longitude": "-89.97415902213015",
    "latitude": "30.04746189106435",
    "geocoded_column": {
      "latitude": "30.04746189106435",
      "longitude": "-89.97415902213015"
    }
  },
  {
    "service_request": "2025-1176651",
    "request_type": "Trash/Recycling",
    "request_reason": "Request a Large Item Pick Up",
    "date_created": "2025-03-18T14:15:41.000",
    "date_modified": "2025-03-18T14:15:43.000",
    "request_status": "Pending",
    "responsible_agency": "Department of Sanitation",
    "final_address": "5715 Dauphine St",
    "address_councildis": "E",
    "status": "Assigned to Contractor",
    "contractor": "Waste Pro",
    "rowid": "1176651",
    "final_x": "3698197.70544",
    "final_y": "532553.081092",
    "longitude": "-90.01530776625226",
    "latitude": "29.95781874524404",
    "geocoded_column": {
      "latitude": "29.95781874524404",
      "longitude": "-90.01530776625226"
    }
  },
  {
    "service_request": "2025-1176650",
    "request_type": "Trash/Recycling",
    "request_reason": "Request a Large Item Pick Up",
    "date_created": "2025-03-18T14:10:53.000",
    "date_modified": "2025-03-18T14:10:55.000",
    "request_status": "Pending",
    "responsible_agency": "Department of Sanitation",
    "final_address": "1803 Flood St",
    "address_councildis": "E",
    "status": "Assigned to Contractor",
    "contractor": "Waste Pro",
    "rowid": "1176650",
    "final_x": "3698469.34378",
    "final_y": "536489.566599",
    "longitude": "-90.01430692517545",
    "latitude": "29.96863408243985",
    "geocoded_column": {
      "latitude": "29.96863408243985",
      "longitude": "-90.01430692517545"
    }
  },
  {
    "service_request": "2025-1176649",
    "request_type": "Trash/Recycling",
    "request_reason": "Repair Trash Cart",
    "date_created": "2025-03-18T14:08:13.000",
    "date_modified": "2025-03-18T14:08:14.000",
    "request_status": "Pending",
    "responsible_agency": "Department of Sanitation",
    "final_address": "8329 Oleander St",
    "address_councildis": "A",
    "status": "Assigned to Contractor",
    "contractor": "IV Waste",
    "rowid": "1176649",
    "final_x": "3666084.46669",
    "final_y": "534335.385157",
    "longitude": "-90.11665281974014",
    "latitude": "29.963696117687956",
    "geocoded_column": {
      "latitude": "29.963696117687956",
      "longitude": "-90.11665281974014"
    }
  },
  {
    "service_request": "2025-1176648",
    "request_type": "Healthy Homes",
    "request_reason": "Healthy Homes",
    "date_created": "2025-03-18T14:06:46.000",
    "date_modified": "2025-03-18T15:30:04.000",
    "case_close_date": "2025-03-18T10:30:03.000",
    "request_status": "Closed",
    "responsible_agency": "Department of Code Enforcement",
    "final_address": "7001 Lawrence Rd Apt 100",
    "address_councildis": "E",
    "status": "Referred to Code Enforcement",
    "rowid": "1176648",
    "final_x": "3703475.27556",
    "final_y": "558606.702172",
    "longitude": "-89.99768386334111",
    "latitude": "30.02928849998994",
    "geocoded_column": {
      "latitude": "30.02928849998994",
      "longitude": "-89.99768386334111"
    }
  },
  {
    "service_request": "2025-1176647",
    "request_type": "Healthy Homes",
    "request_reason": "Healthy Homes",
    "date_created": "2025-03-18T14:05:36.000",
    "date_modified": "2025-03-18T14:05:38.000",
    "request_status": "Pending",
    "responsible_agency": "Department of Code Enforcement",
    "final_address": "7001 Lawrence Rd Apt 100",
    "address_councildis": "E",
    "status": "Pending",
    "rowid": "1176647",
    "final_x": "3703475.27556",
    "final_y": "558606.702172",
    "longitude": "-89.99768386334111",
    "latitude": "30.02928849998994",
    "geocoded_column": {
      "latitude": "30.02928849998994",
      "longitude": "-89.99768386334111"
    }
  },
  {
    "service_request": "2025-1176646",
    "request_type": "Healthy Homes",
    "request_reason": "Healthy Homes",
    "date_created": "2025-03-18T14:04:23.000",
    "date_modified": "2025-03-18T14:04:26.000",
    "request_status": "Pending",
    "responsible_agency": "Department of Code Enforcement",
    "final_address": "7001 Lawrence Rd",
    "address_councildis": "E",
    "status": "Pending",
    "rowid": "1176646",
    "final_x": "3704372.84279",
    "final_y": "559124.69238",
    "longitude": "-89.99482847374347",
    "latitude": "30.03068397272477",
    "geocoded_column": {
      "latitude": "30.03068397272477",
      "longitude": "-89.99482847374347"
    }
  },
  {
    "service_request": "2025-1176645",
    "request_type": "Abandoned Vehicles",
    "request_reason": "Abandoned/Junk Vehicles",
    "date_created": "2025-03-18T14:01:42.000",
    "date_modified": "2025-03-18T14:03:54.000",
    "request_status": "Pending",
    "responsible_agency": "Department of Public Works",
    "final_address": "220 Cherokee St",
    "address_councildis": "A",
    "status": "Pending",
    "rowid": "1176645",
    "final_x": "3661083.46458",
    "final_y": "524302.835964",
    "longitude": "-90.13277751330457",
    "latitude": "29.936254886227",
    "geocoded_column": {
      "latitude": "29.936254886227",
      "longitude": "-90.13277751330457"
    }
  },
  {
    "service_request": "2025-1176644",
    "request_type": "Trash/Recycling",
    "request_reason": "Return Recycling Cart",
    "date_created": "2025-03-18T14:01:39.000",
    "date_modified": "2025-03-18T14:01:41.000",
    "request_status": "Pending",
    "responsible_agency": "Department of Sanitation",
    "final_address": "8502 Panola St",
    "address_councildis": "A",
    "status": "Pending",
    "rowid": "1176644",
    "final_x": "3662964.16307",
    "final_y": "531688.529155",
    "longitude": "-90.12659449969793",
    "latitude": "29.95650885910464",
    "geocoded_column": {
      "latitude": "29.95650885910464",
      "longitude": "-90.12659449969793"
    }
  },
  {
    "service_request": "2025-1176643",
    "request_type": "Trash/Recycling",
    "request_reason": "Request a Large Item Pick Up",
    "date_created": "2025-03-18T14:01:07.000",
    "date_modified": "2025-03-18T14:01:09.000",
    "request_status": "Pending",
    "responsible_agency": "Department of Sanitation",
    "final_address": "5276 Bullard Ave",
    "address_councildis": "E",
    "status": "Assigned to Contractor",
    "contractor": "Waste Pro",
    "rowid": "1176643",
    "final_x": "3718289.37631",
    "final_y": "560069.012829",
    "longitude": "-89.95081648026229",
    "latitude": "30.032826138404516",
    "geocoded_column": {
      "latitude": "30.032826138404516",
      "longitude": "-89.95081648026229"
    }
  },
  {
    "service_request": "2025-1176642",
    "request_type": "Roads and Streets",
    "request_reason": "Curb Damage",
    "date_created": "2025-03-18T13:58:27.000",
    "date_modified": "2025-03-18T13:58:28.000",
    "request_status": "Pending",
    "responsible_agency": "Department of Public Works",
    "final_address": "6200 BLK Lafaye St",
    "address_councildis": "D",
    "status": "Pending",
    "rowid": "1176642",
    "final_x": "3687054.65932",
    "final_y": "556244.821681",
    "longitude": "-90.04965611565106",
    "latitude": "30.023310284834256",
    "geocoded_column": {
      "latitude": "30.023310284834256",
      "longitude": "-90.04965611565106"
    }
  },
  {
    "service_request": "2025-1176641",
    "request_type": "Healthy Homes",
    "request_reason": "Healthy Homes",
    "date_created": "2025-03-18T13:58:16.000",
    "date_modified": "2025-03-18T13:58:23.000",
    "request_status": "Pending",
    "responsible_agency": "Department of Code Enforcement",
    "final_address": "7001 Lawrence Rd",
    "address_councildis": "E",
    "status": "Pending",
    "rowid": "1176641",
    "final_x": "3704372.84279",
    "final_y": "559124.69238",
    "longitude": "-89.99482847374347",
    "latitude": "30.03068397272477",
    "geocoded_column": {
      "latitude": "30.03068397272477",
      "longitude": "-89.99482847374347"
    }
  },
  {
    "service_request": "2025-1176640",
    "request_type": "Street and Traffic Signs",
    "request_reason": "Street Name Sign Damaged or Missing",
    "date_created": "2025-03-18T13:56:52.000",
    "date_modified": "2025-03-18T13:56:56.000",
    "request_status": "Pending",
    "responsible_agency": "Department of Public Works",
    "final_address": "4200 Stephen Girard Ave",
    "address_councildis": "D",
    "status": "Pending",
    "rowid": "1176640",
    "final_x": "3690007.071",
    "final_y": "549795.94402",
    "longitude": "-90.04055705496114",
    "latitude": "30.00548698295328",
    "geocoded_column": {
      "latitude": "30.00548698295328",
      "longitude": "-90.04055705496114"
    }
  },
  {
    "service_request": "2025-1176639",
    "request_type": "Trash/Recycling",
    "request_reason": "Repair Trash Cart",
    "date_created": "2025-03-18T13:55:30.000",
    "date_modified": "2025-03-18T13:55:33.000",
    "request_status": "Pending",
    "responsible_agency": "Department of Sanitation",
    "final_address": "3030 Robert St",
    "address_councildis": "B",
    "status": "Assigned to Contractor",
    "contractor": "IV Waste",
    "rowid": "1176639",
    "final_x": "3668861.74407",
    "final_y": "526512.08179",
    "longitude": "-90.10814658985865",
    "latitude": "29.9421032177514",
    "geocoded_column": {
      "latitude": "29.9421032177514",
      "longitude": "-90.10814658985865"
    }
  },
  {
    "service_request": "2025-1176638",
    "request_type": "Drainage",
    "request_reason": "Catch Basin Damaged",
    "date_created": "2025-03-18T13:54:19.000",
    "date_modified": "2025-03-18T13:54:20.000",
    "request_status": "Pending",
    "responsible_agency": "Sewerage & Water Board ",
    "final_address": "6200 BLK Lafaye St",
    "address_councildis": "D",
    "status": "Pending",
    "rowid": "1176638",
    "final_x": "3687054.65932",
    "final_y": "556244.821681",
    "longitude": "-90.04965611565106",
    "latitude": "30.023310284834256",
    "geocoded_column": {
      "latitude": "30.023310284834256",
      "longitude": "-90.04965611565106"
    }
  },
  {
    "service_request": "2025-1176637",
    "request_type": "Drainage",
    "request_reason": "Catch Basin Damaged",
    "date_created": "2025-03-18T13:54:12.000",
    "date_modified": "2025-03-18T13:54:14.000",
    "request_status": "Pending",
    "responsible_agency": "Sewerage & Water Board ",
    "final_address": "6200 BLK Lafaye St",
    "address_councildis": "D",
    "status": "Pending",
    "rowid": "1176637",
    "final_x": "3687054.65932",
    "final_y": "556244.821681",
    "longitude": "-90.04965611565106",
    "latitude": "30.023310284834256",
    "geocoded_column": {
      "latitude": "30.023310284834256",
      "longitude": "-90.04965611565106"
    }
  },
  {
    "service_request": "2025-1176636",
    "request_type": "Street and Traffic Signs",
    "request_reason": "Street Name Sign Damaged or Missing",
    "date_created": "2025-03-18T13:54:11.000",
    "date_modified": "2025-03-18T13:54:42.000",
    "request_status": "Pending",
    "responsible_agency": "Department of Public Works",
    "final_address": "4233 Stephen Girard Ave",
    "address_councildis": "D",
    "status": "Pending",
    "rowid": "1176636",
    "final_x": "3690127.7224",
    "final_y": "550035.605204",
    "longitude": "-90.04016734671326",
    "latitude": "30.00614221987274",
    "geocoded_column": {
      "latitude": "30.00614221987274",
      "longitude": "-90.04016734671326"
    }
  },
  {
    "service_request": "2025-1176635",
    "request_type": "Trash/Recycling",
    "request_reason": "Illegal Dumping",
    "date_created": "2025-03-18T13:52:44.000",
    "date_modified": "2025-03-18T13:52:46.000",
    "request_status": "Pending",
    "responsible_agency": "Department of Sanitation",
    "final_address": "N ROBERTSON ST & FRANCE ST",
    "address_councildis": "D",
    "status": "Pending",
    "rowid": "1176635",
    "final_x": "3692757.8",
    "final_y": "536645.08",
    "longitude": "-90.03233864701068",
    "latitude": "29.9692412374848",
    "geocoded_column": {
      "latitude": "29.9692412374848",
      "longitude": "-90.03233864701068"
    }
  },
  {
    "service_request": "2025-1176634",
    "request_type": "Streetlights",
    "request_reason": "Streetlight Outage/Malfunction",
    "date_created": "2025-03-18T13:49:37.000",
    "date_modified": "2025-03-18T14:04:47.000",
    "request_status": "Pending",
    "responsible_agency": "Department of Public Works",
    "final_address": "3421 Leonidas St. ",
    "address_councildis": "A",
    "status": "Pending",
    "contractor": "Legacy Professional Services",
    "rowid": "1176634",
    "final_x": "3666092.51911",
    "final_y": "535493.279878",
    "longitude": "-90.11658856306602",
    "latitude": "29.966879710696386",
    "geocoded_column": {
      "latitude": "29.966879710696386",
      "longitude": "-90.11658856306602"
    }
  },
  {
    "service_request": "2025-1176633",
    "request_type": "Trash/Recycling",
    "request_reason": "Request a Large Item Pick Up",
    "date_created": "2025-03-18T13:49:28.000",
    "date_modified": "2025-03-18T13:49:30.000",
    "request_status": "Pending",
    "responsible_agency": "Department of Sanitation",
    "final_address": "4911 Dale St",
    "address_councildis": "E",
    "status": "Assigned to Contractor",
    "contractor": "Waste Pro",
    "rowid": "1176633",
    "final_x": "3699482.03524",
    "final_y": "555330.769305",
    "longitude": "-90.01042184529518",
    "latitude": "30.020408322568027",
    "geocoded_column": {
      "latitude": "30.020408322568027",
      "longitude": "-90.01042184529518"
    }
  },
  {
    "service_request": "2025-1176632",
    "request_type": "Trash/Recycling",
    "request_reason": "Order Recycling Cart",
    "date_created": "2025-03-18T13:48:59.000",
    "date_modified": "2025-03-18T13:49:02.000",
    "request_status": "Pending",
    "responsible_agency": "Department of Sanitation",
    "final_address": "1133 N Galvez St",
    "address_councildis": "D",
    "status": "Pending",
    "rowid": "1176632",
    "final_x": "3679421.73077",
    "final_y": "537145.217224",
    "longitude": "-90.07443759731835",
    "latitude": "29.971026053110915",
    "geocoded_column": {
      "latitude": "29.971026053110915",
      "longitude": "-90.07443759731835"
    }
  },
  {
    "service_request": "2025-1176631",
    "request_type": "Trash/Recycling",
    "request_reason": "Request a Large Item Pick Up",
    "date_created": "2025-03-18T13:48:29.000",
    "date_modified": "2025-03-18T13:48:31.000",
    "request_status": "Pending",
    "responsible_agency": "Department of Sanitation",
    "final_address": "811 Jewel St",
    "address_councildis": "D",
    "status": "Assigned to Contractor",
    "contractor": "IV Waste",
    "rowid": "1176631",
    "final_x": "3670495.59553",
    "final_y": "556050.141209",
    "longitude": "-90.10198598074199",
    "latitude": "30.02327467255748",
    "geocoded_column": {
      "latitude": "30.02327467255748",
      "longitude": "-90.10198598074199"
    }
  },