[
  {
    "service_request": "2025-1185083",
    "request_type": "Streetlights",
    "request_reason": "Streetlight Outage/Malfunction",
    "date_created": "2025-04-18T23:34:38.000",
    "date_modified": "2025-04-18T23:34:44.000",
    "request_status": "Pending",
    "responsible_agency": "Department of Public Works",
    "final_address": "6002 Baccich St",
    "address_councildis": "D",
    "status": "Pending",
    "contractor": "Legacy Professional Services",
    "rowid": "1185083",
    "final_x": "3687440.30818",
    "final_y": "555309.876761",
    "longitude": "-90.04847067696426",
    "latitude": "30.020727648443767",
    "geocoded_column": {
      "latitude": "30.020727648443767",
      "longitude": "-90.04847067696426"
    }
  },
  {
    "service_request": "2025-1185082",
    "request_type": "Streetlights",
    "request_reason": "Streetlight Outage/Malfunction",
    "date_created": "2025-04-18T23:30:26.000",
    "date_modified": "2025-04-18T23:30:28.000",
    "request_status": "Pending",
    "responsible_agency": "Department of Public Works",
    "final_address": "2508 Bienville Ave",
    "address_councildis": "B",
    "status": "Pending",
    "contractor": "Legacy Professional Services",
    "rowid": "1185082",
    "final_x": "3676491.21934",
    "final_y": "535136.860166",
    "longitude": "-90.08376171354287",
    "latitude": "29.965591957860646",
    "geocoded_column": {
      "latitude": "29.965591957860646",
      "longitude": "-90.08376171354287"
    }
  },
  {
    "service_request": "2025-1185081",
    "request_type": "Trash/Recycling",
    "request_reason": "Replace Trash Cart",
    "date_created": "2025-04-18T22:21:59.000",
    "date_modified": "2025-04-18T22:22:01.000",
    "request_status": "Pending",
    "responsible_agency": "Department of Sanitation",
    "final_address": "4201 Fields St",
    "address_councildis": "C",
    "status": "Assigned to Contractor",
    "contractor": "Richards Disposal",
    "rowid": "1185081",
    "final_x": "3708164.53099",
    "final_y": "515156.210547",
    "longitude": "-89.98448234038894",
    "latitude": "29.90966451104111",
    "geocoded_column": {
      "latitude": "29.90966451104111",
      "longitude": "-89.98448234038894"
    }
  },
  {
    "service_request": "2025-1185080",
    "request_type": "Streetlights",
    "request_reason": "Streetlight Knocked Down/Leaning",
    "date_created": "2025-04-18T22:08:23.000",
    "date_modified": "2025-04-18T22:08:25.000",
    "request_status": "Pending",
    "responsible_agency": "Department of Public Works",
    "final_address": "2401 Esplanade Ave",
    "address_councildis": "D",
    "status": "Pending",
    "contractor": "Legacy Professional Services",
    "rowid": "1185080",
    "final_x": "3679015.00149",
    "final_y": "538413.695497",
    "longitude": "-90.07567813247437",
    "latitude": "29.974526213146667",
    "geocoded_column": {
      "latitude": "29.974526213146667",
      "longitude": "-90.07567813247437"
    }
  },
  {
    "service_request": "2025-1185079",
    "request_type": "Abandoned Vehicles",
    "request_reason": "Abandoned/Junk Vehicles",
    "date_created": "2025-04-18T21:50:35.000",
    "date_modified": "2025-04-18T21:50:37.000",
    "request_status": "Pending",
    "responsible_agency": "Department of Public Works",
    "final_address": "3951 Laurel St",
    "address_councildis": "B",
    "status": "Pending",
    "rowid": "1185079",
    "final_x": "3672807.13531",
    "final_y": "518255.298806",
    "longitude": "-90.09597161864212",
    "latitude": "29.919283141293327",
    "geocoded_column": {
      "latitude": "29.919283141293327",
      "longitude": "-90.09597161864212"
    }
  },
  {
    "service_request": "2025-1185078",
    "request_type": "Streetlights",
    "request_reason": "Streetlight Outage/Malfunction",
    "date_created": "2025-04-18T21:32:48.000",
    "date_modified": "2025-04-18T21:32:50.000",
    "request_status": "Pending",
    "responsible_agency": "Department of Public Works",
    "final_address": "6335 Caldwell Dr",
    "address_councildis": "D",
    "status": "Pending",
    "contractor": "Legacy Professional Services",
    "rowid": "1185078",
    "final_x": "3679016.13263",
    "final_y": "557008.334554",
    "longitude": "-90.07502965691658",
    "latitude": "30.0256548348235",
    "geocoded_column": {
      "latitude": "30.0256548348235",
      "longitude": "-90.07502965691658"
    }
  },
  {
    "service_request": "2025-1185077",
    "request_type": "Trash/Recycling",
    "request_reason": "Request a Large Item Pick Up",
    "date_created": "2025-04-18T21:29:18.000",
    "date_modified": "2025-04-18T21:29:20.000",
    "request_status": "Pending",
    "responsible_agency": "Department of Sanitation",
    "final_address": "8630 Chase St",
    "address_councildis": "E",
    "status": "Assigned to Contractor",
    "contractor": "Waste Pro",
    "rowid": "1185077",
    "final_x": "3703787.19479",
    "final_y": "563447.751584",
    "longitude": "-89.99651974193881",
    "latitude": "30.042589487952732",
    "geocoded_column": {
      "latitude": "30.042589487952732",
      "longitude": "-89.99651974193881"
    }
  },
  {
    "service_request": "2025-1185076",
    "request_type": "Drainage",
    "request_reason": "Catch Basin Damaged",
    "date_created": "2025-04-18T20:56:33.000",
    "date_modified": "2025-04-18T20:56:34.000",
    "request_status": "Pending",
    "responsible_agency": "Sewerage & Water Board ",
    "final_address": "800 BLK N Murat St",
    "address_councildis": "A",
    "status": "Pending",
    "rowid": "1185076",
    "final_x": "3671352.48436",
    "final_y": "541572.949778",
    "longitude": "-90.09977085844315",
    "latitude": "29.98344211641072",
    "geocoded_column": {
      "latitude": "29.98344211641072",
      "longitude": "-90.09977085844315"
    }
  },
  {
    "service_request": "2025-1185075",
    "request_type": "Trash/Recycling",
    "request_reason": "Order Recycling Cart",
    "date_created": "2025-04-18T19:43:53.000",
    "date_modified": "2025-04-18T19:43:54.000",
    "request_status": "Pending",
    "responsible_agency": "Department of Sanitation",
    "final_address": "730 St Ferdinand St",
    "address_councildis": "C",
    "status": "Pending",
    "rowid": "1185075",
    "final_x": "3687359.64713",
    "final_y": "535065.788806",
    "longitude": "-90.04944225977572",
    "latitude": "29.96506616204873",
    "geocoded_column": {
      "latitude": "29.96506616204873",
      "longitude": "-90.04944225977572"
    }
  },
  {
    "service_request": "2025-1185074",
    "request_type": "Trash/Recycling",
    "request_reason": "Order Trash Cart",
    "date_created": "2025-04-18T19:42:53.000",
    "date_modified": "2025-04-18T19:42:55.000",
    "request_status": "Pending",
    "responsible_agency": "Department of Sanitation",
    "final_address": "730 St Ferdinand St",
    "address_councildis": "C",
    "status": "Assigned to Contractor",
    "contractor": "IV Waste",
    "rowid": "1185074",
    "final_x": "3687359.64713",
    "final_y": "535065.788806",
    "longitude": "-90.04944225977572",
    "latitude": "29.96506616204873",
    "geocoded_column": {
      "latitude": "29.96506616204873",
      "longitude": "-90.04944225977572"
    }
  },
  {
    "service_request": "2025-1185073",
    "request_type": "Trash/Recycling",
    "request_reason": "Request a Large Item Pick Up",
    "date_created": "2025-04-18T19:29:02.000",
    "date_modified": "2025-04-18T19:29:04.000",
    "request_status": "Pending",
    "responsible_agency": "Department of Sanitation",
    "final_address": "4006 Annunciation St",
    "address_councildis": "B",
    "status": "Assigned to Contractor",
    "contractor": "IV Waste",
    "rowid": "1185073",
    "final_x": "3672530.69691",
    "final_y": "517853.182198",
    "longitude": "-90.0968578934684",
    "latitude": "29.91818565394963",
    "geocoded_column": {
      "latitude": "29.91818565394963",
      "longitude": "-90.0968578934684"
    }
  },
  {
    "service_request": "2025-1185072",
    "request_type": "Drainage",
    "request_reason": "Catch Basin Damaged",
    "date_created": "2025-04-18T19:28:03.000",
    "date_modified": "2025-04-18T19:28:04.000",
    "request_status": "Pending",
    "responsible_agency": "Sewerage & Water Board ",
    "final_address": "4520 S Robertson St",
    "address_councildis": "B",
    "status": "Pending",
    "rowid": "1185072",
    "final_x": "3669918.97223",
    "final_y": "524297.936444",
    "longitude": "-90.10488362793032",
    "latitude": "29.93598390829717",
    "geocoded_column": {
      "latitude": "29.93598390829717",
      "longitude": "-90.10488362793032"
    }
  },
  {
    "service_request": "2025-1185071",
    "request_type": "Property Maintenance",
    "request_reason": "Property Maintenance",
    "date_created": "2025-04-18T19:22:37.000",
    "date_modified": "2025-04-18T19:22:39.000",
    "request_status": "Pending",
    "responsible_agency": "Department of Code Enforcement",
    "final_address": "4518 N Robertson St",
    "address_councildis": "D",
    "status": "Pending",
    "rowid": "1185071",
    "final_x": "3693838.1023",
    "final_y": "536340.381959",
    "longitude": "-90.02893794092603",
    "latitude": "29.968369654976225",
    "geocoded_column": {
      "latitude": "29.968369654976225",
      "longitude": "-90.02893794092603"
    }
  },
  {
    "service_request": "2025-1185070",
    "request_type": "Property Maintenance",
    "request_reason": "Property Maintenance",
    "date_created": "2025-04-18T19:18:40.000",
    "date_modified": "2025-04-18T19:18:42.000",
    "request_status": "Pending",
    "responsible_agency": "Department of Code Enforcement",
    "final_address": "2706 Cadiz St",
    "address_councildis": "B",
    "status": "Pending",
    "rowid": "1185070",
    "final_x": "3669574.17146",
    "final_y": "524760.652476",
    "longitude": "-90.10595652734922",
    "latitude": "29.937266388223133",
    "geocoded_column": {
      "latitude": "29.937266388223133",
      "longitude": "-90.10595652734922"
    }
  },
  {
    "service_request": "2025-1185069",
    "request_type": "Property Maintenance",
    "request_reason": "Property Maintenance",
    "date_created": "2025-04-18T19:11:50.000",
    "date_modified": "2025-04-18T19:11:52.000",
    "request_status": "Pending",
    "responsible_agency": "Department of Code Enforcement",
    "final_address": "2525 Cadiz St",
    "address_councildis": "B",
    "status": "Pending",
    "rowid": "1185069",
    "final_x": "3669838.02881",
    "final_y": "524172.227196",
    "longitude": "-90.10514342275037",
    "latitude": "29.935640634245676",
    "geocoded_column": {
      "latitude": "29.935640634245676",
      "longitude": "-90.10514342275037"
    }
  },
  {
    "service_request": "2025-1185068",
    "request_type": "Trash/Recycling",
    "request_reason": "Request a Large Item Pick Up",
    "date_created": "2025-04-18T18:58:17.000",
    "date_modified": "2025-04-18T18:58:19.000",
    "request_status": "Pending",
    "responsible_agency": "Department of Sanitation",
    "final_address": "7101 Lake Barrington Dr",
    "address_councildis": "E",
    "status": "Assigned to Contractor",
    "contractor": "Waste Pro",
    "rowid": "1185068",
    "final_x": "3712525.15384",
    "final_y": "564085.721825",
    "longitude": "-89.9688805943126",
    "latitude": "30.04406045000364",
    "geocoded_column": {
      "latitude": "30.04406045000364",
      "longitude": "-89.9688805943126"
    }
  },
  {
    "service_request": "2025-1185067",
    "request_type": "Trash/Recycling",
    "request_reason": "Request a Large Item Pick Up",
    "date_created": "2025-04-18T18:48:11.000",
    "date_modified": "2025-04-18T22:26:48.000",
    "request_status": "Pending",
    "responsible_agency": "Department of Sanitation",
    "final_address": "7209 Lake Willow Dr",
    "address_councildis": "E",
    "status": "Pending",
    "rowid": "1185067",
    "final_x": "3702528.75652",
    "final_y": "559856.062493",
    "longitude": "-90.00062890180962",
    "latitude": "30.03275405840936",
    "geocoded_column": {
      "latitude": "30.03275405840936",
      "longitude": "-90.00062890180962"
    }
  },
  {
    "service_request": "2025-1185066",
    "request_type": "Streetlights",
    "request_reason": "Streetlight Outage/Malfunction",
    "date_created": "2025-04-18T18:47:24.000",
    "date_modified": "2025-04-18T18:47:26.000",
    "request_status": "Pending",
    "responsible_agency": "Department of Public Works",
    "final_address": "IBERVILLE ST & DECATUR ST",
    "address_councildis": "C",
    "status": "Pending",
    "contractor": "Legacy Professional Services",
    "rowid": "1185066",
    "final_x": "3682051.2",
    "final_y": "530552.28",
    "longitude": "-90.06636361928985",
    "latitude": "29.95281803362109",
    "geocoded_column": {
      "latitude": "29.95281803362109",
      "longitude": "-90.06636361928985"
    }
  },
  {
    "service_request": "2025-1185065",
    "request_type": "Healthy Homes",
    "request_reason": "Healthy Homes",
    "date_created": "2025-04-18T18:46:33.000",
    "date_modified": "2025-04-18T18:46:36.000",
    "request_status": "Pending",
    "responsible_agency": "Department of Code Enforcement",
    "final_address": "2441 Chartres St",
    "address_councildis": "C",
    "status": "Pending",
    "rowid": "1185065",
    "final_x": "3686248.68527",
    "final_y": "534634.76423",
    "longitude": "-90.05296581574306",
    "latitude": "29.963915175091753",
    "geocoded_column": {
      "latitude": "29.963915175091753",
      "longitude": "-90.05296581574306"
    }
  },
  {
    "service_request": "2025-1185064",
    "request_type": "Abandoned Vehicles",
    "request_reason": "Abandoned/Junk Vehicles",
    "date_created": "2025-04-18T18:40:12.000",
    "date_modified": "2025-04-18T18:40:14.000",
    "request_status": "Pending",
    "responsible_agency": "Department of Public Works",
    "final_address": "2416 St Anthony St",
    "address_councildis": "D",
    "status": "Pending",
    "rowid": "1185064",
    "final_x": "3683080.583",
    "final_y": "541118.759308",
    "longitude": "-90.06274332314807",
    "latitude": "29.981840869181784",
    "geocoded_column": {
      "latitude": "29.981840869181784",
      "longitude": "-90.06274332314807"
    }
  },
  {
    "service_request": "2025-1185063",
    "request_type": "Parks & Parkways",
    "request_reason": "Request Tree Service (Right of Way/Public Property)",
    "date_created": "2025-04-18T18:30:38.000",
    "date_modified": "2025-04-18T18:30:39.000",
    "request_status": "Pending",
    "responsible_agency": "Department of Parks & Parkway",
    "final_address": "2740 Castiglione St",
    "address_councildis": "D",
    "status": "Pending",
    "rowid": "1185063",
    "final_x": "3679641.03016",
    "final_y": "542015.387468",
    "longitude": "-90.07357592367684",
    "latitude": "29.984410708190396",
    "geocoded_column": {
      "latitude": "29.984410708190396",
      "longitude": "-90.07357592367684"
    }
  },
  {
    "service_request": "2025-1185062",
    "request_type": "Trash/Recycling",
    "request_reason": "Order Recycling Cart",
    "date_created": "2025-04-18T18:28:55.000",
    "date_modified": "2025-04-18T18:28:57.000",
    "request_status": "Pending",
    "responsible_agency": "Department of Sanitation",
    "final_address": "7617 Sycamore St",
    "address_councildis": "A",
    "status": "Pending",
    "rowid": "1185062",
    "final_x": "3665551.48135",
    "final_y": "529917.488001",
    "longitude": "-90.11848385587831",
    "latitude": "29.95156389498944",
    "geocoded_column": {
      "latitude": "29.95156389498944",
      "longitude": "-90.11848385587831"
    }
  },
  {
    "service_request": "2025-1185061",
    "request_type": "Abandoned Vehicles",
    "request_reason": "Abandoned/Junk Vehicles",
    "date_created": "2025-04-18T18:20:55.000",
    "date_modified": "2025-04-18T18:20:58.000",
    "request_status": "Pending",
    "responsible_agency": "Department of Public Works",
    "final_address": "2012 Barracks St",
    "address_councildis": "D",
    "status": "Pending",
    "rowid": "1185061",
    "final_x": "3680120.75131",
    "final_y": "537064.213704",
    "longitude": "-90.07223281475612",
    "latitude": "29.970782185687902",
    "geocoded_column": {
      "latitude": "29.970782185687902",
      "longitude": "-90.07223281475612"
    }
  },
  {
    "service_request": "2025-1185060",
    "request_type": "Trash/Recycling",
    "request_reason": "Illegal Dumping",
    "date_created": "2025-04-18T18:02:39.000",
    "date_modified": "2025-04-18T18:02:41.000",
    "request_status": "Pending",
    "responsible_agency": "Department of Sanitation",
    "final_address": "1200 St Maurice Ave",
    "address_councildis": "E",
    "status": "Pending",
    "rowid": "1185060",
    "final_x": "3699932.52599",
    "final_y": "533551.562373",
    "longitude": "-90.0097933166959",
    "latitude": "29.96050922931169",
    "geocoded_column": {
      "latitude": "29.96050922931169",
      "longitude": "-90.0097933166959"
    }
  },
  {
    "service_request": "2025-1185059",
    "request_type": "Parks & Parkways",
    "request_reason": "Request Tree Service (Right of Way/Public Property)",
    "date_created": "2025-04-18T18:01:14.000",
    "date_modified": "2025-04-18T18:01:17.000",
    "request_status": "Pending",
    "responsible_agency": "Department of Parks & Parkway",
    "final_address": "955 Wilson Dr",
    "address_councildis": "A",
    "status": "Pending",
    "rowid": "1185059",
    "final_x": "3674102.77966",
    "final_y": "540300.166283",
    "longitude": "-90.09112755235765",
    "latitude": "29.97986069890693",
    "geocoded_column": {
      "latitude": "29.97986069890693",
      "longitude": "-90.09112755235765"
    }
  },
  {
    "service_request": "2025-1185058",
    "request_type": "General Services",
    "request_reason": "General Service Request",
    "date_created": "2025-04-18T17:39:06.000",
    "date_modified": "2025-04-18T17:39:08.000",
    "request_status": "Pending",
    "responsible_agency": "Orleans Parish Communication District",
    "final_address": "1629 Coliseum St",
    "address_councildis": "B",
    "status": "Pending",
    "rowid": "1185058",
    "final_x": "3679727.82485",
    "final_y": "524562.251004",
    "longitude": "-90.07390769094786",
    "latitude": "29.93641788549534",
    "geocoded_column": {
      "latitude": "29.93641788549534",
      "longitude": "-90.07390769094786"
    }
  },
  {
    "service_request": "2025-1185057",
    "request_type": "Safety & Permits",
    "request_reason": "Zoning Enforcement",
    "date_created": "2025-04-18T17:37:07.000",
    "date_modified": "2025-04-18T17:37:09.000",
    "request_status": "Pending",
    "responsible_agency": "Safety and Permits",
    "final_address": "511 S Scott St",
    "address_councildis": "B",
    "status": "Pending",
    "rowid": "1185057",
    "final_x": "3670704.53351",
    "final_y": "536483.105031",
    "longitude": "-90.1019901926179",
    "latitude": "29.969465930192417",
    "geocoded_column": {
      "latitude": "29.969465930192417",
      "longitude": "-90.1019901926179"
    }
  },
  {
    "service_request": "2025-1185056",
    "request_type": "Parks & Parkways",
    "request_reason": "Request Tree Service (Right of Way/Public Property)",
    "date_created": "2025-04-18T17:19:33.000",
    "date_modified": "2025-04-18T17:19:35.000",
    "request_status": "Pending",
    "responsible_agency": "Department of Parks & Parkway",
    "final_address": "2200 BLK Andry St",
    "address_councildis": "E",
    "status": "Pending",
    "rowid": "1185056",
    "final_x": "3698353.03797",
    "final_y": "538273.877636",
    "longitude": "-90.01460937183515",
    "latitude": "29.973543977066036",
    "geocoded_column": {
      "latitude": "29.973543977066036",
      "longitude": "-90.01460937183515"
    }
  },
  {
    "service_request": "2025-1185055",
    "request_type": "Trash/Recycling",
    "request_reason": "Request a Large Item Pick Up",
    "date_created": "2025-04-18T17:16:08.000",
    "date_modified": "2025-04-18T17:16:11.000",
    "request_status": "Pending",
    "responsible_agency": "Department of Sanitation",
    "final_address": "8232 Fig St",
    "address_councildis": "A",
    "status": "Assigned to Contractor",
    "contractor": "IV Waste",
    "rowid": "1185055",
    "final_x": "3665806.2688",
    "final_y": "533541.685189",
    "longitude": "-90.11755793823944",
    "latitude": "29.961521823359657",
    "geocoded_column": {
      "latitude": "29.961521823359657",
      "longitude": "-90.11755793823944"
    }
  },
  {
    "service_request": "2025-1185054",
    "request_type": "Parks & Parkways",
    "request_reason": "Request Tree Service (Right of Way/Public Property)",
    "date_created": "2025-04-18T17:15:42.000",
    "date_modified": "2025-04-18T17:15:45.000",
    "request_status": "Pending",
    "responsible_agency": "Department of Parks & Parkway",
    "final_address": "2300 BLK Andry St",
    "address_councildis": "E",
    "status": "Pending",
    "rowid": "1185054",
    "final_x": "3698457.37372",
    "final_y": "538649.801097",
    "longitude": "-90.01426619218933",
    "latitude": "29.97457432880399",
    "geocoded_column": {
      "latitude": "29.97457432880399",
      "longitude": "-90.01426619218933"
    }
  },
  {
    "service_request": "2025-1185053",
    "request_type": "General Services",
    "request_reason": "General Service Request",
    "date_created": "2025-04-18T16:53:00.000",
    "date_modified": "2025-04-18T16:53:01.000",
    "request_status": "Pending",
    "responsible_agency": "Orleans Parish Communication District",
    "final_address": "4419 St Claude Ave",
    "address_councildis": "D",
    "status": "Pending",
    "rowid": "1185053",
    "final_x": "3693265.29033",
    "final_y": "535094.68775",
    "longitude": "-90.03079161989614",
    "latitude": "29.964962353499946",
    "geocoded_column": {
      "latitude": "29.964962353499946",
      "longitude": "-90.03079161989614"
    }
  },
  {
    "service_request": "2025-1185052",
    "request_type": "General Services",
    "request_reason": "General Service Request",
    "date_created": "2025-04-18T16:52:27.000",
    "date_modified": "2025-04-18T16:52:28.000",
    "request_status": "Pending",
    "responsible_agency": "Orleans Parish Communication District",
    "final_address": "1139 Dauphine St",
    "address_councildis": "C",
    "status": "Pending",
    "rowid": "1185052",
    "final_x": "3683035.91068",
    "final_y": "534342.897413",
    "longitude": "-90.06312166243951",
    "latitude": "29.963210962390036",
    "geocoded_column": {
      "latitude": "29.963210962390036",
      "longitude": "-90.06312166243951"
    }
  },
  {
    "service_request": "2025-1185051",
    "request_type": "General Services",
    "request_reason": "General Service Request",
    "date_created": "2025-04-18T16:49:51.000",
    "date_modified": "2025-04-18T16:49:53.000",
    "request_status": "Pending",
    "responsible_agency": "Orleans Parish Communication District",
    "final_address": "1415 Socrates St",
    "address_councildis": "C",
    "status": "Pending",
    "rowid": "1185051",
    "final_x": "3689786.8918",
    "final_y": "526308.046398",
    "longitude": "-90.04208884413336",
    "latitude": "29.940910387977283",
    "geocoded_column": {
      "latitude": "29.940910387977283",
      "longitude": "-90.04208884413336"
    }
  },
  {
    "service_request": "2025-1185050",
    "request_type": "Property Maintenance",
    "request_reason": "Property Maintenance",
    "date_created": "2025-04-18T16:42:17.000",
    "date_modified": "2025-04-18T16:42:19.000",
    "request_status": "Pending",
    "responsible_agency": "Department of Code Enforcement",
    "final_address": "1415 Socrates St",
    "address_councildis": "C",
    "status": "Pending",
    "rowid": "1185050",
    "final_x": "3689786.8918",
    "final_y": "526308.046398",
    "longitude": "-90.04208884413336",
    "latitude": "29.940910387977283",
    "geocoded_column": {
      "latitude": "29.940910387977283",
      "longitude": "-90.04208884413336"
    }
  },
  {
    "service_request": "2025-1185049",
    "request_type": "Trash/Recycling",
    "request_reason": "Replace Trash Cart",
    "date_created": "2025-04-18T16:38:44.000",
    "date_modified": "2025-04-18T16:38:47.000",
    "request_status": "Pending",
    "responsible_agency": "Department of Sanitation",
    "final_address": "3211 Napoleon Ave",
    "address_councildis": "B",
    "status": "Assigned to Contractor",
    "contractor": "IV Waste",
    "rowid": "1185049",
    "final_x": "3670369.43271",
    "final_y": "526722.749502",
    "longitude": "-90.10337933877751",
    "latitude": "29.942638072180902",
    "geocoded_column": {
      "latitude": "29.942638072180902",
      "longitude": "-90.10337933877751"
    }
  },
  {
    "service_request": "2025-1185048",
    "request_type": "Trash/Recycling",
    "request_reason": "Repair Recycling Cart",
    "date_created": "2025-04-18T16:33:58.000",
    "date_modified": "2025-04-18T16:34:00.000",
    "request_status": "Pending",
    "responsible_agency": "Department of Sanitation",
    "final_address": "2419 N Claiborne Ave",
    "address_councildis": "D",
    "status": "Pending",
    "rowid": "1185048",
    "final_x": "3686572.0893",
    "final_y": "538319.395337",
    "longitude": "-90.05181440351615",
    "latitude": "29.97403668569367",
    "geocoded_column": {
      "latitude": "29.97403668569367",
      "longitude": "-90.05181440351615"
    }
  },
  {
    "service_request": "2025-1185047",
    "request_type": "Streetlights",
    "request_reason": "Streetlight Outage/Malfunction",
    "date_created": "2025-04-18T16:21:47.000",
    "date_modified": "2025-04-18T16:21:48.000",
    "request_status": "Pending",
    "responsible_agency": "Department of Public Works",
    "final_address": "1500 Napoleon Ave",
    "address_councildis": "B",
    "status": "Pending",
    "contractor": "Legacy Professional Services",
    "rowid": "1185047",
    "final_x": "3670761.09447",
    "final_y": "520597.066616",
    "longitude": "-90.10235054126036",
    "latitude": "29.92578285253563",
    "geocoded_column": {
      "latitude": "29.92578285253563",
      "longitude": "-90.10235054126036"
    }
  },
  {
    "service_request": "2025-1185046",
    "request_type": "Trash/Recycling",
    "request_reason": "Request a Large Item Pick Up",
    "date_created": "2025-04-18T16:21:19.000",
    "date_modified": "2025-04-18T16:21:21.000",
    "request_status": "Pending",
    "responsible_agency": "Department of Sanitation",
    "final_address": "1459 Filmore Ave",
    "address_councildis": "D",
    "status": "Assigned to Contractor",
    "contractor": "IV Waste",
    "rowid": "1185046",
    "final_x": "3678008.36962",
    "final_y": "551915.528022",
    "longitude": "-90.07839029793202",
    "latitude": "30.011681851807438",
    "geocoded_column": {
      "latitude": "30.011681851807438",
      "longitude": "-90.07839029793202"
    }
  },
  {
    "service_request": "2025-1185045",
    "request_type": "Streetlights",
    "request_reason": "Streetlight Knocked Down/Leaning",
    "date_created": "2025-04-18T16:10:23.000",
    "date_modified": "2025-04-18T16:10:24.000",
    "request_status": "Pending",
    "responsible_agency": "Department of Public Works",
    "final_address": "714 Barracks St",
    "address_councildis": "C",
    "status": "Pending",
    "contractor": "Legacy Professional Services",
    "rowid": "1185045",
    "final_x": "3683754.16431",
    "final_y": "534250.958533",
    "longitude": "-90.06085672809527",
    "latitude": "29.962936249375144",
    "geocoded_column": {
      "latitude": "29.962936249375144",
      "longitude": "-90.06085672809527"
    }
  },
  {
    "service_request": "2025-1185044",
    "request_type": "Trash/Recycling",
    "request_reason": "Request a Large Item Pick Up",
    "date_created": "2025-04-18T16:09:07.000",
    "date_modified": "2025-04-18T16:09:09.000",
    "request_status": "Pending",
    "responsible_agency": "Department of Sanitation",
    "final_address": "3930 Palmyra St",
    "address_councildis": "A",
    "status": "Assigned to Contractor",
    "contractor": "IV Waste",
    "rowid": "1185044",
    "final_x": "3671059.70279",
    "final_y": "537247.421704",
    "longitude": "-90.10084257307058",
    "latitude": "29.971557044538482",
    "geocoded_column": {
      "latitude": "29.971557044538482",
      "longitude": "-90.10084257307058"
    }
  },
  {
    "service_request": "2025-1185043",
    "request_type": "Trash/Recycling",
    "request_reason": "Repair Trash Cart",
    "date_created": "2025-04-18T15:54:18.000",
    "date_modified": "2025-04-18T15:54:20.000",
    "request_status": "Pending",
    "responsible_agency": "Department of Sanitation",
    "final_address": "3952 Pauger St",
    "address_councildis": "D",
    "status": "Assigned to Contractor",
    "contractor": "IV Waste",
    "rowid": "1185043",
    "final_x": "3683081.39093",
    "final_y": "545506.98888",
    "longitude": "-90.06258706167682",
    "latitude": "29.993906925671883",
    "geocoded_column": {
      "latitude": "29.993906925671883",
      "longitude": "-90.06258706167682"
    }
  },
  {
    "service_request": "2025-1185042",
    "request_type": "Street and Traffic Signs",
    "request_reason": "One Way Sign Missing or Damaged",
    "date_created": "2025-04-18T15:51:56.000",
    "date_modified": "2025-04-18T15:51:58.000",
    "request_status": "Pending",
    "responsible_agency": "Department of Public Works",
    "final_address": "405 S Solomon St",
    "address_councildis": "A",
    "status": "Pending",
    "rowid": "1185042",
    "final_x": "3669780.17422",
    "final_y": "537740.326792",
    "longitude": "-90.10486683609018",
    "latitude": "29.972950149137255",
    "geocoded_column": {
      "latitude": "29.972950149137255",
      "longitude": "-90.10486683609018"
    }
  },
  {
    "service_request": "2025-1185041",
    "request_type": "Trash/Recycling",
    "request_reason": "Replace Trash Cart",
    "date_created": "2025-04-18T15:50:35.000",
    "date_modified": "2025-04-18T15:50:37.000",
    "request_status": "Pending",
    "responsible_agency": "Department of Sanitation",
    "final_address": "1130 Josephine St",
    "address_councildis": "B",
    "status": "Assigned to Contractor",
    "contractor": "IV Waste",
    "rowid": "1185041",
    "final_x": "3678959.77582",
    "final_y": "522515.761018",
    "longitude": "-90.07640332210859",
    "latitude": "29.930813900827896",
    "geocoded_column": {
      "latitude": "29.930813900827896",
      "longitude": "-90.07640332210859"
    }
  },
  {
    "service_request": "2025-1185040",
    "request_type": "Streetlights",
    "request_reason": "Streetlight Outage/Malfunction",
    "date_created": "2025-04-18T15:48:27.000",
    "date_modified": "2025-04-18T15:48:29.000",
    "request_status": "Pending",
    "responsible_agency": "Department of Public Works",
    "final_address": "4514 Pitt St",
    "address_councildis": "B",
    "status": "Pending",
    "contractor": "Legacy Professional Services",
    "rowid": "1185040",
    "final_x": "3670318.27137",
    "final_y": "520457.07756",
    "longitude": "-90.10375314665959",
    "latitude": "29.925411000790984",
    "geocoded_column": {
      "latitude": "29.925411000790984",
      "longitude": "-90.10375314665959"
    }
  },
  {
    "service_request": "2025-1185039",
    "request_type": "Abandoned Vehicles",
    "request_reason": "Abandoned/Junk Vehicles",
    "date_created": "2025-04-18T15:48:21.000",
    "date_modified": "2025-04-18T15:48:22.000",
    "request_status": "Pending",
    "responsible_agency": "Department of Public Works",
    "final_address": "3668 Pin Oak Ave",
    "address_councildis": "C",
    "status": "Pending",
    "rowid": "1185039",
    "final_x": "3704146.53297",
    "final_y": "514694.847475",
    "longitude": "-89.99718078865575",
    "latitude": "29.908525364860935",
    "geocoded_column": {
      "latitude": "29.908525364860935",
      "longitude": "-89.99718078865575"
    }
  },
  {
    "service_request": "2025-1185038",
    "request_type": "Trash/Recycling",
    "request_reason": "Change Size of Trash Cart",
    "date_created": "2025-04-18T15:48:11.000",
    "date_modified": "2025-04-18T15:48:13.000",
    "request_status": "Pending",
    "responsible_agency": "Department of Sanitation",
    "final_address": "2408 Milan St",
    "address_councildis": "B",
    "status": "Assigned to Contractor",
    "contractor": "IV Waste",
    "rowid": "1185038",
    "final_x": "3671256.67047",
    "final_y": "523857.852411",
    "longitude": "-90.10067542047484",
    "latitude": "29.93473431746345",
    "geocoded_column": {
      "latitude": "29.93473431746345",
      "longitude": "-90.10067542047484"
    }
  },
  {
    "service_request": "2025-1185037",
    "request_type": "Abandoned Vehicles",
    "request_reason": "Abandoned/Junk Vehicles",
    "date_created": "2025-04-18T15:26:14.000",
    "date_modified": "2025-04-18T15:26:16.000",
    "request_status": "Pending",
    "responsible_agency": "Department of Public Works",
    "final_address": "5118 Metropolitan Dr",
    "address_councildis": "D",
    "status": "Pending",
    "rowid": "1185037",
    "final_x": "3690372.52956",
    "final_y": "552119.168086",
    "longitude": "-90.0393196071975",
    "latitude": "30.01186365134969",
    "geocoded_column": {
      "latitude": "30.01186365134969",
      "longitude": "-90.0393196071975"
    }
  },
  {
    "service_request": "2025-1185036",
    "request_type": "Roads and Streets",
    "request_reason": "General Service Request",
    "date_created": "2025-04-18T15:14:43.000",
    "date_modified": "2025-04-18T15:14:44.000",
    "request_status": "Pending",
    "responsible_agency": "Orleans Parish Communication District",
    "final_address": "8815 Colapissa St",
    "address_councildis": "A",
    "status": "Pending",
    "rowid": "1185036",
    "final_x": "3664635.8176",
    "final_y": "535186.514566",
    "longitude": "-90.12119909471865",
    "latitude": "29.96607865969749",
    "geocoded_column": {
      "latitude": "29.96607865969749",
      "longitude": "-90.12119909471865"
    }
  },
  {
    "service_request": "2025-1185035",
    "request_type": "Parks & Parkways",
    "request_reason": "Request Tree Service (Right of Way/Public Property)",
    "date_created": "2025-04-18T15:10:20.000",
    "date_modified": "2025-04-18T15:10:23.000",
    "request_status": "Pending",
    "responsible_agency": "Department of Parks & Parkway",
    "final_address": "4228 Fontainebleau Dr",
    "address_councildis": "A",
    "status": "Pending",
    "rowid": "1185035",
    "final_x": "3669526.60762",
    "final_y": "529250.469313",
    "longitude": "-90.10595485666136",
    "latitude": "29.949613327686013",
    "geocoded_column": {
      "latitude": "29.949613327686013",
      "longitude": "-90.10595485666136"
    }
  },
  {
    "service_request": "2025-1185034",
    "request_type": "Trash/Recycling",
    "request_reason": "Illegal Dumping",
    "date_created": "2025-04-18T15:05:49.000",
    "date_modified": "2025-04-18T15:05:51.000",
    "request_status": "Pending",
    "responsible_agency": "Department of Sanitation",
    "final_address": "7300 BLK Means Ave",
    "address_councildis": "E",
    "status": "Pending",
    "rowid": "1185034",
    "final_x": "3708570.65467",
    "final_y": "563824.843923",
    "longitude": "-89.98138818283137",
    "latitude": "30.043472025651177",
    "geocoded_column": {
      "latitude": "30.043472025651177",
      "longitude": "-89.98138818283137"
    }
  },
  {
    "service_request": "2025-1185033",
    "request_type": "Utility Poles",
    "request_reason": "Wires Sagging/Hanging Low",
    "date_created": "2025-04-18T15:00:29.000",
    "date_modified": "2025-04-18T15:00:31.000",
    "request_status": "Pending",
    "responsible_agency": "Utility Company Collective",
    "final_address": "4119 LaSalle St",
    "address_councildis": "B",
    "status": "Pending",
    "rowid": "1185033",
    "final_x": "3671497.42503",
    "final_y": "523832.336123",
    "longitude": "-90.09991622775",
    "latitude": "29.934657032178066",
    "geocoded_column": {
      "latitude": "29.934657032178066",
      "longitude": "-90.09991622775"
    }
  },
  {
    "service_request": "2025-1185032",
    "request_type": "Trash/Recycling",
    "request_reason": "Request a Large Item Pick Up",
    "date_created": "2025-04-18T14:52:16.000",
    "date_modified": "2025-04-18T14:52:18.000",
    "request_status": "Pending",
    "responsible_agency": "Department of Sanitation",
    "final_address": "8338 Leeds St",
    "address_councildis": "E",
    "status": "Assigned to Contractor",
    "contractor": "Waste Pro",
    "rowid": "1185032",
    "final_x": "3706064.36651",
    "final_y": "555065.229017",
    "longitude": "-89.98963369891008",
    "latitude": "30.019467588146117",
    "geocoded_column": {
      "latitude": "30.019467588146117",
      "longitude": "-89.98963369891008"
    }
  },
  {
    "service_request": "2025-1185031",
    "request_type": "Trash/Recycling",
    "request_reason": "Request a Large Item Pick Up",
    "date_created": "2025-04-18T14:51:11.000",
    "date_modified": "2025-04-18T14:51:14.000",
    "request_status": "Pending",
    "responsible_agency": "Department of Sanitation",
    "final_address": "820 Octavia St",
    "address_councildis": "A",
    "status": "Assigned to Contractor",
    "contractor": "IV Waste",
    "rowid": "1185031",
    "final_x": "3666403.30266",
    "final_y": "519022.420279",
    "longitude": "-90.1161596367017",
    "latitude": "29.921581080633004",
    "geocoded_column": {
      "latitude": "29.921581080633004",
      "longitude": "-90.1161596367017"
    }
  },
  {
    "service_request": "2025-1185030",
    "request_type": "Streetlights",
    "request_reason": "Streetlight Outage/Malfunction",
    "date_created": "2025-04-18T14:46:05.000",
    "date_modified": "2025-04-18T14:46:07.000",
    "request_status": "Pending",
    "responsible_agency": "Department of Public Works",
    "final_address": "7300 Alabama St",
    "address_councildis": "D",
    "status": "Pending",
    "contractor": "Legacy Professional Services",
    "rowid": "1185030",
    "final_x": "3695183.70538",
    "final_y": "557519.164123",
    "longitude": "-90.02392417303405",
    "latitude": "30.02656133126457",
    "geocoded_column": {
      "latitude": "30.02656133126457",
      "longitude": "-90.02392417303405"
    }
  },
  {
    "service_request": "2025-1185029",
    "request_type": "Trash/Recycling",
    "request_reason": "Order Trash Cart",
    "date_created": "2025-04-18T14:44:29.000",
    "date_modified": "2025-04-18T14:44:31.000",
    "request_status": "Pending",
    "responsible_agency": "Department of Sanitation",
    "final_address": "3949 Chestnut St",
    "address_councildis": "B",
    "status": "Assigned to Contractor",
    "contractor": "IV Waste",
    "rowid": "1185029",
    "final_x": "3672519.01601",
    "final_y": "519721.313144",
    "longitude": "-90.09683113139126",
    "latitude": "29.923322764985144",
    "geocoded_column": {
      "latitude": "29.923322764985144",
      "longitude": "-90.09683113139126"
    }
  },
  {
    "service_request": "2025-1185028",
    "request_type": "Trash/Recycling",
    "request_reason": "Replace Trash Cart",
    "date_created": "2025-04-18T14:44:08.000",
    "date_modified": "2025-04-18T14:44:10.000",
    "request_status": "Pending",
    "responsible_agency": "Department of Sanitation",
    "final_address": "5318 Pitt St",
    "address_councildis": "B",
    "status": "Assigned to Contractor",
    "contractor": "IV Waste",
    "rowid": "1185028",
    "final_x": "3667548.01159",
    "final_y": "520399.447288",
    "longitude": "-90.11249996188987",
    "latitude": "29.92533398514744",
    "geocoded_column": {
      "latitude": "29.92533398514744",
      "longitude": "-90.11249996188987"
    }
  },
  {
    "service_request": "2025-1185027",
    "request_type": "Abandoned Vehicles",
    "request_reason": "Abandoned/Junk Vehicles",
    "date_created": "2025-04-18T14:29:17.000",
    "date_modified": "2025-04-18T14:29:21.000",
    "request_status": "Pending",
    "responsible_agency": "Department of Public Works",
    "final_address": "2509 Burgundy St",
    "address_councildis": "C",
    "status": "Pending",
    "rowid": "1185027",
    "final_x": "3686646.5245",
    "final_y": "535742.268871",
    "longitude": "-90.0516703600051",
    "latitude": "29.966948198729465",
    "geocoded_column": {
      "latitude": "29.966948198729465",
      "longitude": "-90.0516703600051"
    }
  },
  {
    "service_request": "2025-1185026",
    "request_type": "Roads and Streets",
    "request_reason": "Pothole",
    "date_created": "2025-04-18T14:17:21.000",
    "date_modified": "2025-04-18T14:17:23.000",
    "request_status": "Pending",
    "responsible_agency": "Department of Public Works",
    "final_address": "1019 Leonidas St",
    "address_councildis": "A",
    "status": "Pending",
    "rowid": "1185026",
    "final_x": "3660309.71443",
    "final_y": "529141.27648",
    "longitude": "-90.13506053919541",
    "latitude": "29.949581332348835",
    "geocoded_column": {
      "latitude": "29.949581332348835",
      "longitude": "-90.13506053919541"
    }
  },
  {
    "service_request": "2025-1185025",
    "request_type": "General Services",
    "request_reason": "General Service Request",
    "date_created": "2025-04-18T13:54:42.000",
    "date_modified": "2025-04-18T13:54:43.000",
    "request_status": "Pending",
    "responsible_agency": "Orleans Parish Communication District",
    "final_address": "735 Royal St",
    "address_councildis": "C",
    "status": "Pending",
    "rowid": "1185025",
    "final_x": "3682718.62677",
    "final_y": "532738.156164",
    "longitude": "-90.06417973665732",
    "latitude": "29.958808140498714",
    "geocoded_column": {
      "latitude": "29.958808140498714",
      "longitude": "-90.06417973665732"
    }
  },
  {
    "service_request": "2025-1185024",
    "request_type": "Abandoned Vehicles",
    "request_reason": "Abandoned/Junk Vehicles",
    "date_created": "2025-04-18T13:53:46.000",
    "date_modified": "2025-04-18T13:53:48.000",
    "request_status": "Pending",
    "responsible_agency": "Department of Public Works",
    "final_address": "3212 Danneel St",
    "address_councildis": "B",
    "status": "Pending",
    "rowid": "1185024",
    "final_x": "3674108.79611",
    "final_y": "523038.870267",
    "longitude": "-90.09169931079143",
    "latitude": "29.93239770828291",
    "geocoded_column": {
      "latitude": "29.93239770828291",
      "longitude": "-90.09169931079143"
    }
  },
  {
    "service_request": "2025-1185023",
    "request_type": "Property Maintenance",
    "request_reason": "Property Maintenance",
    "date_created": "2025-04-18T13:53:11.000",
    "date_modified": "2025-04-18T13:53:13.000",
    "request_status": "Pending",
    "responsible_agency": "Department of Code Enforcement",
    "final_address": "8511 Hickory St",
    "address_councildis": "A",
    "status": "Pending",
    "rowid": "1185023",
    "final_x": "3662272.42669",
    "final_y": "530983.628418",
    "longitude": "-90.1288021858109",
    "latitude": "29.954590623248265",
    "geocoded_column": {
      "latitude": "29.954590623248265",
      "longitude": "-90.1288021858109"
    }
  },
  {
    "service_request": "2025-1185022",
    "request_type": "Abandoned Vehicles",
    "request_reason": "Abandoned/Junk Vehicles",
    "date_created": "2025-04-18T13:50:37.000",
    "date_modified": "2025-04-18T13:50:38.000",
    "request_status": "Pending",
    "responsible_agency": "Department of Public Works",
    "final_address": "3212 Danneel St",
    "address_councildis": "B",
    "status": "Pending",
    "rowid": "1185022",
    "final_x": "3674108.79611",
    "final_y": "523038.870267",
    "longitude": "-90.09169931079143",
    "latitude": "29.93239770828291",
    "geocoded_column": {
      "latitude": "29.93239770828291",
      "longitude": "-90.09169931079143"
    }
  },
  {
    "service_request": "2025-1185021",
    "request_type": "Abandoned Vehicles",
    "request_reason": "Abandoned/Junk Vehicles",
    "date_created": "2025-04-18T13:49:48.000",
    "date_modified": "2025-04-18T13:49:49.000",
    "request_status": "Pending",
    "responsible_agency": "Department of Public Works",
    "final_address": "3212 Danneel St",
    "address_councildis": "B",
    "status": "Pending",
    "rowid": "1185021",
    "final_x": "3674108.79611",
    "final_y": "523038.870267",
    "longitude": "-90.09169931079143",
    "latitude": "29.93239770828291",
    "geocoded_column": {
      "latitude": "29.93239770828291",
      "longitude": "-90.09169931079143"
    }
  },
  {
    "service_request": "2025-1185020",
    "request_type": "Trash/Recycling",
    "request_reason": "Order Trash Cart",
    "date_created": "2025-04-18T13:47:23.000",
    "date_modified": "2025-04-18T13:47:24.000",
    "request_status": "Pending",
    "responsible_agency": "Department of Sanitation",
    "final_address": "822 Octavia St",
    "address_councildis": "A",
    "status": "Assigned to Contractor",
    "contractor": "IV Waste",
    "rowid": "1185020",
    "final_x": "3666437.52513",
    "final_y": "519042.536695",
    "longitude": "-90.11605093618614",
    "latitude": "29.921635394822122",
    "geocoded_column": {
      "latitude": "29.921635394822122",
      "longitude": "-90.11605093618614"
    }
  },
  {
    "service_request": "2025-1185019",
    "request_type": "Streetlights",
    "request_reason": "Streetlight Outage/Malfunction",
    "date_created": "2025-04-18T13:44:30.000",
    "date_modified": "2025-04-18T13:44:32.000",
    "request_status": "Pending",
    "responsible_agency": "Department of Public Works",
    "final_address": "2100 Baronne St",
    "address_councildis": "B",
    "status": "Pending",
    "contractor": "Legacy Professional Services",
    "rowid": "1185019",
    "final_x": "3677324.11816",
    "final_y": "524644.926396",
    "longitude": "-90.08149343316524",
    "latitude": "29.9367176425901",
    "geocoded_column": {
      "latitude": "29.9367176425901",
      "longitude": "-90.08149343316524"
    }
  },
  {
    "service_request": "2025-1185018",
    "request_type": "Trash/Recycling",
    "request_reason": "Illegal Dumping",
    "date_created": "2025-04-18T13:28:27.000",
    "date_modified": "2025-04-18T13:28:29.000",
    "request_status": "Pending",
    "responsible_agency": "Department of Sanitation",
    "final_address": "3223 Third St",
    "address_councildis": "B",
    "status": "Pending",
    "rowid": "1185018",
    "final_x": "3673216.45371",
    "final_y": "527804.632959",
    "longitude": "-90.09435367953864",
    "latitude": "29.945528559596557",
    "geocoded_column": {
      "latitude": "29.945528559596557",
      "longitude": "-90.09435367953864"
    }
  },
  {
    "service_request": "2025-1185017",
    "request_type": "Trash/Recycling",
    "request_reason": "MIssed Recycling Pick-Up",
    "date_created": "2025-04-18T13:27:32.000",
    "date_modified": "2025-04-18T14:24:58.000",
    "case_close_date": "2025-04-18T09:24:57.000",
    "request_status": "Closed",
    "responsible_agency": "Department of Sanitation",
    "final_address": "2712 Loyola Ave",
    "address_councildis": "B",
    "status": "Invalid Request",
    "contractor": "IV Waste",
    "contractor_action": "Invalid",
    "rowid": "1185017",
    "final_x": "3674927.5675",
    "final_y": "524403.668668",
    "longitude": "-90.08906773411253",
    "latitude": "29.936126038318847",
    "geocoded_column": {
      "latitude": "29.936126038318847",
      "longitude": "-90.08906773411253"
    }
  },
  {
    "service_request": "2025-1185016",
    "request_type": "Trash/Recycling",
    "request_reason": "Repair Trash Cart",
    "date_created": "2025-04-18T13:27:15.000",
    "date_modified": "2025-04-18T13:27:17.000",
    "request_status": "Pending",
    "responsible_agency": "Department of Sanitation",
    "final_address": "922 Hidalgo St",
    "address_councildis": "A",
    "status": "Assigned to Contractor",
    "contractor": "IV Waste",
    "rowid": "1185016",
    "final_x": "3669730.11969",
    "final_y": "543941.810382",
    "longitude": "-90.10481493152021",
    "latitude": "29.990003598318445",
    "geocoded_column": {
      "latitude": "29.990003598318445",
      "longitude": "-90.10481493152021"
    }
  },
  {
    "service_request": "2025-1185015",
    "request_type": "Roads and Streets",
    "request_reason": "Pothole",
    "date_created": "2025-04-18T13:26:54.000",
    "date_modified": "2025-04-18T13:26:56.000",
    "request_status": "Pending",
    "responsible_agency": "Department of Public Works",
    "final_address": "447 Amethyst St",
    "address_councildis": "D",
    "status": "Pending",
    "rowid": "1185015",
    "final_x": "3667768.83956",
    "final_y": "556760.056154",
    "longitude": "-90.11057803785924",
    "latitude": "30.025306974831338",
    "geocoded_column": {
      "latitude": "30.025306974831338",
      "longitude": "-90.11057803785924"
    }
  },
  {
    "service_request": "2025-1185014",
    "request_type": "Abandoned Vehicles",
    "request_reason": "Abandoned/Junk Vehicles",
    "date_created": "2025-04-18T13:15:35.000",
    "date_modified": "2025-04-18T13:15:37.000",
    "request_status": "Pending",
    "responsible_agency": "Department of Public Works",
    "final_address": "3251 St Ferdinand St",
    "address_councildis": "D",
    "status": "Pending",
    "rowid": "1185014",
    "final_x": "3689913.11312",
    "final_y": "544797.423055",
    "longitude": "-90.04103198660441",
    "latitude": "29.991745781806454",
    "geocoded_column": {
      "latitude": "29.991745781806454",
      "longitude": "-90.04103198660441"
    }
  },
  {
    "service_request": "2025-1185013",
    "request_type": "Abandoned Vehicles",
    "request_reason": "Abandoned/Junk Vehicles",
    "date_created": "2025-04-18T13:10:29.000",
    "date_modified": "2025-04-18T13:10:31.000",
    "request_status": "Pending",
    "responsible_agency": "Department of Public Works",
    "final_address": "3251 St Ferdinand St",
    "address_councildis": "D",
    "status": "Pending",
    "rowid": "1185013",
    "final_x": "3689913.11312",
    "final_y": "544797.423055",
    "longitude": "-90.04103198660441",
    "latitude": "29.991745781806454",
    "geocoded_column": {
      "latitude": "29.991745781806454",
      "longitude": "-90.04103198660441"
    }
  },
  {
    "service_request": "2025-1185012",
    "request_type": "Street and Traffic Signs",
    "request_reason": "Additional Signage Request",
    "date_created": "2025-04-18T13:09:57.000",
    "date_modified": "2025-04-18T13:09:58.000",
    "request_status": "Pending",
    "responsible_agency": "Department of Public Works",
    "final_address": "1605 Frenchmen St",
    "address_councildis": "D",
    "status": "Pending",
    "rowid": "1185012",
    "final_x": "3684463.62197",
    "final_y": "538184.312073",
    "longitude": "-90.05847815719166",
    "latitude": "29.973729925782237",
    "geocoded_column": {
      "latitude": "29.973729925782237",
      "longitude": "-90.05847815719166"
    }
  },
  {
    "service_request": "2025-1185011",
    "request_type": "Trash/Recycling",
    "request_reason": "Request a Large Item Pick Up",
    "date_created": "2025-04-18T13:05:15.000",
    "date_modified": "2025-04-18T13:05:17.000",
    "request_status": "Pending",
    "responsible_agency": "Department of Sanitation",
    "final_address": "913 Washington Ave",
    "address_councildis": "B",
    "status": "Assigned to Contractor",
    "contractor": "IV Waste",
    "rowid": "1185011",
    "final_x": "3677423.74766",
    "final_y": "520340.142904",
    "longitude": "-90.08132739400726",
    "latitude": "29.924877900152158",
    "geocoded_column": {
      "latitude": "29.924877900152158",
      "longitude": "-90.08132739400726"
    }
  },
  {
    "service_request": "2025-1185010",
    "request_type": "Roads and Streets",
    "request_reason": "Sidewalk Damaged or Missing",
    "date_created": "2025-04-18T13:00:51.000",
    "date_modified": "2025-04-18T13:00:52.000",
    "request_status": "Pending",
    "responsible_agency": "Department of Public Works",
    "final_address": "1912 Marigny St",
    "address_councildis": "D",
    "status": "Pending",
    "rowid": "1185010",
    "final_x": "3685131.24533",
    "final_y": "539415.679178",
    "longitude": "-90.05632632064747",
    "latitude": "29.977095313279044",
    "geocoded_column": {
      "latitude": "29.977095313279044",
      "longitude": "-90.05632632064747"
    }
  },
  {
    "service_request": "2025-1185009",
    "request_type": "Street and Traffic Signs",
    "request_reason": "Additional Signage Request",
    "date_created": "2025-04-18T12:56:55.000",
    "date_modified": "2025-04-18T12:56:57.000",
    "request_status": "Pending",
    "responsible_agency": "Department of Public Works",
    "final_address": "2101 N Claiborne Ave",
    "address_councildis": "D",
    "status": "Pending",
    "rowid": "1185009",
    "final_x": "3684503.0925",
    "final_y": "538168.158025",
    "longitude": "-90.05835406857365",
    "latitude": "29.973684300222818",
    "geocoded_column": {
      "latitude": "29.973684300222818",
      "longitude": "-90.05835406857365"
    }
  },
  {
    "service_request": "2025-1185008",
    "request_type": "Trash/Recycling",
    "request_reason": "Order Recycling Cart",
    "date_created": "2025-04-18T12:50:49.000",
    "date_modified": "2025-04-18T12:50:51.000",
    "request_status": "Pending",
    "responsible_agency": "Department of Sanitation",
    "final_address": "616 First St",
    "address_councildis": "B",
    "status": "Pending",
    "rowid": "1185008",
    "final_x": "3678960.1627",
    "final_y": "520070.418232",
    "longitude": "-90.07648677536382",
    "latitude": "29.92408999502112",
    "geocoded_column": {
      "latitude": "29.92408999502112",
      "longitude": "-90.07648677536382"
    }
  },
  {
    "service_request": "2025-1185007",
    "request_type": "Roads and Streets",
    "request_reason": "Debris in Driving Lanes",
    "date_created": "2025-04-18T12:46:58.000",
    "date_modified": "2025-04-18T12:46:59.000",
    "request_status": "Pending",
    "responsible_agency": "Department of Public Works",
    "final_address": "0 BLK Interstate 10",
    "status": "Pending",
    "rowid": "1185007",
    "final_x": "3749078.15502",
    "final_y": "605653.561774",
    "longitude": "-89.85166076471643",
    "latitude": "30.157105189447982",
    "geocoded_column": {
      "latitude": "30.157105189447982",
      "longitude": "-89.85166076471643"
    }
  },
  {
    "service_request": "2025-1185006",
    "request_type": "Trash/Recycling",
    "request_reason": "Request a Large Item Pick Up",
    "date_created": "2025-04-18T12:46:45.000",
    "date_modified": "2025-04-18T12:46:47.000",
    "request_status": "Pending",
    "responsible_agency": "Department of Sanitation",
    "final_address": "334 Bermuda St, New Orleans, Louisiana, 70114",
    "address_councildis": "C",
    "status": "Assigned to Contractor",
    "contractor": "Richards Disposal",
    "rowid": "1185006",
    "final_x": "3686477.92655",
    "final_y": "530565.750722",
    "longitude": "-90.05238554144559",
    "latitude": "29.952719743768533",
    "geocoded_column": {
      "latitude": "29.952719743768533",
      "longitude": "-90.05238554144559"
    }
  },
  {
    "service_request": "2025-1185005",
    "request_type": "Abandoned Vehicles",
    "request_reason": "Abandoned/Junk Vehicles",
    "date_created": "2025-04-18T12:44:20.000",
    "date_modified": "2025-04-18T12:44:22.000",
    "request_status": "Pending",
    "responsible_agency": "Department of Public Works",
    "final_address": "5704 Wildair Dr",
    "address_councildis": "D",
    "status": "Pending",
    "rowid": "1185005",
    "final_x": "3681527.87663",
    "final_y": "553782.176983",
    "longitude": "-90.06720554324487",
    "latitude": "30.016708001040755",
    "geocoded_column": {
      "latitude": "30.016708001040755",
      "longitude": "-90.06720554324487"
    }
  },
  {
    "service_request": "2025-1185004",
    "request_type": "Abandoned Vehicles",
    "request_reason": "Abandoned/Junk Vehicles",
    "date_created": "2025-04-18T12:42:25.000",
    "date_modified": "2025-04-18T12:42:27.000",
    "request_status": "Pending",
    "responsible_agency": "Department of Public Works",
    "final_address": "5704 Wilton Dr",
    "address_councildis": "D",
    "status": "Pending",
    "rowid": "1185004",
    "final_x": "3681780.21308",
    "final_y": "553797.926167",
    "longitude": "-90.0664077170002",
    "latitude": "30.01674363643913",
    "geocoded_column": {
      "latitude": "30.01674363643913",
      "longitude": "-90.0664077170002"
    }
  },
  {
    "service_request": "2025-1185003",
    "request_type": "Trash/Recycling",
    "request_reason": "Request a Large Item Pick Up",
    "date_created": "2025-04-18T12:40:10.000",
    "date_modified": "2025-04-18T12:40:12.000",
    "request_status": "Pending",
    "responsible_agency": "Department of Sanitation",
    "final_address": "319 S Lopez St",
    "address_councildis": "B",
    "status": "Assigned to Contractor",
    "contractor": "IV Waste",
    "rowid": "1185003",
    "final_x": "3673242.72532",
    "final_y": "535485.220038",
    "longitude": "-90.09400844551256",
    "latitude": "29.966646839253436",
    "geocoded_column": {
      "latitude": "29.966646839253436",
      "longitude": "-90.09400844551256"
    }
  },
  {
    "service_request": "2025-1185002",
    "request_type": "Street and Traffic Signs",
    "request_reason": "Additional Signage Request",
    "date_created": "2025-04-18T12:35:07.000",
    "date_modified": "2025-04-18T12:35:08.000",
    "request_status": "Pending",
    "responsible_agency": "Department of Public Works",
    "final_address": "2029 N Claiborne Ave",
    "address_councildis": "D",
    "status": "Pending",
    "rowid": "1185002",
    "final_x": "3684398.83663",
    "final_y": "538144.707017",
    "longitude": "-90.0586841544495",
    "latitude": "29.97362300747114",
    "geocoded_column": {
      "latitude": "29.97362300747114",
      "longitude": "-90.0586841544495"
    }
  },
  {
    "service_request": "2025-1185001",
    "request_type": "Trash/Recycling",
    "request_reason": "Request a Large Item Pick Up",
    "date_created": "2025-04-18T12:32:06.000",
    "date_modified": "2025-04-18T12:32:08.000",
    "request_status": "Pending",
    "responsible_agency": "Department of Sanitation",
    "final_address": "3110 cleveland ave new orleans la 70119",
    "address_councildis": "B",
    "status": "Assigned to Contractor",
    "contractor": "IV Waste",
    "rowid": "1185001",
    "final_x": "3673704.57908",
    "final_y": "535777.075527",
    "longitude": "-90.09253993171296",
    "latitude": "29.967435599880453",
    "geocoded_column": {
      "latitude": "29.967435599880453",
      "longitude": "-90.09253993171296"
    }
  },
  {
    "service_request": "2025-1185000",
    "request_type": "Trash/Recycling",
    "request_reason": "Request a Large Item Pick Up",
    "date_created": "2025-04-18T12:27:06.000",
    "date_modified": "2025-04-18T12:27:09.000",
    "request_status": "Pending",
    "responsible_agency": "Department of Sanitation",
    "final_address": "625 Henry Clay Ave",
    "address_councildis": "A",
    "status": "Assigned to Contractor",
    "contractor": "IV Waste",
    "rowid": "1185000",
    "final_x": "3663680.45037",
    "final_y": "519135.056887",
    "longitude": "-90.12475079228065",
    "latitude": "29.921970045999675",
    "geocoded_column": {
      "latitude": "29.921970045999675",
      "longitude": "-90.12475079228065"
    }
  },
  {
    "service_request": "2025-1184999",
    "request_type": "Street and Traffic Signs",
    "request_reason": "Additional Signage Request",
    "date_created": "2025-04-18T12:22:29.000",
    "date_modified": "2025-04-18T12:22:31.000",
    "request_status": "Pending",
    "responsible_agency": "Department of Public Works",
    "final_address": "2025 N Claiborne Ave",
    "address_councildis": "D",
    "status": "Pending",
    "rowid": "1184999",
    "final_x": "3684313.37013",
    "final_y": "538132.737737",
    "longitude": "-90.05895449591031",
    "latitude": "29.973592710056323",
    "geocoded_column": {
      "latitude": "29.973592710056323",
      "longitude": "-90.05895449591031"
    }
  },
  {
    "service_request": "2025-1184998",
    "request_type": "Trash/Recycling",
    "request_reason": "Request a Large Item Pick Up",
    "date_created": "2025-04-18T12:09:28.000",
    "date_modified": "2025-04-18T12:09:30.000",
    "request_status": "Pending",
    "responsible_agency": "Department of Sanitation",
    "final_address": "3105 Baudin St",
    "address_councildis": "B",
    "status": "Assigned to Contractor",
    "contractor": "IV Waste",
    "rowid": "1184998",
    "final_x": "3673069.01179",
    "final_y": "534862.36039",
    "longitude": "-90.09457829747443",
    "latitude": "29.964939349645178",
    "geocoded_column": {
      "latitude": "29.964939349645178",
      "longitude": "-90.09457829747443"
    }
  },
  {
    "service_request": "2025-1184997",
    "request_type": "Parks & Parkways",
    "request_reason": "Park Maintenance/Clean Up",
    "date_created": "2025-04-18T12:05:59.000",
    "date_modified": "2025-04-18T12:06:01.000",
    "request_status": "Pending",
    "responsible_agency": "Department of Parks & Parkway",
    "final_address": "2025 N Claiborne Ave",
    "address_councildis": "D",
    "status": "Pending",
    "rowid": "1184997",
    "final_x": "3684313.37013",
    "final_y": "538132.737737",
    "longitude": "-90.05895449591031",
    "latitude": "29.973592710056323",
    "geocoded_column": {
      "latitude": "29.973592710056323",
      "longitude": "-90.05895449591031"
    }
  },
  {
    "service_request": "2025-1184996",
    "request_type": "Trash/Recycling",
    "request_reason": "Return Trash Cart",
    "date_created": "2025-04-18T11:52:19.000",
    "date_modified": "2025-04-18T11:52:22.000",
    "request_status": "Pending",
    "responsible_agency": "Department of Sanitation",
    "final_address": "4911 Perrier St",
    "address_councildis": "B",
    "status": "Assigned to Contractor",
    "contractor": "IV Waste",
    "rowid": "1184996",
    "final_x": "3668938.78951",
    "final_y": "519918.3822",
    "longitude": "-90.10812593703086",
    "latitude": "29.92397039078916",
    "geocoded_column": {
      "latitude": "29.92397039078916",
      "longitude": "-90.10812593703086"
    }
  },
  {
    "service_request": "2025-1184995",
    "request_type": "Trash/Recycling",
    "request_reason": "Illegal Dumping",
    "date_created": "2025-04-18T11:41:35.000",
    "date_modified": "2025-04-18T11:41:36.000",
    "request_status": "Pending",
    "responsible_agency": "Department of Sanitation",
    "final_address": "622 PirateS Aly Unit 2",
    "address_councildis": "C",
    "status": "Pending",
    "rowid": "1184995",
    "final_x": "3682730.05269",
    "final_y": "532436.581571",
    "longitude": "-90.06415420456368",
    "latitude": "29.95797856528337",
    "geocoded_column": {
      "latitude": "29.95797856528337",
      "longitude": "-90.06415420456368"
    }
  },
  {
    "service_request": "2025-1184994",
    "request_type": "Trash/Recycling",
    "request_reason": "Illegal Dumping",
    "date_created": "2025-04-18T11:40:23.000",
    "date_modified": "2025-04-18T11:40:24.000",
    "request_status": "Pending",
    "responsible_agency": "Department of Sanitation",
    "final_address": "2050 Florida Ave",
    "address_councildis": "D",
    "status": "Pending",
    "rowid": "1184994",
    "final_x": "3683474.24047",
    "final_y": "542724.015949",
    "longitude": "-90.0614436889388",
    "latitude": "29.986242751332796",
    "geocoded_column": {
      "latitude": "29.986242751332796",
      "longitude": "-90.0614436889388"
    }
  },
  {
    "service_request": "2025-1184993",
    "request_type": "Street and Traffic Signs",
    "request_reason": "Additional Signage Request",
    "date_created": "2025-04-18T11:39:47.000",
    "date_modified": "2025-04-18T11:39:50.000",
    "request_status": "Pending",
    "responsible_agency": "Department of Public Works",
    "final_address": "4200 BLK Saint Ann St",
    "address_councildis": "A",
    "status": "Pending",
    "rowid": "1184993",
    "final_x": "3672020.07259",
    "final_y": "540926.913669",
    "longitude": "-90.09768426471724",
    "latitude": "29.981645959433628",
    "geocoded_column": {
      "latitude": "29.981645959433628",
      "longitude": "-90.09768426471724"
    }
  },
  {
    "service_request": "2025-1184992",
    "request_type": "Trash/Recycling",
    "request_reason": "Request a Large Item Pick Up",
    "date_created": "2025-04-18T11:32:23.000",
    "date_modified": "2025-04-18T11:32:25.000",
    "request_status": "Pending",
    "responsible_agency": "Department of Sanitation",
    "final_address": "5655 Hawthorne Pl",
    "address_councildis": "A",
    "status": "Assigned to Contractor",
    "contractor": "IV Waste",
    "rowid": "1184992",
    "final_x": "3667967.54407",
    "final_y": "545091.856847",
    "longitude": "-90.11034368164457",
    "latitude": "29.99321767630413",
    "geocoded_column": {
      "latitude": "29.99321767630413",
      "longitude": "-90.11034368164457"
    }
  },
  {
    "service_request": "2025-1184991",
    "request_type": "Trash/Recycling",
    "request_reason": "Missed Trash Pick-Up",
    "date_created": "2025-04-18T11:25:59.000",
    "date_modified": "2025-04-18T11:26:02.000",
    "request_status": "Pending",
    "responsible_agency": "Department of Sanitation",
    "final_address": "5457 Dauphine St",
    "address_councildis": "E",
    "status": "Assigned to Contractor",
    "contractor": "Waste Pro",
    "rowid": "1184991",
    "final_x": "3697266.69559",
    "final_y": "532774.023876",
    "longitude": "-90.01823960483817",
    "latitude": "29.958455673359204",
    "geocoded_column": {
      "latitude": "29.958455673359204",
      "longitude": "-90.01823960483817"
    }
  },
  {
    "service_request": "2025-1184990",
    "request_type": "Street and Traffic Signs",
    "request_reason": "Stop Sign Missing or Damaged",
    "date_created": "2025-04-18T11:18:42.000",
    "date_modified": "2025-04-18T11:18:44.000",
    "request_status": "Pending",
    "responsible_agency": "Department of Public Works",
    "final_address": "3521 Indiana St",
    "address_councildis": "C",
    "status": "Pending",
    "rowid": "1184990",
    "final_x": "3693491.56701",
    "final_y": "520253.625272",
    "longitude": "-90.03060989423149",
    "latitude": "29.924147479849413",
    "geocoded_column": {
      "latitude": "29.924147479849413",
      "longitude": "-90.03060989423149"
    }
  },
  {
    "service_request": "2025-1184989",
    "request_type": "Safety & Permits",
    "request_reason": "Zoning Enforcement",
    "date_created": "2025-04-18T10:49:03.000",
    "date_modified": "2025-04-18T10:49:05.000",
    "request_status": "Pending",
    "responsible_agency": "Safety and Permits",
    "final_address": "600 BLK S Maestri Pl",
    "address_councildis": "B",
    "status": "Pending",
    "rowid": "1184989",
    "final_x": "3680768.05969",
    "final_y": "528690.668128",
    "longitude": "-90.07047998788093",
    "latitude": "29.947738176786",
    "geocoded_column": {
      "latitude": "29.947738176786",
      "longitude": "-90.07047998788093"
    }
  },
  {
    "service_request": "2025-1184988",
    "request_type": "Abandoned Vehicles",
    "request_reason": "Abandoned/Junk Vehicles",
    "date_created": "2025-04-18T10:47:29.000",
    "date_modified": "2025-04-18T10:47:31.000",
    "request_status": "Pending",
    "responsible_agency": "Department of Public Works",
    "final_address": "913 Fats Domino Ave",
    "address_councildis": "E",
    "status": "Pending",
    "rowid": "1184988",
    "final_x": "3697900.68586",
    "final_y": "533087.613188",
    "longitude": "-90.01622626170504",
    "latitude": "29.95929791007268",
    "geocoded_column": {
      "latitude": "29.95929791007268",
      "longitude": "-90.01622626170504"
    }
  },
  {
    "service_request": "2025-1184987",
    "request_type": "Abandoned Vehicles",
    "request_reason": "Abandoned/Junk Vehicles",
    "date_created": "2025-04-18T10:43:02.000",
    "date_modified": "2025-04-18T10:43:04.000",
    "request_status": "Pending",
    "responsible_agency": "Department of Public Works",
    "final_address": "913 Fats Domino Ave",
    "address_councildis": "E",
    "status": "Pending",
    "rowid": "1184987",
    "final_x": "3697900.68586",
    "final_y": "533087.613188",
    "longitude": "-90.01622626170504",
    "latitude": "29.95929791007268",
    "geocoded_column": {
      "latitude": "29.95929791007268",
      "longitude": "-90.01622626170504"
    }
  },
  {
    "service_request": "2025-1184986",
    "request_type": "Trash/Recycling",
    "request_reason": "Repair Recycling Cart",
    "date_created": "2025-04-18T10:40:47.000",
    "date_modified": "2025-04-18T10:40:49.000",
    "request_status": "Pending",
    "responsible_agency": "Department of Sanitation",
    "final_address": "4827 Gallier Dr",
    "address_councildis": "D",
    "status": "Pending",
    "rowid": "1184986",
    "final_x": "3692153.34461",
    "final_y": "551681.226453",
    "longitude": "-90.03370897239215",
    "latitude": "30.010604056095925",
    "geocoded_column": {
      "latitude": "30.010604056095925",
      "longitude": "-90.03370897239215"
    }
  },
  {
    "service_request": "2025-1184985",
    "request_type": "Trash/Recycling",
    "request_reason": "Order Second Trash Cart",
    "date_created": "2025-04-18T10:37:53.000",
    "date_modified": "2025-04-18T10:37:54.000",
    "request_status": "Pending",
    "responsible_agency": "Department of Sanitation",
    "final_address": "2626 Chartres St",
    "address_councildis": "C",
    "status": "Assigned to Contractor",
    "contractor": "IV Waste",
    "rowid": "1184985",
    "final_x": "3686857.24834",
    "final_y": "534544.672709",
    "longitude": "-90.05104721885093",
    "latitude": "29.96364874263984",
    "geocoded_column": {
      "latitude": "29.96364874263984",
      "longitude": "-90.05104721885093"
    }
  },
  {
    "service_request": "2025-1184984",
    "request_type": "Trash/Recycling",
    "request_reason": "Missed Trash Pick-Up",
    "date_created": "2025-04-18T10:37:07.000",
    "date_modified": "2025-04-18T10:37:09.000",
    "request_status": "Pending",
    "responsible_agency": "Department of Sanitation",
    "final_address": "6201 Berkley Dr",
    "address_councildis": "C",
    "status": "Assigned to Contractor",
    "contractor": "Richards Disposal",
    "rowid": "1184984",
    "final_x": "3707025.10321",
    "final_y": "518035.768886",
    "longitude": "-89.98797185070612",
    "latitude": "29.917619132934384",
    "geocoded_column": {
      "latitude": "29.917619132934384",
      "longitude": "-89.98797185070612"
    }
  },
  {
    "service_request": "2025-1184983",
    "request_type": "Trash/Recycling",
    "request_reason": "Order Recycling Cart",
    "date_created": "2025-04-18T10:36:30.000",
    "date_modified": "2025-04-18T10:36:31.000",
    "request_status": "Pending",
    "responsible_agency": "Department of Sanitation",
    "final_address": "2626 Chartres St",
    "address_councildis": "C",
    "status": "Pending",
    "rowid": "1184983",
    "final_x": "3686857.24834",
    "final_y": "534544.672709",
    "longitude": "-90.05104721885093",
    "latitude": "29.96364874263984",
    "geocoded_column": {
      "latitude": "29.96364874263984",
      "longitude": "-90.05104721885093"
    }
  },
  {
    "service_request": "2025-1184982",
    "request_type": "Trash/Recycling",
    "request_reason": "Missed Trash Pick-Up",
    "date_created": "2025-04-18T10:35:21.000",
    "date_modified": "2025-04-18T11:05:02.000",
    "case_close_date": "2025-04-18T06:05:01.000",
    "request_status": "Closed",
    "responsible_agency": "Department of Sanitation",
    "final_address": "2624 Chartres St",
    "address_councildis": "C",
    "status": "Invalid Request",
    "contractor": "IV Waste",
    "contractor_action": "Invalid",
    "rowid": "1184982",
    "final_x": "3686845.44278",
    "final_y": "534547.797701",
    "longitude": "-90.05108438908499",
    "latitude": "29.96365769854604",
    "geocoded_column": {
      "latitude": "29.96365769854604",
      "longitude": "-90.05108438908499"
    }
  },
  {
    "service_request": "2025-1184981",
    "request_type": "Trash/Recycling",
    "request_reason": "Return Trash Cart",
    "date_created": "2025-04-18T10:34:33.000",
    "date_modified": "2025-04-18T10:34:34.000",
    "request_status": "Pending",
    "responsible_agency": "Department of Sanitation",
    "final_address": "2634 Chartres St Apt 2A",
    "address_councildis": "C",
    "status": "Assigned to Contractor",
    "contractor": "IV Waste",
    "rowid": "1184981",
    "final_x": "3686906.04758",
    "final_y": "534533.863877",
    "longitude": "-90.05089349821914",
    "latitude": "29.963617520416182",
    "geocoded_column": {
      "latitude": "29.963617520416182",
      "longitude": "-90.05089349821914"
    }
  },
  {
    "service_request": "2025-1184980",
    "request_type": "Trash/Recycling",
    "request_reason": "Order Trash Cart",
    "date_created": "2025-04-18T10:26:32.000",
    "date_modified": "2025-04-18T10:26:34.000",
    "request_status": "Pending",
    "responsible_agency": "Department of Sanitation",
    "final_address": "2311 Magic St",
    "address_councildis": "D",
    "status": "Assigned to Contractor",
    "contractor": "IV Waste",
    "rowid": "1184980",
    "final_x": "3677841.8013",
    "final_y": "535849.822343",
    "longitude": "-90.07947199120774",
    "latitude": "29.967511793794785",
    "geocoded_column": {
      "latitude": "29.967511793794785",
      "longitude": "-90.07947199120774"
    }
  },
  {
    "service_request": "2025-1184979",
    "request_type": "Trash/Recycling",
    "request_reason": "Replace Recycling Cart",
    "date_created": "2025-04-18T10:21:58.000",
    "date_modified": "2025-04-18T10:21:59.000",
    "request_status": "Pending",
    "responsible_agency": "Department of Sanitation",
    "final_address": "1359 Annette St",
    "address_councildis": "C",
    "status": "Pending",
    "rowid": "1184979",
    "final_x": "3683103.46101",
    "final_y": "537039.526344",
    "longitude": "-90.06281392433549",
    "latitude": "29.970623702809853",
    "geocoded_column": {
      "latitude": "29.970623702809853",
      "longitude": "-90.06281392433549"
    }
  },
  {
    "service_request": "2025-1184978",
    "request_type": "Trash/Recycling",
    "request_reason": "Repair Recycling Cart",
    "date_created": "2025-04-18T10:11:49.000",
    "date_modified": "2025-04-18T10:11:51.000",
    "request_status": "Pending",
    "responsible_agency": "Department of Sanitation",
    "final_address": "4521 Loyola Ave",
    "address_councildis": "B",
    "status": "Pending",
    "rowid": "1184978",
    "final_x": "3670053.30183",
    "final_y": "522978.491899",
    "longitude": "-90.10450421729877",
    "latitude": "29.932351899613472",
    "geocoded_column": {
      "latitude": "29.932351899613472",
      "longitude": "-90.10450421729877"
    }
  },
  {
    "service_request": "2025-1184977",
    "request_type": "Trash/Recycling",
    "request_reason": "Order Trash Cart",
    "date_created": "2025-04-18T10:08:24.000",
    "date_modified": "2025-04-18T10:08:28.000",
    "request_status": "Pending",
    "responsible_agency": "Department of Sanitation",
    "final_address": "4016 Annunciation St",
    "address_councildis": "B",
    "status": "Assigned to Contractor",
    "contractor": "IV Waste",
    "rowid": "1184977",
    "final_x": "3672465.86734",
    "final_y": "517844.002678",
    "longitude": "-90.09706283842937",
    "latitude": "29.918162336635664",
    "geocoded_column": {
      "latitude": "29.918162336635664",
      "longitude": "-90.09706283842937"
    }
  },
  {
    "service_request": "2025-1184976",
    "request_type": "Trash/Recycling",
    "request_reason": "Replace Trash Cart",
    "date_created": "2025-04-18T10:05:16.000",
    "date_modified": "2025-04-18T10:05:18.000",
    "request_status": "Pending",
    "responsible_agency": "Department of Sanitation",
    "final_address": "2635 Dumaine St",
    "address_councildis": "D",
    "status": "Assigned to Contractor",
    "contractor": "IV Waste",
    "rowid": "1184976",
    "final_x": "3677386.86498",
    "final_y": "537392.725",
    "longitude": "-90.0808554302685",
    "latitude": "29.97176793034071",
    "geocoded_column": {
      "latitude": "29.97176793034071",
      "longitude": "-90.0808554302685"
    }
  },
  {
    "service_request": "2025-1184975",
    "request_type": "Trash/Recycling",
    "request_reason": "Return Recycling Cart",
    "date_created": "2025-04-18T10:03:02.000",
    "date_modified": "2025-04-18T10:03:04.000",
    "request_status": "Pending",
    "responsible_agency": "Department of Sanitation",
    "final_address": "4538 Constance St",
    "address_councildis": "B",
    "status": "Pending",
    "rowid": "1184975",
    "final_x": "3670386.55316",
    "final_y": "518312.25919",
    "longitude": "-90.10361026349695",
    "latitude": "29.919511416800685",
    "geocoded_column": {
      "latitude": "29.919511416800685",
      "longitude": "-90.10361026349695"
    }
  },
  {
    "service_request": "2025-1184974",
    "request_type": "Trash/Recycling",
    "request_reason": "Damaged Caused By Contractor",
    "date_created": "2025-04-18T09:59:35.000",
    "date_modified": "2025-04-18T12:37:47.000",
    "case_close_date": "2025-04-18T07:37:46.000",
    "request_status": "Closed",
    "responsible_agency": "Department of Sanitation",
    "final_address": "935 Seventh St",
    "address_councildis": "B",
    "status": "Invalid Request",
    "contractor": "IV Waste",
    "contractor_action": "Invalid",
    "rowid": "1184974",
    "final_x": "3676662.1707",
    "final_y": "520033.442808",
    "longitude": "-90.08374200221166",
    "latitude": "29.92405743328538",
    "geocoded_column": {
      "latitude": "29.92405743328538",
      "longitude": "-90.08374200221166"
    }
  },
  {
    "service_request": "2025-1184973",
    "request_type": "Drainage",
    "request_reason": "Street Flooding",
    "date_created": "2025-04-18T09:58:12.000",
    "date_modified": "2025-04-18T09:58:13.000",
    "request_status": "Pending",
    "responsible_agency": "Sewerage & Water Board ",
    "final_address": "1727 Cambronne St",
    "address_councildis": "A",
    "status": "Pending",
    "rowid": "1184973",
    "final_x": "3662537.40576",
    "final_y": "530413.777346",
    "longitude": "-90.12798440898432",
    "latitude": "29.95301605492866",
    "geocoded_column": {
      "latitude": "29.95301605492866",
      "longitude": "-90.12798440898432"
    }
  },
  {
    "service_request": "2025-1184972",
    "request_type": "General Services",
    "request_reason": "General Service Request",
    "date_created": "2025-04-18T09:55:29.000",
    "date_modified": "2025-04-18T09:55:31.000",
    "request_status": "Pending",
    "responsible_agency": "Orleans Parish Communication District",
    "final_address": "7817 Doyle Ct",
    "address_councildis": "E",
    "status": "Pending",
    "rowid": "1184972",
    "final_x": "3700342.70487",
    "final_y": "561369.462494",
    "longitude": "-90.00748163044572",
    "latitude": "30.03698505019488",
    "geocoded_column": {
      "latitude": "30.03698505019488",
      "longitude": "-90.00748163044572"
    }
  },
  {
    "service_request": "2025-1184971",
    "request_type": "Trash/Recycling",
    "request_reason": "Illegal Dumping",
    "date_created": "2025-04-18T09:53:18.000",
    "date_modified": "2025-04-18T09:53:20.000",
    "request_status": "Pending",
    "responsible_agency": "Department of Sanitation",
    "final_address": "1727 Cambronne St",
    "address_councildis": "A",
    "status": "Pending",
    "rowid": "1184971",
    "final_x": "3662537.40576",
    "final_y": "530413.777346",
    "longitude": "-90.12798440898432",
    "latitude": "29.95301605492866",
    "geocoded_column": {
      "latitude": "29.95301605492866",
      "longitude": "-90.12798440898432"
    }
  },
  {
    "service_request": "2025-1184970",
    "request_type": "Drainage",
    "request_reason": "Street Flooding",
    "date_created": "2025-04-18T09:51:47.000",
    "date_modified": "2025-04-18T09:51:48.000",
    "request_status": "Pending",
    "responsible_agency": "Sewerage & Water Board ",
    "final_address": "2336 Joliet St",
    "address_councildis": "A",
    "status": "Pending",
    "rowid": "1184970",
    "final_x": "3663629.03277",
    "final_y": "532383.702723",
    "longitude": "-90.12447189093918",
    "latitude": "29.958401090266758",
    "geocoded_column": {
      "latitude": "29.958401090266758",
      "longitude": "-90.12447189093918"
    }
  },
  {
    "service_request": "2025-1184969",
    "request_type": "Trash/Recycling",
    "request_reason": "Request a Large Item Pick Up",
    "date_created": "2025-04-18T09:49:59.000",
    "date_modified": "2025-04-18T09:50:01.000",
    "request_status": "Pending",
    "responsible_agency": "Department of Sanitation",
    "final_address": "6606 Bamberry St",
    "address_councildis": "E",
    "status": "Assigned to Contractor",
    "contractor": "Waste Pro",
    "rowid": "1184969",
    "final_x": "3697779.76599",
    "final_y": "558602.518428",
    "longitude": "-90.0156815883368",
    "latitude": "30.0294583133658",
    "geocoded_column": {
      "latitude": "30.0294583133658",
      "longitude": "-90.0156815883368"
    }
  },
  {
    "service_request": "2025-1184968",
    "request_type": "Trash/Recycling",
    "request_reason": "Request a Large Item Pick Up",
    "date_created": "2025-04-18T09:43:54.000",
    "date_modified": "2025-04-18T09:43:56.000",
    "request_status": "Pending",
    "responsible_agency": "Department of Sanitation",
    "final_address": "11235 Waverly Dr",
    "address_councildis": "E",
    "status": "Assigned to Contractor",
    "contractor": "Waste Pro",
    "rowid": "1184968",
    "final_x": "3717194.09176",
    "final_y": "560157.229853",
    "longitude": "-89.95427427964802",
    "latitude": "30.03310499095509",
    "geocoded_column": {
      "latitude": "30.03310499095509",
      "longitude": "-89.95427427964802"
    }
  },
  {
    "service_request": "2025-1184967",
    "request_type": "Trash/Recycling",
    "request_reason": "Repair Trash Cart",
    "date_created": "2025-04-18T09:43:15.000",
    "date_modified": "2025-04-18T09:43:17.000",
    "request_status": "Pending",
    "responsible_agency": "Department of Sanitation",
    "final_address": "3741 Rue Delphine",
    "address_councildis": "C",
    "status": "Assigned to Contractor",
    "contractor": "Richards Disposal",
    "rowid": "1184967",
    "final_x": "3702961.81335",
    "final_y": "516744.936053",
    "longitude": "-90.00084467550288",
    "latitude": "29.91420034179204",
    "geocoded_column": {
      "latitude": "29.91420034179204",
      "longitude": "-90.00084467550288"
    }
  },
  {
    "service_request": "2025-1184966",
    "request_type": "Roads and Streets",
    "request_reason": "Sidewalk Damaged or Missing",
    "date_created": "2025-04-18T09:33:12.000",
    "date_modified": "2025-04-18T09:33:14.000",
    "request_status": "Pending",
    "responsible_agency": "Department of Public Works",
    "final_address": "1500 Adams St HM",
    "address_councildis": "A",
    "status": "Pending",
    "rowid": "1184966",
    "final_x": "3663805.79232",
    "final_y": "528293.016",
    "longitude": "-90.12405005428518",
    "latitude": "29.947147896592206",
    "geocoded_column": {
      "latitude": "29.947147896592206",
      "longitude": "-90.12405005428518"
    }
  },
  {
    "service_request": "2025-1184965",
    "request_type": "Parks & Parkways",
    "request_reason": "Request Tree Service (Right of Way/Public Property)",
    "date_created": "2025-04-18T09:28:13.000",
    "date_modified": "2025-04-18T09:28:14.000",
    "request_status": "Pending",
    "responsible_agency": "Department of Parks & Parkway",
    "final_address": "1661 N Broad St",
    "address_councildis": "D",
    "status": "Pending",
    "rowid": "1184965",
    "final_x": "3679353.87829",
    "final_y": "540676.747595",
    "longitude": "-90.07452935868302",
    "latitude": "29.980738591877866",
    "geocoded_column": {
      "latitude": "29.980738591877866",
      "longitude": "-90.07452935868302"
    }
  },
  {
    "service_request": "2025-1184964",
    "request_type": "Street and Traffic Signs",
    "request_reason": "Stop Sign Missing or Damaged",
    "date_created": "2025-04-18T09:24:10.000",
    "date_modified": "2025-04-18T09:24:13.000",
    "request_status": "Pending",
    "responsible_agency": "Department of Public Works",
    "final_address": "1500 Adams St HM",
    "address_councildis": "A",
    "status": "Pending",
    "rowid": "1184964",
    "final_x": "3663805.79232",
    "final_y": "528293.016",
    "longitude": "-90.12405005428518",
    "latitude": "29.947147896592206",
    "geocoded_column": {
      "latitude": "29.947147896592206",
      "longitude": "-90.12405005428518"
    }
  },
  {
    "service_request": "2025-1184963",
    "request_type": "Trash/Recycling",
    "request_reason": "Missed Trash Pick-Up",
    "date_created": "2025-04-18T09:07:49.000",
    "date_modified": "2025-04-18T10:14:53.000",
    "case_close_date": "2025-04-18T05:14:52.000",
    "request_status": "Closed",
    "responsible_agency": "Department of Sanitation",
    "final_address": "2431 Gallier St",
    "address_councildis": "D",
    "status": "Invalid Request",
    "contractor": "IV Waste",
    "contractor_action": "Invalid",
    "rowid": "1184963",
    "final_x": "3691781.7974",
    "final_y": "540772.996171",
    "longitude": "-90.03527324377274",
    "latitude": "29.98062197428384",
    "geocoded_column": {
      "latitude": "29.98062197428384",
      "longitude": "-90.03527324377274"
    }
  },
  {
    "service_request": "2025-1184962",
    "request_type": "Parks & Parkways",
    "request_reason": "Request Tree Service (Right of Way/Public Property)",
    "date_created": "2025-04-18T09:03:51.000",
    "date_modified": "2025-04-18T09:03:53.000",
    "request_status": "Pending",
    "responsible_agency": "Department of Parks & Parkway",
    "final_address": "1671 N Broad St",
    "address_councildis": "D",
    "status": "Pending",
    "rowid": "1184962",
    "final_x": "3679393.3332",
    "final_y": "540714.832715",
    "longitude": "-90.0744034211551",
    "latitude": "29.980842120846397",
    "geocoded_column": {
      "latitude": "29.980842120846397",
      "longitude": "-90.0744034211551"
    }
  },
  {
    "service_request": "2025-1184961",
    "request_type": "Trash/Recycling",
    "request_reason": "MIssed Recycling Pick-Up",
    "date_created": "2025-04-18T08:52:00.000",
    "date_modified": "2025-04-18T08:52:02.000",
    "request_status": "Pending",
    "responsible_agency": "Department of Sanitation",
    "final_address": "4624 Lafon Dr",
    "address_councildis": "E",
    "status": "Assigned to Contractor",
    "contractor": "Waste Pro",
    "rowid": "1184961",
    "final_x": "3701136.33226",
    "final_y": "553552.137239",
    "longitude": "-90.00525994374044",
    "latitude": "30.01546514284082",
    "geocoded_column": {
      "latitude": "30.01546514284082",
      "longitude": "-90.00525994374044"
    }
  },
  {
    "service_request": "2025-1184960",
    "request_type": "Trash/Recycling",
    "request_reason": "Request a Large Item Pick Up",
    "date_created": "2025-04-18T08:49:43.000",
    "date_modified": "2025-04-18T08:49:45.000",
    "request_status": "Pending",
    "responsible_agency": "Department of Sanitation",
    "final_address": "1839 Lauradale drive",
    "status": "Assigned to Contractor",
    "rowid": "1184960",
    "longitude": "0.0",
    "latitude": "0.0",
    "geocoded_column": {
      "latitude": "0.0",
      "longitude": "0.0"
    }
  },
  {
    "service_request": "2025-1184959",
    "request_type": "Abandoned Vehicles",
    "request_reason": "Abandoned/Junk Vehicles",
    "date_created": "2025-04-18T08:41:40.000",
    "date_modified": "2025-04-18T08:41:41.000",
    "request_status": "Pending",
    "responsible_agency": "Department of Public Works",
    "final_address": "2117 Toledano St",
    "address_councildis": "B",
    "status": "Pending",
    "rowid": "1184959",
    "final_x": "3673818.1364",
    "final_y": "523505.267387",
    "longitude": "-90.09260095551818",
    "latitude": "29.93368880624505",
    "geocoded_column": {
      "latitude": "29.93368880624505",
      "longitude": "-90.09260095551818"
    }
  },
  {
    "service_request": "2025-1184957",
    "request_type": "Trash/Recycling",
    "request_reason": "Missed Trash Pick-Up",
    "date_created": "2025-04-18T08:01:24.000",
    "date_modified": "2025-04-18T08:39:27.000",
    "case_close_date": "2025-04-18T03:39:26.000",
    "request_status": "Closed",
    "responsible_agency": "Department of Sanitation",
    "final_address": "2431 Gallier St",
    "address_councildis": "D",
    "status": "Invalid Request",
    "contractor": "IV Waste",
    "contractor_action": "Invalid",
    "rowid": "1184957",
    "final_x": "3691781.7974",
    "final_y": "540772.996171",
    "longitude": "-90.03527324377274",
    "latitude": "29.98062197428384",
    "geocoded_column": {
      "latitude": "29.98062197428384",
      "longitude": "-90.03527324377274"
    }
  },
  {
    "service_request": "2025-1184956",
    "request_type": "Trash/Recycling",
    "request_reason": "Request a Large Item Pick Up",
    "date_created": "2025-04-18T07:38:56.000",
    "date_modified": "2025-04-18T07:38:58.000",
    "request_status": "Pending",
    "responsible_agency": "Department of Sanitation",
    "final_address": "1866 Carnot St",
    "address_councildis": "D",
    "status": "Assigned to Contractor",
    "contractor": "IV Waste",
    "rowid": "1184956",
    "final_x": "3681529.68719",
    "final_y": "549700.528084",
    "longitude": "-90.06734230828614",
    "latitude": "30.005484887972724",
    "geocoded_column": {
      "latitude": "30.005484887972724",
      "longitude": "-90.06734230828614"
    }
  },
  {
    "service_request": "2025-1184955",
    "request_type": "Abandoned Vehicles",
    "request_reason": "Abandoned/Junk Vehicles",
    "date_created": "2025-04-18T06:35:16.000",
    "date_modified": "2025-04-18T06:35:18.000",
    "request_status": "Pending",
    "responsible_agency": "Department of Public Works",
    "final_address": "913 Fats Domino Ave",
    "address_councildis": "E",
    "status": "Pending",
    "rowid": "1184955",
    "final_x": "3697900.68586",
    "final_y": "533087.613188",
    "longitude": "-90.01622626170504",
    "latitude": "29.95929791007268",
    "geocoded_column": {
      "latitude": "29.95929791007268",
      "longitude": "-90.01622626170504"
    }
  },
  {
    "service_request": "2025-1184954",
    "request_type": "Trash/Recycling",
    "request_reason": "Order Recycling Cart",
    "date_created": "2025-04-18T06:08:57.000",
    "date_modified": "2025-04-18T06:08:59.000",
    "request_status": "Pending",
    "responsible_agency": "Department of Sanitation",
    "final_address": "4506 Canal St",
    "address_councildis": "A",
    "status": "Pending",
    "rowid": "1184954",
    "final_x": "3669569.69018",
    "final_y": "539369.641418",
    "longitude": "-90.10547644697304",
    "latitude": "29.97743641860385",
    "geocoded_column": {
      "latitude": "29.97743641860385",
      "longitude": "-90.10547644697304"
    }
  },
  {
    "service_request": "2025-1184953",
    "request_type": "Street and Traffic Signs",
    "request_reason": "Traffic or Parking Sign Damaged or Missing",
    "date_created": "2025-04-18T05:44:21.000",
    "date_modified": "2025-04-18T05:44:23.000",
    "request_status": "Pending",
    "responsible_agency": "Department of Public Works",
    "final_address": "100 BLK Broadway St",
    "address_councildis": "A",
    "status": "Pending",
    "rowid": "1184953",
    "final_x": "3660988.30397",
    "final_y": "521775.838454",
    "longitude": "-90.1331615009617",
    "latitude": "29.92930917745673",
    "geocoded_column": {
      "latitude": "29.92930917745673",
      "longitude": "-90.1331615009617"
    }
  },
  {
    "service_request": "2025-1184952",
    "request_type": "Trash/Recycling",
    "request_reason": "Request a Large Item Pick Up",
    "date_created": "2025-04-18T02:32:17.000",
    "date_modified": "2025-04-18T02:32:28.000",
    "request_status": "Pending",
    "responsible_agency": "Department of Sanitation",
    "final_address": "208 Chartres St",
    "address_councildis": "C",
    "status": "Assigned to Contractor",
    "contractor": "IV Waste",
    "rowid": "1184952",
    "final_x": "3681800.4758",
    "final_y": "530837.645698",
    "longitude": "-90.0671453372047",
    "latitude": "29.95361031318125",
    "geocoded_column": {
      "latitude": "29.95361031318125",
      "longitude": "-90.0671453372047"
    }
  },
  {
    "service_request": "2025-1184950",
    "request_type": "Trash/Recycling",
    "request_reason": "Illegal Dumping",
    "date_created": "2025-04-17T22:40:43.000",
    "date_modified": "2025-04-17T22:40:45.000",
    "request_status": "Pending",
    "responsible_agency": "Department of Sanitation",
    "final_address": "13860 Lincoln Beach Blvd",
    "address_councildis": "E",
    "status": "Pending",
    "rowid": "1184950",
    "final_x": "3717237.21656",
    "final_y": "572692.990633",
    "longitude": "-89.95366102155593",
    "latitude": "30.06757175932031",
    "geocoded_column": {
      "latitude": "30.06757175932031",
      "longitude": "-89.95366102155593"
    }
  },
  {
    "service_request": "2025-1184949",
    "request_type": "Trash/Recycling",
    "request_reason": "Illegal Dumping",
    "date_created": "2025-04-17T22:36:01.000",
    "date_modified": "2025-04-17T22:36:03.000",
    "request_status": "Pending",
    "responsible_agency": "Department of Sanitation",
    "final_address": "11796 Curran Rd",
    "address_councildis": "E",
    "status": "Pending",
    "rowid": "1184949",
    "final_x": "3712379.2572",
    "final_y": "567321.016548",
    "longitude": "-89.9692199607539",
    "latitude": "30.052960975515497",
    "geocoded_column": {
      "latitude": "30.052960975515497",
      "longitude": "-89.9692199607539"
    }
  },
  {
    "service_request": "2025-1184948",
    "request_type": "Trash/Recycling",
    "request_reason": "Illegal Dumping",
    "date_created": "2025-04-17T22:30:26.000",
    "date_modified": "2025-04-17T22:30:28.000",
    "request_status": "Pending",
    "responsible_agency": "Department of Sanitation",
    "final_address": "11884 Curran Rd",
    "address_councildis": "E",
    "status": "Pending",
    "rowid": "1184948",
    "final_x": "3712718.40651",
    "final_y": "567491.372388",
    "longitude": "-89.96814159854773",
    "latitude": "30.053418278575325",
    "geocoded_column": {
      "latitude": "30.053418278575325",
      "longitude": "-89.96814159854773"
    }
  },
  {
    "service_request": "2025-1184947",
    "request_type": "Streetlights",
    "request_reason": "Streetlight Outage/Malfunction",
    "date_created": "2025-04-17T21:58:12.000",
    "date_modified": "2025-04-17T21:58:14.000",
    "request_status": "Pending",
    "responsible_agency": "Department of Public Works",
    "final_address": "7420 Kenyon Rd",
    "address_councildis": "E",
    "status": "Pending",
    "contractor": "Legacy Professional Services",
    "rowid": "1184947",
    "final_x": "3704418.40164",
    "final_y": "561738.092831",
    "longitude": "-89.99458802101672",
    "latitude": "30.037868337035192",
    "geocoded_column": {
      "latitude": "30.037868337035192",
      "longitude": "-89.99458802101672"
    }
  },
  {
    "service_request": "2025-1184946",
    "request_type": "Trash/Recycling",
    "request_reason": "Order Second Trash Cart",
    "date_created": "2025-04-17T21:26:30.000",
    "date_modified": "2025-04-17T21:26:32.000",
    "request_status": "Pending",
    "responsible_agency": "Department of Sanitation",
    "final_address": "5470 Bullard Ave",
    "address_councildis": "E",
    "status": "Assigned to Contractor",
    "contractor": "Waste Pro",
    "rowid": "1184946",
    "final_x": "3717493.4709",
    "final_y": "561334.16611",
    "longitude": "-89.95328342963884",
    "latitude": "30.036331180004076",
    "geocoded_column": {
      "latitude": "30.036331180004076",
      "longitude": "-89.95328342963884"
    }
  },
  {
    "service_request": "2025-1184945",
    "request_type": "Trash/Recycling",
    "request_reason": "Illegal Dumping",
    "date_created": "2025-04-17T21:24:03.000",
    "date_modified": "2025-04-17T21:24:05.000",
    "request_status": "Pending",
    "responsible_agency": "Department of Sanitation",
    "final_address": "11000 BLK Lincoln Beach Blvd",
    "address_councildis": "E",
    "status": "Pending",
    "rowid": "1184945",
    "final_x": "3709779.29366",
    "final_y": "567211.43984",
    "longitude": "-89.97744175454453",
    "latitude": "30.052744534546296",
    "geocoded_column": {
      "latitude": "30.052744534546296",
      "longitude": "-89.97744175454453"
    }
  },
  {
    "service_request": "2025-1184944",
    "request_type": "Trash/Recycling",
    "request_reason": "Illegal Dumping",
    "date_created": "2025-04-17T21:07:44.000",
    "date_modified": "2025-04-17T21:07:45.000",
    "request_status": "Pending",
    "responsible_agency": "Department of Sanitation",
    "final_address": "7697 Stonewood St",
    "address_councildis": "E",
    "status": "Pending",
    "rowid": "1184944",
    "final_x": "3719156.36927",
    "final_y": "572742.039849",
    "longitude": "-89.94759241697521",
    "latitude": "30.067642946663593",
    "geocoded_column": {
      "latitude": "30.067642946663593",
      "longitude": "-89.94759241697521"
    }
  },
  {
    "service_request": "2025-1184943",
    "request_type": "Roads and Streets",
    "request_reason": "Abandoned Service Cut",
    "date_created": "2025-04-17T20:51:45.000",
    "date_modified": "2025-04-18T06:26:42.000",
    "case_close_date": "2025-04-18T01:26:40.000",
    "request_status": "Closed",
    "responsible_agency": "Department of Public Works",
    "final_address": "4438 Elba St",
    "address_councildis": "B",
    "status": "Referred to External Agency",
    "rowid": "1184943",
    "final_x": "3669550.25198",
    "final_y": "530490.593922",
    "longitude": "-90.10583825371941",
    "latitude": "29.95302256762158",
    "geocoded_column": {
      "latitude": "29.95302256762158",
      "longitude": "-90.10583825371941"
    }
  },