[
  {
    "service_request": "2025-1223679",
    "request_type": "Parks & Parkways",
    "request_reason": "Request Tree Service (Right of Way/Public Property)",
    "date_created": "2025-09-03T23:41:49.000",
    "date_modified": "2025-09-03T23:41:51.000",
    "request_status": "Pending",
    "responsible_agency": "Department of Parks & Parkway",
    "final_address": "3400 Touro St",
    "address_councildis": "D",
    "status": "Pending",
    "rowid": "1223679",
    "final_x": "3683473.27362",
    "final_y": "545123.721295",
    "longitude": "-90.06136260194431",
    "latitude": "29.992841120388324",
    "geocoded_column": {
      "latitude": "29.992841120388324",
      "longitude": "-90.06136260194431"
    }
  },
  {
    "service_request": "2025-1223678",
    "request_type": "Trash/Recycling",
    "request_reason": "Repair Trash Cart",
    "date_created": "2025-09-03T23:26:57.000",
    "date_modified": "2025-09-03T23:27:00.000",
    "request_status": "Pending",
    "responsible_agency": "Department of Sanitation",
    "final_address": "4835 Corinne St",
    "address_councildis": "E",
    "status": "Assigned to Contractor",
    "contractor": "Waste Pro",
    "rowid": "1223678",
    "final_x": "3715073.19992",
    "final_y": "557236.347419",
    "longitude": "-89.96108696889746",
    "latitude": "30.025143744790675",
    "geocoded_column": {
      "latitude": "30.025143744790675",
      "longitude": "-89.96108696889746"
    }
  },
  {
    "service_request": "2025-1223677",
    "request_type": "Streetlights",
    "request_reason": "Streetlight Outage/Malfunction",
    "date_created": "2025-09-03T22:05:45.000",
    "date_modified": "2025-09-03T22:05:48.000",
    "request_status": "Pending",
    "responsible_agency": "Department of Public Works",
    "final_address": "1029 Esplanade Ave Unit 10",
    "address_councildis": "C",
    "status": "Pending",
    "rowid": "1223677",
    "final_x": "3683072.54831",
    "final_y": "535383.101126",
    "longitude": "-90.06296954699891",
    "latitude": "29.966070048026808",
    "geocoded_column": {
      "latitude": "29.966070048026808",
      "longitude": "-90.06296954699891"
    }
  },
  {
    "service_request": "2025-1223676",
    "request_type": "Streetlights",
    "request_reason": "Streetlight Outage/Malfunction",
    "date_created": "2025-09-03T21:52:41.000",
    "date_modified": "2025-09-03T21:52:42.000",
    "request_status": "Pending",
    "responsible_agency": "Department of Public Works",
    "final_address": "5004 Warrington Dr",
    "address_councildis": "D",
    "status": "Pending",
    "rowid": "1223676",
    "final_x": "3680970.67381",
    "final_y": "550900.188821",
    "longitude": "-90.06906653790463",
    "latitude": "30.008800494432776",
    "geocoded_column": {
      "latitude": "30.008800494432776",
      "longitude": "-90.06906653790463"
    }
  },
  {
    "service_request": "2025-1223675",
    "request_type": "Trash/Recycling",
    "request_reason": "Missed Trash Pick-Up",
    "date_created": "2025-09-03T21:47:39.000",
    "date_modified": "2025-09-03T21:47:41.000",
    "request_status": "Pending",
    "responsible_agency": "Department of Sanitation",
    "final_address": "5422 Urquhart St",
    "address_councildis": "E",
    "status": "Assigned to Contractor",
    "contractor": "Waste Pro",
    "rowid": "1223675",
    "final_x": "3697604.11901",
    "final_y": "534609.302022",
    "longitude": "-90.01710754700778",
    "latitude": "29.963491384087735",
    "geocoded_column": {
      "latitude": "29.963491384087735",
      "longitude": "-90.01710754700778"
    }
  },
  {
    "service_request": "2025-1223674",
    "request_type": "Traffic Signals",
    "request_reason": "Traffic Signal Malfunctioning or Damaged",
    "date_created": "2025-09-03T20:19:13.000",
    "date_modified": "2025-09-03T20:19:15.000",
    "request_status": "Pending",
    "responsible_agency": "Department of Public Works",
    "final_address": "1020 N Carrollton Ave",
    "address_councildis": "A",
    "status": "Pending",
    "rowid": "1223674",
    "final_x": "3673817.22766",
    "final_y": "541137.605452",
    "longitude": "-90.0920007903434",
    "latitude": "29.982171878507195",
    "geocoded_column": {
      "latitude": "29.982171878507195",
      "longitude": "-90.0920007903434"
    }
  },
  {
    "service_request": "2025-1223672",
    "request_type": "Trash/Recycling",
    "request_reason": "Order Recycling Cart",
    "date_created": "2025-09-03T19:35:17.000",
    "date_modified": "2025-09-03T19:35:18.000",
    "request_status": "Pending",
    "responsible_agency": "Department of Sanitation",
    "final_address": "4877 Cardenas Dr",
    "address_councildis": "E",
    "status": "Pending",
    "rowid": "1223672",
    "final_x": "3713678.60088",
    "final_y": "557105.752602",
    "longitude": "-89.96549856401236",
    "latitude": "30.024830510035788",
    "geocoded_column": {
      "latitude": "30.024830510035788",
      "longitude": "-89.96549856401236"
    }
  },
  {
    "service_request": "2025-1223671",
    "request_type": "Roads and Streets",
    "request_reason": "Debris in Driving Lanes",
    "date_created": "2025-09-03T19:21:39.000",
    "date_modified": "2025-09-03T19:21:40.000",
    "request_status": "Pending",
    "responsible_agency": "Department of Public Works",
    "final_address": "4518 Constance St",
    "address_councildis": "B",
    "status": "Pending",
    "rowid": "1223671",
    "final_x": "3670533.29799",
    "final_y": "518315.96223",
    "longitude": "-90.10314693649488",
    "latitude": "29.91951726777341",
    "geocoded_column": {
      "latitude": "29.91951726777341",
      "longitude": "-90.10314693649488"
    }
  },
  {
    "service_request": "2025-1223670",
    "request_type": "Trash/Recycling",
    "request_reason": "Order Recycling Cart",
    "date_created": "2025-09-03T19:19:14.000",
    "date_modified": "2025-09-03T19:19:17.000",
    "request_status": "Pending",
    "responsible_agency": "Department of Sanitation",
    "final_address": "2401 Jefferson Ave",
    "address_councildis": "B",
    "status": "Pending",
    "rowid": "1223670",
    "final_x": "3668088.23521",
    "final_y": "524360.891132",
    "longitude": "-90.11066120456651",
    "latitude": "29.936210855020892",
    "geocoded_column": {
      "latitude": "29.936210855020892",
      "longitude": "-90.11066120456651"
    }
  },
  {
    "service_request": "2025-1223669",
    "request_type": "Trash/Recycling",
    "request_reason": "Order Second Trash Cart",
    "date_created": "2025-09-03T18:54:00.000",
    "date_modified": "2025-09-03T18:54:02.000",
    "request_status": "Pending",
    "responsible_agency": "Department of Sanitation",
    "final_address": "4901 Lurline St",
    "address_councildis": "E",
    "status": "Assigned to Contractor",
    "contractor": "Waste Pro",
    "rowid": "1223669",
    "final_x": "3711945.88126",
    "final_y": "557051.916186",
    "longitude": "-89.97097563861615",
    "latitude": "30.02473924094829",
    "geocoded_column": {
      "latitude": "30.02473924094829",
      "longitude": "-89.97097563861615"
    }
  },
  {
    "service_request": "2025-1223668",
    "request_type": "Property Maintenance",
    "request_reason": "Property Maintenance",
    "date_created": "2025-09-03T18:52:04.000",
    "date_modified": "2025-09-03T18:52:06.000",
    "request_status": "Pending",
    "responsible_agency": "Department of Code Enforcement",
    "final_address": "341 Wagner St",
    "address_councildis": "C",
    "status": "Pending",
    "rowid": "1223668",
    "final_x": "3690557.42588",
    "final_y": "530314.171522",
    "longitude": "-90.03951332435363",
    "latitude": "29.951901958598295",
    "geocoded_column": {
      "latitude": "29.951901958598295",
      "longitude": "-90.03951332435363"
    }
  },
  {
    "service_request": "2025-1223667",
    "request_type": "Trash/Recycling",
    "request_reason": "Request a Large Item Pick Up",
    "date_created": "2025-09-03T18:52:03.000",
    "date_modified": "2025-09-03T18:52:05.000",
    "request_status": "Pending",
    "responsible_agency": "Department of Sanitation",
    "final_address": "2911 Wabash St",
    "address_councildis": "C",
    "status": "Assigned to Contractor",
    "contractor": "Richards Disposal",
    "rowid": "1223667",
    "final_x": "3694136.76214",
    "final_y": "520872.174329",
    "longitude": "-90.02855101568493",
    "latitude": "29.925828094888413",
    "geocoded_column": {
      "latitude": "29.925828094888413",
      "longitude": "-90.02855101568493"
    }
  },
  {
    "service_request": "2025-1223666",
    "request_type": "Abandoned Vehicles",
    "request_reason": "Abandoned/Junk Vehicles",
    "date_created": "2025-09-03T18:49:43.000",
    "date_modified": "2025-09-03T18:49:45.000",
    "request_status": "Pending",
    "responsible_agency": "Department of Public Works",
    "final_address": "1321 Bartholomew St",
    "address_councildis": "D",
    "status": "Pending",
    "rowid": "1223666",
    "final_x": "3692070.79504",
    "final_y": "536205.545479",
    "longitude": "-90.03452398542987",
    "latitude": "29.96805410301657",
    "geocoded_column": {
      "latitude": "29.96805410301657",
      "longitude": "-90.03452398542987"
    }
  },
  {
    "service_request": "2025-1223665",
    "request_type": "Property Maintenance",
    "request_reason": "Property Maintenance",
    "date_created": "2025-09-03T18:46:45.000",
    "date_modified": "2025-09-03T18:46:47.000",
    "request_status": "Pending",
    "responsible_agency": "Department of Code Enforcement",
    "final_address": "1321 Bartholomew St",
    "address_councildis": "D",
    "status": "Pending",
    "rowid": "1223665",
    "final_x": "3692070.79504",
    "final_y": "536205.545479",
    "longitude": "-90.03452398542987",
    "latitude": "29.96805410301657",
    "geocoded_column": {
      "latitude": "29.96805410301657",
      "longitude": "-90.03452398542987"
    }
  },
  {
    "service_request": "2025-1223664",
    "request_type": "Trash/Recycling",
    "request_reason": "Replace Trash Cart",
    "date_created": "2025-09-03T18:43:22.000",
    "date_modified": "2025-09-03T18:43:24.000",
    "request_status": "Pending",
    "responsible_agency": "Department of Sanitation",
    "final_address": "3031 St Peter St",
    "address_councildis": "A",
    "status": "Assigned to Contractor",
    "contractor": "IV Waste",
    "rowid": "1223664",
    "final_x": "3675477.8571",
    "final_y": "537805.816265",
    "longitude": "-90.08687018782751",
    "latitude": "29.97296102875179",
    "geocoded_column": {
      "latitude": "29.97296102875179",
      "longitude": "-90.08687018782751"
    }
  },
  {
    "service_request": "2025-1223663",
    "request_type": "Trash/Recycling",
    "request_reason": "Repair Recycling Cart",
    "date_created": "2025-09-03T18:32:17.000",
    "date_modified": "2025-09-03T18:32:19.000",
    "request_status": "Pending",
    "responsible_agency": "Department of Sanitation",
    "final_address": "1710 Pressburg Dr",
    "address_councildis": "D",
    "status": "Pending",
    "rowid": "1223663",
    "final_x": "3679751.56002",
    "final_y": "554063.544536",
    "longitude": "-90.07280817324944",
    "latitude": "30.01753550970249",
    "geocoded_column": {
      "latitude": "30.01753550970249",
      "longitude": "-90.07280817324944"
    }
  },
  {
    "service_request": "2025-1223662",
    "request_type": "Trash/Recycling",
    "request_reason": "Replace Trash Cart",
    "date_created": "2025-09-03T18:32:03.000",
    "date_modified": "2025-09-03T18:32:05.000",
    "request_status": "Pending",
    "responsible_agency": "Department of Sanitation",
    "final_address": "10 Finch St",
    "address_councildis": "D",
    "status": "Assigned to Contractor",
    "contractor": "IV Waste",
    "rowid": "1223662",
    "final_x": "3672276.16852",
    "final_y": "555360.845081",
    "longitude": "-90.09638325158463",
    "latitude": "30.02132662257969",
    "geocoded_column": {
      "latitude": "30.02132662257969",
      "longitude": "-90.09638325158463"
    }
  },
  {
    "service_request": "2025-1223661",
    "request_type": "Safety & Permits",
    "request_reason": "Licenses & Permits",
    "date_created": "2025-09-03T18:24:17.000",
    "date_modified": "2025-09-03T18:24:19.000",
    "request_status": "Pending",
    "responsible_agency": "Safety and Permits",
    "final_address": "5247 Laurel St",
    "address_councildis": "B",
    "status": "Pending",
    "rowid": "1223661",
    "final_x": "3667598.1817",
    "final_y": "517920.807606",
    "longitude": "-90.11242495898337",
    "latitude": "29.918517037560097",
    "geocoded_column": {
      "latitude": "29.918517037560097",
      "longitude": "-90.11242495898337"
    }
  },
  {
    "service_request": "2025-1223660",
    "request_type": "Property Maintenance",
    "request_reason": "Property Maintenance",
    "date_created": "2025-09-03T18:04:46.000",
    "date_modified": "2025-09-03T18:04:48.000",
    "request_status": "Pending",
    "responsible_agency": "Department of Code Enforcement",
    "final_address": "2235 Iberville St",
    "address_councildis": "B",
    "status": "Pending",
    "rowid": "1223660",
    "final_x": "3677039.51656",
    "final_y": "534464.853829",
    "longitude": "-90.08205338655006",
    "latitude": "29.96372771565288",
    "geocoded_column": {
      "latitude": "29.96372771565288",
      "longitude": "-90.08205338655006"
    }
  },
  {
    "service_request": "2025-1223659",
    "request_type": "Streetlights",
    "request_reason": "Streetlight Outage/Malfunction",
    "date_created": "2025-09-03T17:58:57.000",
    "date_modified": "2025-09-03T17:58:59.000",
    "request_status": "Pending",
    "responsible_agency": "Department of Public Works",
    "final_address": "2805 Clara St",
    "address_councildis": "B",
    "status": "Pending",
    "rowid": "1223659",
    "final_x": "3673470.30779",
    "final_y": "526077.37715",
    "longitude": "-90.09361118173695",
    "latitude": "29.940771622288594",
    "geocoded_column": {
      "latitude": "29.940771622288594",
      "longitude": "-90.09361118173695"
    }
  },
  {
    "service_request": "2025-1223657",
    "request_type": "Abandoned Vehicles",
    "request_reason": "Abandoned/Junk Vehicles",
    "date_created": "2025-09-03T17:31:23.000",
    "date_modified": "2025-09-03T17:31:25.000",
    "request_status": "Pending",
    "responsible_agency": "Department of Public Works",
    "final_address": "1020 Sixth St",
    "address_councildis": "B",
    "status": "Pending",
    "rowid": "1223657",
    "final_x": "3676687.29243",
    "final_y": "520344.496568",
    "longitude": "-90.08365199306266",
    "latitude": "29.924911977132517",
    "geocoded_column": {
      "latitude": "29.924911977132517",
      "longitude": "-90.08365199306266"
    }
  },
  {
    "service_request": "2025-1223656",
    "request_type": "Trash/Recycling",
    "request_reason": "Request a Large Item Pick Up",
    "date_created": "2025-09-03T17:21:16.000",
    "date_modified": "2025-09-03T17:21:17.000",
    "request_status": "Pending",
    "responsible_agency": "Department of Sanitation",
    "final_address": "6746 Deanne St",
    "address_councildis": "D",
    "status": "Assigned to Contractor",
    "contractor": "Waste Pro",
    "rowid": "1223656",
    "final_x": "3695858.9343",
    "final_y": "555542.895705",
    "longitude": "-90.02186200943933",
    "latitude": "30.021106109156342",
    "geocoded_column": {
      "latitude": "30.021106109156342",
      "longitude": "-90.02186200943933"
    }
  },
  {
    "service_request": "2025-1223655",
    "request_type": "Street and Traffic Signs",
    "request_reason": "Street Name Sign Damaged or Missing",
    "date_created": "2025-09-03T17:21:13.000",
    "date_modified": "2025-09-03T17:21:14.000",
    "request_status": "Pending",
    "responsible_agency": "Department of Public Works",
    "final_address": "4601 Freret St",
    "address_councildis": "B",
    "status": "Pending",
    "rowid": "1223655",
    "final_x": "3669747.99201",
    "final_y": "524002.912828",
    "longitude": "-90.10543339887533",
    "latitude": "29.935177727566128",
    "geocoded_column": {
      "latitude": "29.935177727566128",
      "longitude": "-90.10543339887533"
    }
  },
  {
    "service_request": "2025-1223654",
    "request_type": "Trash/Recycling",
    "request_reason": "Return Trash Cart",
    "date_created": "2025-09-03T17:13:17.000",
    "date_modified": "2025-09-03T17:13:19.000",
    "request_status": "Pending",
    "responsible_agency": "Department of Sanitation",
    "final_address": "7532 Dominican St",
    "address_councildis": "A",
    "status": "Assigned to Contractor",
    "contractor": "IV Waste",
    "rowid": "1223654",
    "final_x": "3661442.69158",
    "final_y": "524997.411325",
    "longitude": "-90.13162041926375",
    "latitude": "29.938154394956456",
    "geocoded_column": {
      "latitude": "29.938154394956456",
      "longitude": "-90.13162041926375"
    }
  },
  {
    "service_request": "2025-1223653",
    "request_type": "Trash/Recycling",
    "request_reason": "Request a Large Item Pick Up",
    "date_created": "2025-09-03T16:58:51.000",
    "date_modified": "2025-09-03T16:58:54.000",
    "request_status": "Pending",
    "responsible_agency": "Department of Sanitation",
    "final_address": "7911 Unity Dr",
    "address_councildis": "E",
    "status": "Assigned to Contractor",
    "contractor": "Waste Pro",
    "rowid": "1223653",
    "final_x": "3711604.71032",
    "final_y": "567806.83114",
    "longitude": "-89.97164981914547",
    "latitude": "30.054322099134065",
    "geocoded_column": {
      "latitude": "30.054322099134065",
      "longitude": "-89.97164981914547"
    }
  },
  {
    "service_request": "2025-1223652",
    "request_type": "Trash/Recycling",
    "request_reason": "Repair Trash Cart",
    "date_created": "2025-09-03T16:51:09.000",
    "date_modified": "2025-09-03T16:51:10.000",
    "request_status": "Pending",
    "responsible_agency": "Department of Sanitation",
    "final_address": "4826 Citrus Dr",
    "address_councildis": "E",
    "status": "Assigned to Contractor",
    "contractor": "Waste Pro",
    "rowid": "1223652",
    "final_x": "3710643.42897",
    "final_y": "556456.240282",
    "longitude": "-89.97511343976889",
    "latitude": "30.02314388143371",
    "geocoded_column": {
      "latitude": "30.02314388143371",
      "longitude": "-89.97511343976889"
    }
  },
  {
    "service_request": "2025-1223651",
    "request_type": "Trash/Recycling",
    "request_reason": "Order Trash Cart",
    "date_created": "2025-09-03T16:50:23.000",
    "date_modified": "2025-09-03T16:50:26.000",
    "request_status": "Pending",
    "responsible_agency": "Department of Sanitation",
    "final_address": "5501 Warrington Dr",
    "address_councildis": "D",
    "status": "Assigned to Contractor",
    "contractor": "IV Waste",
    "rowid": "1223651",
    "final_x": "3680955.69147",
    "final_y": "552866.032151",
    "longitude": "-90.06904534442609",
    "latitude": "30.014206307641675",
    "geocoded_column": {
      "latitude": "30.014206307641675",
      "longitude": "-90.06904534442609"
    }
  },
  {
    "service_request": "2025-1223650",
    "request_type": "Abandoned Vehicles",
    "request_reason": "Abandoned/Junk Vehicles",
    "date_created": "2025-09-03T16:48:56.000",
    "date_modified": "2025-09-03T16:48:58.000",
    "request_status": "Pending",
    "responsible_agency": "Department of Public Works",
    "final_address": "3900 Tulane Ave",
    "address_councildis": "B",
    "status": "Pending",
    "rowid": "1223650",
    "final_x": "3670049.17703",
    "final_y": "535735.410695",
    "longitude": "-90.10408519943331",
    "latitude": "29.967429369459357",
    "geocoded_column": {
      "latitude": "29.967429369459357",
      "longitude": "-90.10408519943331"
    }
  },
  {
    "service_request": "2025-1223649",
    "request_type": "Trash/Recycling",
    "request_reason": "Request a Large Item Pick Up",
    "date_created": "2025-09-03T16:46:19.000",
    "date_modified": "2025-09-03T16:46:21.000",
    "request_status": "Pending",
    "responsible_agency": "Department of Sanitation",
    "final_address": "3236 Sabine St",
    "address_councildis": "C",
    "status": "Assigned to Contractor",
    "contractor": "Richards Disposal",
    "rowid": "1223649",
    "final_x": "3695079.22742",
    "final_y": "517872.247158",
    "longitude": "-90.02568402005211",
    "latitude": "29.917549766596093",
    "geocoded_column": {
      "latitude": "29.917549766596093",
      "longitude": "-90.02568402005211"
    }
  },
  {
    "service_request": "2025-1223648",
    "request_type": "Trash/Recycling",
    "request_reason": "Request a Large Item Pick Up",
    "date_created": "2025-09-03T16:43:58.000",
    "date_modified": "2025-09-03T16:44:00.000",
    "request_status": "Pending",
    "responsible_agency": "Department of Sanitation",
    "final_address": "6737 Deanne St",
    "address_councildis": "D",
    "status": "Assigned to Contractor",
    "contractor": "Waste Pro",
    "rowid": "1223648",
    "final_x": "3695989.65008",
    "final_y": "555561.341145",
    "longitude": "-90.02144831939718",
    "latitude": "30.021152712746023",
    "geocoded_column": {
      "latitude": "30.021152712746023",
      "longitude": "-90.02144831939718"
    }
  },
  {
    "service_request": "2025-1223647",
    "request_type": "Trash/Recycling",
    "request_reason": "Request a Large Item Pick Up",
    "date_created": "2025-09-03T16:43:40.000",
    "date_modified": "2025-09-03T16:43:42.000",
    "request_status": "Pending",
    "responsible_agency": "Department of Sanitation",
    "final_address": "4920 Robin Hood Dr",
    "address_councildis": "E",
    "status": "Assigned to Contractor",
    "contractor": "Waste Pro",
    "rowid": "1223647",
    "final_x": "3717336.41388",
    "final_y": "557781.176987",
    "longitude": "-89.95391492463494",
    "latitude": "30.02656708843679",
    "geocoded_column": {
      "latitude": "30.02656708843679",
      "longitude": "-89.95391492463494"
    }
  },
  {
    "service_request": "2025-1223646",
    "request_type": "Trash/Recycling",
    "request_reason": "Request a Large Item Pick Up",
    "date_created": "2025-09-03T16:43:18.000",
    "date_modified": "2025-09-03T16:43:21.000",
    "request_status": "Pending",
    "responsible_agency": "Department of Sanitation",
    "final_address": "4506 Pitt St",
    "address_councildis": "B",
    "status": "Assigned to Contractor",
    "contractor": "IV Waste",
    "rowid": "1223646",
    "final_x": "3670405.21223",
    "final_y": "520475.540472",
    "longitude": "-90.10347807519366",
    "latitude": "29.925459202326614",
    "geocoded_column": {
      "latitude": "29.925459202326614",
      "longitude": "-90.10347807519366"
    }
  },
  {
    "service_request": "2025-1223645",
    "request_type": "Property Maintenance",
    "request_reason": "Property Maintenance",
    "date_created": "2025-09-03T16:40:59.000",
    "date_modified": "2025-09-03T16:41:01.000",
    "request_status": "Pending",
    "responsible_agency": "Department of Code Enforcement",
    "final_address": "10936 S Hardy St",
    "address_councildis": "E",
    "status": "Pending",
    "rowid": "1223645",
    "final_x": "3713081.21163",
    "final_y": "561605.541407",
    "longitude": "-89.96721667628658",
    "latitude": "30.03722273335263",
    "geocoded_column": {
      "latitude": "30.03722273335263",
      "longitude": "-89.96721667628658"
    }
  },
  {
    "service_request": "2025-1223644",
    "request_type": "Trash/Recycling",
    "request_reason": "Request a Large Item Pick Up",
    "date_created": "2025-09-03T16:39:39.000",
    "date_modified": "2025-09-03T16:39:41.000",
    "request_status": "Pending",
    "responsible_agency": "Department of Sanitation",
    "final_address": "7610 Rochon Ave",
    "address_councildis": "E",
    "status": "Assigned to Contractor",
    "contractor": "Waste Pro",
    "rowid": "1223644",
    "final_x": "3718614.62655",
    "final_y": "571641.614696",
    "longitude": "-89.9493469647184",
    "latitude": "30.06463524211883",
    "geocoded_column": {
      "latitude": "30.06463524211883",
      "longitude": "-89.9493469647184"
    }
  },
  {
    "service_request": "2025-1223643",
    "request_type": "Trash/Recycling",
    "request_reason": "Request a Large Item Pick Up",
    "date_created": "2025-09-03T16:37:41.000",
    "date_modified": "2025-09-03T16:37:43.000",
    "request_status": "Pending",
    "responsible_agency": "Department of Sanitation",
    "final_address": "1922 Charbonnet St",
    "address_councildis": "E",
    "status": "Assigned to Contractor",
    "contractor": "Waste Pro",
    "rowid": "1223643",
    "final_x": "3699431.4138",
    "final_y": "536789.51444",
    "longitude": "-90.01125774415719",
    "latitude": "29.969428344188376",
    "geocoded_column": {
      "latitude": "29.969428344188376",
      "longitude": "-90.01125774415719"
    }
  },
  {
    "service_request": "2025-1223642",
    "request_type": "Trash/Recycling",
    "request_reason": "Request a Large Item Pick Up",
    "date_created": "2025-09-03T16:35:54.000",
    "date_modified": "2025-09-03T16:35:56.000",
    "request_status": "Pending",
    "responsible_agency": "Department of Sanitation",
    "final_address": "4762 Dodt Ave",
    "address_councildis": "E",
    "status": "Assigned to Contractor",
    "contractor": "Waste Pro",
    "rowid": "1223642",
    "final_x": "3705368.76497",
    "final_y": "555529.164825",
    "longitude": "-89.99181438689506",
    "latitude": "30.02076564324505",
    "geocoded_column": {
      "latitude": "30.02076564324505",
      "longitude": "-89.99181438689506"
    }
  },
  {
    "service_request": "2025-1223641",
    "request_type": "Abandoned Vehicles",
    "request_reason": "Abandoned/Junk Vehicles",
    "date_created": "2025-09-03T16:35:29.000",
    "date_modified": "2025-09-03T16:35:30.000",
    "request_status": "Pending",
    "responsible_agency": "Department of Public Works",
    "final_address": "4218 Royal St",
    "address_councildis": "C",
    "status": "Pending",
    "rowid": "1223641",
    "final_x": "3692162.40509",
    "final_y": "533582.963589",
    "longitude": "-90.03432857143237",
    "latitude": "29.960840069333617",
    "geocoded_column": {
      "latitude": "29.960840069333617",
      "longitude": "-90.03432857143237"
    }
  },
  {
    "service_request": "2025-1223640",
    "request_type": "Trash/Recycling",
    "request_reason": "Request a Large Item Pick Up",
    "date_created": "2025-09-03T16:34:08.000",
    "date_modified": "2025-09-03T16:34:10.000",
    "request_status": "Pending",
    "responsible_agency": "Department of Sanitation",
    "final_address": "7702 Arcadia Ln",
    "address_councildis": "E",
    "status": "Assigned to Contractor",
    "contractor": "Waste Pro",
    "rowid": "1223640",
    "final_x": "3712183.91237",
    "final_y": "567308.347492",
    "longitude": "-89.96983786247026",
    "latitude": "30.052932533720462",
    "geocoded_column": {
      "latitude": "30.052932533720462",
      "longitude": "-89.96983786247026"
    }
  },
  {
    "service_request": "2025-1223639",
    "request_type": "Street and Traffic Signs",
    "request_reason": "Crosswalk Signage Damaged or Missing",
    "date_created": "2025-09-03T16:30:07.000",
    "date_modified": "2025-09-03T16:30:09.000",
    "request_status": "Pending",
    "responsible_agency": "Department of Public Works",
    "final_address": "1100 BLK Fern St",
    "address_councildis": "A",
    "status": "Pending",
    "rowid": "1223639",
    "final_x": "3662417.82014",
    "final_y": "527719.723548",
    "longitude": "-90.12845145955328",
    "latitude": "29.945611730604448",
    "geocoded_column": {
      "latitude": "29.945611730604448",
      "longitude": "-90.12845145955328"
    }
  },
  {
    "service_request": "2025-1223638",
    "request_type": "Trash/Recycling",
    "request_reason": "Request a Large Item Pick Up",
    "date_created": "2025-09-03T16:30:04.000",
    "date_modified": "2025-09-03T16:30:06.000",
    "request_status": "Pending",
    "responsible_agency": "Department of Sanitation",
    "final_address": "1625 Frenchmen St",
    "address_councildis": "D",
    "status": "Assigned to Contractor",
    "contractor": "IV Waste",
    "rowid": "1223638",
    "final_x": "3684452.41961",
    "final_y": "538325.284809",
    "longitude": "-90.05850858322077",
    "latitude": "29.974117894342854",
    "geocoded_column": {
      "latitude": "29.974117894342854",
      "longitude": "-90.05850858322077"
    }
  },
  {
    "service_request": "2025-1223637",
    "request_type": "Trash/Recycling",
    "request_reason": "Request a Large Item Pick Up",
    "date_created": "2025-09-03T16:25:26.000",
    "date_modified": "2025-09-03T16:25:28.000",
    "request_status": "Pending",
    "responsible_agency": "Department of Sanitation",
    "final_address": "318 S Genois St",
    "address_councildis": "B",
    "status": "Assigned to Contractor",
    "contractor": "IV Waste",
    "rowid": "1223637",
    "final_x": "3672079.93575",
    "final_y": "536339.375623",
    "longitude": "-90.09765144526803",
    "latitude": "29.969030010096418",
    "geocoded_column": {
      "latitude": "29.969030010096418",
      "longitude": "-90.09765144526803"
    }
  },
  {
    "service_request": "2025-1223636",
    "request_type": "Street and Traffic Signs",
    "request_reason": "Additional Signage Request",
    "date_created": "2025-09-03T16:21:47.000",
    "date_modified": "2025-09-03T16:21:49.000",
    "request_status": "Pending",
    "responsible_agency": "Department of Public Works",
    "final_address": "1126 Frenchmen St",
    "address_councildis": "C",
    "status": "Pending",
    "rowid": "1223636",
    "final_x": "3684524.91004",
    "final_y": "536488.893447",
    "longitude": "-90.0583441765534",
    "latitude": "29.96906623917138",
    "geocoded_column": {
      "latitude": "29.96906623917138",
      "longitude": "-90.0583441765534"
    }
  },
  {
    "service_request": "2025-1223635",
    "request_type": "Trash/Recycling",
    "request_reason": "Request a Large Item Pick Up",
    "date_created": "2025-09-03T16:21:44.000",
    "date_modified": "2025-09-03T16:21:46.000",
    "request_status": "Pending",
    "responsible_agency": "Department of Sanitation",
    "final_address": "519 Hendee St",
    "address_councildis": "C",
    "status": "Assigned to Contractor",
    "contractor": "Richards Disposal",
    "rowid": "1223635",
    "final_x": "3690852.20342",
    "final_y": "529614.845057",
    "longitude": "-90.03860751042099",
    "latitude": "29.949969896822694",
    "geocoded_column": {
      "latitude": "29.949969896822694",
      "longitude": "-90.03860751042099"
    }
  },
  {
    "service_request": "2025-1223634",
    "request_type": "Trash/Recycling",
    "request_reason": "Order Trash Cart",
    "date_created": "2025-09-03T16:16:26.000",
    "date_modified": "2025-09-03T16:16:28.000",
    "request_status": "Pending",
    "responsible_agency": "Department of Sanitation",
    "final_address": "4712 Corinne St",
    "address_councildis": "E",
    "status": "Assigned to Contractor",
    "contractor": "Waste Pro",
    "rowid": "1223634",
    "final_x": "3714972.67967",
    "final_y": "556685.450394",
    "longitude": "-89.96142543553944",
    "latitude": "30.023632306182126",
    "geocoded_column": {
      "latitude": "30.023632306182126",
      "longitude": "-89.96142543553944"
    }
  },
  {
    "service_request": "2025-1223633",
    "request_type": "Streetlights",
    "request_reason": "New Streetlight Request",
    "date_created": "2025-09-03T16:15:19.000",
    "date_modified": "2025-09-03T16:15:22.000",
    "request_status": "Pending",
    "responsible_agency": "Department of Public Works",
    "final_address": "1126 Frenchmen St",
    "address_councildis": "C",
    "status": "Pending",
    "rowid": "1223633",
    "final_x": "3684524.91004",
    "final_y": "536488.893447",
    "longitude": "-90.0583441765534",
    "latitude": "29.96906623917138",
    "geocoded_column": {
      "latitude": "29.96906623917138",
      "longitude": "-90.0583441765534"
    }
  },
  {
    "service_request": "2025-1223632",
    "request_type": "Trash/Recycling",
    "request_reason": "Request a Large Item Pick Up",
    "date_created": "2025-09-03T16:11:03.000",
    "date_modified": "2025-09-03T16:11:06.000",
    "request_status": "Pending",
    "responsible_agency": "Department of Sanitation",
    "final_address": "6223 Wadsworth Dr",
    "address_councildis": "D",
    "status": "Assigned to Contractor",
    "contractor": "IV Waste",
    "rowid": "1223632",
    "final_x": "3681672.4308",
    "final_y": "555924.251097",
    "longitude": "-90.06667399662305",
    "latitude": "30.022593529066913",
    "geocoded_column": {
      "latitude": "30.022593529066913",
      "longitude": "-90.06667399662305"
    }
  },
  {
    "service_request": "2025-1223630",
    "request_type": "Trash/Recycling",
    "request_reason": "Order Recycling Cart",
    "date_created": "2025-09-03T16:07:44.000",
    "date_modified": "2025-09-03T16:07:46.000",
    "request_status": "Pending",
    "responsible_agency": "Department of Sanitation",
    "final_address": "4548 Lafon Dr",
    "address_councildis": "E",
    "status": "Pending",
    "rowid": "1223630",
    "final_x": "3701164.08119",
    "final_y": "553250.127511",
    "longitude": "-90.00518333081756",
    "latitude": "30.01463384656753",
    "geocoded_column": {
      "latitude": "30.01463384656753",
      "longitude": "-90.00518333081756"
    }
  },
  {
    "service_request": "2025-1223629",
    "request_type": "Trash/Recycling",
    "request_reason": "Request a Large Item Pick Up",
    "date_created": "2025-09-03T16:06:17.000",
    "date_modified": "2025-09-03T16:06:18.000",
    "request_status": "Pending",
    "responsible_agency": "Department of Sanitation",
    "final_address": "7911 Dorsett Dr",
    "address_councildis": "E",
    "status": "Assigned to Contractor",
    "contractor": "Waste Pro",
    "rowid": "1223629",
    "final_x": "3712302.44216",
    "final_y": "568220.108197",
    "longitude": "-89.96942892368546",
    "latitude": "30.055435625107748",
    "geocoded_column": {
      "latitude": "30.055435625107748",
      "longitude": "-89.96942892368546"
    }
  },
  {
    "service_request": "2025-1223628",
    "request_type": "Trash/Recycling",
    "request_reason": "Request a Large Item Pick Up",
    "date_created": "2025-09-03T16:05:07.000",
    "date_modified": "2025-09-03T16:05:09.000",
    "request_status": "Pending",
    "responsible_agency": "Department of Sanitation",
    "final_address": "3623 Touro St",
    "address_councildis": "D",
    "status": "Assigned to Contractor",
    "contractor": "IV Waste",
    "rowid": "1223628",
    "final_x": "3683492.17756",
    "final_y": "545980.3828",
    "longitude": "-90.0612728466023",
    "latitude": "29.99519605741199",
    "geocoded_column": {
      "latitude": "29.99519605741199",
      "longitude": "-90.0612728466023"
    }
  },
  {
    "service_request": "2025-1223627",
    "request_type": "Trash/Recycling",
    "request_reason": "Request a Large Item Pick Up",
    "date_created": "2025-09-03T16:04:18.000",
    "date_modified": "2025-09-03T16:04:20.000",
    "request_status": "Pending",
    "responsible_agency": "Department of Sanitation",
    "final_address": "5500 Patio Way",
    "address_councildis": "E",
    "status": "Assigned to Contractor",
    "contractor": "Waste Pro",
    "rowid": "1223627",
    "final_x": "3725314.30643",
    "final_y": "563739.297441",
    "longitude": "-89.92847520493508",
    "latitude": "30.042682981109504",
    "geocoded_column": {
      "latitude": "30.042682981109504",
      "longitude": "-89.92847520493508"
    }
  },
  {
    "service_request": "2025-1223626",
    "request_type": "Trash/Recycling",
    "request_reason": "Order Second Trash Cart",
    "date_created": "2025-09-03T16:00:51.000",
    "date_modified": "2025-09-03T16:00:53.000",
    "request_status": "Pending",
    "responsible_agency": "Department of Sanitation",
    "final_address": "501 Turquoise St",
    "address_councildis": "D",
    "status": "Assigned to Contractor",
    "contractor": "IV Waste",
    "rowid": "1223626",
    "final_x": "3668177.73639",
    "final_y": "555426.614297",
    "longitude": "-90.10933098978091",
    "latitude": "30.02162848033812",
    "geocoded_column": {
      "latitude": "30.02162848033812",
      "longitude": "-90.10933098978091"
    }
  },
  {
    "service_request": "2025-1223625",
    "request_type": "Road Striping",
    "request_reason": "Lane Striping or other Pavement Markings",
    "date_created": "2025-09-03T15:59:07.000",
    "date_modified": "2025-09-03T15:59:10.000",
    "request_status": "Pending",
    "responsible_agency": "Department of Public Works",
    "final_address": "2900 S Claiborne Ave",
    "address_councildis": "B",
    "status": "Pending",
    "rowid": "1223625",
    "final_x": "3672768.75572",
    "final_y": "526286.092734",
    "longitude": "-90.09581899130944",
    "latitude": "29.941366374248226",
    "geocoded_column": {
      "latitude": "29.941366374248226",
      "longitude": "-90.09581899130944"
    }
  },
  {
    "service_request": "2025-1223624",
    "request_type": "Street and Traffic Signs",
    "request_reason": "Traffic or Parking Sign Damaged or Missing",
    "date_created": "2025-09-03T15:55:53.000",
    "date_modified": "2025-09-03T15:55:54.000",
    "request_status": "Pending",
    "responsible_agency": "Department of Public Works",
    "final_address": "WOODLAND DR & BERKLEY DR",
    "address_councildis": "C",
    "status": "Pending",
    "rowid": "1223624",
    "final_x": "3705489.5",
    "final_y": "518109.58",
    "longitude": "-89.99281612760552",
    "latitude": "29.91787157497775",
    "geocoded_column": {
      "latitude": "29.91787157497775",
      "longitude": "-89.99281612760552"
    }
  },
  {
    "service_request": "2025-1223623",
    "request_type": "Trash/Recycling",
    "request_reason": "Request a Large Item Pick Up",
    "date_created": "2025-09-03T15:52:41.000",
    "date_modified": "2025-09-03T15:52:43.000",
    "request_status": "Pending",
    "responsible_agency": "Department of Sanitation",
    "final_address": "7928 Vanderkloot Ave",
    "address_councildis": "E",
    "status": "Assigned to Contractor",
    "contractor": "Waste Pro",
    "rowid": "1223623",
    "final_x": "3705319.08433",
    "final_y": "564032.548129",
    "longitude": "-89.99165676018642",
    "latitude": "30.044148216256335",
    "geocoded_column": {
      "latitude": "30.044148216256335",
      "longitude": "-89.99165676018642"
    }
  },
  {
    "service_request": "2025-1223622",
    "request_type": "Roads and Streets",
    "request_reason": "Pothole",
    "date_created": "2025-09-03T15:49:14.000",
    "date_modified": "2025-09-03T15:49:16.000",
    "request_status": "Pending",
    "responsible_agency": "Department of Public Works",
    "final_address": "5226 Conti St",
    "address_councildis": "A",
    "status": "Pending",
    "rowid": "1223622",
    "final_x": "3668428.6955",
    "final_y": "541800.77422",
    "longitude": "-90.10899805779543",
    "latitude": "29.9841547811201",
    "geocoded_column": {
      "latitude": "29.9841547811201",
      "longitude": "-90.10899805779543"
    }
  },
  {
    "service_request": "2025-1223621",
    "request_type": "Trash/Recycling",
    "request_reason": "Request a Large Item Pick Up",
    "date_created": "2025-09-03T15:48:46.000",
    "date_modified": "2025-09-03T15:48:48.000",
    "request_status": "Pending",
    "responsible_agency": "Department of Sanitation",
    "final_address": "2705 Magnolia St",
    "address_councildis": "B",
    "status": "Assigned to Contractor",
    "contractor": "IV Waste",
    "rowid": "1223621",
    "final_x": "3673917.1684",
    "final_y": "526014.378621",
    "longitude": "-90.09220251713874",
    "latitude": "29.940585095470194",
    "geocoded_column": {
      "latitude": "29.940585095470194",
      "longitude": "-90.09220251713874"
    }
  },
  {
    "service_request": "2025-1223620",
    "request_type": "Roads and Streets",
    "request_reason": "Pothole",
    "date_created": "2025-09-03T15:46:33.000",
    "date_modified": "2025-09-03T15:46:35.000",
    "request_status": "Pending",
    "responsible_agency": "Department of Public Works",
    "final_address": "5226 Conti St",
    "address_councildis": "A",
    "status": "Pending",
    "rowid": "1223620",
    "final_x": "3668428.6955",
    "final_y": "541800.77422",
    "longitude": "-90.10899805779543",
    "latitude": "29.9841547811201",
    "geocoded_column": {
      "latitude": "29.9841547811201",
      "longitude": "-90.10899805779543"
    }
  },
  {
    "service_request": "2025-1223619",
    "request_type": "Traffic Signals",
    "request_reason": "Traffic Signal Malfunctioning or Damaged",
    "date_created": "2025-09-03T15:45:53.000",
    "date_modified": "2025-09-03T15:46:12.000",
    "request_status": "Pending",
    "responsible_agency": "Department of Public Works",
    "final_address": "ST JOSEPH ST & CAMP ST",
    "address_councildis": "B",
    "status": "Pending",
    "rowid": "1223619",
    "final_x": "3680651.1",
    "final_y": "527375.08",
    "longitude": "-90.0708950407311",
    "latitude": "29.944124293720602",
    "geocoded_column": {
      "latitude": "29.944124293720602",
      "longitude": "-90.0708950407311"
    }
  },
  {
    "service_request": "2025-1223618",
    "request_type": "Trash/Recycling",
    "request_reason": "Order Trash Cart",
    "date_created": "2025-09-03T15:45:07.000",
    "date_modified": "2025-09-03T15:45:10.000",
    "request_status": "Pending",
    "responsible_agency": "Department of Sanitation",
    "final_address": "3602 Ursula Spencer Way",
    "address_councildis": "D",
    "status": "Assigned to Contractor",
    "contractor": "IV Waste",
    "rowid": "1223618",
    "final_x": "3693338.64157",
    "final_y": "545369.646672",
    "longitude": "-90.0301909612304",
    "latitude": "29.993212514625675",
    "geocoded_column": {
      "latitude": "29.993212514625675",
      "longitude": "-90.0301909612304"
    }
  },
  {
    "service_request": "2025-1223617",
    "request_type": "Trash/Recycling",
    "request_reason": "Return Trash Cart",
    "date_created": "2025-09-03T15:41:21.000",
    "date_modified": "2025-09-03T15:41:23.000",
    "request_status": "Pending",
    "responsible_agency": "Department of Sanitation",
    "final_address": "1712 Fern St",
    "address_councildis": "A",
    "status": "Assigned to Contractor",
    "contractor": "IV Waste",
    "rowid": "1223617",
    "final_x": "3663772.51386",
    "final_y": "529266.124481",
    "longitude": "-90.12412270341467",
    "latitude": "29.949824597329503",
    "geocoded_column": {
      "latitude": "29.949824597329503",
      "longitude": "-90.12412270341467"
    }
  },
  {
    "service_request": "2025-1223616",
    "request_type": "Trash/Recycling",
    "request_reason": "Request a Large Item Pick Up",
    "date_created": "2025-09-03T15:38:34.000",
    "date_modified": "2025-09-03T15:54:08.000",
    "request_status": "Pending",
    "responsible_agency": "Department of Sanitation",
    "final_address": "1628 Gordon St",
    "address_councildis": "E",
    "status": "Assigned to Contractor",
    "contractor": "Waste Pro",
    "rowid": "1223616",
    "final_x": "3699929.99613",
    "final_y": "535478.516486",
    "longitude": "-90.00973101629367",
    "latitude": "29.965807743964668",
    "geocoded_column": {
      "latitude": "29.965807743964668",
      "longitude": "-90.00973101629367"
    }
  },
  {
    "service_request": "2025-1223615",
    "request_type": "Streetlights",
    "request_reason": "Streetlight Outage/Malfunction",
    "date_created": "2025-09-03T15:33:48.000",
    "date_modified": "2025-09-03T15:33:51.000",
    "request_status": "Pending",
    "responsible_agency": "Department of Public Works",
    "final_address": "1900 BLK Napoleon Ave",
    "address_councildis": "B",
    "status": "Pending",
    "rowid": "1223615",
    "final_x": "3670762.96126",
    "final_y": "522123.338743",
    "longitude": "-90.10229288602055",
    "latitude": "29.9299795573931",
    "geocoded_column": {
      "latitude": "29.9299795573931",
      "longitude": "-90.10229288602055"
    }
  },
  {
    "service_request": "2025-1223614",
    "request_type": "Streetlights",
    "request_reason": "Streetlight Outage/Malfunction",
    "date_created": "2025-09-03T15:31:08.000",
    "date_modified": "2025-09-03T15:31:10.000",
    "request_status": "Pending",
    "responsible_agency": "Department of Public Works",
    "final_address": "1800 BLK Napoleon Ave",
    "address_councildis": "B",
    "status": "Pending",
    "rowid": "1223614",
    "final_x": "3670719.66148",
    "final_y": "521766.617672",
    "longitude": "-90.10244167349475",
    "latitude": "29.928999967839044",
    "geocoded_column": {
      "latitude": "29.928999967839044",
      "longitude": "-90.10244167349475"
    }
  },
  {
    "service_request": "2025-1223613",
    "request_type": "Parks & Parkways",
    "request_reason": "Request Tree Service (Right of Way/Public Property)",
    "date_created": "2025-09-03T15:29:46.000",
    "date_modified": "2025-09-03T15:29:48.000",
    "request_status": "Pending",
    "responsible_agency": "Department of Parks & Parkway",
    "final_address": "2300 BLK Louisa St",
    "address_councildis": "D",
    "status": "Pending",
    "rowid": "1223613",
    "final_x": "3690738.80287",
    "final_y": "540566.768392",
    "longitude": "-90.03857482275951",
    "latitude": "29.980087368755182",
    "geocoded_column": {
      "latitude": "29.980087368755182",
      "longitude": "-90.03857482275951"
    }
  },
  {
    "service_request": "2025-1223612",
    "request_type": "Trash/Recycling",
    "request_reason": "Return Trash Cart",
    "date_created": "2025-09-03T15:28:36.000",
    "date_modified": "2025-09-03T15:28:37.000",
    "request_status": "Pending",
    "responsible_agency": "Department of Sanitation",
    "final_address": "4231 Palmyra St",
    "address_councildis": "A",
    "status": "Assigned to Contractor",
    "contractor": "IV Waste",
    "rowid": "1223612",
    "final_x": "3669917.13082",
    "final_y": "538291.341577",
    "longitude": "-90.10441563577841",
    "latitude": "29.9744612161979",
    "geocoded_column": {
      "latitude": "29.9744612161979",
      "longitude": "-90.10441563577841"
    }
  },
  {
    "service_request": "2025-1223611",
    "request_type": "Trash/Recycling",
    "request_reason": "Repair Trash Cart",
    "date_created": "2025-09-03T15:26:28.000",
    "date_modified": "2025-09-03T15:26:30.000",
    "request_status": "Pending",
    "responsible_agency": "Department of Sanitation",
    "final_address": "2930 Hollygrove St",
    "address_councildis": "A",
    "status": "Assigned to Contractor",
    "contractor": "IV Waste",
    "rowid": "1223611",
    "final_x": "3663870.22528",
    "final_y": "535251.797382",
    "longitude": "-90.12361465042326",
    "latitude": "29.966280412913964",
    "geocoded_column": {
      "latitude": "29.966280412913964",
      "longitude": "-90.12361465042326"
    }
  },
  {
    "service_request": "2025-1223610",
    "request_type": "Trash/Recycling",
    "request_reason": "Request a Large Item Pick Up",
    "date_created": "2025-09-03T15:26:16.000",
    "date_modified": "2025-09-03T15:26:18.000",
    "request_status": "Pending",
    "responsible_agency": "Department of Sanitation",
    "final_address": "4930 S Johnson St",
    "address_councildis": "B",
    "status": "Assigned to Contractor",
    "contractor": "IV Waste",
    "rowid": "1223610",
    "final_x": "3668951.87111",
    "final_y": "526957.405374",
    "longitude": "-90.10784700131288",
    "latitude": "29.943325063246196",
    "geocoded_column": {
      "latitude": "29.943325063246196",
      "longitude": "-90.10784700131288"
    }
  },
  {
    "service_request": "2025-1223609",
    "request_type": "Streetlights",
    "request_reason": "Streetlight Outage/Malfunction",
    "date_created": "2025-09-03T15:25:54.000",
    "date_modified": "2025-09-03T15:25:56.000",
    "request_status": "Pending",
    "responsible_agency": "Department of Public Works",
    "final_address": "1700 BLK Napoleon Ave",
    "address_councildis": "B",
    "status": "Pending",
    "rowid": "1223609",
    "final_x": "3670754.61252",
    "final_y": "521416.015355",
    "longitude": "-90.10234323001183",
    "latitude": "29.928034891303422",
    "geocoded_column": {
      "latitude": "29.928034891303422",
      "longitude": "-90.10234323001183"
    }
  },
  {
    "service_request": "2025-1223608",
    "request_type": "Trash/Recycling",
    "request_reason": "Request a Large Item Pick Up",
    "date_created": "2025-09-03T15:24:14.000",
    "date_modified": "2025-09-03T15:27:08.000",
    "request_status": "Pending",
    "responsible_agency": "Department of Sanitation",
    "final_address": "817 Peniston St",
    "address_councildis": "B",
    "status": "Assigned to Contractor",
    "contractor": "IV Waste",
    "rowid": "1223608",
    "final_x": "3673481.03899",
    "final_y": "518853.233527",
    "longitude": "-90.09382402506237",
    "latitude": "29.920907243362834",
    "geocoded_column": {
      "latitude": "29.920907243362834",
      "longitude": "-90.09382402506237"
    }
  },
  {
    "service_request": "2025-1223607",
    "request_type": "Trash/Recycling",
    "request_reason": "Request a Large Item Pick Up",
    "date_created": "2025-09-03T15:23:28.000",
    "date_modified": "2025-09-03T15:23:55.000",
    "request_status": "Pending",
    "responsible_agency": "Department of Sanitation",
    "final_address": "4900 Werner Dr",
    "address_councildis": "E",
    "status": "Assigned to Contractor",
    "contractor": "Waste Pro",
    "rowid": "1223607",
    "final_x": "3704639.0561",
    "final_y": "556063.731097",
    "longitude": "-89.99410029294398",
    "latitude": "30.02225896459454",
    "geocoded_column": {
      "latitude": "30.02225896459454",
      "longitude": "-89.99410029294398"
    }
  },
  {
    "service_request": "2025-1223606",
    "request_type": "Streetlights",
    "request_reason": "Streetlight Outage/Malfunction",
    "date_created": "2025-09-03T15:22:58.000",
    "date_modified": "2025-09-03T15:23:00.000",
    "request_status": "Pending",
    "responsible_agency": "Department of Public Works",
    "final_address": "1600 BLK Napoleon Ave",
    "address_councildis": "B",
    "status": "Pending",
    "rowid": "1223606",
    "final_x": "3670790.41298",
    "final_y": "521061.214227",
    "longitude": "-90.1022422494342",
    "latitude": "29.927058244091356",
    "geocoded_column": {
      "latitude": "29.927058244091356",
      "longitude": "-90.1022422494342"
    }
  },
  {
    "service_request": "2025-1223605",
    "request_type": "Abandoned Vehicles",
    "request_reason": "Abandoned/Junk Vehicles",
    "date_created": "2025-09-03T15:20:28.000",
    "date_modified": "2025-09-03T15:21:26.000",
    "request_status": "Pending",
    "responsible_agency": "Department of Public Works",
    "final_address": "2013 S Rendon St",
    "address_councildis": "B",
    "status": "Pending",
    "rowid": "1223605",
    "final_x": "3669093.83854",
    "final_y": "529927.758657",
    "longitude": "-90.1072984273474",
    "latitude": "29.95148839132214",
    "geocoded_column": {
      "latitude": "29.95148839132214",
      "longitude": "-90.1072984273474"
    }
  },
  {
    "service_request": "2025-1223604",
    "request_type": "Trash/Recycling",
    "request_reason": "Request a Large Item Pick Up",
    "date_created": "2025-09-03T15:15:12.000",
    "date_modified": "2025-09-03T15:15:14.000",
    "request_status": "Pending",
    "responsible_agency": "Department of Sanitation",
    "final_address": "1521 N Derbigny St",
    "address_councildis": "D",
    "status": "Assigned to Contractor",
    "contractor": "IV Waste",
    "rowid": "1223604",
    "final_x": "3681523.1366",
    "final_y": "537582.19092",
    "longitude": "-90.06778584438665",
    "latitude": "29.972163930034935",
    "geocoded_column": {
      "latitude": "29.972163930034935",
      "longitude": "-90.06778584438665"
    }
  },
  {
    "service_request": "2025-1223603",
    "request_type": "Parks & Parkways",
    "request_reason": "Park Maintenance/Clean Up",
    "date_created": "2025-09-03T15:14:14.000",
    "date_modified": "2025-09-03T15:14:15.000",
    "request_status": "Pending",
    "responsible_agency": "Department of Parks & Parkway",
    "final_address": "900 Napoleon Ave",
    "address_councildis": "B",
    "status": "Pending",
    "rowid": "1223603",
    "final_x": "3670816.23329",
    "final_y": "518803.454263",
    "longitude": "-90.10223731581735",
    "latitude": "29.920849360685466",
    "geocoded_column": {
      "latitude": "29.920849360685466",
      "longitude": "-90.10223731581735"
    }
  },
  {
    "service_request": "2025-1223602",
    "request_type": "Trash/Recycling",
    "request_reason": "Request a Large Item Pick Up",
    "date_created": "2025-09-03T15:13:17.000",
    "date_modified": "2025-09-03T15:13:19.000",
    "request_status": "Pending",
    "responsible_agency": "Department of Sanitation",
    "final_address": "4529 Citrus Dr",
    "address_councildis": "E",
    "status": "Assigned to Contractor",
    "contractor": "Waste Pro",
    "rowid": "1223602",
    "final_x": "3710940.55358",
    "final_y": "554929.536472",
    "longitude": "-89.97423181893542",
    "latitude": "30.018936356361362",
    "geocoded_column": {
      "latitude": "30.018936356361362",
      "longitude": "-89.97423181893542"
    }
  },
  {
    "service_request": "2025-1223601",
    "request_type": "Traffic Signals",
    "request_reason": "Traffic Signal Malfunctioning or Damaged",
    "date_created": "2025-09-03T14:56:19.000",
    "date_modified": "2025-09-03T14:56:20.000",
    "request_status": "Pending",
    "responsible_agency": "Department of Public Works",
    "final_address": "CALLIOPE ST & TCHOUPITOULAS EXIT",
    "address_councildis": "B",
    "status": "Pending",
    "rowid": "1223601",
    "final_x": "3681538.2",
    "final_y": "525465.18",
    "longitude": "-90.06816080031896",
    "latitude": "29.93884580208631",
    "geocoded_column": {
      "latitude": "29.93884580208631",
      "longitude": "-90.06816080031896"
    }
  },
  {
    "service_request": "2025-1223600",
    "request_type": "Abandoned Vehicles",
    "request_reason": "Abandoned/Junk Vehicles",
    "date_created": "2025-09-03T14:52:56.000",
    "date_modified": "2025-09-03T14:52:58.000",
    "request_status": "Pending",
    "responsible_agency": "Department of Public Works",
    "final_address": "454 Sixth St",
    "address_councildis": "B",
    "status": "Pending",
    "rowid": "1223600",
    "final_x": "3677611.60859",
    "final_y": "518973.661495",
    "longitude": "-90.08078153098866",
    "latitude": "29.921114873285394",
    "geocoded_column": {
      "latitude": "29.921114873285394",
      "longitude": "-90.08078153098866"
    }
  },
  {
    "service_request": "2025-1223599",
    "request_type": "Trash/Recycling",
    "request_reason": "Repair Recycling Cart",
    "date_created": "2025-09-03T14:50:07.000",
    "date_modified": "2025-09-03T14:50:09.000",
    "request_status": "Pending",
    "responsible_agency": "Department of Sanitation",
    "final_address": "7111 Read Blvd",
    "address_councildis": "E",
    "status": "Pending",
    "rowid": "1223599",
    "final_x": "3709694.04401",
    "final_y": "562616.15952",
    "longitude": "-89.97788301527748",
    "latitude": "30.04011213389261",
    "geocoded_column": {
      "latitude": "30.04011213389261",
      "longitude": "-89.97788301527748"
    }
  },
  {
    "service_request": "2025-1223598",
    "request_type": "Streetlights",
    "request_reason": "Streetlight Outage/Malfunction",
    "date_created": "2025-09-03T14:49:53.000",
    "date_modified": "2025-09-03T14:49:55.000",
    "request_status": "Pending",
    "responsible_agency": "Department of Public Works",
    "final_address": "7433 Maple St",
    "address_councildis": "A",
    "status": "Pending",
    "rowid": "1223598",
    "final_x": "3662707.60826",
    "final_y": "525857.775421",
    "longitude": "-90.12759835997058",
    "latitude": "29.94048358528151",
    "geocoded_column": {
      "latitude": "29.94048358528151",
      "longitude": "-90.12759835997058"
    }
  },
  {
    "service_request": "2025-1223597",
    "request_type": "Street and Traffic Signs",
    "request_reason": "One Way Sign Missing or Damaged",
    "date_created": "2025-09-03T14:49:24.000",
    "date_modified": "2025-09-03T14:49:26.000",
    "request_status": "Pending",
    "responsible_agency": "Department of Public Works",
    "final_address": "1922 Amelia St",
    "address_councildis": "B",
    "status": "Pending",
    "rowid": "1223597",
    "final_x": "3672786.09614",
    "final_y": "522429.187706",
    "longitude": "-90.09589574830994",
    "latitude": "29.9307606223609",
    "geocoded_column": {
      "latitude": "29.9307606223609",
      "longitude": "-90.09589574830994"
    }
  },
  {
    "service_request": "2025-1223596",
    "request_type": "Abandoned Vehicles",
    "request_reason": "Abandoned/Junk Vehicles",
    "date_created": "2025-09-03T14:49:18.000",
    "date_modified": "2025-09-03T14:49:19.000",
    "request_status": "Pending",
    "responsible_agency": "Department of Public Works",
    "final_address": "454 Sixth St",
    "address_councildis": "B",
    "status": "Pending",
    "rowid": "1223596",
    "final_x": "3677611.60859",
    "final_y": "518973.661495",
    "longitude": "-90.08078153098866",
    "latitude": "29.921114873285394",
    "geocoded_column": {
      "latitude": "29.921114873285394",
      "longitude": "-90.08078153098866"
    }
  },
  {
    "service_request": "2025-1223595",
    "request_type": "Trash/Recycling",
    "request_reason": "Repair Trash Cart",
    "date_created": "2025-09-03T14:48:43.000",
    "date_modified": "2025-09-03T14:48:46.000",
    "request_status": "Pending",
    "responsible_agency": "Department of Sanitation",
    "final_address": "7111 Read Blvd",
    "address_councildis": "E",
    "status": "Assigned to Contractor",
    "contractor": "Waste Pro",
    "rowid": "1223595",
    "final_x": "3709694.04401",
    "final_y": "562616.15952",
    "longitude": "-89.97788301527748",
    "latitude": "30.04011213389261",
    "geocoded_column": {
      "latitude": "30.04011213389261",
      "longitude": "-89.97788301527748"
    }
  },
  {
    "service_request": "2025-1223594",
    "request_type": "Trash/Recycling",
    "request_reason": "Request a Large Item Pick Up",
    "date_created": "2025-09-03T14:46:33.000",
    "date_modified": "2025-09-03T14:46:35.000",
    "request_status": "Pending",
    "responsible_agency": "Department of Sanitation",
    "final_address": "7111 Read Blvd",
    "address_councildis": "E",
    "status": "Assigned to Contractor",
    "contractor": "Waste Pro",
    "rowid": "1223594",
    "final_x": "3709694.04401",
    "final_y": "562616.15952",
    "longitude": "-89.97788301527748",
    "latitude": "30.04011213389261",
    "geocoded_column": {
      "latitude": "30.04011213389261",
      "longitude": "-89.97788301527748"
    }
  },
  {
    "service_request": "2025-1223593",
    "request_type": "Trash/Recycling",
    "request_reason": "Repair Trash Cart",
    "date_created": "2025-09-03T14:42:01.000",
    "date_modified": "2025-09-03T14:42:16.000",
    "request_status": "Pending",
    "responsible_agency": "Department of Sanitation",
    "final_address": "0 BLK Marlborough Gate Pl",
    "address_councildis": "B",
    "status": "Assigned to Contractor",
    "contractor": "IV Waste",
    "rowid": "1223593",
    "final_x": "3668982.72433",
    "final_y": "523729.959874",
    "longitude": "-90.10785857013997",
    "latitude": "29.934449721695927",
    "geocoded_column": {
      "latitude": "29.934449721695927",
      "longitude": "-90.10785857013997"
    }
  },
  {
    "service_request": "2025-1223592",
    "request_type": "Drainage",
    "request_reason": "Catch Basin Not Draining",
    "date_created": "2025-09-03T14:40:24.000",
    "date_modified": "2025-09-03T14:40:26.000",
    "request_status": "Pending",
    "responsible_agency": "Sewerage & Water Board",
    "final_address": "1539 Soniat St",
    "address_councildis": "B",
    "status": "Pending",
    "rowid": "1223592",
    "final_x": "3668499.91751",
    "final_y": "520768.424953",
    "longitude": "-90.1094826439035",
    "latitude": "29.926320634904766",
    "geocoded_column": {
      "latitude": "29.926320634904766",
      "longitude": "-90.1094826439035"
    }
  },
  {
    "service_request": "2025-1223591",
    "request_type": "Property Maintenance",
    "request_reason": "Property Maintenance",
    "date_created": "2025-09-03T14:39:20.000",
    "date_modified": "2025-09-03T15:45:51.000",
    "case_close_date": "2025-09-03T10:45:50.000",
    "request_status": "Closed",
    "responsible_agency": "Department of Code Enforcement",
    "final_address": "4501 Bonita Dr",
    "address_councildis": "E",
    "status": "Referred to Code Enforcement",
    "rowid": "1223591",
    "final_x": "3704689.61553",
    "final_y": "553691.708823",
    "longitude": "-89.99402814333605",
    "latitude": "30.015735191896255",
    "geocoded_column": {
      "latitude": "30.015735191896255",
      "longitude": "-89.99402814333605"
    }
  },
  {
    "service_request": "2025-1223590",
    "request_type": "Trash/Recycling",
    "request_reason": "Repair Trash Cart",
    "date_created": "2025-09-03T14:38:48.000",
    "date_modified": "2025-09-03T14:38:50.000",
    "request_status": "Pending",
    "responsible_agency": "Department of Sanitation",
    "final_address": "5050 St Charles Ave",
    "address_councildis": "B",
    "status": "Assigned to Contractor",
    "contractor": "IV Waste",
    "rowid": "1223590",
    "final_x": "3668465.50318",
    "final_y": "520857.219449",
    "longitude": "-90.10958828698679",
    "latitude": "29.926565802231472",
    "geocoded_column": {
      "latitude": "29.926565802231472",
      "longitude": "-90.10958828698679"
    }
  },
  {
    "service_request": "2025-1223589",
    "request_type": "Trash/Recycling",
    "request_reason": "Request a Large Item Pick Up",
    "date_created": "2025-09-03T14:37:39.000",
    "date_modified": "2025-09-03T14:37:41.000",
    "request_status": "Pending",
    "responsible_agency": "Department of Sanitation",
    "final_address": "1519 Clio St",
    "address_councildis": "B",
    "status": "Assigned to Contractor",
    "contractor": "IV Waste",
    "rowid": "1223589",
    "final_x": "3680029.01269",
    "final_y": "526205.63603",
    "longitude": "-90.07289975933006",
    "latitude": "29.940927543440537",
    "geocoded_column": {
      "latitude": "29.940927543440537",
      "longitude": "-90.07289975933006"
    }
  },
  {
    "service_request": "2025-1223588",
    "request_type": "Trash/Recycling",
    "request_reason": "Request a Large Item Pick Up",
    "date_created": "2025-09-03T14:36:36.000",
    "date_modified": "2025-09-03T14:36:38.000",
    "request_status": "Pending",
    "responsible_agency": "Department of Sanitation",
    "final_address": "1718 Columbus St",
    "address_councildis": "D",
    "status": "Assigned to Contractor",
    "contractor": "IV Waste",
    "rowid": "1223588",
    "final_x": "3681268.36687",
    "final_y": "537490.164296",
    "longitude": "-90.06859365727172",
    "latitude": "29.97191862328009",
    "geocoded_column": {
      "latitude": "29.97191862328009",
      "longitude": "-90.06859365727172"
    }
  },
  {
    "service_request": "2025-1223587",
    "request_type": "Abandoned Vehicles",
    "request_reason": "Abandoned/Junk Vehicles",
    "date_created": "2025-09-03T14:33:00.000",
    "date_modified": "2025-09-03T14:33:02.000",
    "request_status": "Pending",
    "responsible_agency": "Department of Public Works",
    "final_address": "1110 Aline St",
    "address_councildis": "B",
    "status": "Pending",
    "rowid": "1223587",
    "final_x": "3674400.79316",
    "final_y": "519453.150775",
    "longitude": "-90.09090024164782",
    "latitude": "29.92252943367725",
    "geocoded_column": {
      "latitude": "29.92252943367725",
      "longitude": "-90.09090024164782"
    }
  },
  {
    "service_request": "2025-1223586",
    "request_type": "Trash/Recycling",
    "request_reason": "Request a Large Item Pick Up",
    "date_created": "2025-09-03T14:32:31.000",
    "date_modified": "2025-09-03T14:32:33.000",
    "request_status": "Pending",
    "responsible_agency": "Department of Sanitation",
    "final_address": "7713 Haney Dr",
    "address_councildis": "E",
    "status": "Assigned to Contractor",
    "contractor": "Waste Pro",
    "rowid": "1223586",
    "final_x": "3712453.14738",
    "final_y": "567564.916388",
    "longitude": "-89.96897723742069",
    "latitude": "30.053629181755557",
    "geocoded_column": {
      "latitude": "30.053629181755557",
      "longitude": "-89.96897723742069"
    }
  },
  {
    "service_request": "2025-1223585",
    "request_type": "Trash/Recycling",
    "request_reason": "Request a Large Item Pick Up",
    "date_created": "2025-09-03T14:31:23.000",
    "date_modified": "2025-09-03T14:31:24.000",
    "request_status": "Pending",
    "responsible_agency": "Department of Sanitation",
    "final_address": "2017 Marais St B",
    "address_councildis": "C",
    "status": "Assigned to Contractor",
    "contractor": "IV Waste",
    "rowid": "1223585",
    "final_x": "3684335.20028",
    "final_y": "536643.414535",
    "longitude": "-90.05893786482703",
    "latitude": "29.96949692151479",
    "geocoded_column": {
      "latitude": "29.96949692151479",
      "longitude": "-90.05893786482703"
    }
  },
  {
    "service_request": "2025-1223584",
    "request_type": "Property Maintenance",
    "request_reason": "Property Maintenance",
    "date_created": "2025-09-03T14:30:48.000",
    "date_modified": "2025-09-03T14:57:50.000",
    "case_close_date": "2025-09-03T09:57:48.000",
    "request_status": "Closed",
    "responsible_agency": "Department of Code Enforcement",
    "final_address": "2224 Desire St",
    "address_councildis": "D",
    "status": "Referred to Code Enforcement",
    "rowid": "1223584",
    "final_x": "3691221.24425",
    "final_y": "540040.069195",
    "longitude": "-90.03706989593447",
    "latitude": "29.978624135536318",
    "geocoded_column": {
      "latitude": "29.978624135536318",
      "longitude": "-90.03706989593447"
    }
  },
  {
    "service_request": "2025-1223583",
    "request_type": "Trash/Recycling",
    "request_reason": "Order Recycling Cart",
    "date_created": "2025-09-03T14:28:51.000",
    "date_modified": "2025-09-03T14:28:52.000",
    "request_status": "Pending",
    "responsible_agency": "Department of Sanitation",
    "final_address": "1004 Clouet St",
    "address_councildis": "C",
    "status": "Pending",
    "rowid": "1223583",
    "final_x": "3688884.15452",
    "final_y": "535629.684614",
    "longitude": "-90.04460793893364",
    "latitude": "29.966569621407906",
    "geocoded_column": {
      "latitude": "29.966569621407906",
      "longitude": "-90.04460793893364"
    }
  },
  {
    "service_request": "2025-1223582",
    "request_type": "Trash/Recycling",
    "request_reason": "Illegal Dumping",
    "date_created": "2025-09-03T14:27:14.000",
    "date_modified": "2025-09-03T14:27:16.000",
    "request_status": "Pending",
    "responsible_agency": "Department of Sanitation",
    "final_address": "7701 Jeannette St Apt C",
    "address_councildis": "A",
    "status": "Pending",
    "rowid": "1223582",
    "final_x": "3663788.4217",
    "final_y": "528237.442944",
    "longitude": "-90.12410675182863",
    "latitude": "29.946995592617913",
    "geocoded_column": {
      "latitude": "29.946995592617913",
      "longitude": "-90.12410675182863"
    }
  },
  {
    "service_request": "2025-1223581",
    "request_type": "Trash/Recycling",
    "request_reason": "Request a Large Item Pick Up",
    "date_created": "2025-09-03T14:26:09.000",
    "date_modified": "2025-09-03T14:26:13.000",
    "request_status": "Pending",
    "responsible_agency": "Department of Sanitation",
    "final_address": "5543 Cherlyn Dr",
    "address_councildis": "A",
    "status": "Assigned to Contractor",
    "contractor": "IV Waste",
    "rowid": "1223581",
    "final_x": "3665271.58612",
    "final_y": "544727.440335",
    "longitude": "-90.11887200109466",
    "latitude": "29.992294500122178",
    "geocoded_column": {
      "latitude": "29.992294500122178",
      "longitude": "-90.11887200109466"
    }
  },
  {
    "service_request": "2025-1223580",
    "request_type": "Trash/Recycling",
    "request_reason": "Illegal Dumping",
    "date_created": "2025-09-03T14:25:36.000",
    "date_modified": "2025-09-03T14:25:37.000",
    "request_status": "Pending",
    "responsible_agency": "Department of Sanitation",
    "final_address": "1501 Desire St",
    "address_councildis": "D",
    "status": "Pending",
    "rowid": "1223580",
    "final_x": "3690592.03939",
    "final_y": "537219.84788",
    "longitude": "-90.03915775588693",
    "latitude": "29.970889083341113",
    "geocoded_column": {
      "latitude": "29.970889083341113",
      "longitude": "-90.03915775588693"
    }
  },
  {
    "service_request": "2025-1223579",
    "request_type": "Abandoned Vehicles",
    "request_reason": "Abandoned/Junk Vehicles",
    "date_created": "2025-09-03T14:25:05.000",
    "date_modified": "2025-09-03T14:25:08.000",
    "request_status": "Pending",
    "responsible_agency": "Department of Public Works",
    "final_address": "N RAMPART ST & ST FERDINAND ST",
    "address_councildis": "C",
    "status": "Pending",
    "rowid": "1223579",
    "final_x": "3687607.5",
    "final_y": "535886.08",
    "longitude": "-90.0486305130146",
    "latitude": "29.96731403854823",
    "geocoded_column": {
      "latitude": "29.96731403854823",
      "longitude": "-90.0486305130146"
    }
  },
  {
    "service_request": "2025-1223578",
    "request_type": "Trash/Recycling",
    "request_reason": "Request a Large Item Pick Up",
    "date_created": "2025-09-03T14:15:35.000",
    "date_modified": "2025-09-03T14:15:37.000",
    "request_status": "Pending",
    "responsible_agency": "Department of Sanitation",
    "final_address": "6960 Boston Dr",
    "address_councildis": "E",
    "status": "Assigned to Contractor",
    "contractor": "Waste Pro",
    "rowid": "1223578",
    "final_x": "3706468.38014",
    "final_y": "560465.985182",
    "longitude": "-89.98815683032842",
    "latitude": "30.034304527110958",
    "geocoded_column": {
      "latitude": "30.034304527110958",
      "longitude": "-89.98815683032842"
    }
  },
  {
    "service_request": "2025-1223577",
    "request_type": "Trash/Recycling",
    "request_reason": "Missed Trash Pick-Up",
    "date_created": "2025-09-03T14:14:14.000",
    "date_modified": "2025-09-03T14:14:17.000",
    "request_status": "Pending",
    "responsible_agency": "Department of Sanitation",
    "final_address": "8023 Vanderkloot Ave",
    "address_councildis": "E",
    "status": "Assigned to Contractor",
    "contractor": "Waste Pro",
    "rowid": "1223577",
    "final_x": "3705330.69521",
    "final_y": "564425.192545",
    "longitude": "-89.99160553419098",
    "latitude": "30.045227458625014",
    "geocoded_column": {
      "latitude": "30.045227458625014",
      "longitude": "-89.99160553419098"
    }
  },
  {
    "service_request": "2025-1223576",
    "request_type": "Trash/Recycling",
    "request_reason": "Request a Large Item Pick Up",
    "date_created": "2025-09-03T14:13:45.000",
    "date_modified": "2025-09-03T14:13:47.000",
    "request_status": "Pending",
    "responsible_agency": "Department of Sanitation",
    "final_address": "4567 Bonita Dr",
    "address_councildis": "E",
    "status": "Assigned to Contractor",
    "contractor": "Waste Pro",
    "rowid": "1223576",
    "final_x": "3704640.17143",
    "final_y": "554194.67708",
    "longitude": "-89.99416579035685",
    "latitude": "30.017119750474166",
    "geocoded_column": {
      "latitude": "30.017119750474166",
      "longitude": "-89.99416579035685"
    }
  },
  {
    "service_request": "2025-1223575",
    "request_type": "Trash/Recycling",
    "request_reason": "Request a Large Item Pick Up",
    "date_created": "2025-09-03T14:10:46.000",
    "date_modified": "2025-09-03T14:10:48.000",
    "request_status": "Pending",
    "responsible_agency": "Department of Sanitation",
    "final_address": "1618 Lizardi St",
    "address_councildis": "E",
    "status": "Assigned to Contractor",
    "contractor": "Waste Pro",
    "rowid": "1223575",
    "final_x": "3697036.90685",
    "final_y": "536231.212295",
    "longitude": "-90.0188399756398",
    "latitude": "29.96796896278988",
    "geocoded_column": {
      "latitude": "29.96796896278988",
      "longitude": "-90.0188399756398"
    }
  },
  {
    "service_request": "2025-1223574",
    "request_type": "Trash/Recycling",
    "request_reason": "Request a Large Item Pick Up",
    "date_created": "2025-09-03T14:05:25.000",
    "date_modified": "2025-09-03T14:05:28.000",
    "request_status": "Pending",
    "responsible_agency": "Department of Sanitation",
    "final_address": "4929 S Johnson St",
    "address_councildis": "B",
    "status": "Assigned to Contractor",
    "contractor": "IV Waste",
    "rowid": "1223574",
    "final_x": "3668990.20276",
    "final_y": "527098.936383",
    "longitude": "-90.1077211985664",
    "latitude": "29.943713100318238",
    "geocoded_column": {
      "latitude": "29.943713100318238",
      "longitude": "-90.1077211985664"
    }
  },
  {
    "service_request": "2025-1223573",
    "request_type": "Street and Traffic Signs",
    "request_reason": "Stop Sign Missing or Damaged",
    "date_created": "2025-09-03T14:00:40.000",
    "date_modified": "2025-09-03T14:00:42.000",
    "request_status": "Pending",
    "responsible_agency": "Department of Public Works",
    "final_address": "ELYSIAN FIELDS AVE & SERE ST",
    "address_councildis": "D",
    "status": "Pending",
    "rowid": "1223573",
    "final_x": "3684195.2",
    "final_y": "545876.58",
    "longitude": "-90.05905572137118",
    "latitude": "29.994889158062076",
    "geocoded_column": {
      "latitude": "29.994889158062076",
      "longitude": "-90.05905572137118"
    }
  },
  {
    "service_request": "2025-1223572",
    "request_type": "Abandoned Vehicles",
    "request_reason": "Abandoned/Junk Vehicles",
    "date_created": "2025-09-03T13:59:57.000",
    "date_modified": "2025-09-03T14:00:00.000",
    "request_status": "Pending",
    "responsible_agency": "Department of Public Works",
    "final_address": "4648 Lafaye St",
    "address_councildis": "D",
    "status": "Pending",
    "rowid": "1223572",
    "final_x": "3687424.02953",
    "final_y": "550094.894612",
    "longitude": "-90.0487068486744",
    "latitude": "30.006388867289907",
    "geocoded_column": {
      "latitude": "30.006388867289907",
      "longitude": "-90.0487068486744"
    }
  },
  {
    "service_request": "2025-1223571",
    "request_type": "Abandoned Vehicles",
    "request_reason": "Abandoned/Junk Vehicles",
    "date_created": "2025-09-03T13:56:25.000",
    "date_modified": "2025-09-03T13:56:27.000",
    "request_status": "Pending",
    "responsible_agency": "Department of Public Works",
    "final_address": "4648 Lafaye St",
    "address_councildis": "D",
    "status": "Pending",
    "rowid": "1223571",
    "final_x": "3687424.02953",
    "final_y": "550094.894612",
    "longitude": "-90.0487068486744",
    "latitude": "30.006388867289907",
    "geocoded_column": {
      "latitude": "30.006388867289907",
      "longitude": "-90.0487068486744"
    }
  },
  {
    "service_request": "2025-1223570",
    "request_type": "Roads and Streets",
    "request_reason": "Pothole",
    "date_created": "2025-09-03T13:53:53.000",
    "date_modified": "2025-09-03T13:53:56.000",
    "request_status": "Pending",
    "responsible_agency": "Department of Public Works",
    "final_address": "1873 Agriculture St",
    "address_councildis": "D",
    "status": "Pending",
    "rowid": "1223570",
    "final_x": "3682111.2182",
    "final_y": "543156.375565",
    "longitude": "-90.0657338373607",
    "latitude": "29.987473118837457",
    "geocoded_column": {
      "latitude": "29.987473118837457",
      "longitude": "-90.0657338373607"
    }
  },
  {
    "service_request": "2025-1223569",
    "request_type": "Property Maintenance",
    "request_reason": "Property Maintenance",
    "date_created": "2025-09-03T13:52:54.000",
    "date_modified": "2025-09-03T13:52:56.000",
    "request_status": "Pending",
    "responsible_agency": "Department of Code Enforcement",
    "final_address": "4508 Majestic Oaks Dr",
    "address_councildis": "D",
    "status": "Pending",
    "rowid": "1223569",
    "final_x": "3697759.99965",
    "final_y": "553023.682775",
    "longitude": "-90.01594673184528",
    "latitude": "30.014119261629777",
    "geocoded_column": {
      "latitude": "30.014119261629777",
      "longitude": "-90.01594673184528"
    }
  },
  {
    "service_request": "2025-1223568",
    "request_type": "Roads and Streets",
    "request_reason": "Pothole",
    "date_created": "2025-09-03T13:52:12.000",
    "date_modified": "2025-09-03T13:52:15.000",
    "request_status": "Pending",
    "responsible_agency": "Department of Public Works",
    "final_address": "1900 BLK Ursulines Ave",
    "address_councildis": "D",
    "status": "Pending",
    "rowid": "1223568",
    "final_x": "3679947.92911",
    "final_y": "536324.214541",
    "longitude": "-90.07280431774029",
    "latitude": "29.968752670952433",
    "geocoded_column": {
      "latitude": "29.968752670952433",
      "longitude": "-90.07280431774029"
    }
  },
  {
    "service_request": "2025-1223567",
    "request_type": "Roads and Streets",
    "request_reason": "Sidewalk Damaged or Missing",
    "date_created": "2025-09-03T13:51:52.000",
    "date_modified": "2025-09-03T13:53:02.000",
    "request_status": "Pending",
    "responsible_agency": "Department of Public Works",
    "final_address": "5838 Argonne Blvd",
    "address_councildis": "A",
    "status": "Pending",
    "rowid": "1223567",
    "final_x": "3669991.80711",
    "final_y": "546126.886992",
    "longitude": "-90.10391427356187",
    "latitude": "29.996004088852033",
    "geocoded_column": {
      "latitude": "29.996004088852033",
      "longitude": "-90.10391427356187"
    }
  },
  {
    "service_request": "2025-1223566",
    "request_type": "Trash/Recycling",
    "request_reason": "Request a Large Item Pick Up",
    "date_created": "2025-09-03T13:49:10.000",
    "date_modified": "2025-09-03T13:49:12.000",
    "request_status": "Pending",
    "responsible_agency": "Department of Sanitation",
    "final_address": "514 Dumaine St",
    "address_councildis": "C",
    "status": "Assigned to Contractor",
    "contractor": "IV Waste",
    "rowid": "1223566",
    "final_x": "3683484.27772",
    "final_y": "532641.149316",
    "longitude": "-90.0617654089032",
    "latitude": "29.95851806416516",
    "geocoded_column": {
      "latitude": "29.95851806416516",
      "longitude": "-90.0617654089032"
    }
  },
  {
    "service_request": "2025-1223565",
    "request_type": "Trash/Recycling",
    "request_reason": "Request a Large Item Pick Up",
    "date_created": "2025-09-03T13:47:46.000",
    "date_modified": "2025-09-03T13:47:48.000",
    "request_status": "Pending",
    "responsible_agency": "Department of Sanitation",
    "final_address": "4712 Charlene Dr",
    "address_councildis": "E",
    "status": "Assigned to Contractor",
    "contractor": "Waste Pro",
    "rowid": "1223565",
    "final_x": "3707865.74961",
    "final_y": "555319.713689",
    "longitude": "-89.9839325130393",
    "latitude": "30.02010911494464",
    "geocoded_column": {
      "latitude": "30.02010911494464",
      "longitude": "-89.9839325130393"
    }
  },
  {
    "service_request": "2025-1223564",
    "request_type": "General Services",
    "request_reason": "General Service Request",
    "date_created": "2025-09-03T13:45:46.000",
    "date_modified": "2025-09-03T13:51:30.000",
    "case_close_date": "2025-09-03T08:51:29.000",
    "request_status": "Closed",
    "responsible_agency": "Orleans Parish Communication District",
    "final_address": "2269 N Derbigny St",
    "address_councildis": "D",
    "status": "Question Answered.",
    "rowid": "1223564",
    "final_x": "3685491.96892",
    "final_y": "538596.635977",
    "longitude": "-90.05521589529044",
    "latitude": "29.974832172533517",
    "geocoded_column": {
      "latitude": "29.974832172533517",
      "longitude": "-90.05521589529044"
    }
  },
  {
    "service_request": "2025-1223563",
    "request_type": "Utility Poles",
    "request_reason": "Wires Sagging/Hanging Low",
    "date_created": "2025-09-03T13:41:25.000",
    "date_modified": "2025-09-03T13:41:28.000",
    "request_status": "Pending",
    "responsible_agency": "Utility Company Collective",
    "final_address": "3523 Audubon Ct",
    "address_councildis": "B",
    "status": "Pending",
    "rowid": "1223563",
    "final_x": "3669140.0843",
    "final_y": "533229.645956",
    "longitude": "-90.10704082752574",
    "latitude": "29.96056613404588",
    "geocoded_column": {
      "latitude": "29.96056613404588",
      "longitude": "-90.10704082752574"
    }
  },
  {
    "service_request": "2025-1223562",
    "request_type": "Trash/Recycling",
    "request_reason": "Order Second Trash Cart",
    "date_created": "2025-09-03T13:39:06.000",
    "date_modified": "2025-09-03T13:39:10.000",
    "request_status": "Pending",
    "responsible_agency": "Department of Sanitation",
    "final_address": "7680 Pineridge St",
    "address_councildis": "E",
    "status": "Assigned to Contractor",
    "contractor": "Waste Pro",
    "rowid": "1223562",
    "final_x": "3718729.76453",
    "final_y": "572199.001641",
    "longitude": "-89.94896171963559",
    "latitude": "30.0661639983821",
    "geocoded_column": {
      "latitude": "30.0661639983821",
      "longitude": "-89.94896171963559"
    }
  },
  {
    "service_request": "2025-1223561",
    "request_type": "Trash/Recycling",
    "request_reason": "Missed Trash Pick-Up",
    "date_created": "2025-09-03T13:37:06.000",
    "date_modified": "2025-09-03T13:38:11.000",
    "request_status": "Pending",
    "responsible_agency": "Department of Sanitation",
    "final_address": "7680 Pineridge St",
    "address_councildis": "E",
    "status": "Assigned to Contractor",
    "contractor": "Waste Pro",
    "rowid": "1223561",
    "final_x": "3718729.76453",
    "final_y": "572199.001641",
    "longitude": "-89.94896171963559",
    "latitude": "30.0661639983821",
    "geocoded_column": {
      "latitude": "30.0661639983821",
      "longitude": "-89.94896171963559"
    }
  },
  {
    "service_request": "2025-1223560",
    "request_type": "Trash/Recycling",
    "request_reason": "MIssed Recycling Pick-Up",
    "date_created": "2025-09-03T13:33:05.000",
    "date_modified": "2025-09-03T13:33:08.000",
    "request_status": "Pending",
    "responsible_agency": "Department of Sanitation",
    "final_address": "3713 Timber Bluff Ln",
    "address_councildis": "C",
    "status": "Assigned to Contractor",
    "contractor": "Richards Disposal",
    "rowid": "1223560",
    "final_x": "3703946.14046",
    "final_y": "510787.727215",
    "longitude": "-89.99795696562019",
    "latitude": "29.897788534285777",
    "geocoded_column": {
      "latitude": "29.897788534285777",
      "longitude": "-89.99795696562019"
    }
  },
  {
    "service_request": "2025-1223559",
    "request_type": "Trash/Recycling",
    "request_reason": "MIssed Recycling Pick-Up",
    "date_created": "2025-09-03T13:31:35.000",
    "date_modified": "2025-09-03T13:31:37.000",
    "request_status": "Pending",
    "responsible_agency": "Department of Sanitation",
    "final_address": "7900 Lucerne St",
    "address_councildis": "E",
    "status": "Assigned to Contractor",
    "contractor": "Waste Pro",
    "rowid": "1223559",
    "final_x": "3710191.88696",
    "final_y": "566749.288483",
    "longitude": "-89.97615497679551",
    "latitude": "30.05146037461606",
    "geocoded_column": {
      "latitude": "30.05146037461606",
      "longitude": "-89.97615497679551"
    }
  },
  {
    "service_request": "2025-1223558",
    "request_type": "Trash/Recycling",
    "request_reason": "Request a Large Item Pick Up",
    "date_created": "2025-09-03T13:30:21.000",
    "date_modified": "2025-09-03T13:30:23.000",
    "request_status": "Pending",
    "responsible_agency": "Department of Sanitation",
    "final_address": "13035 Lemans St",
    "address_councildis": "E",
    "status": "Assigned to Contractor",
    "contractor": "Waste Pro",
    "rowid": "1223558",
    "final_x": "3723837.79935",
    "final_y": "562815.307744",
    "longitude": "-89.93317717564759",
    "latitude": "30.04019208340101",
    "geocoded_column": {
      "latitude": "30.04019208340101",
      "longitude": "-89.93317717564759"
    }
  },
  {
    "service_request": "2025-1223557",
    "request_type": "Trash/Recycling",
    "request_reason": "Replace Trash Cart",
    "date_created": "2025-09-03T13:28:45.000",
    "date_modified": "2025-09-03T13:58:39.000",
    "request_status": "Pending",
    "responsible_agency": "Department of Sanitation",
    "final_address": "422 Harrison Ave",
    "address_councildis": "A",
    "status": "Assigned to Contractor",
    "contractor": "IV Waste",
    "rowid": "1223557",
    "final_x": "3667722.66797",
    "final_y": "549248.772371",
    "longitude": "-90.11097712850982",
    "latitude": "30.004654943383684",
    "geocoded_column": {
      "latitude": "30.004654943383684",
      "longitude": "-90.11097712850982"
    }
  },
  {
    "service_request": "2025-1223556",
    "request_type": "Trash/Recycling",
    "request_reason": "Repair Trash Cart",
    "date_created": "2025-09-03T13:28:33.000",
    "date_modified": "2025-09-03T13:28:35.000",
    "request_status": "Pending",
    "responsible_agency": "Department of Sanitation",
    "final_address": "3008 Boyd St",
    "address_councildis": "C",
    "status": "Assigned to Contractor",
    "contractor": "Richards Disposal",
    "rowid": "1223556",
    "final_x": "3708170.63249",
    "final_y": "519559.250423",
    "longitude": "-89.98429947181255",
    "latitude": "29.921771142928506",
    "geocoded_column": {
      "latitude": "29.921771142928506",
      "longitude": "-89.98429947181255"
    }
  },
  {
    "service_request": "2025-1223555",
    "request_type": "Trash/Recycling",
    "request_reason": "Repair Trash Cart",
    "date_created": "2025-09-03T13:28:15.000",
    "date_modified": "2025-09-03T13:28:17.000",
    "request_status": "Pending",
    "responsible_agency": "Department of Sanitation",
    "final_address": "3915 Mimosa Dr",
    "address_councildis": "C",
    "status": "Assigned to Contractor",
    "contractor": "Richards Disposal",
    "rowid": "1223555",
    "final_x": "3704475.01246",
    "final_y": "512817.205233",
    "longitude": "-89.99621321865119",
    "latitude": "29.903351952407167",
    "geocoded_column": {
      "latitude": "29.903351952407167",
      "longitude": "-89.99621321865119"
    }
  },
  {
    "service_request": "2025-1223554",
    "request_type": "Streetlights",
    "request_reason": "Streetlight Outage/Malfunction",
    "date_created": "2025-09-03T13:25:30.000",
    "date_modified": "2025-09-03T13:25:32.000",
    "request_status": "Pending",
    "responsible_agency": "Department of Public Works",
    "final_address": "4047 S Carrollton Ave",
    "address_councildis": "A",
    "status": "Pending",
    "rowid": "1223554",
    "final_x": "3669005.90439",
    "final_y": "536217.497991",
    "longitude": "-90.10736359369758",
    "latitude": "29.968785682007738",
    "geocoded_column": {
      "latitude": "29.968785682007738",
      "longitude": "-90.10736359369758"
    }
  },
  {
    "service_request": "2025-1223553",
    "request_type": "Property Maintenance",
    "request_reason": "Property Maintenance",
    "date_created": "2025-09-03T13:24:58.000",
    "date_modified": "2025-09-03T13:24:59.000",
    "request_status": "Pending",
    "responsible_agency": "Department of Code Enforcement",
    "final_address": "7710 Shubrick Ave",
    "address_councildis": "E",
    "status": "Pending",
    "rowid": "1223553",
    "final_x": "3706607.09438",
    "final_y": "563881.954593",
    "longitude": "-89.98759169677685",
    "latitude": "30.043692612843035",
    "geocoded_column": {
      "latitude": "30.043692612843035",
      "longitude": "-89.98759169677685"
    }
  },
  {
    "service_request": "2025-1223552",
    "request_type": "Property Maintenance",
    "request_reason": "Property Maintenance",
    "date_created": "2025-09-03T13:19:36.000",
    "date_modified": "2025-09-03T13:19:39.000",
    "request_status": "Pending",
    "responsible_agency": "Department of Code Enforcement",
    "final_address": "2130 Rev. John Raphael, Jr. Way",
    "address_councildis": "B",
    "status": "Pending",
    "rowid": "1223552",
    "final_x": "3675932.83118",
    "final_y": "526100.186366",
    "longitude": "-90.08583577502132",
    "latitude": "29.940760851401496",
    "geocoded_column": {
      "latitude": "29.940760851401496",
      "longitude": "-90.08583577502132"
    }
  },
  {
    "service_request": "2025-1223551",
    "request_type": "Trash/Recycling",
    "request_reason": "Order Recycling Cart",
    "date_created": "2025-09-03T13:18:12.000",
    "date_modified": "2025-09-03T13:18:14.000",
    "request_status": "Pending",
    "responsible_agency": "Department of Sanitation",
    "final_address": "9114 Fig St",
    "address_councildis": "A",
    "status": "Pending",
    "rowid": "1223551",
    "final_x": "3663578.06752",
    "final_y": "535575.614854",
    "longitude": "-90.12452649535052",
    "latitude": "29.967179282460148",
    "geocoded_column": {
      "latitude": "29.967179282460148",
      "longitude": "-90.12452649535052"
    }
  },
  {
    "service_request": "2025-1223550",
    "request_type": "Drainage",
    "request_reason": "Catch Basin Not Draining",
    "date_created": "2025-09-03T13:17:25.000",
    "date_modified": "2025-09-03T13:18:30.000",
    "request_status": "Pending",
    "responsible_agency": "Sewerage & Water Board",
    "final_address": "4601 Donna Dr",
    "address_councildis": "E",
    "status": "Pending",
    "rowid": "1223550",
    "final_x": "3711132.68734",
    "final_y": "555090.691865",
    "longitude": "-89.97361870754378",
    "latitude": "30.01937320307701",
    "geocoded_column": {
      "latitude": "30.01937320307701",
      "longitude": "-89.97361870754378"
    }
  },
  {
    "service_request": "2025-1223549",
    "request_type": "Trash/Recycling",
    "request_reason": "Request a Large Item Pick Up",
    "date_created": "2025-09-03T13:16:41.000",
    "date_modified": "2025-09-03T13:16:43.000",
    "request_status": "Pending",
    "responsible_agency": "Department of Sanitation",
    "final_address": "4682 Arthur Dr",
    "address_councildis": "E",
    "status": "Assigned to Contractor",
    "contractor": "Waste Pro",
    "rowid": "1223549",
    "final_x": "3707658.07531",
    "final_y": "555083.415769",
    "longitude": "-89.98459748100014",
    "latitude": "30.01946611044516",
    "geocoded_column": {
      "latitude": "30.01946611044516",
      "longitude": "-89.98459748100014"
    }
  },
  {
    "service_request": "2025-1223548",
    "request_type": "Abandoned Vehicles",
    "request_reason": "Abandoned/Junk Vehicles",
    "date_created": "2025-09-03T13:16:10.000",
    "date_modified": "2025-09-03T13:16:12.000",
    "request_status": "Pending",
    "responsible_agency": "Department of Public Works",
    "final_address": "4400 BLK Lancelot Dr",
    "address_councildis": "E",
    "status": "Pending",
    "rowid": "1223548",
    "final_x": "3707606.50437",
    "final_y": "553921.932298",
    "longitude": "-89.98480361705609",
    "latitude": "30.0162741496338",
    "geocoded_column": {
      "latitude": "30.0162741496338",
      "longitude": "-89.98480361705609"
    }
  },
  {
    "service_request": "2025-1223547",
    "request_type": "Trash/Recycling",
    "request_reason": "Order Trash Cart",
    "date_created": "2025-09-03T13:15:47.000",
    "date_modified": "2025-09-03T13:15:50.000",
    "request_status": "Pending",
    "responsible_agency": "Department of Sanitation",
    "final_address": "9114 Fig St",
    "address_councildis": "A",
    "status": "Assigned to Contractor",
    "contractor": "IV Waste",
    "rowid": "1223547",
    "final_x": "3663578.06752",
    "final_y": "535575.614854",
    "longitude": "-90.12452649535052",
    "latitude": "29.967179282460148",
    "geocoded_column": {
      "latitude": "29.967179282460148",
      "longitude": "-90.12452649535052"
    }
  },
  {
    "service_request": "2025-1223546",
    "request_type": "Roads and Streets",
    "request_reason": "Street Subsidence (Sinking)",
    "date_created": "2025-09-03T13:15:33.000",
    "date_modified": "2025-09-03T13:15:34.000",
    "request_status": "Pending",
    "responsible_agency": "Sewerage & Water Board",
    "final_address": "2130 Rev. John Raphael, Jr. Way",
    "address_councildis": "B",
    "status": "Pending",
    "rowid": "1223546",
    "final_x": "3675932.83118",
    "final_y": "526100.186366",
    "longitude": "-90.08583577502132",
    "latitude": "29.940760851401496",
    "geocoded_column": {
      "latitude": "29.940760851401496",
      "longitude": "-90.08583577502132"
    }
  },
  {
    "service_request": "2025-1223545",
    "request_type": "Trash/Recycling",
    "request_reason": "Order Trash Cart",
    "date_created": "2025-09-03T13:15:21.000",
    "date_modified": "2025-09-03T13:15:22.000",
    "request_status": "Pending",
    "responsible_agency": "Department of Sanitation",
    "final_address": "9114 Fig St",
    "address_councildis": "A",
    "status": "Assigned to Contractor",
    "contractor": "IV Waste",
    "rowid": "1223545",
    "final_x": "3663578.06752",
    "final_y": "535575.614854",
    "longitude": "-90.12452649535052",
    "latitude": "29.967179282460148",
    "geocoded_column": {
      "latitude": "29.967179282460148",
      "longitude": "-90.12452649535052"
    }
  },
  {
    "service_request": "2025-1223544",
    "request_type": "Abandoned Vehicles",
    "request_reason": "Abandoned/Junk Vehicles",
    "date_created": "2025-09-03T13:13:28.000",
    "date_modified": "2025-09-03T13:13:29.000",
    "request_status": "Pending",
    "responsible_agency": "Department of Public Works",
    "final_address": "6859 Memphis St",
    "address_councildis": "A",
    "status": "Pending",
    "rowid": "1223544",
    "final_x": "3669808.9417",
    "final_y": "553060.321879",
    "longitude": "-90.10425700060323",
    "latitude": "30.015074003968927",
    "geocoded_column": {
      "latitude": "30.015074003968927",
      "longitude": "-90.10425700060323"
    }
  },
  {
    "service_request": "2025-1223543",
    "request_type": "Streetlights",
    "request_reason": "Streetlight Outage/Malfunction",
    "date_created": "2025-09-03T13:13:26.000",
    "date_modified": "2025-09-03T13:13:27.000",
    "request_status": "Pending",
    "responsible_agency": "Department of Public Works",
    "final_address": "401 City Park Ave",
    "address_councildis": "A",
    "status": "Pending",
    "rowid": "1223543",
    "final_x": "3669016.54868",
    "final_y": "541580.110284",
    "longitude": "-90.10714874874854",
    "latitude": "29.983530745996323",
    "geocoded_column": {
      "latitude": "29.983530745996323",
      "longitude": "-90.10714874874854"
    }
  },
  {
    "service_request": "2025-1223542",
    "request_type": "Trash/Recycling",
    "request_reason": "Request a Large Item Pick Up",
    "date_created": "2025-09-03T13:13:10.000",
    "date_modified": "2025-09-03T13:14:49.000",
    "request_status": "Pending",
    "responsible_agency": "Department of Sanitation",
    "final_address": "6115 Royal St",
    "address_councildis": "E",
    "status": "Assigned to Contractor",
    "contractor": "Waste Pro",
    "rowid": "1223542",
    "final_x": "3699061.31632",
    "final_y": "531909.390211",
    "longitude": "-90.01260417557678",
    "latitude": "29.95602148065659",
    "geocoded_column": {
      "latitude": "29.95602148065659",
      "longitude": "-90.01260417557678"
    }
  },
  {
    "service_request": "2025-1223541",
    "request_type": "Trash/Recycling",
    "request_reason": "Replace Trash Cart",
    "date_created": "2025-09-03T13:12:45.000",
    "date_modified": "2025-09-03T13:12:47.000",
    "request_status": "Pending",
    "responsible_agency": "Department of Sanitation",
    "final_address": "1536 St Mary St",
    "address_councildis": "B",
    "status": "Assigned to Contractor",
    "contractor": "IV Waste",
    "rowid": "1223541",
    "final_x": "3678476.76475",
    "final_y": "524095.140732",
    "longitude": "-90.07787349169797",
    "latitude": "29.93517123676265",
    "geocoded_column": {
      "latitude": "29.93517123676265",
      "longitude": "-90.07787349169797"
    }
  },
  {
    "service_request": "2025-1223540",
    "request_type": "Streetlights",
    "request_reason": "Streetlight Outage/Malfunction",
    "date_created": "2025-09-03T13:11:23.000",
    "date_modified": "2025-09-03T13:11:24.000",
    "request_status": "Pending",
    "responsible_agency": "Department of Public Works",
    "final_address": "500 BLK City Park Ave",
    "address_councildis": "A",
    "status": "Pending",
    "rowid": "1223540",
    "final_x": "3669376.66351",
    "final_y": "541557.333668",
    "longitude": "-90.10601208347867",
    "latitude": "29.983457516918094",
    "geocoded_column": {
      "latitude": "29.983457516918094",
      "longitude": "-90.10601208347867"
    }
  },
  {
    "service_request": "2025-1223539",
    "request_type": "Property Maintenance",
    "request_reason": "Property Maintenance",
    "date_created": "2025-09-03T13:11:20.000",
    "date_modified": "2025-09-03T13:11:22.000",
    "request_status": "Pending",
    "responsible_agency": "Department of Code Enforcement",
    "final_address": "3938 Clematis St",
    "address_councildis": "D",
    "status": "Pending",
    "rowid": "1223539",
    "final_x": "3685559.08905",
    "final_y": "547383.413841",
    "longitude": "-90.05469424285262",
    "latitude": "29.998990633799835",
    "geocoded_column": {
      "latitude": "29.998990633799835",
      "longitude": "-90.05469424285262"
    }
  },
  {
    "service_request": "2025-1223538",
    "request_type": "Trash/Recycling",
    "request_reason": "Request a Large Item Pick Up",
    "date_created": "2025-09-03T13:03:05.000",
    "date_modified": "2025-09-03T13:03:08.000",
    "request_status": "Pending",
    "responsible_agency": "Department of Sanitation",
    "final_address": "4517 Palmyra St",
    "address_councildis": "A",
    "status": "Assigned to Contractor",
    "contractor": "IV Waste",
    "rowid": "1223538",
    "final_x": "3669121.34625",
    "final_y": "538894.242698",
    "longitude": "-90.10690854189328",
    "latitude": "29.976142435148624",
    "geocoded_column": {
      "latitude": "29.976142435148624",
      "longitude": "-90.10690854189328"
    }
  },