[
  {
    "service_request": "2023-1021371",
    "request_type": "Traffic Signals/Signs/Striping/Streetlights",
    "request_reason": "Traffic Signal Malfunctioning/Damaged",
    "date_created": "2023-07-28T01:47:00.000",
    "date_modified": "2023-07-28T01:47:00.000",
    "request_status": "Pending",
    "responsible_agency": "Department of Public Works",
    "final_address": "ST CHARLES AVE & CALHOUN ST",
    "address_councildis": "A",
    "status": "Pending",
    "rowid": "1021371",
    "final_x": "3664892.5",
    "final_y": "523121.38",
    "longitude": "-90.1207916885978",
    "latitude": "29.932895970642523",
    "geocoded_column": {
      "latitude": "29.932895970642523",
      "longitude": "-90.1207916885978"
    }
  },
  {
    "service_request": "2023-1021370",
    "request_type": "Trash/Recycling",
    "request_reason": "Request a Large Item Pick Up",
    "date_created": "2023-07-28T01:35:28.000",
    "date_modified": "2023-07-28T01:35:29.000",
    "request_status": "Pending",
    "responsible_agency": "Department of Sanitation",
    "final_address": "5834 Catina St",
    "address_councildis": "A",
    "status": "Assigned to Contractor",
    "contractor": "IV Waste",
    "rowid": "1021370",
    "final_x": "3666683.81652",
    "final_y": "546649.185809",
    "longitude": "-90.11434644505248",
    "latitude": "29.997537409173344",
    "geocoded_column": {
      "latitude": "29.997537409173344",
      "longitude": "-90.11434644505248"
    }
  },
  {
    "service_request": "2023-1021368",
    "request_type": "Trash/Recycling",
    "request_reason": "Request a Large Item Pick Up",
    "date_created": "2023-07-28T00:04:28.000",
    "date_modified": "2023-07-28T00:04:29.000",
    "request_status": "Pending",
    "responsible_agency": "Department of Sanitation",
    "final_address": "5918 Chamberlain Dr",
    "address_councildis": "D",
    "status": "Assigned to Contractor",
    "contractor": "IV Waste",
    "rowid": "1021368",
    "final_x": "3679231.91208",
    "final_y": "554285.50524",
    "longitude": "-90.07444235001584",
    "latitude": "30.018161529424468",
    "geocoded_column": {
      "latitude": "30.018161529424468",
      "longitude": "-90.07444235001584"
    }
  },
  {
    "service_request": "2023-1021367",
    "request_type": "Roads/Drainage",
    "request_reason": "Pothole",
    "date_created": "2023-07-27T23:42:24.000",
    "date_modified": "2023-07-27T23:42:24.000",
    "request_status": "Pending",
    "responsible_agency": "Department of Public Works",
    "final_address": "1301 General Pershing St",
    "address_councildis": "B",
    "status": "Pending",
    "rowid": "1021367",
    "final_x": "3671378.31316",
    "final_y": "520145.356984",
    "longitude": "-90.10041750514712",
    "latitude": "29.92452254833814",
    "geocoded_column": {
      "latitude": "29.92452254833814",
      "longitude": "-90.10041750514712"
    }
  },
  {
    "service_request": "2023-1021366",
    "request_type": "Roads/Drainage",
    "request_reason": "Pothole",
    "date_created": "2023-07-27T23:31:28.000",
    "date_modified": "2023-07-27T23:31:28.000",
    "request_status": "Pending",
    "responsible_agency": "Department of Public Works",
    "final_address": "901 General Pershing St",
    "address_councildis": "B",
    "status": "Pending",
    "rowid": "1021366",
    "final_x": "3671478.03118",
    "final_y": "518891.384311",
    "longitude": "-90.1001453296682",
    "latitude": "29.92107157249303",
    "geocoded_column": {
      "latitude": "29.92107157249303",
      "longitude": "-90.1001453296682"
    }
  },
  {
    "service_request": "2023-1021365",
    "request_type": "Roads/Drainage",
    "request_reason": "Pothole",
    "date_created": "2023-07-27T23:27:39.000",
    "date_modified": "2023-07-27T23:27:39.000",
    "request_status": "Pending",
    "responsible_agency": "Department of Public Works",
    "final_address": "1212 General Pershing St",
    "address_councildis": "B",
    "status": "Pending",
    "rowid": "1021365",
    "final_x": "3671303.80225",
    "final_y": "519979.436152",
    "longitude": "-90.10065834580207",
    "latitude": "29.924068523290988",
    "geocoded_column": {
      "latitude": "29.924068523290988",
      "longitude": "-90.10065834580207"
    }
  },
  {
    "service_request": "2023-1021364",
    "request_type": "Roads/Drainage",
    "request_reason": "Pothole",
    "date_created": "2023-07-27T23:23:30.000",
    "date_modified": "2023-07-27T23:23:30.000",
    "request_status": "Pending",
    "responsible_agency": "Department of Public Works",
    "final_address": "1427 General Pershing St",
    "address_councildis": "B",
    "status": "Pending",
    "rowid": "1021364",
    "final_x": "3671330.17102",
    "final_y": "520583.22316",
    "longitude": "-90.10055460321166",
    "latitude": "29.92572796471359",
    "geocoded_column": {
      "latitude": "29.92572796471359",
      "longitude": "-90.10055460321166"
    }
  },
  {
    "service_request": "2023-1021363",
    "request_type": "Roads/Drainage",
    "request_reason": "Pothole",
    "date_created": "2023-07-27T23:21:22.000",
    "date_modified": "2023-07-27T23:21:22.000",
    "request_status": "Pending",
    "responsible_agency": "Department of Public Works",
    "final_address": "1502 General Pershing St",
    "address_councildis": "B",
    "status": "Pending",
    "rowid": "1021363",
    "final_x": "3671219.93703",
    "final_y": "520650.519609",
    "longitude": "-90.10090029460524",
    "latitude": "29.925916269034804",
    "geocoded_column": {
      "latitude": "29.925916269034804",
      "longitude": "-90.10090029460524"
    }
  },
  {
    "service_request": "2023-1021362",
    "request_type": "Traffic Signals/Signs/Striping/Streetlights",
    "request_reason": "Street Light Outage/Malfunction",
    "date_created": "2023-07-27T23:03:58.000",
    "date_modified": "2023-07-27T23:03:59.000",
    "request_status": "Pending",
    "responsible_agency": "Department of Public Works",
    "final_address": "N MIRO ST & SPAIN ST",
    "address_councildis": "D",
    "status": "Assigned to Contractor",
    "contractor": "Legacy Professional Services",
    "rowid": "1021362",
    "final_x": "3685806.4",
    "final_y": "540448.98",
    "longitude": "-90.05415753558265",
    "latitude": "29.97991582029789",
    "geocoded_column": {
      "latitude": "29.97991582029789",
      "longitude": "-90.05415753558265"
    }
  },
  {
    "service_request": "2023-1021360",
    "request_type": "Traffic Signals/Signs/Striping/Streetlights",
    "request_reason": "Street Name Sign Damaged or Missing",
    "date_created": "2023-07-27T22:36:52.000",
    "date_modified": "2023-07-27T22:36:52.000",
    "request_status": "Pending",
    "responsible_agency": "Department of Public Works",
    "final_address": "1131 General Pershing St",
    "address_councildis": "B",
    "status": "Pending",
    "rowid": "1021360",
    "final_x": "3671416.3778",
    "final_y": "519794.4046",
    "longitude": "-90.10030926903697",
    "latitude": "29.923556415029356",
    "geocoded_column": {
      "latitude": "29.923556415029356",
      "longitude": "-90.10030926903697"
    }
  },
  {
    "service_request": "2023-1021359",
    "request_type": "Property Maintenance",
    "request_reason": "Property Maintenance",
    "date_created": "2023-07-27T22:28:16.000",
    "date_modified": "2023-07-27T22:28:16.000",
    "request_status": "Pending",
    "responsible_agency": "Department of Code Enforcement",
    "final_address": "2346 N Galvez St",
    "address_councildis": "D",
    "status": "Pending",
    "rowid": "1021359",
    "final_x": "3685908.10159",
    "final_y": "540052.894667",
    "longitude": "-90.05385028971652",
    "latitude": "29.978823602887914",
    "geocoded_column": {
      "latitude": "29.978823602887914",
      "longitude": "-90.05385028971652"
    }
  },
  {
    "service_request": "2023-1021358",
    "request_type": "Trash/Recycling",
    "request_reason": "Start Trash Service",
    "date_created": "2023-07-27T22:26:41.000",
    "date_modified": "2023-07-27T22:26:41.000",
    "request_status": "Pending",
    "responsible_agency": "Department of Sanitation",
    "final_address": "923 Cherokee St",
    "address_councildis": "A",
    "status": "Assigned to Contractor",
    "contractor": "Richards Disposal",
    "rowid": "1021358",
    "final_x": "3663008.66701",
    "final_y": "526306.801726",
    "longitude": "-90.12663293377673",
    "latitude": "29.94170955031631",
    "geocoded_column": {
      "latitude": "29.94170955031631",
      "longitude": "-90.12663293377673"
    }
  },
  {
    "service_request": "2023-1021357",
    "request_type": "Roads/Drainage",
    "request_reason": "Pothole",
    "date_created": "2023-07-27T21:55:50.000",
    "date_modified": "2023-07-27T21:55:50.000",
    "request_status": "Pending",
    "responsible_agency": "Department of Public Works",
    "final_address": "1221 Constantinople St",
    "address_councildis": "B",
    "status": "Pending",
    "rowid": "1021357",
    "final_x": "3672464.70081",
    "final_y": "520181.419896",
    "longitude": "-90.09698691327688",
    "latitude": "29.92458952289487",
    "geocoded_column": {
      "latitude": "29.92458952289487",
      "longitude": "-90.09698691327688"
    }
  },
  {
    "service_request": "2023-1021356",
    "request_type": "Trash/Recycling",
    "request_reason": "Replace Trash Cart",
    "date_created": "2023-07-27T21:40:21.000",
    "date_modified": "2023-07-27T21:40:22.000",
    "request_status": "Pending",
    "responsible_agency": "Department of Sanitation",
    "final_address": "728 Eleonore St",
    "address_councildis": "A",
    "status": "Assigned to Contractor",
    "contractor": "Richards Disposal",
    "rowid": "1021356",
    "final_x": "3665163.41754",
    "final_y": "518976.988983",
    "longitude": "-90.12007495214247",
    "latitude": "29.921492315851108",
    "geocoded_column": {
      "latitude": "29.921492315851108",
      "longitude": "-90.12007495214247"
    }
  },
  {
    "service_request": "2023-1021355",
    "request_type": "Health Related Request",
    "request_reason": "Noise Ordinance Complaint",
    "date_created": "2023-07-27T21:28:53.000",
    "date_modified": "2023-07-27T21:28:53.000",
    "request_status": "Pending",
    "responsible_agency": "Health Department",
    "final_address": "3800 BLK Perrier St",
    "address_councildis": "B",
    "status": "Pending",
    "rowid": "1021355",
    "final_x": "3672947.91096",
    "final_y": "520287.670827",
    "longitude": "-90.09545795576994",
    "latitude": "29.92486733386166",
    "geocoded_column": {
      "latitude": "29.92486733386166",
      "longitude": "-90.09545795576994"
    }
  },
  {
    "service_request": "2023-1021354",
    "request_type": "Trash/Recycling",
    "request_reason": "Missed Trash Pick-Up",
    "date_created": "2023-07-27T21:25:55.000",
    "date_modified": "2023-07-27T21:25:55.000",
    "request_status": "Pending",
    "responsible_agency": "Department of Sanitation",
    "final_address": "4760 Major Dr",
    "address_councildis": "E",
    "status": "Assigned to Contractor",
    "contractor": "Waste Pro",
    "rowid": "1021354",
    "final_x": "3718146.94828",
    "final_y": "557034.244826",
    "longitude": "-89.95138222211426",
    "latitude": "30.024486469193167",
    "geocoded_column": {
      "latitude": "30.024486469193167",
      "longitude": "-89.95138222211426"
    }
  },
  {
    "service_request": "2023-1021353",
    "request_type": "Traffic Signals/Signs/Striping/Streetlights",
    "request_reason": "Street Light Outage/Malfunction",
    "date_created": "2023-07-27T21:22:49.000",
    "date_modified": "2023-07-27T21:22:50.000",
    "request_status": "Pending",
    "responsible_agency": "Department of Public Works",
    "final_address": "7318 Malvern Dr",
    "address_councildis": "E",
    "status": "Assigned to Contractor",
    "contractor": "Legacy Professional Services",
    "rowid": "1021353",
    "final_x": "3702703.95626",
    "final_y": "560686.847006",
    "longitude": "-90.00004471131423",
    "latitude": "30.035032787742672",
    "geocoded_column": {
      "latitude": "30.035032787742672",
      "longitude": "-90.00004471131423"
    }
  },
  {
    "service_request": "2023-1021352",
    "request_type": "Trash/Recycling",
    "request_reason": "Request a Large Item Pick Up",
    "date_created": "2023-07-27T21:21:44.000",
    "date_modified": "2023-07-27T21:21:45.000",
    "request_status": "Pending",
    "responsible_agency": "Department of Sanitation",
    "final_address": "7311 Malvern Dr",
    "address_councildis": "E",
    "status": "Assigned to Contractor",
    "contractor": "Waste Pro",
    "rowid": "1021352",
    "final_x": "3702913.17751",
    "final_y": "560718.447198",
    "longitude": "-89.99938238132644",
    "latitude": "30.03511298036947",
    "geocoded_column": {
      "latitude": "30.03511298036947",
      "longitude": "-89.99938238132644"
    }
  },
  {
    "service_request": "2023-1021351",
    "request_type": "Traffic Signals/Signs/Striping/Streetlights",
    "request_reason": "Street Light Outage/Malfunction",
    "date_created": "2023-07-27T21:11:09.000",
    "date_modified": "2023-07-27T21:11:09.000",
    "request_status": "Pending",
    "responsible_agency": "Department of Public Works",
    "final_address": "GENERAL OGDEN ST & COHN ST",
    "address_councildis": "A",
    "status": "Assigned to Contractor",
    "contractor": "Legacy Professional Services",
    "rowid": "1021351",
    "final_x": "3661523.8",
    "final_y": "532097.38",
    "longitude": "-90.1311291723233",
    "latitude": "29.9576746982006",
    "geocoded_column": {
      "latitude": "29.9576746982006",
      "longitude": "-90.1311291723233"
    }
  },
  {
    "service_request": "2023-1021350",
    "request_type": "Trash/Recycling",
    "request_reason": "Order Trash Cart",
    "date_created": "2023-07-27T21:05:56.000",
    "date_modified": "2023-07-27T21:05:57.000",
    "request_status": "Pending",
    "responsible_agency": "Department of Sanitation",
    "final_address": "2013 Seventh St",
    "address_councildis": "B",
    "status": "Assigned to Contractor",
    "contractor": "Richards Disposal",
    "rowid": "1021350",
    "final_x": "3674416.17454",
    "final_y": "523402.865211",
    "longitude": "-90.09071648208243",
    "latitude": "29.93338941409967",
    "geocoded_column": {
      "latitude": "29.93338941409967",
      "longitude": "-90.09071648208243"
    }
  },
  {
    "service_request": "2023-1021349",
    "request_type": "Traffic Signals/Signs/Striping/Streetlights",
    "request_reason": "Street Light Outage/Malfunction",
    "date_created": "2023-07-27T20:47:22.000",
    "date_modified": "2023-07-27T20:47:22.000",
    "request_status": "Pending",
    "responsible_agency": "Department of Public Works",
    "final_address": "6320 Pontchartrain Blvd",
    "address_councildis": "A",
    "status": "Assigned to Contractor",
    "contractor": "Legacy Professional Services",
    "rowid": "1021349",
    "final_x": "3666148.44897",
    "final_y": "549763.467348",
    "longitude": "-90.1159331386901",
    "latitude": "30.006116258144914",
    "geocoded_column": {
      "latitude": "30.006116258144914",
      "longitude": "-90.1159331386901"
    }
  },
  {
    "service_request": "2023-1021348",
    "request_type": "Abandoned Vehicles",
    "request_reason": "Abandoned/Junk Vehicles",
    "date_created": "2023-07-27T20:42:24.000",
    "date_modified": "2023-07-27T20:42:24.000",
    "request_status": "Pending",
    "responsible_agency": "Department of Public Works",
    "final_address": "833 Howard Ave",
    "address_councildis": "B",
    "status": "Pending",
    "rowid": "1021348",
    "final_x": "3679612.12091",
    "final_y": "527553.411775",
    "longitude": "-90.07416920108783",
    "latitude": "29.94464608128757",
    "geocoded_column": {
      "latitude": "29.94464608128757",
      "longitude": "-90.07416920108783"
    }
  },
  {
    "service_request": "2023-1021347",
    "request_type": "Trash/Recycling",
    "request_reason": "Request a Large Item Pick Up",
    "date_created": "2023-07-27T20:35:21.000",
    "date_modified": "2023-07-27T20:35:22.000",
    "request_status": "Pending",
    "responsible_agency": "Department of Sanitation",
    "final_address": "1736 General Ogden St",
    "address_councildis": "A",
    "status": "Assigned to Contractor",
    "contractor": "Richards Disposal",
    "rowid": "1021347",
    "final_x": "3661207.46323",
    "final_y": "531813.879427",
    "longitude": "-90.1321374616744",
    "latitude": "29.956904285537327",
    "geocoded_column": {
      "latitude": "29.956904285537327",
      "longitude": "-90.1321374616744"
    }
  },
  {
    "service_request": "2023-1021346",
    "request_type": "Property Maintenance",
    "request_reason": "Property Maintenance",
    "date_created": "2023-07-27T20:17:16.000",
    "date_modified": "2023-07-27T20:17:16.000",
    "request_status": "Pending",
    "responsible_agency": "Department of Code Enforcement",
    "final_address": "9136 Forshey St",
    "address_councildis": "A",
    "status": "Pending",
    "rowid": "1021346",
    "final_x": "3664148.33664",
    "final_y": "536473.806919",
    "longitude": "-90.1226956028563",
    "latitude": "29.969632459862485",
    "geocoded_column": {
      "latitude": "29.969632459862485",
      "longitude": "-90.1226956028563"
    }
  },
  {
    "service_request": "2023-1021345",
    "request_type": "Trash/Recycling",
    "request_reason": "Missed Trash Pick-Up",
    "date_created": "2023-07-27T20:12:52.000",
    "date_modified": "2023-07-27T20:12:52.000",
    "request_status": "Pending",
    "responsible_agency": "Department of Sanitation",
    "status": "Assigned to Contractor",
    "rowid": "1021345",
    "longitude": "0.0",
    "latitude": "0.0",
    "geocoded_column": {
      "latitude": "0.0",
      "longitude": "0.0"
    }
  },
  {
    "service_request": "2023-1021344",
    "request_type": "Abandoned Vehicles",
    "request_reason": "Abandoned/Junk Vehicles",
    "date_created": "2023-07-27T20:08:54.000",
    "date_modified": "2023-07-27T20:08:54.000",
    "request_status": "Pending",
    "responsible_agency": "Department of Public Works",
    "final_address": "9200 BLK Forshey St",
    "address_councildis": "A",
    "status": "Pending",
    "rowid": "1021344",
    "final_x": "3664012.57843",
    "final_y": "536644.931419",
    "longitude": "-90.1231186331791",
    "latitude": "29.97010693899257",
    "geocoded_column": {
      "latitude": "29.97010693899257",
      "longitude": "-90.1231186331791"
    }
  },
  {
    "service_request": "2023-1021343",
    "request_type": "Utility Poles",
    "request_reason": "Utility Pole Leaning",
    "date_created": "2023-07-27T19:52:02.000",
    "date_modified": "2023-07-27T19:52:10.000",
    "request_status": "Pending",
    "responsible_agency": "Utility Company Collective",
    "final_address": "221 Millaudon St",
    "address_councildis": "A",
    "status": "Pending",
    "rowid": "1021343",
    "final_x": "3661172.5008",
    "final_y": "523781.036411",
    "longitude": "-90.13251368550243",
    "latitude": "29.934817536425708",
    "geocoded_column": {
      "latitude": "29.934817536425708",
      "longitude": "-90.13251368550243"
    }
  },
  {
    "service_request": "2023-1021342",
    "request_type": "Trash/Recycling",
    "request_reason": "Return Recycling Cart",
    "date_created": "2023-07-27T19:42:55.000",
    "date_modified": "2023-07-27T19:42:55.000",
    "request_status": "Pending",
    "responsible_agency": "Department of Sanitation",
    "final_address": "3323 St Philip St",
    "address_councildis": "A",
    "status": "Pending",
    "rowid": "1021342",
    "final_x": "3675219.40328",
    "final_y": "539577.218122",
    "longitude": "-90.08762561554398",
    "latitude": "29.977839506769723",
    "geocoded_column": {
      "latitude": "29.977839506769723",
      "longitude": "-90.08762561554398"
    }
  },
  {
    "service_request": "2023-1021341",
    "request_type": "Roads/Drainage",
    "request_reason": "Pothole",
    "date_created": "2023-07-27T19:25:14.000",
    "date_modified": "2023-07-27T19:25:14.000",
    "request_status": "Pending",
    "responsible_agency": "Department of Public Works",
    "final_address": "831 Third St",
    "address_councildis": "B",
    "status": "Pending",
    "rowid": "1021341",
    "final_x": "3678067.34875",
    "final_y": "520473.358264",
    "longitude": "-90.07929115387763",
    "latitude": "29.9252248468082",
    "geocoded_column": {
      "latitude": "29.9252248468082",
      "longitude": "-90.07929115387763"
    }
  },
  {
    "service_request": "2023-1021340",
    "request_type": "Trash/Recycling",
    "request_reason": "MIssed Recycling Pick-Up",
    "date_created": "2023-07-27T19:14:45.000",
    "date_modified": "2023-07-27T19:14:46.000",
    "request_status": "Pending",
    "responsible_agency": "Department of Sanitation",
    "final_address": "1728 Fourth St",
    "address_councildis": "B",
    "status": "Assigned to Contractor",
    "contractor": "Richards Disposal",
    "rowid": "1021340",
    "final_x": "3675810.30888",
    "final_y": "523212.994363",
    "longitude": "-90.08632180164958",
    "latitude": "29.932825685759862",
    "geocoded_column": {
      "latitude": "29.932825685759862",
      "longitude": "-90.08632180164958"
    }
  },
  {
    "service_request": "2023-1021339",
    "request_type": "Trash/Recycling",
    "request_reason": "Repair Trash Cart",
    "date_created": "2023-07-27T19:09:12.000",
    "date_modified": "2023-07-27T19:09:12.000",
    "request_status": "Pending",
    "responsible_agency": "Department of Sanitation",
    "final_address": "3 Heron St",
    "address_councildis": "D",
    "status": "Assigned to Contractor",
    "contractor": "IV Waste",
    "rowid": "1021339",
    "final_x": "3675161.84891",
    "final_y": "555259.792985",
    "longitude": "-90.08726875840115",
    "latitude": "30.020962795282003",
    "geocoded_column": {
      "latitude": "30.020962795282003",
      "longitude": "-90.08726875840115"
    }
  },
  {
    "service_request": "2023-1021338",
    "request_type": "Trash/Recycling",
    "request_reason": "Request a Large Item Pick Up",
    "date_created": "2023-07-27T19:07:32.000",
    "date_modified": "2023-07-27T19:07:32.000",
    "request_status": "Pending",
    "responsible_agency": "Department of Sanitation",
    "final_address": "2805 Orleans Ave",
    "address_councildis": "A",
    "status": "Assigned to Contractor",
    "contractor": "Richards Disposal",
    "rowid": "1021338",
    "final_x": "3676307.27617",
    "final_y": "537446.10388",
    "longitude": "-90.08426310423053",
    "latitude": "29.971947107505034",
    "geocoded_column": {
      "latitude": "29.971947107505034",
      "longitude": "-90.08426310423053"
    }
  },
  {
    "service_request": "2023-1021337",
    "request_type": "Trash/Recycling",
    "request_reason": "Missed Trash Pick-Up",
    "date_created": "2023-07-27T19:02:56.000",
    "date_modified": "2023-07-27T19:02:56.000",
    "request_status": "Pending",
    "responsible_agency": "Department of Sanitation",
    "final_address": "803 Napoleon Ave",
    "address_councildis": "B",
    "status": "Assigned to Contractor",
    "contractor": "Richards Disposal",
    "rowid": "1021337",
    "final_x": "3671181.73371",
    "final_y": "518507.966263",
    "longitude": "-90.10109362538603",
    "latitude": "29.920026059631773",
    "geocoded_column": {
      "latitude": "29.920026059631773",
      "longitude": "-90.10109362538603"
    }
  },
  {
    "service_request": "2023-1021336",
    "request_type": "Property Maintenance",
    "request_reason": "Property Maintenance",
    "date_created": "2023-07-27T19:00:03.000",
    "date_modified": "2023-07-27T19:00:03.000",
    "request_status": "Pending",
    "responsible_agency": "Department of Code Enforcement",
    "final_address": "1963 N Prieur St",
    "address_councildis": "D",
    "status": "Pending",
    "rowid": "1021336",
    "final_x": "3683460.32969",
    "final_y": "539235.220362",
    "longitude": "-90.06160993154775",
    "latitude": "29.976650212458892",
    "geocoded_column": {
      "latitude": "29.976650212458892",
      "longitude": "-90.06160993154775"
    }
  },
  {
    "service_request": "2023-1021335",
    "request_type": "Trash/Recycling",
    "request_reason": "Illegal Dumping",
    "date_created": "2023-07-27T18:59:52.000",
    "date_modified": "2023-07-27T18:59:52.000",
    "request_status": "Pending",
    "responsible_agency": "Department of Sanitation",
    "final_address": "FRANKLIN AVE & ELDER ST",
    "address_councildis": "D",
    "status": "Pending",
    "rowid": "1021335",
    "final_x": "3687156.3",
    "final_y": "545768.88",
    "longitude": "-90.0497057754717",
    "latitude": "29.994502143375684",
    "geocoded_column": {
      "latitude": "29.994502143375684",
      "longitude": "-90.0497057754717"
    }
  },
  {
    "service_request": "2023-1021334",
    "request_type": "Abandoned Vehicles",
    "request_reason": "Vehicle Blocking Your Driveway",
    "date_created": "2023-07-27T18:58:17.000",
    "date_modified": "2023-07-27T18:58:17.000",
    "request_status": "Pending",
    "responsible_agency": "Department of Public Works",
    "final_address": "3936 Toledano St",
    "address_councildis": "B",
    "status": "Pending",
    "rowid": "1021334",
    "final_x": "3671267.69659",
    "final_y": "529300.959553",
    "longitude": "-90.10045572032408",
    "latitude": "29.949700763539546",
    "geocoded_column": {
      "latitude": "29.949700763539546",
      "longitude": "-90.10045572032408"
    }
  },
  {
    "service_request": "2023-1021333",
    "request_type": "Abandoned Vehicles",
    "request_reason": "Vehicle Blocking Your Driveway",
    "date_created": "2023-07-27T18:52:25.000",
    "date_modified": "2023-07-27T18:52:25.000",
    "request_status": "Pending",
    "responsible_agency": "Department of Public Works",
    "final_address": "3936 Toledano St",
    "address_councildis": "B",
    "status": "Pending",
    "rowid": "1021333",
    "final_x": "3671267.69659",
    "final_y": "529300.959553",
    "longitude": "-90.10045572032408",
    "latitude": "29.949700763539546",
    "geocoded_column": {
      "latitude": "29.949700763539546",
      "longitude": "-90.10045572032408"
    }
  },
  {
    "service_request": "2023-1021332",
    "request_type": "Trash/Recycling",
    "request_reason": "Replace Trash Cart",
    "date_created": "2023-07-27T18:33:28.000",
    "date_modified": "2023-07-27T18:33:29.000",
    "request_status": "Pending",
    "responsible_agency": "Department of Sanitation",
    "final_address": "422 Dearmas St",
    "address_councildis": "C",
    "status": "Assigned to Contractor",
    "contractor": "Richards Disposal",
    "rowid": "1021332",
    "final_x": "3686824.85007",
    "final_y": "527213.850431",
    "longitude": "-90.05140852252919",
    "latitude": "29.9434924915912",
    "geocoded_column": {
      "latitude": "29.9434924915912",
      "longitude": "-90.05140852252919"
    }
  },
  {
    "service_request": "2023-1021331",
    "request_type": "Trash/Recycling",
    "request_reason": "Replace Trash Cart",
    "date_created": "2023-07-27T18:32:59.000",
    "date_modified": "2023-07-27T18:32:59.000",
    "request_status": "Pending",
    "responsible_agency": "Department of Sanitation",
    "final_address": "422 Dearmas St",
    "address_councildis": "C",
    "status": "Assigned to Contractor",
    "contractor": "Richards Disposal",
    "rowid": "1021331",
    "final_x": "3686824.85007",
    "final_y": "527213.850431",
    "longitude": "-90.05140852252919",
    "latitude": "29.9434924915912",
    "geocoded_column": {
      "latitude": "29.9434924915912",
      "longitude": "-90.05140852252919"
    }
  },
  {
    "service_request": "2023-1021330",
    "request_type": "Trash/Recycling",
    "request_reason": "Replace Trash Cart",
    "date_created": "2023-07-27T18:32:54.000",
    "date_modified": "2023-07-27T18:32:54.000",
    "request_status": "Pending",
    "responsible_agency": "Department of Sanitation",
    "final_address": "422 Dearmas St",
    "address_councildis": "C",
    "status": "Assigned to Contractor",
    "contractor": "Richards Disposal",
    "rowid": "1021330",
    "final_x": "3686824.85007",
    "final_y": "527213.850431",
    "longitude": "-90.05140852252919",
    "latitude": "29.9434924915912",
    "geocoded_column": {
      "latitude": "29.9434924915912",
      "longitude": "-90.05140852252919"
    }
  },
  {
    "service_request": "2023-1021329",
    "request_type": "Trash/Recycling",
    "request_reason": "Replace Trash Cart",
    "date_created": "2023-07-27T18:31:24.000",
    "date_modified": "2023-07-27T18:31:25.000",
    "request_status": "Pending",
    "responsible_agency": "Department of Sanitation",
    "final_address": "422 Dearmas St",
    "address_councildis": "C",
    "status": "Assigned to Contractor",
    "contractor": "Richards Disposal",
    "rowid": "1021329",
    "final_x": "3686824.85007",
    "final_y": "527213.850431",
    "longitude": "-90.05140852252919",
    "latitude": "29.9434924915912",
    "geocoded_column": {
      "latitude": "29.9434924915912",
      "longitude": "-90.05140852252919"
    }
  },
  {
    "service_request": "2023-1021328",
    "request_type": "Trash/Recycling",
    "request_reason": "Order Trash Cart",
    "date_created": "2023-07-27T18:26:18.000",
    "date_modified": "2023-07-27T18:26:19.000",
    "request_status": "Pending",
    "responsible_agency": "Department of Sanitation",
    "final_address": "2620 Arts St",
    "address_councildis": "D",
    "status": "Assigned to Contractor",
    "contractor": "IV Waste",
    "rowid": "1021328",
    "final_x": "3686711.5846",
    "final_y": "542184.648781",
    "longitude": "-90.05123725724216",
    "latitude": "29.98466047823348",
    "geocoded_column": {
      "latitude": "29.98466047823348",
      "longitude": "-90.05123725724216"
    }
  },
  {
    "service_request": "2023-1021327",
    "request_type": "Traffic Signals/Signs/Striping/Streetlights",
    "request_reason": "Street Light Outage/Malfunction",
    "date_created": "2023-07-27T18:26:10.000",
    "date_modified": "2023-07-27T18:26:10.000",
    "request_status": "Pending",
    "responsible_agency": "Department of Public Works",
    "final_address": "1120 Jena St",
    "address_councildis": "B",
    "status": "Assigned to Contractor",
    "contractor": "Legacy Professional Services",
    "rowid": "1021327",
    "final_x": "3670527.59233",
    "final_y": "519654.925432",
    "longitude": "-90.10311956991697",
    "latitude": "29.923199159973517",
    "geocoded_column": {
      "latitude": "29.923199159973517",
      "longitude": "-90.10311956991697"
    }
  },
  {
    "service_request": "2023-1021326",
    "request_type": "Abandoned Vehicles",
    "request_reason": "Abandoned/Junk Vehicles",
    "date_created": "2023-07-27T18:15:40.000",
    "date_modified": "2023-07-27T18:15:40.000",
    "request_status": "Pending",
    "responsible_agency": "Department of Public Works",
    "final_address": "10840 Roger Dr",
    "address_councildis": "E",
    "status": "Pending",
    "rowid": "1021326",
    "final_x": "3711867.71685",
    "final_y": "563184.178912",
    "longitude": "-89.97099224236545",
    "latitude": "30.041603079054916",
    "geocoded_column": {
      "latitude": "30.041603079054916",
      "longitude": "-89.97099224236545"
    }
  },
  {
    "service_request": "2023-1021325",
    "request_type": "Roads/Drainage",
    "request_reason": "Man hole cover issue",
    "date_created": "2023-07-27T18:09:00.000",
    "date_modified": "2023-07-27T18:09:01.000",
    "request_status": "Pending",
    "responsible_agency": "Department of Public Works",
    "final_address": "ELBA ST & S DUPRE ST",
    "address_councildis": "B",
    "status": "Pending",
    "rowid": "1021325",
    "final_x": "3670598.7",
    "final_y": "529874.08",
    "longitude": "-90.10254861587573",
    "latitude": "29.95129643218838",
    "geocoded_column": {
      "latitude": "29.95129643218838",
      "longitude": "-90.10254861587573"
    }
  },
  {
    "service_request": "2023-1021324",
    "request_type": "Trash/Recycling",
    "request_reason": "Request a Large Item Pick Up",
    "date_created": "2023-07-27T18:04:28.000",
    "date_modified": "2023-07-27T18:04:28.000",
    "request_status": "Pending",
    "responsible_agency": "Department of Sanitation",
    "final_address": "7721 Alabama St",
    "address_councildis": "D",
    "status": "Assigned to Contractor",
    "contractor": "Waste Pro",
    "rowid": "1021324",
    "final_x": "3694868.15709",
    "final_y": "558932.643228",
    "longitude": "-90.02487026285651",
    "latitude": "30.030457771883004",
    "geocoded_column": {
      "latitude": "30.030457771883004",
      "longitude": "-90.02487026285651"
    }
  },
  {
    "service_request": "2023-1021323",
    "request_type": "Traffic Signals/Signs/Striping/Streetlights",
    "request_reason": "Street Light Outage/Malfunction",
    "date_created": "2023-07-27T18:03:20.000",
    "date_modified": "2023-07-27T18:03:21.000",
    "request_status": "Pending",
    "responsible_agency": "Department of Public Works",
    "final_address": "2527 Gravier St",
    "address_councildis": "B",
    "status": "Assigned to Contractor",
    "contractor": "Legacy Professional Services",
    "rowid": "1021323",
    "final_x": "3674722.59444",
    "final_y": "533019.294404",
    "longitude": "-90.08941956224103",
    "latitude": "29.959822279206737",
    "geocoded_column": {
      "latitude": "29.959822279206737",
      "longitude": "-90.08941956224103"
    }
  },
  {
    "service_request": "2023-1021322",
    "request_type": "Trash/Recycling",
    "request_reason": "Dead Animal Pick Up",
    "date_created": "2023-07-27T17:53:03.000",
    "date_modified": "2023-07-27T17:53:03.000",
    "request_status": "Pending",
    "responsible_agency": "Department of Sanitation",
    "final_address": "700 Austerlitz St",
    "address_councildis": "B",
    "status": "Assigned to Contractor",
    "contractor": "Richards Disposal",
    "rowid": "1021322",
    "final_x": "3672898.22555",
    "final_y": "518260.229814",
    "longitude": "-90.09568392413718",
    "latitude": "29.919293994935824",
    "geocoded_column": {
      "latitude": "29.919293994935824",
      "longitude": "-90.09568392413718"
    }
  },
  {
    "service_request": "2023-1021321",
    "request_type": "Trash/Recycling",
    "request_reason": "Request a Large Item Pick Up",
    "date_created": "2023-07-27T17:50:52.000",
    "date_modified": "2023-07-27T17:50:52.000",
    "request_status": "Pending",
    "responsible_agency": "Department of Sanitation",
    "final_address": "2312 Dryades St",
    "address_councildis": "B",
    "status": "Assigned to Contractor",
    "contractor": "Richards Disposal",
    "rowid": "1021321",
    "final_x": "3676448.00801",
    "final_y": "524142.286844",
    "longitude": "-90.08427665337723",
    "latitude": "29.93536183807982",
    "geocoded_column": {
      "latitude": "29.93536183807982",
      "longitude": "-90.08427665337723"
    }
  },
  {
    "service_request": "2023-1021320",
    "request_type": "Trash/Recycling",
    "request_reason": "MIssed Recycling Pick-Up",
    "date_created": "2023-07-27T17:43:35.000",
    "date_modified": "2023-07-27T17:43:35.000",
    "request_status": "Pending",
    "responsible_agency": "Department of Sanitation",
    "final_address": "1812 Valence St",
    "address_councildis": "B",
    "status": "Assigned to Contractor",
    "contractor": "Richards Disposal",
    "rowid": "1021320",
    "final_x": "3669578.27988",
    "final_y": "521596.414649",
    "longitude": "-90.10605055418628",
    "latitude": "29.92856562834871",
    "geocoded_column": {
      "latitude": "29.92856562834871",
      "longitude": "-90.10605055418628"
    }
  },
  {
    "service_request": "2023-1021319",
    "request_type": "Traffic Signals/Signs/Striping/Streetlights",
    "request_reason": "Traffic Signal Malfunctioning/Damaged",
    "date_created": "2023-07-27T17:42:42.000",
    "date_modified": "2023-07-27T17:42:42.000",
    "request_status": "Pending",
    "responsible_agency": "Department of Public Works",
    "final_address": "TULANE AVE & S PIERCE ST",
    "address_councildis": "B",
    "status": "Pending",
    "rowid": "1021319",
    "final_x": "3669899.1",
    "final_y": "535968.88",
    "longitude": "-90.10455123994214",
    "latitude": "29.968075758144103",
    "geocoded_column": {
      "latitude": "29.968075758144103",
      "longitude": "-90.10455123994214"
    }
  },
  {
    "service_request": "2023-1021318",
    "request_type": "Trash/Recycling",
    "request_reason": "Request a Large Item Pick Up",
    "date_created": "2023-07-27T17:40:42.000",
    "date_modified": "2023-07-27T17:40:43.000",
    "request_status": "Pending",
    "responsible_agency": "Department of Sanitation",
    "final_address": "2216 Freret St",
    "address_councildis": "B",
    "status": "Assigned to Contractor",
    "contractor": "Richards Disposal",
    "rowid": "1021318",
    "final_x": "3675504.33672",
    "final_y": "526186.527614",
    "longitude": "-90.08718564341278",
    "latitude": "29.941011081983223",
    "geocoded_column": {
      "latitude": "29.941011081983223",
      "longitude": "-90.08718564341278"
    }
  },
  {
    "service_request": "2023-1021317",
    "request_type": "Trash/Recycling",
    "request_reason": "Request a Large Item Pick Up",
    "date_created": "2023-07-27T17:37:55.000",
    "date_modified": "2023-07-27T17:37:55.000",
    "request_status": "Closed",
    "responsible_agency": "Department of Sanitation",
    "final_address": "2216 Freret St",
    "address_councildis": "B",
    "status": "Resolved",
    "rowid": "1021317",
    "final_x": "3675504.33672",
    "final_y": "526186.527614",
    "longitude": "-90.08718564341278",
    "latitude": "29.941011081983223",
    "geocoded_column": {
      "latitude": "29.941011081983223",
      "longitude": "-90.08718564341278"
    }
  },
  {
    "service_request": "2023-1021316",
    "request_type": "Trash/Recycling",
    "request_reason": "Request a Large Item Pick Up",
    "date_created": "2023-07-27T17:32:03.000",
    "date_modified": "2023-07-27T17:32:03.000",
    "request_status": "Pending",
    "responsible_agency": "Department of Sanitation",
    "final_address": "1339 Harrison Ave",
    "address_councildis": "D",
    "status": "Assigned to Contractor",
    "contractor": "IV Waste",
    "rowid": "1021316",
    "final_x": "3677659.09698",
    "final_y": "547659.712594",
    "longitude": "-90.07964091195626",
    "latitude": "29.999990389044903",
    "geocoded_column": {
      "latitude": "29.999990389044903",
      "longitude": "-90.07964091195626"
    }
  },
  {
    "service_request": "2023-1021315",
    "request_type": "Trash/Recycling",
    "request_reason": "Missed Trash Pick-Up",
    "date_created": "2023-07-27T17:31:27.000",
    "date_modified": "2023-07-27T17:31:28.000",
    "request_status": "Pending",
    "responsible_agency": "Department of Sanitation",
    "final_address": "2416 Broadway St",
    "address_councildis": "A",
    "status": "Assigned to Contractor",
    "contractor": "Richards Disposal",
    "rowid": "1021315",
    "final_x": "3666634.66746",
    "final_y": "530275.214657",
    "longitude": "-90.11505165675878",
    "latitude": "29.952515904601903",
    "geocoded_column": {
      "latitude": "29.952515904601903",
      "longitude": "-90.11505165675878"
    }
  },
  {
    "service_request": "2023-1021314",
    "request_type": "Traffic Signals/Signs/Striping/Streetlights",
    "request_reason": "Street Light Outage/Malfunction",
    "date_created": "2023-07-27T17:19:28.000",
    "date_modified": "2023-07-27T17:19:28.000",
    "request_status": "Pending",
    "responsible_agency": "Department of Public Works",
    "final_address": "4569 Eastview Dr",
    "address_councildis": "E",
    "status": "Assigned to Contractor",
    "contractor": "Legacy Professional Services",
    "rowid": "1021314",
    "final_x": "3705320.1395",
    "final_y": "554273.061848",
    "longitude": "-89.99201448779822",
    "latitude": "30.017313409774893",
    "geocoded_column": {
      "latitude": "30.017313409774893",
      "longitude": "-89.99201448779822"
    }
  },
  {
    "service_request": "2023-1021313",
    "request_type": "Trash/Recycling",
    "request_reason": "Order Recycling Cart",
    "date_created": "2023-07-27T17:19:11.000",
    "date_modified": "2023-07-27T17:19:11.000",
    "request_status": "Pending",
    "responsible_agency": "Department of Sanitation",
    "final_address": "224 S Olympia St",
    "address_councildis": "A",
    "status": "Pending",
    "rowid": "1021313",
    "final_x": "3669065.93262",
    "final_y": "539109.923722",
    "longitude": "-90.1070762650104",
    "latitude": "29.976737115996272",
    "geocoded_column": {
      "latitude": "29.976737115996272",
      "longitude": "-90.1070762650104"
    }
  },
  {
    "service_request": "2023-1021312",
    "request_type": "Trash/Recycling",
    "request_reason": "Order Recycling Cart",
    "date_created": "2023-07-27T17:18:53.000",
    "date_modified": "2023-07-27T17:18:53.000",
    "request_status": "Pending",
    "responsible_agency": "Department of Sanitation",
    "final_address": "8216 Fig St",
    "address_councildis": "A",
    "status": "Pending",
    "rowid": "1021312",
    "final_x": "3665904.06144",
    "final_y": "533452.210308",
    "longitude": "-90.11725212309928",
    "latitude": "29.961272943385364",
    "geocoded_column": {
      "latitude": "29.961272943385364",
      "longitude": "-90.11725212309928"
    }
  },
  {
    "service_request": "2023-1021311",
    "request_type": "Trash/Recycling",
    "request_reason": "Dead Animal Pick Up",
    "date_created": "2023-07-27T17:17:26.000",
    "date_modified": "2023-07-27T17:17:26.000",
    "request_status": "Pending",
    "responsible_agency": "Department of Sanitation",
    "final_address": "704 Austerlitz St",
    "address_councildis": "B",
    "status": "Assigned to Contractor",
    "contractor": "Richards Disposal",
    "rowid": "1021311",
    "final_x": "3672894.74081",
    "final_y": "518290.873334",
    "longitude": "-90.09569387896802",
    "latitude": "29.919378358347135",
    "geocoded_column": {
      "latitude": "29.919378358347135",
      "longitude": "-90.09569387896802"
    }
  },
  {
    "service_request": "2023-1021310",
    "request_type": "Trash/Recycling",
    "request_reason": "MIssed Recycling Pick-Up",
    "date_created": "2023-07-27T17:13:10.000",
    "date_modified": "2023-07-27T17:13:10.000",
    "request_status": "Pending",
    "responsible_agency": "Department of Sanitation",
    "final_address": "2520 Touro St",
    "address_councildis": "D",
    "status": "Assigned to Contractor",
    "contractor": "IV Waste",
    "rowid": "1021310",
    "final_x": "3683774.0477",
    "final_y": "541596.95342",
    "longitude": "-90.06053625909428",
    "latitude": "29.983134572803795",
    "geocoded_column": {
      "latitude": "29.983134572803795",
      "longitude": "-90.06053625909428"
    }
  },
  {
    "service_request": "2023-1021309",
    "request_type": "Trash/Recycling",
    "request_reason": "Request a Large Item Pick Up",
    "date_created": "2023-07-27T17:10:52.000",
    "date_modified": "2023-07-27T17:10:53.000",
    "request_status": "Pending",
    "responsible_agency": "Department of Sanitation",
    "final_address": "7221 Westhaven Rd",
    "address_councildis": "E",
    "status": "Assigned to Contractor",
    "contractor": "Waste Pro",
    "rowid": "1021309",
    "final_x": "3703599.20753",
    "final_y": "560446.564126",
    "longitude": "-89.99722445107695",
    "latitude": "30.034343430432987",
    "geocoded_column": {
      "latitude": "30.034343430432987",
      "longitude": "-89.99722445107695"
    }
  },
  {
    "service_request": "2023-1021308",
    "request_type": "Trash/Recycling",
    "request_reason": "Replace Trash Cart",
    "date_created": "2023-07-27T16:57:20.000",
    "date_modified": "2023-07-27T16:57:20.000",
    "request_status": "Pending",
    "responsible_agency": "Department of Sanitation",
    "final_address": "1820 S Norman C Francis Prkwy",
    "address_councildis": "B",
    "status": "Assigned to Contractor",
    "contractor": "Richards Disposal",
    "rowid": "1021308",
    "final_x": "3669148.00225",
    "final_y": "530508.11757",
    "longitude": "-90.107107793719",
    "latitude": "29.953082594494642",
    "geocoded_column": {
      "latitude": "29.953082594494642",
      "longitude": "-90.107107793719"
    }
  },
  {
    "service_request": "2023-1021307",
    "request_type": "Roads/Drainage",
    "request_reason": "Accessibility Ramps, Curbs and Sidewalk Repair",
    "date_created": "2023-07-27T16:56:11.000",
    "date_modified": "2023-07-27T16:56:11.000",
    "request_status": "Pending",
    "responsible_agency": "Department of Public Works",
    "final_address": "806 Louisa St",
    "address_councildis": "C",
    "status": "Pending",
    "rowid": "1021307",
    "final_x": "3689261.12015",
    "final_y": "534795.759046",
    "longitude": "-90.04344713470032",
    "latitude": "29.964264954360733",
    "geocoded_column": {
      "latitude": "29.964264954360733",
      "longitude": "-90.04344713470032"
    }
  },
  {
    "service_request": "2023-1021305",
    "request_type": "Traffic Signals/Signs/Striping/Streetlights",
    "request_reason": "Street Light Outage/Malfunction",
    "date_created": "2023-07-27T16:46:57.000",
    "date_modified": "2023-07-27T16:46:57.000",
    "request_status": "Pending",
    "responsible_agency": "Department of Public Works",
    "final_address": "6019 Louis Xiv St",
    "address_councildis": "A",
    "status": "Assigned to Contractor",
    "contractor": "Legacy Professional Services",
    "rowid": "1021305",
    "final_x": "3668187.46119",
    "final_y": "547458.711953",
    "longitude": "-90.10956914814406",
    "latitude": "29.999719256474307",
    "geocoded_column": {
      "latitude": "29.999719256474307",
      "longitude": "-90.10956914814406"
    }
  },
  {
    "service_request": "2023-1021304",
    "request_type": "Trash/Recycling",
    "request_reason": "MIssed Recycling Pick-Up",
    "date_created": "2023-07-27T16:42:09.000",
    "date_modified": "2023-07-27T16:42:10.000",
    "request_status": "Pending",
    "responsible_agency": "Department of Sanitation",
    "final_address": "1619 Eighth St",
    "address_councildis": "B",
    "status": "Assigned to Contractor",
    "contractor": "Richards Disposal",
    "rowid": "1021304",
    "final_x": "3674882.57531",
    "final_y": "522130.592506",
    "longitude": "-90.0892876879156",
    "latitude": "29.92987716137391",
    "geocoded_column": {
      "latitude": "29.92987716137391",
      "longitude": "-90.0892876879156"
    }
  },
  {
    "service_request": "2023-1021303",
    "request_type": "Trash/Recycling",
    "request_reason": "Replace Trash Cart",
    "date_created": "2023-07-27T16:36:05.000",
    "date_modified": "2023-07-27T16:36:06.000",
    "request_status": "Pending",
    "responsible_agency": "Department of Sanitation",
    "final_address": "2304 Ursulines Ave",
    "address_councildis": "D",
    "status": "Assigned to Contractor",
    "contractor": "Richards Disposal",
    "rowid": "1021303",
    "final_x": "3678892.93256",
    "final_y": "537091.414536",
    "longitude": "-90.07610947602471",
    "latitude": "29.97089407832423",
    "geocoded_column": {
      "latitude": "29.97089407832423",
      "longitude": "-90.07610947602471"
    }
  },
  {
    "service_request": "2023-1021302",
    "request_type": "Trash/Recycling",
    "request_reason": "Request a Large Item Pick Up",
    "date_created": "2023-07-27T16:35:38.000",
    "date_modified": "2023-07-27T16:35:39.000",
    "request_status": "Pending",
    "responsible_agency": "Department of Sanitation",
    "final_address": "5201 Conti St",
    "address_councildis": "A",
    "status": "Assigned to Contractor",
    "contractor": "IV Waste",
    "rowid": "1021302",
    "final_x": "3668632.30234",
    "final_y": "541726.024076",
    "longitude": "-90.10835747807717",
    "latitude": "29.9839432600466",
    "geocoded_column": {
      "latitude": "29.9839432600466",
      "longitude": "-90.10835747807717"
    }
  },
  {
    "service_request": "2023-1021301",
    "request_type": "Property Maintenance",
    "request_reason": "Property Maintenance",
    "date_created": "2023-07-27T16:33:17.000",
    "date_modified": "2023-07-27T16:33:17.000",
    "request_status": "Pending",
    "responsible_agency": "Department of Code Enforcement",
    "final_address": "4953 Congress Dr",
    "address_councildis": "D",
    "status": "Pending",
    "rowid": "1021301",
    "final_x": "3692156.22883",
    "final_y": "552550.800278",
    "longitude": "-90.03366869877061",
    "latitude": "30.012994971519202",
    "geocoded_column": {
      "latitude": "30.012994971519202",
      "longitude": "-90.03366869877061"
    }
  },
  {
    "service_request": "2023-1021300",
    "request_type": "Trash/Recycling",
    "request_reason": "Request a Large Item Pick Up",
    "date_created": "2023-07-27T16:32:58.000",
    "date_modified": "2023-07-27T16:32:58.000",
    "request_status": "Pending",
    "responsible_agency": "Department of Sanitation",
    "final_address": "6411 Pines Blvd",
    "address_councildis": "D",
    "status": "Assigned to Contractor",
    "contractor": "Waste Pro",
    "rowid": "1021300",
    "final_x": "3697650.97757",
    "final_y": "556702.637018",
    "longitude": "-90.01615756792371",
    "latitude": "30.024238437513354",
    "geocoded_column": {
      "latitude": "30.024238437513354",
      "longitude": "-90.01615756792371"
    }
  },
  {
    "service_request": "2023-1021299",
    "request_type": "Parks & Parkways",
    "request_reason": "Request Tree Service (Right of Way/Public Property)",
    "date_created": "2023-07-27T16:30:53.000",
    "date_modified": "2023-07-27T16:30:53.000",
    "request_status": "Pending",
    "responsible_agency": "Department of Parks & Parkway",
    "final_address": "2211 State St",
    "address_councildis": "A",
    "status": "Pending",
    "rowid": "1021299",
    "final_x": "3666601.53543",
    "final_y": "524779.233852",
    "longitude": "-90.11534073885652",
    "latitude": "29.937404700429816",
    "geocoded_column": {
      "latitude": "29.937404700429816",
      "longitude": "-90.11534073885652"
    }
  },
  {
    "service_request": "2023-1021298",
    "request_type": "Abandoned Vehicles",
    "request_reason": "Abandoned/Junk Vehicles",
    "date_created": "2023-07-27T16:28:58.000",
    "date_modified": "2023-07-27T16:28:58.000",
    "request_status": "Pending",
    "responsible_agency": "Department of Public Works",
    "final_address": "3717 State Street Dr",
    "address_councildis": "A",
    "status": "Pending",
    "rowid": "1021298",
    "final_x": "3668062.37901",
    "final_y": "529462.083713",
    "longitude": "-90.11057097601645",
    "latitude": "29.950238243521365",
    "geocoded_column": {
      "latitude": "29.950238243521365",
      "longitude": "-90.11057097601645"
    }
  },
  {
    "service_request": "2023-1021297",
    "request_type": "Traffic Signals/Signs/Striping/Streetlights",
    "request_reason": "Street Light Outage/Malfunction",
    "date_created": "2023-07-27T16:28:14.000",
    "date_modified": "2023-07-27T16:28:15.000",
    "request_status": "Pending",
    "responsible_agency": "Department of Public Works",
    "final_address": "324 Opelousas Ave",
    "address_councildis": "C",
    "status": "Assigned to Contractor",
    "contractor": "Legacy Professional Services",
    "rowid": "1021297",
    "final_x": "3686374.54095",
    "final_y": "529118.557504",
    "longitude": "-90.05276305498681",
    "latitude": "29.948743633988588",
    "geocoded_column": {
      "latitude": "29.948743633988588",
      "longitude": "-90.05276305498681"
    }
  },
  {
    "service_request": "2023-1021296",
    "request_type": "Trash/Recycling",
    "request_reason": "Request a Large Item Pick Up",
    "date_created": "2023-07-27T16:21:42.000",
    "date_modified": "2023-07-27T16:21:42.000",
    "request_status": "Pending",
    "responsible_agency": "Department of Sanitation",
    "final_address": "4415 Laine Ave",
    "address_councildis": "E",
    "status": "Assigned to Contractor",
    "contractor": "Waste Pro",
    "rowid": "1021296",
    "final_x": "3705991.00107",
    "final_y": "553466.850391",
    "longitude": "-89.98992471836071",
    "latitude": "30.01507502852345",
    "geocoded_column": {
      "latitude": "30.01507502852345",
      "longitude": "-89.98992471836071"
    }
  },
  {
    "service_request": "2023-1021295",
    "request_type": "Trash/Recycling",
    "request_reason": "Replace Recycling Cart",
    "date_created": "2023-07-27T16:11:55.000",
    "date_modified": "2023-07-27T16:11:55.000",
    "request_status": "Pending",
    "responsible_agency": "Department of Sanitation",
    "final_address": "6033 Dover Pl",
    "address_councildis": "C",
    "status": "Pending",
    "rowid": "1021295",
    "final_x": "3706338.24772",
    "final_y": "519022.580343",
    "longitude": "-89.99010333796214",
    "latitude": "29.92035467892887",
    "geocoded_column": {
      "latitude": "29.92035467892887",
      "longitude": "-89.99010333796214"
    }
  },
  {
    "service_request": "2023-1021294",
    "request_type": "Trash/Recycling",
    "request_reason": "Request a Large Item Pick Up",
    "date_created": "2023-07-27T16:08:46.000",
    "date_modified": "2023-07-27T16:08:47.000",
    "request_status": "Pending",
    "responsible_agency": "Department of Sanitation",
    "final_address": "1719 St Ann St",
    "address_councildis": "D",
    "status": "Assigned to Contractor",
    "contractor": "Richards Disposal",
    "rowid": "1021294",
    "final_x": "3679835.70639",
    "final_y": "535060.856198",
    "longitude": "-90.0732026008287",
    "latitude": "29.965282261903386",
    "geocoded_column": {
      "latitude": "29.965282261903386",
      "longitude": "-90.0732026008287"
    }
  },
  {
    "service_request": "2023-1021293",
    "request_type": "Trash/Recycling",
    "request_reason": "Request a Large Item Pick Up",
    "date_created": "2023-07-27T16:07:24.000",
    "date_modified": "2023-07-27T16:07:25.000",
    "request_status": "Pending",
    "responsible_agency": "Department of Sanitation",
    "final_address": "1718 St Ann St",
    "address_councildis": "D",
    "status": "Assigned to Contractor",
    "contractor": "Richards Disposal",
    "rowid": "1021293",
    "final_x": "3679786.52226",
    "final_y": "535005.453766",
    "longitude": "-90.07335984565474",
    "latitude": "29.965131411327427",
    "geocoded_column": {
      "latitude": "29.965131411327427",
      "longitude": "-90.07335984565474"
    }
  },
  {
    "service_request": "2023-1021292",
    "request_type": "Trash/Recycling",
    "request_reason": "Replace Trash Cart",
    "date_created": "2023-07-27T16:06:35.000",
    "date_modified": "2023-07-27T16:06:35.000",
    "request_status": "Pending",
    "responsible_agency": "Department of Sanitation",
    "final_address": "4202 State Street Dr",
    "address_councildis": "B",
    "status": "Assigned to Contractor",
    "contractor": "Richards Disposal",
    "rowid": "1021292",
    "final_x": "3668448.64756",
    "final_y": "531141.238978",
    "longitude": "-90.10929470214377",
    "latitude": "29.95484403130171",
    "geocoded_column": {
      "latitude": "29.95484403130171",
      "longitude": "-90.10929470214377"
    }
  },
  {
    "service_request": "2023-1021291",
    "request_type": "Parks & Parkways",
    "request_reason": "Request Tree Service (Right of Way/Public Property)",
    "date_created": "2023-07-27T16:06:34.000",
    "date_modified": "2023-07-27T16:06:35.000",
    "request_status": "Pending",
    "responsible_agency": "Department of Parks & Parkway",
    "final_address": "6759 Louisville St",
    "address_councildis": "A",
    "status": "Pending",
    "rowid": "1021291",
    "final_x": "3668271.45492",
    "final_y": "552549.324438",
    "longitude": "-90.10913199541973",
    "latitude": "30.01371419770994",
    "geocoded_column": {
      "latitude": "30.01371419770994",
      "longitude": "-90.10913199541973"
    }
  },
  {
    "service_request": "2023-1021290",
    "request_type": "Trash/Recycling",
    "request_reason": "Replace Trash Cart",
    "date_created": "2023-07-27T16:05:40.000",
    "date_modified": "2023-07-27T16:05:41.000",
    "request_status": "Pending",
    "responsible_agency": "Department of Sanitation",
    "final_address": "6100 St Charles Ave",
    "address_councildis": "A",
    "status": "Assigned to Contractor",
    "contractor": "Richards Disposal",
    "rowid": "1021290",
    "final_x": "3665293.51149",
    "final_y": "522718.581434",
    "longitude": "-90.11953919035874",
    "latitude": "29.931776727858114",
    "geocoded_column": {
      "latitude": "29.931776727858114",
      "longitude": "-90.11953919035874"
    }
  },
  {
    "service_request": "2023-1021289",
    "request_type": "Trash/Recycling",
    "request_reason": "Request a Large Item Pick Up",
    "date_created": "2023-07-27T16:04:55.000",
    "date_modified": "2023-07-27T16:04:56.000",
    "request_status": "Pending",
    "responsible_agency": "Department of Sanitation",
    "final_address": "8725 Colapissa St",
    "address_councildis": "A",
    "status": "Assigned to Contractor",
    "contractor": "Richards Disposal",
    "rowid": "1021289",
    "final_x": "3664842.01549",
    "final_y": "534992.963014",
    "longitude": "-90.12055439359091",
    "latitude": "29.96554045730387",
    "geocoded_column": {
      "latitude": "29.96554045730387",
      "longitude": "-90.12055439359091"
    }
  },
  {
    "service_request": "2023-1021288",
    "request_type": "Traffic Signals/Signs/Striping/Streetlights",
    "request_reason": "Request for Stop Sign",
    "date_created": "2023-07-27T16:02:31.000",
    "date_modified": "2023-07-27T16:02:31.000",
    "request_status": "Pending",
    "responsible_agency": "Department of Public Works",
    "final_address": "1439 Filmore Ave",
    "address_councildis": "D",
    "status": "Pending",
    "rowid": "1021288",
    "final_x": "3677707.71157",
    "final_y": "551891.560726",
    "longitude": "-90.07934103172796",
    "latitude": "30.011625001084624",
    "geocoded_column": {
      "latitude": "30.011625001084624",
      "longitude": "-90.07934103172796"
    }
  },
  {
    "service_request": "2023-1021287",
    "request_type": "Trash/Recycling",
    "request_reason": "Request a Large Item Pick Up",
    "date_created": "2023-07-27T16:02:20.000",
    "date_modified": "2023-07-27T16:02:20.000",
    "request_status": "Pending",
    "responsible_agency": "Department of Sanitation",
    "final_address": "4001 Laurel St",
    "address_councildis": "B",
    "status": "Assigned to Contractor",
    "contractor": "Richards Disposal",
    "rowid": "1021287",
    "final_x": "3672555.74375",
    "final_y": "518229.045942",
    "longitude": "-90.09676603058865",
    "latitude": "29.91921841645544",
    "geocoded_column": {
      "latitude": "29.91921841645544",
      "longitude": "-90.09676603058865"
    }
  },
  {
    "service_request": "2023-1021286",
    "request_type": "Trash/Recycling",
    "request_reason": "Request a Large Item Pick Up",
    "date_created": "2023-07-27T16:00:49.000",
    "date_modified": "2023-07-27T16:00:50.000",
    "request_status": "Pending",
    "responsible_agency": "Department of Sanitation",
    "final_address": "8427 Sycamore Pl, New Orleans, Louisiana, 70118",
    "status": "Assigned to Contractor",
    "rowid": "1021286",
    "longitude": "0.0",
    "latitude": "0.0",
    "geocoded_column": {
      "latitude": "0.0",
      "longitude": "0.0"
    }
  },
  {
    "service_request": "2023-1021285",
    "request_type": "Roads/Drainage",
    "request_reason": "Street Subsidence (Sinking)",
    "date_created": "2023-07-27T15:58:12.000",
    "date_modified": "2023-07-27T15:58:12.000",
    "request_status": "Pending",
    "responsible_agency": "Department of Public Works",
    "final_address": "MIRABEAU AVE & ST BERNARD AVE",
    "address_councildis": "D",
    "status": "Pending",
    "rowid": "1021285",
    "final_x": "3676739.3",
    "final_y": "550096.78",
    "longitude": "-90.08246255220254",
    "latitude": "30.006719100254234",
    "geocoded_column": {
      "latitude": "30.006719100254234",
      "longitude": "-90.08246255220254"
    }
  },
  {
    "service_request": "2023-1021284",
    "request_type": "Abandoned Vehicles",
    "request_reason": "Abandoned/Junk Vehicles",
    "date_created": "2023-07-27T15:57:27.000",
    "date_modified": "2023-07-27T15:57:28.000",
    "request_status": "Pending",
    "responsible_agency": "Department of Public Works",
    "final_address": "9424 Hayne Blvd",
    "address_councildis": "E",
    "status": "Pending",
    "rowid": "1021284",
    "final_x": "3705810.72491",
    "final_y": "564813.026466",
    "longitude": "-89.99007405252702",
    "latitude": "30.046278383359994",
    "geocoded_column": {
      "latitude": "30.046278383359994",
      "longitude": "-89.99007405252702"
    }
  },
  {
    "service_request": "2023-1021283",
    "request_type": "Property Maintenance",
    "request_reason": "Property Maintenance",
    "date_created": "2023-07-27T15:56:37.000",
    "date_modified": "2023-07-27T15:56:37.000",
    "request_status": "Pending",
    "responsible_agency": "Department of Code Enforcement",
    "final_address": "1228 Frenchmen St",
    "address_councildis": "C",
    "status": "Pending",
    "rowid": "1021283",
    "final_x": "3684507.75394",
    "final_y": "536871.652936",
    "longitude": "-90.05838490681833",
    "latitude": "29.970119219804488",
    "geocoded_column": {
      "latitude": "29.970119219804488",
      "longitude": "-90.05838490681833"
    }
  },
  {
    "service_request": "2023-1021282",
    "request_type": "Trash/Recycling",
    "request_reason": "Repair Trash Cart",
    "date_created": "2023-07-27T15:53:31.000",
    "date_modified": "2023-07-27T15:53:32.000",
    "request_status": "Pending",
    "responsible_agency": "Department of Sanitation",
    "final_address": "1034 Belleville St",
    "address_councildis": "C",
    "status": "Assigned to Contractor",
    "contractor": "Richards Disposal",
    "rowid": "1021282",
    "final_x": "3687799.5135",
    "final_y": "527651.890495",
    "longitude": "-90.04831575471954",
    "latitude": "29.944666933970527",
    "geocoded_column": {
      "latitude": "29.944666933970527",
      "longitude": "-90.04831575471954"
    }
  },
  {
    "service_request": "2023-1021281",
    "request_type": "Trash/Recycling",
    "request_reason": "Repair Trash Cart",
    "date_created": "2023-07-27T15:52:57.000",
    "date_modified": "2023-07-27T15:52:57.000",
    "request_status": "Pending",
    "responsible_agency": "Department of Sanitation",
    "final_address": "1032 Belleville St",
    "address_councildis": "C",
    "status": "Assigned to Contractor",
    "contractor": "Richards Disposal",
    "rowid": "1021281",
    "final_x": "3687800.18684",
    "final_y": "527667.282943",
    "longitude": "-90.04831308377537",
    "latitude": "29.944709237201025",
    "geocoded_column": {
      "latitude": "29.944709237201025",
      "longitude": "-90.04831308377537"
    }
  },
  {
    "service_request": "2023-1021280",
    "request_type": "Trash/Recycling",
    "request_reason": "Repair Trash Cart",
    "date_created": "2023-07-27T15:52:15.000",
    "date_modified": "2023-07-27T15:52:16.000",
    "request_status": "Pending",
    "responsible_agency": "Department of Sanitation",
    "final_address": "27 N Oak Ridge Ct",
    "address_councildis": "E",
    "status": "Assigned to Contractor",
    "contractor": "Waste Pro",
    "rowid": "1021280",
    "final_x": "3713667.12191",
    "final_y": "567999.523365",
    "longitude": "-89.96512380901174",
    "latitude": "30.054784372092175",
    "geocoded_column": {
      "latitude": "30.054784372092175",
      "longitude": "-89.96512380901174"
    }
  },
  {
    "service_request": "2023-1021279",
    "request_type": "Trash/Recycling",
    "request_reason": "Repair Trash Cart",
    "date_created": "2023-07-27T15:50:13.000",
    "date_modified": "2023-07-27T15:50:13.000",
    "request_status": "Pending",
    "responsible_agency": "Department of Sanitation",
    "final_address": "1228 Monroe St",
    "address_councildis": "A",
    "status": "Assigned to Contractor",
    "contractor": "Richards Disposal",
    "rowid": "1021279",
    "final_x": "3660528.86349",
    "final_y": "530026.384193",
    "longitude": "-90.13433933925405",
    "latitude": "29.952008791714455",
    "geocoded_column": {
      "latitude": "29.952008791714455",
      "longitude": "-90.13433933925405"
    }
  },
  {
    "service_request": "2023-1021278",
    "request_type": "Trash/Recycling",
    "request_reason": "Request a Large Item Pick Up",
    "date_created": "2023-07-27T15:49:50.000",
    "date_modified": "2023-07-27T15:49:50.000",
    "request_status": "Pending",
    "responsible_agency": "Department of Sanitation",
    "final_address": "1228 Monroe St",
    "address_councildis": "A",
    "status": "Assigned to Contractor",
    "contractor": "Richards Disposal",
    "rowid": "1021278",
    "final_x": "3660528.86349",
    "final_y": "530026.384193",
    "longitude": "-90.13433933925405",
    "latitude": "29.952008791714455",
    "geocoded_column": {
      "latitude": "29.952008791714455",
      "longitude": "-90.13433933925405"
    }
  },
  {
    "service_request": "2023-1021277",
    "request_type": "Traffic Signals/Signs/Striping/Streetlights",
    "request_reason": "Street Light Outage/Malfunction",
    "date_created": "2023-07-27T15:48:08.000",
    "date_modified": "2023-07-27T15:48:09.000",
    "request_status": "Pending",
    "responsible_agency": "Department of Public Works",
    "final_address": "1320 Camp St",
    "address_councildis": "B",
    "status": "Assigned to Contractor",
    "contractor": "Legacy Professional Services",
    "rowid": "1021277",
    "final_x": "3680146.72738",
    "final_y": "525168.001917",
    "longitude": "-90.07256415889867",
    "latitude": "29.93807083305953",
    "geocoded_column": {
      "latitude": "29.93807083305953",
      "longitude": "-90.07256415889867"
    }
  },
  {
    "service_request": "2023-1021276",
    "request_type": "Traffic Signals/Signs/Striping/Streetlights",
    "request_reason": "Street Light Outage/Malfunction",
    "date_created": "2023-07-27T15:47:29.000",
    "date_modified": "2023-07-27T15:47:29.000",
    "request_status": "Pending",
    "responsible_agency": "Department of Public Works",
    "final_address": "1630 Choctaw St",
    "address_councildis": "E",
    "status": "Assigned to Contractor",
    "contractor": "Legacy Professional Services",
    "rowid": "1021276",
    "final_x": "3697967.21879",
    "final_y": "536017.165383",
    "longitude": "-90.0159098072827",
    "latitude": "29.967351032143032",
    "geocoded_column": {
      "latitude": "29.967351032143032",
      "longitude": "-90.0159098072827"
    }
  },
  {
    "service_request": "2023-1021275",
    "request_type": "Abandoned Vehicles",
    "request_reason": "Abandoned/Junk Vehicles",
    "date_created": "2023-07-27T15:45:19.000",
    "date_modified": "2023-07-27T15:48:21.000",
    "request_status": "Pending",
    "responsible_agency": "Department of Public Works",
    "final_address": "1529 St Roch Ave",
    "address_councildis": "C",
    "status": "Pending",
    "rowid": "1021275",
    "final_x": "3686438.04226",
    "final_y": "538167.077385",
    "longitude": "-90.05224313187477",
    "latitude": "29.973621986284968",
    "geocoded_column": {
      "latitude": "29.973621986284968",
      "longitude": "-90.05224313187477"
    }
  },
  {
    "service_request": "2023-1021274",
    "request_type": "Trash/Recycling",
    "request_reason": "Request a Large Item Pick Up",
    "date_created": "2023-07-27T15:42:26.000",
    "date_modified": "2023-07-27T15:42:26.000",
    "request_status": "Pending",
    "responsible_agency": "Department of Sanitation",
    "final_address": "5508 St Anthony Ave",
    "address_councildis": "D",
    "status": "Assigned to Contractor",
    "contractor": "IV Waste",
    "rowid": "1021274",
    "final_x": "3682044.04392",
    "final_y": "553120.266391",
    "longitude": "-90.06559781224588",
    "latitude": "30.01487229521824",
    "geocoded_column": {
      "latitude": "30.01487229521824",
      "longitude": "-90.06559781224588"
    }
  },
  {
    "service_request": "2023-1021273",
    "request_type": "Property Maintenance",
    "request_reason": "Property Maintenance",
    "date_created": "2023-07-27T15:42:19.000",
    "date_modified": "2023-07-27T15:42:19.000",
    "request_status": "Pending",
    "responsible_agency": "Department of Code Enforcement",
    "final_address": "TULSA ST & SAM ST",
    "address_councildis": "E",
    "status": "Pending",
    "rowid": "1021273",
    "final_x": "3704269.6",
    "final_y": "553505.08",
    "longitude": "-89.99536207713068",
    "latitude": "30.01523552626332",
    "geocoded_column": {
      "latitude": "30.01523552626332",
      "longitude": "-89.99536207713068"
    }
  },
  {
    "service_request": "2023-1021272",
    "request_type": "Parks & Parkways",
    "request_reason": "Request Tree Service (Right of Way/Public Property)",
    "date_created": "2023-07-27T15:40:22.000",
    "date_modified": "2023-07-27T15:40:22.000",
    "request_status": "Pending",
    "responsible_agency": "Department of Parks & Parkway",
    "final_address": "10200 Springwood St",
    "address_councildis": "E",
    "status": "Pending",
    "rowid": "1021272",
    "final_x": "3713281.5893",
    "final_y": "555614.204185",
    "longitude": "-89.96680924909275",
    "latitude": "30.020742365525958",
    "geocoded_column": {
      "latitude": "30.020742365525958",
      "longitude": "-89.96680924909275"
    }
  },
  {
    "service_request": "2023-1021271",
    "request_type": "Property Maintenance",
    "request_reason": "Property Maintenance",
    "date_created": "2023-07-27T15:38:29.000",
    "date_modified": "2023-07-27T15:38:30.000",
    "request_status": "Pending",
    "responsible_agency": "Department of Code Enforcement",
    "final_address": "2706 N Prieur St",
    "address_councildis": "D",
    "status": "Pending",
    "rowid": "1021271",
    "final_x": "3688245.17724",
    "final_y": "539346.38945",
    "longitude": "-90.04649400124195",
    "latitude": "29.97680899989972",
    "geocoded_column": {
      "latitude": "29.97680899989972",
      "longitude": "-90.04649400124195"
    }
  },
  {
    "service_request": "2023-1021269",
    "request_type": "Tax and Revenue",
    "request_reason": "Occupational License Tax",
    "date_created": "2023-07-27T15:32:49.000",
    "date_modified": "2023-07-27T15:32:49.000",
    "request_status": "Pending",
    "responsible_agency": "Bureau of Revenue",
    "status": "Pending",
    "rowid": "1021269",
    "longitude": "0.0",
    "latitude": "0.0",
    "geocoded_column": {
      "latitude": "0.0",
      "longitude": "0.0"
    }
  },
  {
    "service_request": "2023-1021268",
    "request_type": "Traffic Signals/Signs/Striping/Streetlights",
    "request_reason": "Street Light Outage/Malfunction",
    "date_created": "2023-07-27T15:32:36.000",
    "date_modified": "2023-07-27T15:32:36.000",
    "request_status": "Pending",
    "responsible_agency": "Department of Public Works",
    "final_address": "3521 Rue Nichole",
    "address_councildis": "C",
    "status": "Assigned to Contractor",
    "contractor": "Legacy Professional Services",
    "rowid": "1021268",
    "final_x": "3703942.9843",
    "final_y": "517686.97439",
    "longitude": "-89.99771313789182",
    "latitude": "29.916759213348026",
    "geocoded_column": {
      "latitude": "29.916759213348026",
      "longitude": "-89.99771313789182"
    }
  },
  {
    "service_request": "2023-1021267",
    "request_type": "Tax and Revenue",
    "request_reason": "Occupational License Tax",
    "date_created": "2023-07-27T15:32:00.000",
    "date_modified": "2023-07-27T15:32:00.000",
    "request_status": "Pending",
    "responsible_agency": "Bureau of Revenue",
    "status": "Pending",
    "rowid": "1021267",
    "longitude": "0.0",
    "latitude": "0.0",
    "geocoded_column": {
      "latitude": "0.0",
      "longitude": "0.0"
    }
  },
  {
    "service_request": "2023-1021266",
    "request_type": "Parks & Parkways",
    "request_reason": "Request Tree Service (Right of Way/Public Property)",
    "date_created": "2023-07-27T15:24:09.000",
    "date_modified": "2023-07-27T16:23:33.000",
    "case_close_date": "2023-07-27T11:23:33.000",
    "request_status": "Closed",
    "responsible_agency": "Department of Parks & Parkway",
    "final_address": "3568 Roger Williams St",
    "address_councildis": "D",
    "status": "Duplicate Request",
    "rowid": "1021266",
    "final_x": "3675764.99278",
    "final_y": "543910.606734",
    "longitude": "-90.08575343715651",
    "latitude": "29.989738507671117",
    "geocoded_column": {
      "latitude": "29.989738507671117",
      "longitude": "-90.08575343715651"
    }
  },
  {
    "service_request": "2023-1021265",
    "request_type": "Trash/Recycling",
    "request_reason": "Request a Large Item Pick Up",
    "date_created": "2023-07-27T15:19:42.000",
    "date_modified": "2023-07-27T15:19:42.000",
    "request_status": "Pending",
    "responsible_agency": "Department of Sanitation",
    "final_address": "8803 Olive St",
    "address_councildis": "A",
    "status": "Assigned to Contractor",
    "contractor": "Richards Disposal",
    "rowid": "1021265",
    "final_x": "3665401.99636",
    "final_y": "535901.590663",
    "longitude": "-90.11875557496711",
    "latitude": "29.9680225742866",
    "geocoded_column": {
      "latitude": "29.9680225742866",
      "longitude": "-90.11875557496711"
    }
  },
  {
    "service_request": "2023-1021264",
    "request_type": "Trash/Recycling",
    "request_reason": "Request a Large Item Pick Up",
    "date_created": "2023-07-27T15:17:13.000",
    "date_modified": "2023-07-27T15:17:13.000",
    "request_status": "Pending",
    "responsible_agency": "Department of Sanitation",
    "final_address": "7101 Parkside Ct",
    "address_councildis": "E",
    "status": "Assigned to Contractor",
    "contractor": "Waste Pro",
    "rowid": "1021264",
    "final_x": "3704693.77105",
    "final_y": "559940.548893",
    "longitude": "-89.99378420229756",
    "latitude": "30.03291694735075",
    "geocoded_column": {
      "latitude": "30.03291694735075",
      "longitude": "-89.99378420229756"
    }
  },
  {
    "service_request": "2023-1021263",
    "request_type": "Abandoned Vehicles",
    "request_reason": "Abandoned/Junk Vehicles",
    "date_created": "2023-07-27T15:14:09.000",
    "date_modified": "2023-07-27T15:14:09.000",
    "request_status": "Pending",
    "responsible_agency": "Department of Public Works",
    "final_address": "1421 Spain St",
    "address_councildis": "C",
    "status": "Pending",
    "rowid": "1021263",
    "final_x": "3686064.7974",
    "final_y": "537673.305416",
    "longitude": "-90.05343933514926",
    "latitude": "29.972275755116573",
    "geocoded_column": {
      "latitude": "29.972275755116573",
      "longitude": "-90.05343933514926"
    }
  },
  {
    "service_request": "2023-1021262",
    "request_type": "Trash/Recycling",
    "request_reason": "Order Recycling Cart",
    "date_created": "2023-07-27T15:13:27.000",
    "date_modified": "2023-07-27T15:13:27.000",
    "request_status": "Pending",
    "responsible_agency": "Department of Sanitation",
    "final_address": "3108 Jackson Ave",
    "address_councildis": "B",
    "status": "Pending",
    "rowid": "1021262",
    "final_x": "3674052.43675",
    "final_y": "528284.137472",
    "longitude": "-90.09169780044652",
    "latitude": "29.94682215736966",
    "geocoded_column": {
      "latitude": "29.94682215736966",
      "longitude": "-90.09169780044652"
    }
  },
  {
    "service_request": "2023-1021261",
    "request_type": "Trash/Recycling",
    "request_reason": "Request a Large Item Pick Up",
    "date_created": "2023-07-27T15:13:19.000",
    "date_modified": "2023-07-27T15:13:20.000",
    "request_status": "Pending",
    "responsible_agency": "Department of Sanitation",
    "final_address": "3610 Utah St",
    "address_councildis": "C",
    "status": "Assigned to Contractor",
    "contractor": "Richards Disposal",
    "rowid": "1021261",
    "final_x": "3695519.6223",
    "final_y": "518060.123254",
    "longitude": "-90.02428717232232",
    "latitude": "29.918052535735256",
    "geocoded_column": {
      "latitude": "29.918052535735256",
      "longitude": "-90.02428717232232"
    }
  },
  {
    "service_request": "2023-1021260",
    "request_type": "Trash/Recycling",
    "request_reason": "Order Recycling Cart",
    "date_created": "2023-07-27T15:13:08.000",
    "date_modified": "2023-07-27T15:13:08.000",
    "request_status": "Pending",
    "responsible_agency": "Department of Sanitation",
    "final_address": "3110 Jackson Ave",
    "address_councildis": "B",
    "status": "Pending",
    "rowid": "1021260",
    "final_x": "3674041.60001",
    "final_y": "528293.4768",
    "longitude": "-90.0917316965279",
    "latitude": "29.946848160324546",
    "geocoded_column": {
      "latitude": "29.946848160324546",
      "longitude": "-90.0917316965279"
    }
  },
  {
    "service_request": "2023-1021259",
    "request_type": "Trash/Recycling",
    "request_reason": "Order Trash Cart",
    "date_created": "2023-07-27T15:12:53.000",
    "date_modified": "2023-07-27T15:12:53.000",
    "request_status": "Pending",
    "responsible_agency": "Department of Sanitation",
    "final_address": "3110 Jackson Ave",
    "address_councildis": "B",
    "status": "Assigned to Contractor",
    "contractor": "Richards Disposal",
    "rowid": "1021259",
    "final_x": "3674041.60001",
    "final_y": "528293.4768",
    "longitude": "-90.0917316965279",
    "latitude": "29.946848160324546",
    "geocoded_column": {
      "latitude": "29.946848160324546",
      "longitude": "-90.0917316965279"
    }
  },
  {
    "service_request": "2023-1021258",
    "request_type": "Trash/Recycling",
    "request_reason": "Replace Trash Cart",
    "date_created": "2023-07-27T15:12:48.000",
    "date_modified": "2023-07-27T15:12:49.000",
    "request_status": "Pending",
    "responsible_agency": "Department of Sanitation",
    "final_address": "312 S Dupre St",
    "address_councildis": "B",
    "status": "Assigned to Contractor",
    "contractor": "Richards Disposal",
    "rowid": "1021258",
    "final_x": "3674094.83412",
    "final_y": "534872.713478",
    "longitude": "-90.09133845404165",
    "latitude": "29.964937283410297",
    "geocoded_column": {
      "latitude": "29.964937283410297",
      "longitude": "-90.09133845404165"
    }
  },
  {
    "service_request": "2023-1021257",
    "request_type": "Abandoned Vehicles",
    "request_reason": "Abandoned/Junk Vehicles",
    "date_created": "2023-07-27T15:12:35.000",
    "date_modified": "2023-07-27T15:12:35.000",
    "request_status": "Pending",
    "responsible_agency": "Department of Public Works",
    "final_address": "1410 Spain St",
    "address_councildis": "C",
    "status": "Pending",
    "rowid": "1021257",
    "final_x": "3686005.3661",
    "final_y": "537597.4706",
    "longitude": "-90.05362970375087",
    "latitude": "29.972069061071643",
    "geocoded_column": {
      "latitude": "29.972069061071643",
      "longitude": "-90.05362970375087"
    }
  },
  {
    "service_request": "2023-1021256",
    "request_type": "Trash/Recycling",
    "request_reason": "Order Trash Cart",
    "date_created": "2023-07-27T15:12:26.000",
    "date_modified": "2023-07-27T15:14:09.000",
    "request_status": "Pending",
    "responsible_agency": "Department of Sanitation",
    "final_address": "3108 Jackson Ave",
    "address_councildis": "B",
    "status": "Assigned to Contractor",
    "contractor": "Richards Disposal",
    "rowid": "1021256",
    "final_x": "3674052.43675",
    "final_y": "528284.137472",
    "longitude": "-90.09169780044652",
    "latitude": "29.94682215736966",
    "geocoded_column": {
      "latitude": "29.94682215736966",
      "longitude": "-90.09169780044652"
    }
  },
  {
    "service_request": "2023-1021255",
    "request_type": "Parks & Parkways",
    "request_reason": "Request Tree Service (Right of Way/Public Property)",
    "date_created": "2023-07-27T15:12:00.000",
    "date_modified": "2023-07-27T16:24:02.000",
    "case_close_date": "2023-07-27T11:24:02.000",
    "request_status": "Closed",
    "responsible_agency": "Department of Parks & Parkway",
    "final_address": "3568 Roger Williams St",
    "address_councildis": "D",
    "status": "Resolved",
    "rowid": "1021255",
    "final_x": "3675764.99278",
    "final_y": "543910.606734",
    "longitude": "-90.08575343715651",
    "latitude": "29.989738507671117",
    "geocoded_column": {
      "latitude": "29.989738507671117",
      "longitude": "-90.08575343715651"
    }
  },
  {
    "service_request": "2023-1021254",
    "request_type": "Trash/Recycling",
    "request_reason": "Missed Trash Pick-Up",
    "date_created": "2023-07-27T15:10:04.000",
    "date_modified": "2023-07-27T15:10:04.000",
    "request_status": "Pending",
    "responsible_agency": "Department of Sanitation",
    "final_address": "2300 BLK Harmony St",
    "address_councildis": "B",
    "status": "Assigned to Contractor",
    "contractor": "Richards Disposal",
    "rowid": "1021254",
    "final_x": "3673642.34494",
    "final_y": "524222.960528",
    "longitude": "-90.09313139822562",
    "latitude": "29.935667462108476",
    "geocoded_column": {
      "latitude": "29.935667462108476",
      "longitude": "-90.09313139822562"
    }
  },
  {
    "service_request": "2023-1021253",
    "request_type": "Trash/Recycling",
    "request_reason": "Dead Animal Pick Up",
    "date_created": "2023-07-27T15:09:38.000",
    "date_modified": "2023-07-27T15:09:38.000",
    "request_status": "Pending",
    "responsible_agency": "Department of Sanitation",
    "final_address": "AUSTERLITZ ST & LAUREL ST",
    "address_councildis": "B",
    "status": "Assigned to Contractor",
    "contractor": "Richards Disposal",
    "rowid": "1021253",
    "final_x": "3672948.2",
    "final_y": "518234.48",
    "longitude": "-90.09552705777384",
    "latitude": "29.919221706821265",
    "geocoded_column": {
      "latitude": "29.919221706821265",
      "longitude": "-90.09552705777384"
    }
  },
  {
    "service_request": "2023-1021252",
    "request_type": "Property Maintenance",
    "request_reason": "Property Maintenance",
    "date_created": "2023-07-27T15:09:34.000",
    "date_modified": "2023-07-27T15:09:35.000",
    "request_status": "Pending",
    "responsible_agency": "Department of Code Enforcement",
    "final_address": "3660 Bennett St",
    "address_councildis": "C",
    "status": "Pending",
    "rowid": "1021252",
    "final_x": "3710363.15601",
    "final_y": "516947.060789",
    "longitude": "-89.97747624688263",
    "latitude": "29.914517376667195",
    "geocoded_column": {
      "latitude": "29.914517376667195",
      "longitude": "-89.97747624688263"
    }
  },
  {
    "service_request": "2023-1021251",
    "request_type": "Roads/Drainage",
    "request_reason": "Street Flooding / Drainage",
    "date_created": "2023-07-27T15:02:02.000",
    "date_modified": "2023-07-27T15:16:15.000",
    "case_close_date": "2023-07-27T10:16:15.000",
    "request_status": "Closed",
    "responsible_agency": "Department of Public Works",
    "final_address": "9130 Almonaster Ave",
    "address_councildis": "E",
    "status": "Referred to External Agency",
    "rowid": "1021251",
    "final_x": "3711232.95742",
    "final_y": "551510.900053",
    "longitude": "-89.97343613020905",
    "latitude": "30.00952689599312",
    "geocoded_column": {
      "latitude": "30.00952689599312",
      "longitude": "-89.97343613020905"
    }
  },
  {
    "service_request": "2023-1021250",
    "request_type": "Trash/Recycling",
    "request_reason": "Repair Trash Cart",
    "date_created": "2023-07-27T15:01:27.000",
    "date_modified": "2023-07-27T15:01:28.000",
    "request_status": "Pending",
    "responsible_agency": "Department of Sanitation",
    "final_address": "5915 Pitt St",
    "address_councildis": "A",
    "status": "Assigned to Contractor",
    "contractor": "Richards Disposal",
    "rowid": "1021250",
    "final_x": "3665542.56448",
    "final_y": "521174.406329",
    "longitude": "-90.11880462457182",
    "latitude": "29.927523478234637",
    "geocoded_column": {
      "latitude": "29.927523478234637",
      "longitude": "-90.11880462457182"
    }
  },
  {
    "service_request": "2023-1021249",
    "request_type": "Roads/Drainage",
    "request_reason": "Street Subsidence (Sinking)",
    "date_created": "2023-07-27T14:59:57.000",
    "date_modified": "2023-07-27T16:11:28.000",
    "case_close_date": "2023-07-27T11:11:28.000",
    "request_status": "Closed",
    "responsible_agency": "Department of Public Works",
    "final_address": "2708 New Orleans St",
    "address_councildis": "D",
    "status": "Resolved",
    "rowid": "1021249",
    "final_x": "3681856.04629",
    "final_y": "542451.966989",
    "longitude": "-90.06656443397097",
    "latitude": "29.985544002407025",
    "geocoded_column": {
      "latitude": "29.985544002407025",
      "longitude": "-90.06656443397097"
    }
  },
  {
    "service_request": "2023-1021248",
    "request_type": "Roads/Drainage",
    "request_reason": "Road Shoulder Repair",
    "date_created": "2023-07-27T14:58:48.000",
    "date_modified": "2023-07-27T16:17:48.000",
    "request_status": "Pending",
    "responsible_agency": "Department of Public Works",
    "final_address": "2708 New Orleans St",
    "address_councildis": "D",
    "status": "Inspected",
    "rowid": "1021248",
    "final_x": "3681856.04629",
    "final_y": "542451.966989",
    "longitude": "-90.06656443397097",
    "latitude": "29.985544002407025",
    "geocoded_column": {
      "latitude": "29.985544002407025",
      "longitude": "-90.06656443397097"
    }
  },
  {
    "service_request": "2023-1021247",
    "request_type": "Trash/Recycling",
    "request_reason": "Return Recycling Cart",
    "date_created": "2023-07-27T14:56:41.000",
    "date_modified": "2023-07-27T14:56:42.000",
    "request_status": "Pending",
    "responsible_agency": "Department of Sanitation",
    "final_address": "5915 Pitt St",
    "address_councildis": "A",
    "status": "Pending",
    "rowid": "1021247",
    "final_x": "3665542.56448",
    "final_y": "521174.406329",
    "longitude": "-90.11880462457182",
    "latitude": "29.927523478234637",
    "geocoded_column": {
      "latitude": "29.927523478234637",
      "longitude": "-90.11880462457182"
    }
  },
  {
    "service_request": "2023-1021246",
    "request_type": "Traffic Signals/Signs/Striping/Streetlights",
    "request_reason": "Street Light Outage/Malfunction",
    "date_created": "2023-07-27T14:54:38.000",
    "date_modified": "2023-07-27T14:54:39.000",
    "request_status": "Pending",
    "responsible_agency": "Department of Public Works",
    "final_address": "3500 BLK Rue Nichole",
    "address_councildis": "C",
    "status": "Assigned to Contractor",
    "contractor": "Legacy Professional Services",
    "rowid": "1021246",
    "final_x": "3703992.54473",
    "final_y": "517235.702193",
    "longitude": "-89.99757331071167",
    "latitude": "29.91551678149029",
    "geocoded_column": {
      "latitude": "29.91551678149029",
      "longitude": "-89.99757331071167"
    }
  },
  {
    "service_request": "2023-1021245",
    "request_type": "Roads/Drainage",
    "request_reason": "Street Flooding / Drainage",
    "date_created": "2023-07-27T14:54:03.000",
    "date_modified": "2023-07-27T15:27:10.000",
    "case_close_date": "2023-07-27T10:27:10.000",
    "request_status": "Closed",
    "responsible_agency": "Department of Public Works",
    "final_address": "11100 BLK Almonaster Ave",
    "address_councildis": "E",
    "status": "Resolved",
    "rowid": "1021245",
    "final_x": "3717675.47505",
    "final_y": "552199.837973",
    "longitude": "-89.95305598873324",
    "latitude": "30.0112093928261",
    "geocoded_column": {
      "latitude": "30.0112093928261",
      "longitude": "-89.95305598873324"
    }
  },
  {
    "service_request": "2023-1021244",
    "request_type": "Roads/Drainage",
    "request_reason": "Street Flooding / Drainage",
    "date_created": "2023-07-27T14:50:20.000",
    "date_modified": "2023-07-27T14:50:20.000",
    "request_status": "Pending",
    "responsible_agency": "Department of Public Works",
    "final_address": "5800 BLK Old Gentilly Rd",
    "address_councildis": "E",
    "status": "Pending",
    "rowid": "1021244",
    "final_x": "3696201.51143",
    "final_y": "550435.684021",
    "longitude": "-90.02096439426896",
    "latitude": "30.00705240924823",
    "geocoded_column": {
      "latitude": "30.00705240924823",
      "longitude": "-90.02096439426896"
    }
  },
  {
    "service_request": "2023-1021243",
    "request_type": "Trash/Recycling",
    "request_reason": "Request a Large Item Pick Up",
    "date_created": "2023-07-27T14:48:25.000",
    "date_modified": "2023-07-27T14:48:26.000",
    "request_status": "Pending",
    "responsible_agency": "Department of Sanitation",
    "final_address": "1707 Agriculture St",
    "address_councildis": "D",
    "status": "Assigned to Contractor",
    "contractor": "IV Waste",
    "rowid": "1021243",
    "final_x": "3680742.95675",
    "final_y": "543048.536013",
    "longitude": "-90.07005945252688",
    "latitude": "29.987218147196398",
    "geocoded_column": {
      "latitude": "29.987218147196398",
      "longitude": "-90.07005945252688"
    }
  },
  {
    "service_request": "2023-1021242",
    "request_type": "Trash/Recycling",
    "request_reason": "Order Trash Cart",
    "date_created": "2023-07-27T14:48:06.000",
    "date_modified": "2023-07-27T14:48:07.000",
    "request_status": "Pending",
    "responsible_agency": "Department of Sanitation",
    "final_address": "1763 N Tonti St",
    "address_councildis": "D",
    "status": "Assigned to Contractor",
    "contractor": "IV Waste",
    "rowid": "1021242",
    "final_x": "3681084.14991",
    "final_y": "540479.078475",
    "longitude": "-90.06907129323356",
    "latitude": "29.980142690419832",
    "geocoded_column": {
      "latitude": "29.980142690419832",
      "longitude": "-90.06907129323356"
    }
  },
  {
    "service_request": "2023-1021241",
    "request_type": "Trash/Recycling",
    "request_reason": "Illegal Dumping",
    "date_created": "2023-07-27T14:46:26.000",
    "date_modified": "2023-07-27T14:46:26.000",
    "request_status": "Pending",
    "responsible_agency": "Department of Sanitation",
    "final_address": "1800 BLK N Rampart St",
    "address_councildis": "C",
    "status": "Pending",
    "rowid": "1021241",
    "final_x": "3683724.7503",
    "final_y": "535835.178773",
    "longitude": "-90.06089405873136",
    "latitude": "29.967293207132098",
    "geocoded_column": {
      "latitude": "29.967293207132098",
      "longitude": "-90.06089405873136"
    }
  },
  {
    "service_request": "2023-1021240",
    "request_type": "Roads/Drainage",
    "request_reason": "Street Subsidence (Sinking)",
    "date_created": "2023-07-27T14:45:35.000",
    "date_modified": "2023-07-27T14:45:35.000",
    "request_status": "Pending",
    "responsible_agency": "Department of Public Works",
    "final_address": "6755 Louis Xiv St",
    "address_councildis": "A",
    "status": "Pending",
    "rowid": "1021240",
    "final_x": "3668644.36071",
    "final_y": "552499.952278",
    "longitude": "-90.10795547035129",
    "latitude": "30.013567481598137",
    "geocoded_column": {
      "latitude": "30.013567481598137",
      "longitude": "-90.10795547035129"
    }
  },
  {
    "service_request": "2023-1021239",
    "request_type": "Abandoned Vehicles",
    "request_reason": "Abandoned/Junk Vehicles",
    "date_created": "2023-07-27T14:42:34.000",
    "date_modified": "2023-07-27T14:44:42.000",
    "request_status": "Pending",
    "responsible_agency": "Department of Public Works",
    "final_address": "3403 Allen St",
    "address_councildis": "D",
    "status": "Pending",
    "rowid": "1021239",
    "final_x": "3682146.06146",
    "final_y": "545020.641487",
    "longitude": "-90.06555862777086",
    "latitude": "29.992598131441675",
    "geocoded_column": {
      "latitude": "29.992598131441675",
      "longitude": "-90.06555862777086"
    }
  },
  {
    "service_request": "2023-1021238",
    "request_type": "Property Maintenance",
    "request_reason": "Property Maintenance",
    "date_created": "2023-07-27T14:41:45.000",
    "date_modified": "2023-07-27T14:41:45.000",
    "request_status": "Pending",
    "responsible_agency": "Department of Code Enforcement",
    "final_address": "4340 Spain St",
    "address_councildis": "D",
    "status": "Pending",
    "rowid": "1021238",
    "final_x": "3685032.3069",
    "final_y": "548848.061651",
    "longitude": "-90.05630678784428",
    "latitude": "30.003034040287734",
    "geocoded_column": {
      "latitude": "30.003034040287734",
      "longitude": "-90.05630678784428"
    }
  },
  {
    "service_request": "2023-1021237",
    "request_type": "Roads/Drainage",
    "request_reason": "Catch Basin - Clogged",
    "date_created": "2023-07-27T14:39:23.000",
    "date_modified": "2023-07-27T14:39:57.000",
    "request_status": "Pending",
    "responsible_agency": "Department of Public Works",
    "final_address": "1800 River Oaks Dr",
    "address_councildis": "C",
    "status": "Pending",
    "rowid": "1021237",
    "final_x": "3701739.88996",
    "final_y": "524138.63846",
    "longitude": "-90.0044307934992",
    "latitude": "29.934569488341953",
    "geocoded_column": {
      "latitude": "29.934569488341953",
      "longitude": "-90.0044307934992"
    }
  },
  {
    "service_request": "2023-1021236",
    "request_type": "Parks & Parkways",
    "request_reason": "Request Tree Service (Right of Way/Public Property)",
    "date_created": "2023-07-27T14:34:47.000",
    "date_modified": "2023-07-27T14:34:48.000",
    "request_status": "Pending",
    "responsible_agency": "Department of Parks & Parkway",
    "final_address": "2501 St Roch Ave",
    "address_councildis": "D",
    "status": "Pending",
    "rowid": "1021236",
    "final_x": "3686161.6285",
    "final_y": "541625.292428",
    "longitude": "-90.05299406596846",
    "latitude": "29.98313935499864",
    "geocoded_column": {
      "latitude": "29.98313935499864",
      "longitude": "-90.05299406596846"
    }
  },
  {
    "service_request": "2023-1021235",
    "request_type": "Trash/Recycling",
    "request_reason": "Request a Large Item Pick Up",
    "date_created": "2023-07-27T14:34:03.000",
    "date_modified": "2023-07-27T14:34:03.000",
    "request_status": "Pending",
    "responsible_agency": "Department of Sanitation",
    "final_address": "820 Elmira Ave",
    "address_councildis": "C",
    "status": "Assigned to Contractor",
    "contractor": "Richards Disposal",
    "rowid": "1021235",
    "final_x": "3688185.11036",
    "final_y": "528506.285504",
    "longitude": "-90.047068032446",
    "latitude": "29.947004332771456",
    "geocoded_column": {
      "latitude": "29.947004332771456",
      "longitude": "-90.047068032446"
    }
  },
  {
    "service_request": "2023-1021234",
    "request_type": "Trash/Recycling",
    "request_reason": "Order Trash Cart",
    "date_created": "2023-07-27T14:33:26.000",
    "date_modified": "2023-07-27T14:33:27.000",
    "request_status": "Pending",
    "responsible_agency": "Department of Sanitation",
    "final_address": "8932 Curran Rd",
    "address_councildis": "E",
    "status": "Assigned to Contractor",
    "contractor": "Waste Pro",
    "rowid": "1021234",
    "final_x": "3705237.18859",
    "final_y": "563037.694496",
    "longitude": "-89.99195239261695",
    "latitude": "30.041415399379108",
    "geocoded_column": {
      "latitude": "30.041415399379108",
      "longitude": "-89.99195239261695"
    }
  },
  {
    "service_request": "2023-1021232",
    "request_type": "Trash/Recycling",
    "request_reason": "Missed Trash Pick-Up",
    "date_created": "2023-07-27T14:26:57.000",
    "date_modified": "2023-07-27T16:17:50.000",
    "case_close_date": "2023-07-27T11:17:50.000",
    "request_status": "Closed",
    "responsible_agency": "Department of Sanitation",
    "final_address": "2625 Almonaster Ave",
    "address_councildis": "D",
    "status": "Invalid Request",
    "contractor": "IV Waste",
    "contractor_action": "Invalid Pick-Up",
    "rowid": "1021232",
    "final_x": "3688668.8486",
    "final_y": "542316.458893",
    "longitude": "-90.04505045270061",
    "latitude": "29.984962546291076",
    "geocoded_column": {
      "latitude": "29.984962546291076",
      "longitude": "-90.04505045270061"
    }
  },
  {
    "service_request": "2023-1021231",
    "request_type": "Roads/Drainage",
    "request_reason": "Man hole cover issue",
    "date_created": "2023-07-27T14:26:14.000",
    "date_modified": "2023-07-27T14:26:14.000",
    "request_status": "Pending",
    "responsible_agency": "Department of Public Works",
    "final_address": "300 BLK N Broad St",
    "address_councildis": "B",
    "status": "Pending",
    "rowid": "1021231",
    "final_x": "3675889.24595",
    "final_y": "535791.715606",
    "longitude": "-90.0856402046509",
    "latitude": "29.967410625463526",
    "geocoded_column": {
      "latitude": "29.967410625463526",
      "longitude": "-90.0856402046509"
    }
  },
  {
    "service_request": "2023-1021230",
    "request_type": "Property Maintenance",
    "request_reason": "Property Maintenance",
    "date_created": "2023-07-27T14:25:37.000",
    "date_modified": "2023-07-27T14:25:38.000",
    "request_status": "Pending",
    "responsible_agency": "Department of Code Enforcement",
    "final_address": "3301 LaSalle St",
    "address_councildis": "B",
    "status": "Pending",
    "rowid": "1021230",
    "final_x": "3673348.24443",
    "final_y": "524375.984572",
    "longitude": "-90.09405465394819",
    "latitude": "29.93609697798072",
    "geocoded_column": {
      "latitude": "29.93609697798072",
      "longitude": "-90.09405465394819"
    }
  },
  {
    "service_request": "2023-1021229",
    "request_type": "Trash/Recycling",
    "request_reason": "Return Trash Cart",
    "date_created": "2023-07-27T14:25:18.000",
    "date_modified": "2023-07-27T14:25:19.000",
    "request_status": "Pending",
    "responsible_agency": "Department of Sanitation",
    "final_address": "2233 George Nick Connor Dr",
    "address_councildis": "D",
    "status": "Assigned to Contractor",
    "contractor": "IV Waste",
    "rowid": "1021229",
    "final_x": "3681314.2685",
    "final_y": "540340.552395",
    "longitude": "-90.06834931271982",
    "latitude": "29.97975480857669",
    "geocoded_column": {
      "latitude": "29.97975480857669",
      "longitude": "-90.06834931271982"
    }
  },