[
  {
    "service_request": "2024-1070137",
    "request_type": "Trash/Recycling",
    "request_reason": "Order Recycling Cart",
    "date_created": "2024-02-23T23:22:49.000",
    "date_modified": "2024-02-23T23:22:49.000",
    "request_status": "Pending",
    "responsible_agency": "Department of Sanitation",
    "final_address": "4528 Eastview Dr",
    "address_councildis": "E",
    "status": "Pending",
    "rowid": "1070137",
    "final_x": "3705132.57636",
    "final_y": "553952.791832",
    "longitude": "-89.99261894714408",
    "latitude": "30.016438826182984",
    "geocoded_column": {
      "latitude": "30.016438826182984",
      "longitude": "-89.99261894714408"
    }
  },
  {
    "service_request": "2024-1070136",
    "request_type": "Roads/Drainage",
    "request_reason": "Pothole",
    "date_created": "2024-02-23T22:46:56.000",
    "date_modified": "2024-02-23T22:46:56.000",
    "request_status": "Pending",
    "responsible_agency": "Department of Public Works",
    "final_address": "1521 Webster St",
    "address_councildis": "A",
    "status": "Pending",
    "rowid": "1070136",
    "final_x": "3665172.71917",
    "final_y": "522143.293626",
    "longitude": "-90.11993975188861",
    "latitude": "29.93019838632039",
    "geocoded_column": {
      "latitude": "29.93019838632039",
      "longitude": "-90.11993975188861"
    }
  },
  {
    "service_request": "2024-1070135",
    "request_type": "Trash/Recycling",
    "request_reason": "Request a Large Item Pick Up",
    "date_created": "2024-02-23T22:40:40.000",
    "date_modified": "2024-02-23T22:40:40.000",
    "request_status": "Pending",
    "responsible_agency": "Department of Sanitation",
    "final_address": "11211 N Idlewood Ct, New Orleans, Louisiana, 70128",
    "address_councildis": "E",
    "status": "Assigned to Contractor",
    "contractor": "Waste Pro",
    "rowid": "1070135",
    "final_x": "3716025.86207",
    "final_y": "560277.469149",
    "longitude": "-89.9579613954362",
    "latitude": "30.03347420878148",
    "geocoded_column": {
      "latitude": "30.03347420878148",
      "longitude": "-89.9579613954362"
    }
  },
  {
    "service_request": "2024-1070132",
    "request_type": "Roads/Drainage",
    "request_reason": "Street Subsidence (Sinking)",
    "date_created": "2024-02-23T21:28:11.000",
    "date_modified": "2024-02-23T21:28:11.000",
    "request_status": "Pending",
    "responsible_agency": "Department of Public Works",
    "final_address": "932 Webster St",
    "address_councildis": "A",
    "status": "Pending",
    "rowid": "1070132",
    "final_x": "3664269.33485",
    "final_y": "519993.427576",
    "longitude": "-90.12286329992783",
    "latitude": "29.924313204499082",
    "geocoded_column": {
      "latitude": "29.924313204499082",
      "longitude": "-90.12286329992783"
    }
  },
  {
    "service_request": "2024-1070131",
    "request_type": "Roads/Drainage",
    "request_reason": "Pothole",
    "date_created": "2024-02-23T21:23:40.000",
    "date_modified": "2024-02-23T21:23:40.000",
    "request_status": "Pending",
    "responsible_agency": "Department of Public Works",
    "final_address": "1239 Eleonore St",
    "address_councildis": "A",
    "status": "Pending",
    "rowid": "1070131",
    "final_x": "3665602.50362",
    "final_y": "520568.733816",
    "longitude": "-90.11863567920368",
    "latitude": "29.925856322761145",
    "geocoded_column": {
      "latitude": "29.925856322761145",
      "longitude": "-90.11863567920368"
    }
  },
  {
    "service_request": "2024-1070130",
    "request_type": "Traffic Signals/Signs/Striping/Streetlights",
    "request_reason": "Street Light Outage/Malfunction",
    "date_created": "2024-02-23T21:18:41.000",
    "date_modified": "2024-02-23T21:18:42.000",
    "request_status": "Pending",
    "responsible_agency": "Department of Public Works",
    "final_address": "5619 Marshal Foch St",
    "address_councildis": "A",
    "status": "Assigned to Contractor",
    "contractor": "Legacy Professional Services",
    "rowid": "1070130",
    "final_x": "3669654.93729",
    "final_y": "544448.547343",
    "longitude": "-90.10503525491626",
    "latitude": "29.99139916718876",
    "geocoded_column": {
      "latitude": "29.99139916718876",
      "longitude": "-90.10503525491626"
    }
  },
  {
    "service_request": "2024-1070129",
    "request_type": "Trash/Recycling",
    "request_reason": "Request a Large Item Pick Up",
    "date_created": "2024-02-23T21:17:58.000",
    "date_modified": "2024-02-23T21:17:58.000",
    "request_status": "Pending",
    "responsible_agency": "Department of Sanitation",
    "final_address": "1317 Fern St",
    "address_councildis": "A",
    "status": "Assigned to Contractor",
    "contractor": "Richards Disposal",
    "rowid": "1070129",
    "final_x": "3662907.98515",
    "final_y": "528197.278592",
    "longitude": "-90.12688796527316",
    "latitude": "29.946910672474793",
    "geocoded_column": {
      "latitude": "29.946910672474793",
      "longitude": "-90.12688796527316"
    }
  },
  {
    "service_request": "2024-1070128",
    "request_type": "Mosquito, Termite & Rodent Control",
    "request_reason": "Non-Rodent Complaint (Mice, Possums, Snakes)",
    "date_created": "2024-02-23T20:52:35.000",
    "date_modified": "2024-02-23T20:52:35.000",
    "request_status": "Pending",
    "responsible_agency": "Mosquito, Termite & Rodent Control Board",
    "final_address": "5711 Red Maple Dr",
    "address_councildis": "E",
    "status": "Pending",
    "rowid": "1070128",
    "final_x": "3723433.54124",
    "final_y": "564646.704545",
    "longitude": "-89.93438408079835",
    "latitude": "30.045241245182066",
    "geocoded_column": {
      "latitude": "30.045241245182066",
      "longitude": "-89.93438408079835"
    }
  },
  {
    "service_request": "2024-1070127",
    "request_type": "Trash/Recycling",
    "request_reason": "Replace Trash Cart",
    "date_created": "2024-02-23T20:46:11.000",
    "date_modified": "2024-02-23T20:46:12.000",
    "request_status": "Pending",
    "responsible_agency": "Department of Sanitation",
    "final_address": "229 S Alexander St",
    "address_councildis": "A",
    "status": "Assigned to Contractor",
    "contractor": "Richards Disposal",
    "rowid": "1070127",
    "final_x": "3669542.14638",
    "final_y": "538662.518537",
    "longitude": "-90.10558736948084",
    "latitude": "29.975492880835233",
    "geocoded_column": {
      "latitude": "29.975492880835233",
      "longitude": "-90.10558736948084"
    }
  },
  {
    "service_request": "2024-1070126",
    "request_type": "Trash/Recycling",
    "request_reason": "Illegal Dumping",
    "date_created": "2024-02-23T20:36:01.000",
    "date_modified": "2024-02-23T20:36:01.000",
    "request_status": "Pending",
    "responsible_agency": "Department of Sanitation",
    "final_address": "2200 BLK Gentilly Blvd",
    "address_councildis": "D",
    "status": "Pending",
    "rowid": "1070126",
    "final_x": "3680850.91877",
    "final_y": "544531.757837",
    "longitude": "-90.06966677190135",
    "latitude": "29.99129321192457",
    "geocoded_column": {
      "latitude": "29.99129321192457",
      "longitude": "-90.06966677190135"
    }
  },
  {
    "service_request": "2024-1070125",
    "request_type": "Parks & Parkways",
    "request_reason": "Request Tree Service (Right of Way/Public Property)",
    "date_created": "2024-02-23T20:29:23.000",
    "date_modified": "2024-02-23T20:29:23.000",
    "request_status": "Pending",
    "responsible_agency": "Department of Parks & Parkway",
    "final_address": "2420 Ursulines Ave",
    "address_councildis": "D",
    "status": "Pending",
    "rowid": "1070125",
    "final_x": "3678523.08565",
    "final_y": "537359.475272",
    "longitude": "-90.0772682197892",
    "latitude": "29.97164230635432",
    "geocoded_column": {
      "latitude": "29.97164230635432",
      "longitude": "-90.0772682197892"
    }
  },
  {
    "service_request": "2024-1070124",
    "request_type": "Roads/Drainage",
    "request_reason": "Street Flooding / Drainage",
    "date_created": "2024-02-23T20:16:13.000",
    "date_modified": "2024-02-23T20:16:13.000",
    "request_status": "Pending",
    "responsible_agency": "Department of Public Works",
    "final_address": "2100 BLK Gentilly Blvd",
    "address_councildis": "D",
    "status": "Pending",
    "rowid": "1070124",
    "final_x": "3680550.06242",
    "final_y": "544322.765473",
    "longitude": "-90.07062438333936",
    "latitude": "29.99072767629497",
    "geocoded_column": {
      "latitude": "29.99072767629497",
      "longitude": "-90.07062438333936"
    }
  },
  {
    "service_request": "2024-1070123",
    "request_type": "Mosquito, Termite & Rodent Control",
    "request_reason": "Mosquito Complaint",
    "date_created": "2024-02-23T19:56:34.000",
    "date_modified": "2024-02-23T19:56:34.000",
    "request_status": "Pending",
    "responsible_agency": "Mosquito, Termite & Rodent Control Board",
    "final_address": "3601 White Oak Ave",
    "address_councildis": "C",
    "status": "Pending",
    "rowid": "1070123",
    "final_x": "3703535.36663",
    "final_y": "514310.119731",
    "longitude": "-89.99912384811192",
    "latitude": "29.907487076741248",
    "geocoded_column": {
      "latitude": "29.907487076741248",
      "longitude": "-89.99912384811192"
    }
  },
  {
    "service_request": "2024-1070122",
    "request_type": "Roads/Drainage",
    "request_reason": "Pothole",
    "date_created": "2024-02-23T19:50:33.000",
    "date_modified": "2024-02-23T19:50:33.000",
    "request_status": "Pending",
    "responsible_agency": "Department of Public Works",
    "final_address": "643 N Cortez St",
    "address_councildis": "A",
    "status": "Pending",
    "rowid": "1070122",
    "final_x": "3673344.41524",
    "final_y": "539354.037386",
    "longitude": "-90.09355511561354",
    "latitude": "29.97728175174301",
    "geocoded_column": {
      "latitude": "29.97728175174301",
      "longitude": "-90.09355511561354"
    }
  },
  {
    "service_request": "2024-1070121",
    "request_type": "Trash/Recycling",
    "request_reason": "Replace Trash Cart",
    "date_created": "2024-02-23T19:37:56.000",
    "date_modified": "2024-02-23T19:37:57.000",
    "request_status": "Pending",
    "responsible_agency": "Department of Sanitation",
    "final_address": "6220 Wales St",
    "address_councildis": "E",
    "status": "Assigned to Contractor",
    "contractor": "Waste Pro",
    "rowid": "1070121",
    "final_x": "3695975.87709",
    "final_y": "559692.631133",
    "longitude": "-90.02134237275425",
    "latitude": "30.032512620114883",
    "geocoded_column": {
      "latitude": "30.032512620114883",
      "longitude": "-90.02134237275425"
    }
  },
  {
    "service_request": "2024-1070120",
    "request_type": "Traffic Signals/Signs/Striping/Streetlights",
    "request_reason": "Street Name Sign Damaged or Missing",
    "date_created": "2024-02-23T19:25:24.000",
    "date_modified": "2024-02-23T19:25:24.000",
    "request_status": "Pending",
    "responsible_agency": "Department of Public Works",
    "final_address": "BIENVILLE ST & N SCOTT ST",
    "address_councildis": "A",
    "status": "Pending",
    "rowid": "1070120",
    "final_x": "3672235.16",
    "final_y": "538427.66",
    "longitude": "-90.09709008280416",
    "latitude": "29.97476748297658",
    "geocoded_column": {
      "latitude": "29.97476748297658",
      "longitude": "-90.09709008280416"
    }
  },
  {
    "service_request": "2024-1070119",
    "request_type": "Trash/Recycling",
    "request_reason": "Illegal Dumping",
    "date_created": "2024-02-23T19:24:54.000",
    "date_modified": "2024-02-23T19:24:54.000",
    "request_status": "Pending",
    "responsible_agency": "Department of Sanitation",
    "final_address": "1800 St Philip St",
    "address_councildis": "D",
    "status": "Pending",
    "rowid": "1070119",
    "final_x": "3680091.38875",
    "final_y": "535694.293255",
    "longitude": "-90.07237315570845",
    "latitude": "29.967016263046936",
    "geocoded_column": {
      "latitude": "29.967016263046936",
      "longitude": "-90.07237315570845"
    }
  },
  {
    "service_request": "2024-1070118",
    "request_type": "Trash/Recycling",
    "request_reason": "Illegal Dumping",
    "date_created": "2024-02-23T19:01:21.000",
    "date_modified": "2024-02-23T19:01:21.000",
    "request_status": "Pending",
    "responsible_agency": "Department of Sanitation",
    "final_address": "1811 St Ann St",
    "address_councildis": "D",
    "status": "Pending",
    "rowid": "1070118",
    "final_x": "3679633.83394",
    "final_y": "535214.366342",
    "longitude": "-90.07383477513382",
    "latitude": "29.965710465308067",
    "geocoded_column": {
      "latitude": "29.965710465308067",
      "longitude": "-90.07383477513382"
    }
  },
  {
    "service_request": "2024-1070117",
    "request_type": "Trash/Recycling",
    "request_reason": "Request a Large Item Pick Up",
    "date_created": "2024-02-23T18:36:10.000",
    "date_modified": "2024-02-23T18:36:11.000",
    "request_status": "Pending",
    "responsible_agency": "Department of Sanitation",
    "final_address": "511 Seguin St",
    "address_councildis": "C",
    "status": "Assigned to Contractor",
    "contractor": "Richards Disposal",
    "rowid": "1070117",
    "final_x": "3686460.70959",
    "final_y": "529844.379969",
    "longitude": "-90.0524653665633",
    "latitude": "29.95073674999382",
    "geocoded_column": {
      "latitude": "29.95073674999382",
      "longitude": "-90.0524653665633"
    }
  },
  {
    "service_request": "2024-1070116",
    "request_type": "Trash/Recycling",
    "request_reason": "Request a Large Item Pick Up",
    "date_created": "2024-02-23T18:12:58.000",
    "date_modified": "2024-02-23T18:12:58.000",
    "request_status": "Pending",
    "responsible_agency": "Department of Sanitation",
    "final_address": "4911 Iberville St",
    "address_councildis": "A",
    "status": "Assigned to Contractor",
    "contractor": "Richards Disposal",
    "rowid": "1070116",
    "final_x": "3668729.83828",
    "final_y": "540793.635467",
    "longitude": "-90.10808089683103",
    "latitude": "29.981376640230813",
    "geocoded_column": {
      "latitude": "29.981376640230813",
      "longitude": "-90.10808089683103"
    }
  },
  {
    "service_request": "2024-1070115",
    "request_type": "Abandoned Vehicles",
    "request_reason": "Abandoned/Junk Vehicles",
    "date_created": "2024-02-23T18:12:30.000",
    "date_modified": "2024-02-23T18:12:30.000",
    "request_status": "Pending",
    "responsible_agency": "Department of Public Works",
    "final_address": "152 Alvin Callender St",
    "address_councildis": "A",
    "status": "Pending",
    "rowid": "1070115",
    "final_x": "3661137.91085",
    "final_y": "523476.209467",
    "longitude": "-90.13263297016715",
    "latitude": "29.933980354925524",
    "geocoded_column": {
      "latitude": "29.933980354925524",
      "longitude": "-90.13263297016715"
    }
  },
  {
    "service_request": "2024-1070114",
    "request_type": "Health Related Request",
    "request_reason": "Noise Ordinance Complaint",
    "date_created": "2024-02-23T18:11:42.000",
    "date_modified": "2024-02-23T18:11:42.000",
    "request_status": "Pending",
    "responsible_agency": "Health Department",
    "final_address": "2326 Robert St",
    "address_councildis": "B",
    "status": "Pending",
    "rowid": "1070114",
    "final_x": "3668768.91015",
    "final_y": "524152.10502",
    "longitude": "-90.10851933252462",
    "latitude": "29.93561677142102",
    "geocoded_column": {
      "latitude": "29.93561677142102",
      "longitude": "-90.10851933252462"
    }
  },
  {
    "service_request": "2024-1070112",
    "request_type": "Health Related Request",
    "request_reason": "Noise Ordinance Complaint",
    "date_created": "2024-02-23T18:04:38.000",
    "date_modified": "2024-02-23T18:04:38.000",
    "request_status": "Pending",
    "responsible_agency": "Health Department",
    "final_address": "611 Royal St",
    "address_councildis": "C",
    "status": "Pending",
    "rowid": "1070112",
    "final_x": "3682366.29813",
    "final_y": "532255.827267",
    "longitude": "-90.06530915428897",
    "latitude": "29.957492626149314",
    "geocoded_column": {
      "latitude": "29.957492626149314",
      "longitude": "-90.06530915428897"
    }
  },
  {
    "service_request": "2024-1070111",
    "request_type": "Health Related Request",
    "request_reason": "Noise Ordinance Complaint",
    "date_created": "2024-02-23T18:03:33.000",
    "date_modified": "2024-02-23T18:03:33.000",
    "request_status": "Pending",
    "responsible_agency": "Health Department",
    "final_address": "2609 Royal St",
    "address_councildis": "C",
    "status": "Pending",
    "rowid": "1070111",
    "final_x": "3686838.44156",
    "final_y": "534977.28327",
    "longitude": "-90.051091320954",
    "latitude": "29.964838850269388",
    "geocoded_column": {
      "latitude": "29.964838850269388",
      "longitude": "-90.051091320954"
    }
  },
  {
    "service_request": "2024-1070110",
    "request_type": "Trash/Recycling",
    "request_reason": "Replace Trash Cart",
    "date_created": "2024-02-23T17:54:27.000",
    "date_modified": "2024-02-23T17:54:27.000",
    "request_status": "Pending",
    "responsible_agency": "Department of Sanitation",
    "final_address": "7225 Benson Ct",
    "address_councildis": "E",
    "status": "Assigned to Contractor",
    "contractor": "Waste Pro",
    "rowid": "1070110",
    "final_x": "3705147.11326",
    "final_y": "561004.897758",
    "longitude": "-89.99231224753952",
    "latitude": "30.035828908868606",
    "geocoded_column": {
      "latitude": "30.035828908868606",
      "longitude": "-89.99231224753952"
    }
  },
  {
    "service_request": "2024-1070109",
    "request_type": "Trash/Recycling",
    "request_reason": "Repair Trash Cart",
    "date_created": "2024-02-23T17:00:16.000",
    "date_modified": "2024-02-23T17:00:17.000",
    "request_status": "Pending",
    "responsible_agency": "Department of Sanitation",
    "final_address": "2112 Mirabeau Ave",
    "address_councildis": "D",
    "status": "Assigned to Contractor",
    "contractor": "IV Waste",
    "rowid": "1070109",
    "final_x": "3683235.42773",
    "final_y": "550563.494676",
    "longitude": "-90.06192325045829",
    "latitude": "30.00780580430185",
    "geocoded_column": {
      "latitude": "30.00780580430185",
      "longitude": "-90.06192325045829"
    }
  },
  {
    "service_request": "2024-1070108",
    "request_type": "Property Maintenance",
    "request_reason": "Property Maintenance",
    "date_created": "2024-02-23T16:59:02.000",
    "date_modified": "2024-02-23T16:59:02.000",
    "request_status": "Pending",
    "responsible_agency": "Department of Code Enforcement",
    "final_address": "2106 Mirabeau Ave",
    "address_councildis": "D",
    "status": "Pending",
    "rowid": "1070108",
    "final_x": "3683184.60648",
    "final_y": "550568.375316",
    "longitude": "-90.06208363856197",
    "latitude": "30.007820774737915",
    "geocoded_column": {
      "latitude": "30.007820774737915",
      "longitude": "-90.06208363856197"
    }
  },
  {
    "service_request": "2024-1070107",
    "request_type": "Traffic Signals/Signs/Striping/Streetlights",
    "request_reason": "Traffic Sign Missing/Damaged",
    "date_created": "2024-02-23T16:54:07.000",
    "date_modified": "2024-02-23T16:54:08.000",
    "request_status": "Pending",
    "responsible_agency": "Department of Public Works",
    "final_address": "EDINBURGH ST & LOWERLINE ST",
    "address_councildis": "B",
    "status": "Pending",
    "rowid": "1070107",
    "final_x": "3668289.5",
    "final_y": "533693.18",
    "longitude": "-90.1097111805533",
    "latitude": "29.96186570244096",
    "geocoded_column": {
      "latitude": "29.96186570244096",
      "longitude": "-90.1097111805533"
    }
  },
  {
    "service_request": "2024-1070105",
    "request_type": "Traffic Signals/Signs/Striping/Streetlights",
    "request_reason": "Request for Stop Sign",
    "date_created": "2024-02-23T16:51:01.000",
    "date_modified": "2024-02-23T16:51:02.000",
    "request_status": "Pending",
    "responsible_agency": "Department of Public Works",
    "final_address": "2401 Rousseau St",
    "address_councildis": "B",
    "status": "Pending",
    "rowid": "1070105",
    "final_x": "3679204.67336",
    "final_y": "519638.027256",
    "longitude": "-90.07572992199744",
    "latitude": "29.92289368366529",
    "geocoded_column": {
      "latitude": "29.92289368366529",
      "longitude": "-90.07572992199744"
    }
  },
  {
    "service_request": "2024-1070104",
    "request_type": "Trash/Recycling",
    "request_reason": "Replace Trash Cart",
    "date_created": "2024-02-23T16:47:00.000",
    "date_modified": "2024-02-23T16:47:00.000",
    "request_status": "Pending",
    "responsible_agency": "Department of Sanitation",
    "final_address": "1233 Fern St",
    "address_councildis": "A",
    "status": "Assigned to Contractor",
    "contractor": "Richards Disposal",
    "rowid": "1070104",
    "final_x": "3662738.96365",
    "final_y": "528012.627967",
    "longitude": "-90.12742776672536",
    "latitude": "29.94640783468398",
    "geocoded_column": {
      "latitude": "29.94640783468398",
      "longitude": "-90.12742776672536"
    }
  },
  {
    "service_request": "2024-1070103",
    "request_type": "Trash/Recycling",
    "request_reason": "Order Recycling Cart",
    "date_created": "2024-02-23T16:35:43.000",
    "date_modified": "2024-02-23T16:40:37.000",
    "request_status": "Pending",
    "responsible_agency": "Department of Sanitation",
    "final_address": "508 Henry Clay Ave",
    "address_councildis": "A",
    "status": "Pending",
    "rowid": "1070103",
    "final_x": "3663374.23194",
    "final_y": "518688.811703",
    "longitude": "-90.12573224497126",
    "latitude": "29.920751888351784",
    "geocoded_column": {
      "latitude": "29.920751888351784",
      "longitude": "-90.12573224497126"
    }
  },
  {
    "service_request": "2024-1070102",
    "request_type": "Trash/Recycling",
    "request_reason": "Repair Trash Cart",
    "date_created": "2024-02-23T16:32:41.000",
    "date_modified": "2024-02-23T16:32:41.000",
    "request_status": "Pending",
    "responsible_agency": "Department of Sanitation",
    "final_address": "1017 Hagan St",
    "address_councildis": "A",
    "status": "Assigned to Contractor",
    "contractor": "Richards Disposal",
    "rowid": "1070102",
    "final_x": "3675451.46792",
    "final_y": "539552.166026",
    "longitude": "-90.08689353474405",
    "latitude": "29.97776368293312",
    "geocoded_column": {
      "latitude": "29.97776368293312",
      "longitude": "-90.08689353474405"
    }
  },
  {
    "service_request": "2024-1070101",
    "request_type": "Trash/Recycling",
    "request_reason": "Request a Large Item Pick Up",
    "date_created": "2024-02-23T16:28:58.000",
    "date_modified": "2024-02-23T16:28:58.000",
    "request_status": "Closed",
    "responsible_agency": "Department of Sanitation",
    "final_address": "128 S Clark St",
    "address_councildis": "B",
    "status": "Resolved",
    "rowid": "1070101",
    "final_x": "3672735.98926",
    "final_y": "536750.587272",
    "longitude": "-90.09556555131017",
    "latitude": "29.9701412334861",
    "geocoded_column": {
      "latitude": "29.9701412334861",
      "longitude": "-90.09556555131017"
    }
  },
  {
    "service_request": "2024-1070100",
    "request_type": "Trash/Recycling",
    "request_reason": "Request a Large Item Pick Up",
    "date_created": "2024-02-23T16:17:38.000",
    "date_modified": "2024-02-23T16:17:39.000",
    "request_status": "Pending",
    "responsible_agency": "Department of Sanitation",
    "final_address": "14567 Duane Rd",
    "address_councildis": "E",
    "status": "Assigned to Contractor",
    "contractor": "Waste Pro",
    "rowid": "1070100",
    "final_x": "3720923.94732",
    "final_y": "573538.923114",
    "longitude": "-89.94197424856398",
    "latitude": "30.069775143556246",
    "geocoded_column": {
      "latitude": "30.069775143556246",
      "longitude": "-89.94197424856398"
    }
  },
  {
    "service_request": "2024-1070098",
    "request_type": "Roads/Drainage",
    "request_reason": "Man hole cover issue",
    "date_created": "2024-02-23T16:10:55.000",
    "date_modified": "2024-02-23T16:10:56.000",
    "request_status": "Pending",
    "responsible_agency": "Department of Public Works",
    "final_address": "317 Burgundy St",
    "address_councildis": "C",
    "status": "Pending",
    "rowid": "1070098",
    "final_x": "3680899.59823",
    "final_y": "532116.752387",
    "longitude": "-90.0699453968019",
    "latitude": "29.95715476560049",
    "geocoded_column": {
      "latitude": "29.95715476560049",
      "longitude": "-90.0699453968019"
    }
  },
  {
    "service_request": "2024-1070097",
    "request_type": "Trash/Recycling",
    "request_reason": "Missed Trash Pick-Up",
    "date_created": "2024-02-23T16:07:13.000",
    "date_modified": "2024-02-23T16:07:14.000",
    "request_status": "Pending",
    "responsible_agency": "Department of Sanitation",
    "final_address": "1881 Marques Rd",
    "address_councildis": "E",
    "status": "Assigned to Contractor",
    "contractor": "Waste Pro",
    "rowid": "1070097",
    "final_x": "3765303.5496",
    "final_y": "573486.492522",
    "longitude": "-89.80168502597735",
    "latitude": "30.068074558443044",
    "geocoded_column": {
      "latitude": "30.068074558443044",
      "longitude": "-89.80168502597735"
    }
  },
  {
    "service_request": "2024-1070096",
    "request_type": "Property Maintenance",
    "request_reason": "Property Maintenance",
    "date_created": "2024-02-23T16:05:31.000",
    "date_modified": "2024-02-23T16:52:17.000",
    "case_close_date": "2024-02-23T10:52:17.000",
    "request_status": "Closed",
    "responsible_agency": "Department of Code Enforcement",
    "final_address": "2039 Calhoun St",
    "address_councildis": "A",
    "status": "Resolved",
    "rowid": "1070096",
    "final_x": "3665641.51066",
    "final_y": "524668.721852",
    "longitude": "-90.118375313562",
    "latitude": "29.93712885256039",
    "geocoded_column": {
      "latitude": "29.93712885256039",
      "longitude": "-90.118375313562"
    }
  },
  {
    "service_request": "2024-1070095",
    "request_type": "Trash/Recycling",
    "request_reason": "Replace Trash Cart",
    "date_created": "2024-02-23T16:03:29.000",
    "date_modified": "2024-02-23T16:03:30.000",
    "request_status": "Pending",
    "responsible_agency": "Department of Sanitation",
    "final_address": "1402 Constance St",
    "address_councildis": "B",
    "status": "Assigned to Contractor",
    "contractor": "Richards Disposal",
    "rowid": "1070095",
    "final_x": "3680749.53909",
    "final_y": "524395.909884",
    "longitude": "-90.0706878902072",
    "latitude": "29.93592958431235",
    "geocoded_column": {
      "latitude": "29.93592958431235",
      "longitude": "-90.0706878902072"
    }
  },
  {
    "service_request": "2024-1070094",
    "request_type": "Roads/Drainage",
    "request_reason": "Man hole cover issue",
    "date_created": "2024-02-23T16:02:06.000",
    "date_modified": "2024-02-23T16:02:06.000",
    "request_status": "Pending",
    "responsible_agency": "Department of Public Works",
    "final_address": "2400 BLK Leon C Simon Dr",
    "address_councildis": "D",
    "status": "Pending",
    "rowid": "1070094",
    "final_x": "3685277.38531",
    "final_y": "557150.328072",
    "longitude": "-90.05523999825513",
    "latitude": "30.025854718993017",
    "geocoded_column": {
      "latitude": "30.025854718993017",
      "longitude": "-90.05523999825513"
    }
  },
  {
    "service_request": "2024-1070093",
    "request_type": "Trash/Recycling",
    "request_reason": "Order Recycling Cart",
    "date_created": "2024-02-23T15:53:47.000",
    "date_modified": "2024-02-23T15:53:47.000",
    "request_status": "Pending",
    "responsible_agency": "Department of Sanitation",
    "final_address": "622 Philip St",
    "address_councildis": "B",
    "status": "Pending",
    "rowid": "1070093",
    "final_x": "3679500.84981",
    "final_y": "520537.4494",
    "longitude": "-90.07476382453527",
    "latitude": "29.925357859976067",
    "geocoded_column": {
      "latitude": "29.925357859976067",
      "longitude": "-90.07476382453527"
    }
  },
  {
    "service_request": "2024-1070092",
    "request_type": "Trash/Recycling",
    "request_reason": "Request a Large Item Pick Up",
    "date_created": "2024-02-23T15:51:32.000",
    "date_modified": "2024-02-23T15:51:32.000",
    "request_status": "Pending",
    "responsible_agency": "Department of Sanitation",
    "final_address": "8316 Sycamore St",
    "address_councildis": "A",
    "status": "Assigned to Contractor",
    "contractor": "Richards Disposal",
    "rowid": "1070092",
    "final_x": "3663662.18234",
    "final_y": "531526.323395",
    "longitude": "-90.12439577763577",
    "latitude": "29.95604261421482",
    "geocoded_column": {
      "latitude": "29.95604261421482",
      "longitude": "-90.12439577763577"
    }
  },
  {
    "service_request": "2024-1070091",
    "request_type": "Trash/Recycling",
    "request_reason": "Repair Recycling Cart",
    "date_created": "2024-02-23T15:45:20.000",
    "date_modified": "2024-02-23T15:45:20.000",
    "request_status": "Pending",
    "responsible_agency": "Department of Sanitation",
    "final_address": "129 N Genois St",
    "address_councildis": "B",
    "status": "Pending",
    "rowid": "1070091",
    "final_x": "3672765.09147",
    "final_y": "537485.606088",
    "longitude": "-90.09544856602389",
    "latitude": "29.972161422386442",
    "geocoded_column": {
      "latitude": "29.972161422386442",
      "longitude": "-90.09544856602389"
    }
  },
  {
    "service_request": "2024-1070090",
    "request_type": "Roads/Drainage",
    "request_reason": "Pothole",
    "date_created": "2024-02-23T15:45:14.000",
    "date_modified": "2024-02-23T15:45:15.000",
    "request_status": "Pending",
    "responsible_agency": "Department of Public Works",
    "final_address": "TREASURE ST & N BROAD ST",
    "address_councildis": "D",
    "status": "Pending",
    "rowid": "1070090",
    "final_x": "3681968.4",
    "final_y": "543846.58",
    "longitude": "-90.06616084032304",
    "latitude": "29.98937528121841",
    "geocoded_column": {
      "latitude": "29.98937528121841",
      "longitude": "-90.06616084032304"
    }
  },
  {
    "service_request": "2024-1070089",
    "request_type": "Trash/Recycling",
    "request_reason": "Order Trash Cart",
    "date_created": "2024-02-23T15:42:50.000",
    "date_modified": "2024-02-23T15:42:50.000",
    "request_status": "Pending",
    "responsible_agency": "Department of Sanitation",
    "final_address": "508 Henry Clay Ave Apt A",
    "address_councildis": "A",
    "status": "Assigned to Contractor",
    "contractor": "Richards Disposal",
    "rowid": "1070089",
    "final_x": "3663364.77927",
    "final_y": "518693.168439",
    "longitude": "-90.12576193792006",
    "latitude": "29.92076414194321",
    "geocoded_column": {
      "latitude": "29.92076414194321",
      "longitude": "-90.12576193792006"
    }
  },
  {
    "service_request": "2024-1070087",
    "request_type": "Trash/Recycling",
    "request_reason": "Repair Trash Cart",
    "date_created": "2024-02-23T15:41:12.000",
    "date_modified": "2024-02-23T15:41:12.000",
    "request_status": "Pending",
    "responsible_agency": "Department of Sanitation",
    "final_address": "711 Henry Clay Ave",
    "address_councildis": "A",
    "status": "Assigned to Contractor",
    "contractor": "Richards Disposal",
    "rowid": "1070087",
    "final_x": "3663756.57408",
    "final_y": "519338.485687",
    "longitude": "-90.12450372624123",
    "latitude": "29.92252720367865",
    "geocoded_column": {
      "latitude": "29.92252720367865",
      "longitude": "-90.12450372624123"
    }
  },
  {
    "service_request": "2024-1070086",
    "request_type": "Trash/Recycling",
    "request_reason": "Request a Large Item Pick Up",
    "date_created": "2024-02-23T15:38:05.000",
    "date_modified": "2024-02-23T15:38:05.000",
    "request_status": "Pending",
    "responsible_agency": "Department of Sanitation",
    "final_address": "2162 Lafreniere St",
    "address_councildis": "D",
    "status": "Assigned to Contractor",
    "contractor": "IV Waste",
    "rowid": "1070086",
    "final_x": "3684018.74581",
    "final_y": "545437.6436",
    "longitude": "-90.05962853212385",
    "latitude": "29.993687634060297",
    "geocoded_column": {
      "latitude": "29.993687634060297",
      "longitude": "-90.05962853212385"
    }
  },
  {
    "service_request": "2024-1070085",
    "request_type": "Trash/Recycling",
    "request_reason": "MIssed Recycling Pick-Up",
    "date_created": "2024-02-23T15:34:46.000",
    "date_modified": "2024-02-23T17:02:16.000",
    "case_close_date": "2024-02-22T18:00:00.000",
    "request_status": "Closed",
    "responsible_agency": "Department of Sanitation",
    "final_address": "4512 N Robertson St, New Orleans, Louisiana, 70117",
    "address_councildis": "D",
    "status": "Assigned to Contractor",
    "contractor": "IV Waste",
    "contractor_action": "Invalid Request",
    "rowid": "1070085",
    "final_x": "3693811.04937",
    "final_y": "536349.077575",
    "longitude": "-90.029023062384",
    "latitude": "29.968394411602734",
    "geocoded_column": {
      "latitude": "29.968394411602734",
      "longitude": "-90.029023062384"
    }
  },
  {
    "service_request": "2024-1070084",
    "request_type": "Trash/Recycling",
    "request_reason": "Request a Large Item Pick Up",
    "date_created": "2024-02-23T15:30:52.000",
    "date_modified": "2024-02-23T15:50:34.000",
    "request_status": "Pending",
    "responsible_agency": "Department of Sanitation",
    "final_address": "1533 N Rocheblave St, New Orleans, Louisiana, 70119",
    "address_councildis": "D",
    "status": "Assigned to Contractor",
    "contractor": "IV Waste",
    "rowid": "1070084",
    "final_x": "3679642.01058",
    "final_y": "539177.586634",
    "longitude": "-90.07367136416686",
    "latitude": "29.97660771205682",
    "geocoded_column": {
      "latitude": "29.97660771205682",
      "longitude": "-90.07367136416686"
    }
  },
  {
    "service_request": "2024-1070083",
    "request_type": "Trash/Recycling",
    "request_reason": "Request a Large Item Pick Up",
    "date_created": "2024-02-23T15:24:26.000",
    "date_modified": "2024-02-23T15:24:26.000",
    "request_status": "Pending",
    "responsible_agency": "Department of Sanitation",
    "final_address": "4104 Dale St",
    "address_councildis": "E",
    "status": "Assigned to Contractor",
    "contractor": "Waste Pro",
    "rowid": "1070083",
    "final_x": "3699715.35824",
    "final_y": "551763.344533",
    "longitude": "-90.00981481862972",
    "latitude": "30.010591848220372",
    "geocoded_column": {
      "latitude": "30.010591848220372",
      "longitude": "-90.00981481862972"
    }
  },
  {
    "service_request": "2024-1070082",
    "request_type": "Trash/Recycling",
    "request_reason": "Request a Large Item Pick Up",
    "date_created": "2024-02-23T15:24:17.000",
    "date_modified": "2024-02-23T15:24:18.000",
    "request_status": "Pending",
    "responsible_agency": "Department of Sanitation",
    "final_address": "2401 Broadway St",
    "address_councildis": "A",
    "status": "Assigned to Contractor",
    "contractor": "Richards Disposal",
    "rowid": "1070082",
    "final_x": "3666669.27841",
    "final_y": "530115.990529",
    "longitude": "-90.11494771658272",
    "latitude": "29.95207707820802",
    "geocoded_column": {
      "latitude": "29.95207707820802",
      "longitude": "-90.11494771658272"
    }
  },
  {
    "service_request": "2024-1070081",
    "request_type": "Trash/Recycling",
    "request_reason": "Return Recycling Cart",
    "date_created": "2024-02-23T15:23:59.000",
    "date_modified": "2024-02-23T15:23:59.000",
    "request_status": "Pending",
    "responsible_agency": "Department of Sanitation",
    "final_address": "8217 Nelson St",
    "address_councildis": "A",
    "status": "Pending",
    "rowid": "1070081",
    "final_x": "3664783.08109",
    "final_y": "532200.651907",
    "longitude": "-90.12083381673027",
    "latitude": "29.957864232057478",
    "geocoded_column": {
      "latitude": "29.957864232057478",
      "longitude": "-90.12083381673027"
    }
  },
  {
    "service_request": "2024-1070080",
    "request_type": "Trash/Recycling",
    "request_reason": "Repair Trash Cart",
    "date_created": "2024-02-23T15:22:45.000",
    "date_modified": "2024-02-23T15:22:45.000",
    "request_status": "Pending",
    "responsible_agency": "Department of Sanitation",
    "final_address": "8217 Nelson St",
    "address_councildis": "A",
    "status": "Assigned to Contractor",
    "contractor": "Richards Disposal",
    "rowid": "1070080",
    "final_x": "3664783.08109",
    "final_y": "532200.651907",
    "longitude": "-90.12083381673027",
    "latitude": "29.957864232057478",
    "geocoded_column": {
      "latitude": "29.957864232057478",
      "longitude": "-90.12083381673027"
    }
  },
  {
    "service_request": "2024-1070079",
    "request_type": "Trash/Recycling",
    "request_reason": "MIssed Recycling Pick-Up",
    "date_created": "2024-02-23T15:22:26.000",
    "date_modified": "2024-02-23T15:22:26.000",
    "request_status": "Pending",
    "responsible_agency": "Department of Sanitation",
    "final_address": "6325 York St",
    "address_councildis": "A",
    "status": "Assigned to Contractor",
    "contractor": "Richards Disposal",
    "rowid": "1070079",
    "final_x": "3667418.18778",
    "final_y": "529241.238977",
    "longitude": "-90.11261242875403",
    "latitude": "29.949649878864143",
    "geocoded_column": {
      "latitude": "29.949649878864143",
      "longitude": "-90.11261242875403"
    }
  },
  {
    "service_request": "2024-1070078",
    "request_type": "Trash/Recycling",
    "request_reason": "Replace Trash Cart",
    "date_created": "2024-02-23T15:13:04.000",
    "date_modified": "2024-02-23T15:13:05.000",
    "request_status": "Pending",
    "responsible_agency": "Department of Sanitation",
    "final_address": "3212 Live Oak St",
    "address_councildis": "A",
    "status": "Assigned to Contractor",
    "contractor": "Richards Disposal",
    "rowid": "1070078",
    "final_x": "3663449.37274",
    "final_y": "536864.47092",
    "longitude": "-90.12488999057662",
    "latitude": "29.970726944403793",
    "geocoded_column": {
      "latitude": "29.970726944403793",
      "longitude": "-90.12488999057662"
    }
  },
  {
    "service_request": "2024-1070077",
    "request_type": "Roads/Drainage",
    "request_reason": "Damaged Sidewalk",
    "date_created": "2024-02-23T15:10:31.000",
    "date_modified": "2024-02-23T15:18:23.000",
    "case_close_date": "2024-02-23T09:18:23.000",
    "request_status": "Closed",
    "responsible_agency": "Department of Public Works",
    "final_address": "7320 Crestmont Rd",
    "address_councildis": "E",
    "status": "Referred to External Agency",
    "rowid": "1070077",
    "final_x": "3699917.91856",
    "final_y": "559400.419549",
    "longitude": "-90.00889596503265",
    "latitude": "30.03158445357107",
    "geocoded_column": {
      "latitude": "30.03158445357107",
      "longitude": "-90.00889596503265"
    }
  },
  {
    "service_request": "2024-1070076",
    "request_type": "Trash/Recycling",
    "request_reason": "Request a Large Item Pick Up",
    "date_created": "2024-02-23T15:06:59.000",
    "date_modified": "2024-02-23T15:06:59.000",
    "request_status": "Pending",
    "responsible_agency": "Department of Sanitation",
    "final_address": "4666 Viola St",
    "address_councildis": "E",
    "status": "Assigned to Contractor",
    "contractor": "Waste Pro",
    "rowid": "1070076",
    "final_x": "3703963.35377",
    "final_y": "554782.649496",
    "longitude": "-89.99628256321728",
    "latitude": "30.01875818134378",
    "geocoded_column": {
      "latitude": "30.01875818134378",
      "longitude": "-89.99628256321728"
    }
  },
  {
    "service_request": "2024-1070075",
    "request_type": "Trash/Recycling",
    "request_reason": "Missed Trash Pick-Up",
    "date_created": "2024-02-23T15:05:36.000",
    "date_modified": "2024-02-23T15:05:37.000",
    "request_status": "Pending",
    "responsible_agency": "Department of Sanitation",
    "final_address": "622 Valence St, New Orleans, Louisiana, 70115",
    "address_councildis": "B",
    "status": "Assigned to Contractor",
    "contractor": "Richards Disposal",
    "rowid": "1070075",
    "final_x": "3669972.0971",
    "final_y": "517860.520438",
    "longitude": "-90.1049337849221",
    "latitude": "29.918281502012675",
    "geocoded_column": {
      "latitude": "29.918281502012675",
      "longitude": "-90.1049337849221"
    }
  },
  {
    "service_request": "2024-1070074",
    "request_type": "Trash/Recycling",
    "request_reason": "Request a Large Item Pick Up",
    "date_created": "2024-02-23T15:03:03.000",
    "date_modified": "2024-02-23T15:03:03.000",
    "request_status": "Pending",
    "responsible_agency": "Department of Sanitation",
    "final_address": "7170 Whitmore Pl",
    "address_councildis": "E",
    "status": "Assigned to Contractor",
    "contractor": "Waste Pro",
    "rowid": "1070074",
    "final_x": "3718479.60018",
    "final_y": "569810.604582",
    "longitude": "-89.94984367497074",
    "latitude": "30.059605211779058",
    "geocoded_column": {
      "latitude": "30.059605211779058",
      "longitude": "-89.94984367497074"
    }
  },
  {
    "service_request": "2024-1070073",
    "request_type": "Roads/Drainage",
    "request_reason": "Catch Basin - Clogged",
    "date_created": "2024-02-23T15:02:44.000",
    "date_modified": "2024-02-23T15:02:44.000",
    "request_status": "Pending",
    "responsible_agency": "Department of Public Works",
    "final_address": "5531 Willow St",
    "address_councildis": "A",
    "status": "Pending",
    "rowid": "1070073",
    "final_x": "3667641.6962",
    "final_y": "525468.119037",
    "longitude": "-90.11203368884563",
    "latitude": "29.939268470424164",
    "geocoded_column": {
      "latitude": "29.939268470424164",
      "longitude": "-90.11203368884563"
    }
  },
  {
    "service_request": "2024-1070072",
    "request_type": "Roads/Drainage",
    "request_reason": "Catch Basin - Broken/Damage",
    "date_created": "2024-02-23T15:02:34.000",
    "date_modified": "2024-02-23T15:02:34.000",
    "request_status": "Pending",
    "responsible_agency": "Department of Public Works",
    "final_address": "6200 BLK N Tonti St",
    "address_councildis": "E",
    "status": "Pending",
    "rowid": "1070072",
    "final_x": "3701715.93872",
    "final_y": "537390.383012",
    "longitude": "-90.00402106612123",
    "latitude": "29.971007839488916",
    "geocoded_column": {
      "latitude": "29.971007839488916",
      "longitude": "-90.00402106612123"
    }
  },
  {
    "service_request": "2024-1070071",
    "request_type": "Trash/Recycling",
    "request_reason": "Request a Large Item Pick Up",
    "date_created": "2024-02-23T15:02:23.000",
    "date_modified": "2024-02-23T15:02:24.000",
    "request_status": "Pending",
    "responsible_agency": "Department of Sanitation",
    "final_address": "7230 Beauvoir Ct",
    "address_councildis": "E",
    "status": "Assigned to Contractor",
    "contractor": "Waste Pro",
    "rowid": "1070071",
    "final_x": "3716213.76402",
    "final_y": "567740.069668",
    "longitude": "-89.95708436596382",
    "latitude": "30.053987123433235",
    "geocoded_column": {
      "latitude": "30.053987123433235",
      "longitude": "-89.95708436596382"
    }
  },
  {
    "service_request": "2024-1070070",
    "request_type": "Trash/Recycling",
    "request_reason": "Request a Large Item Pick Up",
    "date_created": "2024-02-23T15:02:22.000",
    "date_modified": "2024-02-23T15:02:22.000",
    "request_status": "Pending",
    "responsible_agency": "Department of Sanitation",
    "final_address": "42 Yosemite Dr",
    "address_councildis": "C",
    "status": "Assigned to Contractor",
    "contractor": "Richards Disposal",
    "rowid": "1070070",
    "final_x": "3700020.79114",
    "final_y": "517030.085173",
    "longitude": "-90.010117069936",
    "latitude": "29.915078118624486",
    "geocoded_column": {
      "latitude": "29.915078118624486",
      "longitude": "-90.010117069936"
    }
  },
  {
    "service_request": "2024-1070069",
    "request_type": "Trash/Recycling",
    "request_reason": "Missed Trash Pick-Up",
    "date_created": "2024-02-23T15:02:13.000",
    "date_modified": "2024-02-23T15:02:14.000",
    "request_status": "Pending",
    "responsible_agency": "Department of Sanitation",
    "final_address": "622 Valence St, New Orleans, Louisiana, 70115",
    "address_councildis": "B",
    "status": "Assigned to Contractor",
    "contractor": "Richards Disposal",
    "rowid": "1070069",
    "final_x": "3669972.0971",
    "final_y": "517860.520438",
    "longitude": "-90.1049337849221",
    "latitude": "29.918281502012675",
    "geocoded_column": {
      "latitude": "29.918281502012675",
      "longitude": "-90.1049337849221"
    }
  },
  {
    "service_request": "2024-1070068",
    "request_type": "Trash/Recycling",
    "request_reason": "Missed Trash Pick-Up",
    "date_created": "2024-02-23T15:01:28.000",
    "date_modified": "2024-02-23T15:01:29.000",
    "request_status": "Pending",
    "responsible_agency": "Department of Sanitation",
    "final_address": "1922 Adams St, New Orleans, Louisiana, 70118",
    "address_councildis": "A",
    "status": "Assigned to Contractor",
    "contractor": "Richards Disposal",
    "rowid": "1070068",
    "final_x": "3664814.87687",
    "final_y": "529368.983105",
    "longitude": "-90.12082803266622",
    "latitude": "29.95007713748382",
    "geocoded_column": {
      "latitude": "29.95007713748382",
      "longitude": "-90.12082803266622"
    }
  },
  {
    "service_request": "2024-1070067",
    "request_type": "Roads/Drainage",
    "request_reason": "Catch Basin - Broken/Damage",
    "date_created": "2024-02-23T14:59:56.000",
    "date_modified": "2024-02-23T14:59:57.000",
    "request_status": "Pending",
    "responsible_agency": "Department of Public Works",
    "final_address": "TUPELO ST & MARAIS ST",
    "address_councildis": "E",
    "status": "Pending",
    "rowid": "1070067",
    "final_x": "3699627.4",
    "final_y": "533639.38",
    "longitude": "-90.01075363616316",
    "latitude": "29.96076038398358",
    "geocoded_column": {
      "latitude": "29.96076038398358",
      "longitude": "-90.01075363616316"
    }
  },
  {
    "service_request": "2024-1070066",
    "request_type": "Roads/Drainage",
    "request_reason": "Catch Basin - Broken/Damage",
    "date_created": "2024-02-23T14:57:55.000",
    "date_modified": "2024-02-23T14:57:56.000",
    "request_status": "Pending",
    "responsible_agency": "Department of Public Works",
    "final_address": "2141 St Maurice Ave",
    "address_councildis": "E",
    "status": "Pending",
    "rowid": "1070066",
    "final_x": "3701436.90871",
    "final_y": "537025.464712",
    "longitude": "-90.00491563418203",
    "latitude": "29.970013344172372",
    "geocoded_column": {
      "latitude": "29.970013344172372",
      "longitude": "-90.00491563418203"
    }
  },
  {
    "service_request": "2024-1070065",
    "request_type": "Trash/Recycling",
    "request_reason": "MIssed Recycling Pick-Up",
    "date_created": "2024-02-23T14:48:21.000",
    "date_modified": "2024-02-23T14:48:22.000",
    "request_status": "Pending",
    "responsible_agency": "Department of Sanitation",
    "final_address": "915 Thalia St",
    "address_councildis": "B",
    "status": "Assigned to Contractor",
    "contractor": "Richards Disposal",
    "rowid": "1070065",
    "final_x": "3681195.47324",
    "final_y": "525113.379773",
    "longitude": "-90.06925507965235",
    "latitude": "29.93788886923079",
    "geocoded_column": {
      "latitude": "29.93788886923079",
      "longitude": "-90.06925507965235"
    }
  },
  {
    "service_request": "2024-1070064",
    "request_type": "Trash/Recycling",
    "request_reason": "Request a Large Item Pick Up",
    "date_created": "2024-02-23T14:46:14.000",
    "date_modified": "2024-02-23T14:46:18.000",
    "request_status": "Pending",
    "responsible_agency": "Department of Sanitation",
    "final_address": "4624 Charlene Dr",
    "address_councildis": "E",
    "status": "Assigned to Contractor",
    "contractor": "Waste Pro",
    "rowid": "1070064",
    "final_x": "3707930.75934",
    "final_y": "554674.717464",
    "longitude": "-89.98375110809992",
    "latitude": "30.018333520397995",
    "geocoded_column": {
      "latitude": "30.018333520397995",
      "longitude": "-89.98375110809992"
    }
  },
  {
    "service_request": "2024-1070063",
    "request_type": "Roads/Drainage",
    "request_reason": "Damaged Sidewalk",
    "date_created": "2024-02-23T14:45:09.000",
    "date_modified": "2024-02-23T14:45:09.000",
    "request_status": "Pending",
    "responsible_agency": "Department of Public Works",
    "final_address": "2532 Port St",
    "address_councildis": "D",
    "status": "Pending",
    "rowid": "1070063",
    "final_x": "3688776.60796",
    "final_y": "541915.156748",
    "longitude": "-90.04472434267012",
    "latitude": "29.983855776738697",
    "geocoded_column": {
      "latitude": "29.983855776738697",
      "longitude": "-90.04472434267012"
    }
  },
  {
    "service_request": "2024-1070061",
    "request_type": "Trash/Recycling",
    "request_reason": "Request a Large Item Pick Up",
    "date_created": "2024-02-23T14:32:46.000",
    "date_modified": "2024-02-23T14:32:46.000",
    "request_status": "Pending",
    "responsible_agency": "Department of Sanitation",
    "final_address": "7801 Lady Gray St",
    "address_councildis": "E",
    "status": "Assigned to Contractor",
    "contractor": "Waste Pro",
    "rowid": "1070061",
    "final_x": "3709587.29009",
    "final_y": "566006.430691",
    "longitude": "-89.97809366537889",
    "latitude": "30.0494374918845",
    "geocoded_column": {
      "latitude": "30.0494374918845",
      "longitude": "-89.97809366537889"
    }
  },
  {
    "service_request": "2024-1070060",
    "request_type": "Abandoned Vehicles",
    "request_reason": "Abandoned/Junk Vehicles",
    "date_created": "2024-02-23T14:29:45.000",
    "date_modified": "2024-02-23T14:29:45.000",
    "request_status": "Pending",
    "responsible_agency": "Department of Public Works",
    "final_address": "930 N Salcedo St",
    "address_councildis": "A",
    "status": "Pending",
    "rowid": "1070060",
    "final_x": "3676097.67905",
    "final_y": "538661.445705",
    "longitude": "-90.08488322660477",
    "latitude": "29.9752951630204",
    "geocoded_column": {
      "latitude": "29.9752951630204",
      "longitude": "-90.08488322660477"
    }
  },
  {
    "service_request": "2024-1070059",
    "request_type": "Abandoned Vehicles",
    "request_reason": "Abandoned/Junk Vehicles",
    "date_created": "2024-02-23T14:28:37.000",
    "date_modified": "2024-02-23T14:28:37.000",
    "request_status": "Pending",
    "responsible_agency": "Department of Public Works",
    "final_address": "930 N Salcedo St",
    "address_councildis": "A",
    "status": "Pending",
    "rowid": "1070059",
    "final_x": "3676097.67905",
    "final_y": "538661.445705",
    "longitude": "-90.08488322660477",
    "latitude": "29.9752951630204",
    "geocoded_column": {
      "latitude": "29.9752951630204",
      "longitude": "-90.08488322660477"
    }
  },
  {
    "service_request": "2024-1070058",
    "request_type": "Trash/Recycling",
    "request_reason": "Request a Large Item Pick Up",
    "date_created": "2024-02-23T14:25:45.000",
    "date_modified": "2024-02-23T14:25:45.000",
    "request_status": "Pending",
    "responsible_agency": "Department of Sanitation",
    "final_address": "7319 Sheffield St",
    "address_councildis": "E",
    "status": "Assigned to Contractor",
    "contractor": "Waste Pro",
    "rowid": "1070058",
    "final_x": "3699632.91831",
    "final_y": "559361.683997",
    "longitude": "-90.00979798803601",
    "latitude": "30.03148700055262",
    "geocoded_column": {
      "latitude": "30.03148700055262",
      "longitude": "-90.00979798803601"
    }
  },
  {
    "service_request": "2024-1070057",
    "request_type": "Trash/Recycling",
    "request_reason": "Request a Large Item Pick Up",
    "date_created": "2024-02-23T14:18:06.000",
    "date_modified": "2024-02-23T14:18:07.000",
    "request_status": "Pending",
    "responsible_agency": "Department of Sanitation",
    "final_address": "2208 Foucher St",
    "address_councildis": "B",
    "status": "Assigned to Contractor",
    "contractor": "Richards Disposal",
    "rowid": "1070057",
    "final_x": "3672721.17268",
    "final_y": "523386.504827",
    "longitude": "-90.09606807036256",
    "latitude": "29.93339486288668",
    "geocoded_column": {
      "latitude": "29.93339486288668",
      "longitude": "-90.09606807036256"
    }
  },
  {
    "service_request": "2024-1070056",
    "request_type": "Trash/Recycling",
    "request_reason": "Order Trash Cart",
    "date_created": "2024-02-23T14:13:40.000",
    "date_modified": "2024-02-23T14:13:41.000",
    "request_status": "Pending",
    "responsible_agency": "Department of Sanitation",
    "final_address": "7021 Walmsley Ave",
    "address_councildis": "B",
    "status": "Assigned to Contractor",
    "contractor": "Richards Disposal",
    "rowid": "1070056",
    "final_x": "3667769.54618",
    "final_y": "530935.06829",
    "longitude": "-90.11144599522372",
    "latitude": "29.95429705931073",
    "geocoded_column": {
      "latitude": "29.95429705931073",
      "longitude": "-90.11144599522372"
    }
  },
  {
    "service_request": "2024-1070055",
    "request_type": "Trash/Recycling",
    "request_reason": "Order Recycling Cart",
    "date_created": "2024-02-23T14:13:24.000",
    "date_modified": "2024-02-23T14:13:24.000",
    "request_status": "Pending",
    "responsible_agency": "Department of Sanitation",
    "final_address": "7021 Walmsley Ave",
    "address_councildis": "B",
    "status": "Pending",
    "rowid": "1070055",
    "final_x": "3667769.54618",
    "final_y": "530935.06829",
    "longitude": "-90.11144599522372",
    "latitude": "29.95429705931073",
    "geocoded_column": {
      "latitude": "29.95429705931073",
      "longitude": "-90.11144599522372"
    }
  },
  {
    "service_request": "2024-1070054",
    "request_type": "Trash/Recycling",
    "request_reason": "Replace Trash Cart",
    "date_created": "2024-02-23T14:10:18.000",
    "date_modified": "2024-02-23T14:10:18.000",
    "request_status": "Pending",
    "responsible_agency": "Department of Sanitation",
    "final_address": "2415 Constance St, New Orleans, Louisiana, 70130",
    "address_councildis": "B",
    "status": "Assigned to Contractor",
    "contractor": "Richards Disposal",
    "rowid": "1070054",
    "final_x": "3678140.57077",
    "final_y": "521145.806905",
    "longitude": "-90.07903677888866",
    "latitude": "29.927071658064744",
    "geocoded_column": {
      "latitude": "29.927071658064744",
      "longitude": "-90.07903677888866"
    }
  },
  {
    "service_request": "2024-1070053",
    "request_type": "Trash/Recycling",
    "request_reason": "Request a Large Item Pick Up",
    "date_created": "2024-02-23T14:10:17.000",
    "date_modified": "2024-02-23T14:10:18.000",
    "request_status": "Pending",
    "responsible_agency": "Department of Sanitation",
    "final_address": "4741 Chantilly Dr",
    "address_councildis": "E",
    "status": "Assigned to Contractor",
    "contractor": "Waste Pro",
    "rowid": "1070053",
    "final_x": "3700969.19351",
    "final_y": "554137.012248",
    "longitude": "-90.00576661142252",
    "latitude": "30.01707865202684",
    "geocoded_column": {
      "latitude": "30.01707865202684",
      "longitude": "-90.00576661142252"
    }
  },
  {
    "service_request": "2024-1070052",
    "request_type": "Healthy Homes",
    "request_reason": "Healthy Homes",
    "date_created": "2024-02-23T14:08:32.000",
    "date_modified": "2024-02-23T14:08:32.000",
    "request_status": "Pending",
    "responsible_agency": "Department of Code Enforcement",
    "final_address": "3601 Bender Blvd",
    "address_councildis": "C",
    "status": "Pending",
    "rowid": "1070052",
    "final_x": "3697256.62922",
    "final_y": "518432.922294",
    "longitude": "-90.01879091800048",
    "latitude": "29.91902292760069",
    "geocoded_column": {
      "latitude": "29.91902292760069",
      "longitude": "-90.01879091800048"
    }
  },
  {
    "service_request": "2024-1070051",
    "request_type": "Trash/Recycling",
    "request_reason": "Order Recycling Cart",
    "date_created": "2024-02-23T14:07:51.000",
    "date_modified": "2024-02-23T14:07:51.000",
    "request_status": "Pending",
    "responsible_agency": "Department of Sanitation",
    "final_address": "1228 Independence St",
    "address_councildis": "D",
    "status": "Pending",
    "rowid": "1070051",
    "final_x": "3691071.4271",
    "final_y": "536114.689351",
    "longitude": "-90.03768325957392",
    "latitude": "29.96783539041953",
    "geocoded_column": {
      "latitude": "29.96783539041953",
      "longitude": "-90.03768325957392"
    }
  },
  {
    "service_request": "2024-1070050",
    "request_type": "Trash/Recycling",
    "request_reason": "Request a Large Item Pick Up",
    "date_created": "2024-02-23T14:06:40.000",
    "date_modified": "2024-02-23T14:06:41.000",
    "request_status": "Pending",
    "responsible_agency": "Department of Sanitation",
    "final_address": "1726 St Roch Ave",
    "address_councildis": "D",
    "status": "Assigned to Contractor",
    "contractor": "IV Waste",
    "rowid": "1070050",
    "final_x": "3686219.88905",
    "final_y": "538846.840009",
    "longitude": "-90.05290811491447",
    "latitude": "29.975497799918166",
    "geocoded_column": {
      "latitude": "29.975497799918166",
      "longitude": "-90.05290811491447"
    }
  },
  {
    "service_request": "2024-1070049",
    "request_type": "Parks & Parkways",
    "request_reason": "Request Tree Service (Right of Way/Public Property)",
    "date_created": "2024-02-23T14:06:39.000",
    "date_modified": "2024-02-23T15:57:32.000",
    "request_status": "Pending",
    "responsible_agency": "Department of Parks & Parkway",
    "final_address": "New Orleans,LA",
    "address_councildis": "A",
    "rowid": "1070049",
    "final_x": "3664944.7314",
    "final_y": "527193.176191",
    "longitude": "-90.12049073706588",
    "latitude": "29.944090590840116",
    "geocoded_column": {
      "latitude": "29.944090590840116",
      "longitude": "-90.12049073706588"
    }
  },
  {
    "service_request": "2024-1070048",
    "request_type": "Trash/Recycling",
    "request_reason": "Replace Recycling Cart",
    "date_created": "2024-02-23T14:03:26.000",
    "date_modified": "2024-02-23T14:03:26.000",
    "request_status": "Pending",
    "responsible_agency": "Department of Sanitation",
    "final_address": "4504 S Johnson St, #2, New Orleans, Louisiana, 70125",
    "status": "Pending",
    "rowid": "1070048",
    "longitude": "0.0",
    "latitude": "0.0",
    "geocoded_column": {
      "latitude": "0.0",
      "longitude": "0.0"
    }
  },
  {
    "service_request": "2024-1070047",
    "request_type": "Trash/Recycling",
    "request_reason": "Request a Large Item Pick Up",
    "date_created": "2024-02-23T14:02:44.000",
    "date_modified": "2024-02-23T14:02:45.000",
    "request_status": "Pending",
    "responsible_agency": "Department of Sanitation",
    "final_address": "1131 Forstall St",
    "address_councildis": "E",
    "status": "Assigned to Contractor",
    "contractor": "Waste Pro",
    "rowid": "1070047",
    "final_x": "3696374.596",
    "final_y": "534502.115909",
    "longitude": "-90.02099410505721",
    "latitude": "29.96323543782779",
    "geocoded_column": {
      "latitude": "29.96323543782779",
      "longitude": "-90.02099410505721"
    }
  },
  {
    "service_request": "2024-1070046",
    "request_type": "Trash/Recycling",
    "request_reason": "Repair Trash Cart",
    "date_created": "2024-02-23T14:02:18.000",
    "date_modified": "2024-02-23T14:02:18.000",
    "request_status": "Pending",
    "responsible_agency": "Department of Sanitation",
    "final_address": "7035 Birch St",
    "address_councildis": "A",
    "status": "Assigned to Contractor",
    "contractor": "Richards Disposal",
    "rowid": "1070046",
    "final_x": "3665392.98432",
    "final_y": "527476.953215",
    "longitude": "-90.11906597699891",
    "latitude": "29.944857832549527",
    "geocoded_column": {
      "latitude": "29.944857832549527",
      "longitude": "-90.11906597699891"
    }
  },
  {
    "service_request": "2024-1070045",
    "request_type": "Trash/Recycling",
    "request_reason": "Illegal Dumping",
    "date_created": "2024-02-23T13:59:30.000",
    "date_modified": "2024-02-23T13:59:30.000",
    "request_status": "Pending",
    "responsible_agency": "Department of Sanitation",
    "final_address": "2600 BLK N Galvez St",
    "address_councildis": "D",
    "status": "Pending",
    "rowid": "1070045",
    "final_x": "3687834.67416",
    "final_y": "540236.671611",
    "longitude": "-90.04775894878397",
    "latitude": "29.979269631288684",
    "geocoded_column": {
      "latitude": "29.979269631288684",
      "longitude": "-90.04775894878397"
    }
  },
  {
    "service_request": "2024-1070044",
    "request_type": "Trash/Recycling",
    "request_reason": "Repair Recycling Cart",
    "date_created": "2024-02-23T13:58:47.000",
    "date_modified": "2024-02-23T13:58:47.000",
    "request_status": "Pending",
    "responsible_agency": "Department of Sanitation",
    "final_address": "4019 Clematis St",
    "address_councildis": "D",
    "status": "Pending",
    "rowid": "1070044",
    "final_x": "3685590.29807",
    "final_y": "547549.066898",
    "longitude": "-90.05458981326127",
    "latitude": "29.999445162428827",
    "geocoded_column": {
      "latitude": "29.999445162428827",
      "longitude": "-90.05458981326127"
    }
  },
  {
    "service_request": "2024-1070043",
    "request_type": "Trash/Recycling",
    "request_reason": "Illegal Dumping",
    "date_created": "2024-02-23T13:58:13.000",
    "date_modified": "2024-02-23T13:58:13.000",
    "request_status": "Pending",
    "responsible_agency": "Department of Sanitation",
    "final_address": "2700 BLK Odin St",
    "address_councildis": "D",
    "status": "Pending",
    "rowid": "1070043",
    "final_x": "3687467.75561",
    "final_y": "553341.341596",
    "longitude": "-90.04845369874155",
    "latitude": "30.01531405826127",
    "geocoded_column": {
      "latitude": "30.01531405826127",
      "longitude": "-90.04845369874155"
    }
  },
  {
    "service_request": "2024-1070042",
    "request_type": "Roads/Drainage",
    "request_reason": "Culvert Issue",
    "date_created": "2024-02-23T13:56:07.000",
    "date_modified": "2024-02-23T13:56:08.000",
    "request_status": "Pending",
    "responsible_agency": "Department of Public Works",
    "final_address": "3903 Packard St",
    "address_councildis": "D",
    "status": "Pending",
    "rowid": "1070042",
    "final_x": "3688742.96387",
    "final_y": "547538.475602",
    "longitude": "-90.04463084925464",
    "latitude": "29.999318921814737",
    "geocoded_column": {
      "latitude": "29.999318921814737",
      "longitude": "-90.04463084925464"
    }
  },
  {
    "service_request": "2024-1070041",
    "request_type": "Abandoned Vehicles",
    "request_reason": "Abandoned/Junk Vehicles",
    "date_created": "2024-02-23T13:51:24.000",
    "date_modified": "2024-02-23T13:51:24.000",
    "request_status": "Pending",
    "responsible_agency": "Department of Public Works",
    "final_address": "6319 Louisville St",
    "address_councildis": "A",
    "status": "Pending",
    "rowid": "1070041",
    "final_x": "3668041.49319",
    "final_y": "549545.756691",
    "longitude": "-90.10995987657189",
    "latitude": "30.005462191082888",
    "geocoded_column": {
      "latitude": "30.005462191082888",
      "longitude": "-90.10995987657189"
    }
  },
  {
    "service_request": "2024-1070040",
    "request_type": "Roads/Drainage",
    "request_reason": "Pothole",
    "date_created": "2024-02-23T13:51:10.000",
    "date_modified": "2024-02-23T14:05:48.000",
    "case_close_date": "2024-02-23T08:05:48.000",
    "request_status": "Closed",
    "responsible_agency": "Department of Public Works",
    "final_address": "5100 BLK Conti St",
    "address_councildis": "A",
    "status": "Resolved",
    "rowid": "1070040",
    "final_x": "3668779.53412",
    "final_y": "541568.848408",
    "longitude": "-90.10789774843714",
    "latitude": "29.98350675158076",
    "geocoded_column": {
      "latitude": "29.98350675158076",
      "longitude": "-90.10789774843714"
    }
  },
  {
    "service_request": "2024-1070039",
    "request_type": "Traffic Signals/Signs/Striping/Streetlights",
    "request_reason": "Street Light Outage/Malfunction",
    "date_created": "2024-02-23T13:51:09.000",
    "date_modified": "2024-02-23T13:51:09.000",
    "request_status": "Pending",
    "responsible_agency": "Department of Public Works",
    "final_address": "2922 New Orleans St",
    "address_councildis": "D",
    "status": "Assigned to Contractor",
    "contractor": "Legacy Professional Services",
    "rowid": "1070039",
    "final_x": "3681788.80015",
    "final_y": "543303.470926",
    "longitude": "-90.06674710715164",
    "latitude": "29.98788738276442",
    "geocoded_column": {
      "latitude": "29.98788738276442",
      "longitude": "-90.06674710715164"
    }
  },
  {
    "service_request": "2024-1070038",
    "request_type": "Trash/Recycling",
    "request_reason": "Missed Trash Pick-Up",
    "date_created": "2024-02-23T13:46:58.000",
    "date_modified": "2024-02-23T13:46:59.000",
    "request_status": "Pending",
    "responsible_agency": "Department of Sanitation",
    "final_address": "3323 Baudin St",
    "address_councildis": "B",
    "status": "Assigned to Contractor",
    "contractor": "Richards Disposal",
    "rowid": "1070038",
    "final_x": "3672483.89902",
    "final_y": "535310.38855",
    "longitude": "-90.09641077836474",
    "latitude": "29.966188657008907",
    "geocoded_column": {
      "latitude": "29.966188657008907",
      "longitude": "-90.09641077836474"
    }
  },
  {
    "service_request": "2024-1070037",
    "request_type": "Trash/Recycling",
    "request_reason": "Request a Large Item Pick Up",
    "date_created": "2024-02-23T13:46:40.000",
    "date_modified": "2024-02-23T13:46:40.000",
    "request_status": "Pending",
    "responsible_agency": "Department of Sanitation",
    "final_address": "8260 Colony Ct",
    "address_councildis": "E",
    "status": "Assigned to Contractor",
    "contractor": "Waste Pro",
    "rowid": "1070037",
    "final_x": "3703287.55012",
    "final_y": "560439.154334",
    "longitude": "-89.99820959653695",
    "latitude": "30.034333045083176",
    "geocoded_column": {
      "latitude": "30.034333045083176",
      "longitude": "-89.99820959653695"
    }
  },
  {
    "service_request": "2024-1070036",
    "request_type": "Trash/Recycling",
    "request_reason": "MIssed Recycling Pick-Up",
    "date_created": "2024-02-23T13:45:08.000",
    "date_modified": "2024-02-23T13:45:09.000",
    "request_status": "Pending",
    "responsible_agency": "Department of Sanitation",
    "final_address": "1132 Merrill St",
    "address_councildis": "C",
    "status": "Assigned to Contractor",
    "contractor": "Richards Disposal",
    "rowid": "1070036",
    "final_x": "3695023.62877",
    "final_y": "527778.731199",
    "longitude": "-90.02550261532149",
    "latitude": "29.944790958838567",
    "geocoded_column": {
      "latitude": "29.944790958838567",
      "longitude": "-90.02550261532149"
    }
  },
  {
    "service_request": "2024-1070035",
    "request_type": "Roads/Drainage",
    "request_reason": "Pothole",
    "date_created": "2024-02-23T13:44:34.000",
    "date_modified": "2024-02-23T13:45:01.000",
    "case_close_date": "2024-02-23T07:45:01.000",
    "request_status": "Closed",
    "responsible_agency": "Department of Public Works",
    "final_address": "1700 BLK Old Prieur St",
    "address_councildis": "D",
    "status": "Resolved",
    "rowid": "1070035",
    "final_x": "3681898.05513",
    "final_y": "539180.153383",
    "longitude": "-90.06654599669936",
    "latitude": "29.976546381367474",
    "geocoded_column": {
      "latitude": "29.976546381367474",
      "longitude": "-90.06654599669936"
    }
  },
  {
    "service_request": "2024-1070034",
    "request_type": "Roads/Drainage",
    "request_reason": "Pothole",
    "date_created": "2024-02-23T13:42:01.000",
    "date_modified": "2024-02-23T13:42:25.000",
    "case_close_date": "2024-02-23T07:42:25.000",
    "request_status": "Closed",
    "responsible_agency": "Department of Public Works",
    "final_address": "1800 BLK N Prieur St",
    "address_councildis": "D",
    "status": "Resolved",
    "rowid": "1070034",
    "final_x": "3682725.67519",
    "final_y": "539084.565319",
    "longitude": "-90.06393546650453",
    "latitude": "29.976258362806703",
    "geocoded_column": {
      "latitude": "29.976258362806703",
      "longitude": "-90.06393546650453"
    }
  },
  {
    "service_request": "2024-1070033",
    "request_type": "Trash/Recycling",
    "request_reason": "Replace Trash Cart",
    "date_created": "2024-02-23T13:41:14.000",
    "date_modified": "2024-02-23T13:41:15.000",
    "request_status": "Pending",
    "responsible_agency": "Department of Sanitation",
    "final_address": "9 Rosa Park",
    "address_councildis": "A",
    "status": "Assigned to Contractor",
    "contractor": "Richards Disposal",
    "rowid": "1070033",
    "final_x": "3666254.54631",
    "final_y": "522586.536442",
    "longitude": "-90.11650972460535",
    "latitude": "29.93138561860705",
    "geocoded_column": {
      "latitude": "29.93138561860705",
      "longitude": "-90.11650972460535"
    }
  },
  {
    "service_request": "2024-1070032",
    "request_type": "Roads/Drainage",
    "request_reason": "Street Subsidence (Sinking)",
    "date_created": "2024-02-23T13:39:46.000",
    "date_modified": "2024-02-23T13:39:46.000",
    "request_status": "Pending",
    "responsible_agency": "Department of Public Works",
    "final_address": "8260 Colony Ct, New Orleans, Louisiana, 70126",
    "address_councildis": "E",
    "status": "Pending",
    "rowid": "1070032",
    "final_x": "3703287.55012",
    "final_y": "560439.154334",
    "longitude": "-89.99820959653695",
    "latitude": "30.034333045083176",
    "geocoded_column": {
      "latitude": "30.034333045083176",
      "longitude": "-89.99820959653695"
    }
  },
  {
    "service_request": "2024-1070031",
    "request_type": "Roads/Drainage",
    "request_reason": "Pothole",
    "date_created": "2024-02-23T13:30:03.000",
    "date_modified": "2024-02-23T13:31:37.000",
    "case_close_date": "2024-02-23T07:31:37.000",
    "request_status": "Closed",
    "responsible_agency": "Department of Public Works",
    "final_address": "5318 Wildair Dr",
    "address_councildis": "D",
    "status": "Resolved",
    "rowid": "1070031",
    "final_x": "3681582.60047",
    "final_y": "552607.037846",
    "longitude": "-90.06707367058502",
    "latitude": "30.013475132778417",
    "geocoded_column": {
      "latitude": "30.013475132778417",
      "longitude": "-90.06707367058502"
    }
  },
  {
    "service_request": "2024-1070030",
    "request_type": "Roads/Drainage",
    "request_reason": "Pothole",
    "date_created": "2024-02-23T13:27:27.000",
    "date_modified": "2024-02-23T13:28:10.000",
    "case_close_date": "2024-02-23T07:28:10.000",
    "request_status": "Closed",
    "responsible_agency": "Department of Public Works",
    "final_address": "5342 Cameron Blvd",
    "address_councildis": "D",
    "status": "Resolved",
    "rowid": "1070030",
    "final_x": "3682451.37378",
    "final_y": "552791.134038",
    "longitude": "-90.06432236359403",
    "latitude": "30.013954903167026",
    "geocoded_column": {
      "latitude": "30.013954903167026",
      "longitude": "-90.06432236359403"
    }
  },
  {
    "service_request": "2024-1070029",
    "request_type": "Trash/Recycling",
    "request_reason": "Request a Large Item Pick Up",
    "date_created": "2024-02-23T13:26:16.000",
    "date_modified": "2024-02-23T13:26:16.000",
    "request_status": "Pending",
    "responsible_agency": "Department of Sanitation",
    "final_address": "Colony Ct, Marrero, Louisiana, 70072",
    "status": "Assigned to Contractor",
    "rowid": "1070029",
    "longitude": "0.0",
    "latitude": "0.0",
    "geocoded_column": {
      "latitude": "0.0",
      "longitude": "0.0"
    }
  },
  {
    "service_request": "2024-1070028",
    "request_type": "Roads/Drainage",
    "request_reason": "Pothole",
    "date_created": "2024-02-23T13:23:51.000",
    "date_modified": "2024-02-23T13:24:33.000",
    "case_close_date": "2024-02-23T07:24:33.000",
    "request_status": "Closed",
    "responsible_agency": "Department of Public Works",
    "final_address": "1700 BLK Aubry St",
    "address_councildis": "D",
    "status": "Resolved",
    "rowid": "1070028",
    "final_x": "3682370.05484",
    "final_y": "539021.446023",
    "longitude": "-90.065060826604",
    "latitude": "29.976095634648477",
    "geocoded_column": {
      "latitude": "29.976095634648477",
      "longitude": "-90.065060826604"
    }
  },
  {
    "service_request": "2024-1070027",
    "request_type": "Abandoned Vehicles",
    "request_reason": "Abandoned/Junk Vehicles",
    "date_created": "2024-02-23T13:22:36.000",
    "date_modified": "2024-02-23T13:24:25.000",
    "request_status": "Pending",
    "responsible_agency": "Department of Public Works",
    "final_address": "2705 Dante St",
    "address_councildis": "A",
    "status": "Pending",
    "rowid": "1070027",
    "final_x": "3665125.07271",
    "final_y": "532869.996868",
    "longitude": "-90.11973151424455",
    "latitude": "29.959694756766186",
    "geocoded_column": {
      "latitude": "29.959694756766186",
      "longitude": "-90.11973151424455"
    }
  },
  {
    "service_request": "2024-1070026",
    "request_type": "Trash/Recycling",
    "request_reason": "Order Recycling Cart",
    "date_created": "2024-02-23T13:21:34.000",
    "date_modified": "2024-02-23T13:21:38.000",
    "request_status": "Pending",
    "responsible_agency": "Department of Sanitation",
    "final_address": "0 BLK N Oak Ridge Ct",
    "address_councildis": "E",
    "status": "Pending",
    "rowid": "1070026",
    "final_x": "3713382.83173",
    "final_y": "567868.908997",
    "longitude": "-89.96602730569832",
    "latitude": "30.054434566801945",
    "geocoded_column": {
      "latitude": "30.054434566801945",
      "longitude": "-89.96602730569832"
    }
  },
  {
    "service_request": "2024-1070025",
    "request_type": "Roads/Drainage",
    "request_reason": "Pothole",
    "date_created": "2024-02-23T13:20:45.000",
    "date_modified": "2024-02-23T13:21:06.000",
    "case_close_date": "2024-02-23T07:21:06.000",
    "request_status": "Closed",
    "responsible_agency": "Department of Public Works",
    "final_address": "2004 Pauger St",
    "address_councildis": "C",
    "status": "Resolved",
    "rowid": "1070025",
    "final_x": "3683744.50639",
    "final_y": "537017.386888",
    "longitude": "-90.06079020627139",
    "latitude": "29.970543266927216",
    "geocoded_column": {
      "latitude": "29.970543266927216",
      "longitude": "-90.06079020627139"
    }
  },
  {
    "service_request": "2024-1070024",
    "request_type": "Trash/Recycling",
    "request_reason": "Illegal Dumping",
    "date_created": "2024-02-23T13:20:37.000",
    "date_modified": "2024-02-23T13:20:38.000",
    "request_status": "Pending",
    "responsible_agency": "Department of Sanitation",
    "final_address": "8523 Oak St",
    "address_councildis": "A",
    "status": "Pending",
    "rowid": "1070024",
    "final_x": "3660793.75469",
    "final_y": "529494.013249",
    "longitude": "-90.13352053449239",
    "latitude": "29.950537318127356",
    "geocoded_column": {
      "latitude": "29.950537318127356",
      "longitude": "-90.13352053449239"
    }
  },
  {
    "service_request": "2024-1070023",
    "request_type": "Parks & Parkways",
    "request_reason": "Request Tree Service (Right of Way/Public Property)",
    "date_created": "2024-02-23T13:19:58.000",
    "date_modified": "2024-02-23T13:19:58.000",
    "request_status": "Pending",
    "responsible_agency": "Department of Parks & Parkway",
    "final_address": "4825 Virgilian St",
    "address_councildis": "D",
    "status": "Pending",
    "rowid": "1070023",
    "final_x": "3697515.57591",
    "final_y": "554228.126296",
    "longitude": "-90.01667525600568",
    "latitude": "30.01743875142518",
    "geocoded_column": {
      "latitude": "30.01743875142518",
      "longitude": "-90.01667525600568"
    }
  },
  {
    "service_request": "2024-1070021",
    "request_type": "Roads/Drainage",
    "request_reason": "Pothole",
    "date_created": "2024-02-23T13:19:25.000",
    "date_modified": "2024-02-23T13:19:57.000",
    "case_close_date": "2024-02-23T07:19:57.000",
    "request_status": "Closed",
    "responsible_agency": "Department of Public Works",
    "final_address": "1910 Pauger St",
    "address_councildis": "C",
    "status": "Resolved",
    "rowid": "1070021",
    "final_x": "3683808.11733",
    "final_y": "536674.135047",
    "longitude": "-90.06060135656992",
    "latitude": "29.96959750072568",
    "geocoded_column": {
      "latitude": "29.96959750072568",
      "longitude": "-90.06060135656992"
    }
  },
  {
    "service_request": "2024-1070020",
    "request_type": "Roads/Drainage",
    "request_reason": "Pothole",
    "date_created": "2024-02-23T13:16:32.000",
    "date_modified": "2024-02-23T13:17:33.000",
    "case_close_date": "2024-02-23T07:17:33.000",
    "request_status": "Closed",
    "responsible_agency": "Department of Public Works",
    "final_address": "1514 St Anthony St",
    "address_councildis": "C",
    "status": "Resolved",
    "rowid": "1070020",
    "final_x": "3683346.83989",
    "final_y": "537796.906696",
    "longitude": "-90.06201876774628",
    "latitude": "29.97269881352459",
    "geocoded_column": {
      "latitude": "29.97269881352459",
      "longitude": "-90.06201876774628"
    }
  },
  {
    "service_request": "2024-1070019",
    "request_type": "Roads/Drainage",
    "request_reason": "Pothole",
    "date_created": "2024-02-23T13:14:18.000",
    "date_modified": "2024-02-23T13:14:53.000",
    "case_close_date": "2024-02-23T07:14:53.000",
    "request_status": "Closed",
    "responsible_agency": "Department of Public Works",
    "final_address": "1500 Annette St",
    "address_councildis": "C",
    "status": "Resolved",
    "rowid": "1070019",
    "final_x": "3682992.25442",
    "final_y": "537653.704904",
    "longitude": "-90.06314362610435",
    "latitude": "29.97231587104753",
    "geocoded_column": {
      "latitude": "29.97231587104753",
      "longitude": "-90.06314362610435"
    }
  },
  {
    "service_request": "2024-1070018",
    "request_type": "Trash/Recycling",
    "request_reason": "Repair Trash Cart",
    "date_created": "2024-02-23T13:13:15.000",
    "date_modified": "2024-02-23T13:13:16.000",
    "request_status": "Pending",
    "responsible_agency": "Department of Sanitation",
    "final_address": "1102 Nunez St",
    "address_councildis": "C",
    "status": "Assigned to Contractor",
    "contractor": "Richards Disposal",
    "rowid": "1070018",
    "final_x": "3687023.76086",
    "final_y": "527514.840703",
    "longitude": "-90.0507698739669",
    "latitude": "29.944313992255175",
    "geocoded_column": {
      "latitude": "29.944313992255175",
      "longitude": "-90.0507698739669"
    }
  },
  {
    "service_request": "2024-1070017",
    "request_type": "Roads/Drainage",
    "request_reason": "Ditch Issue",
    "date_created": "2024-02-23T13:06:10.000",
    "date_modified": "2024-02-23T13:06:56.000",
    "case_close_date": "2024-02-23T07:06:56.000",
    "request_status": "Closed",
    "responsible_agency": "Department of Public Works",
    "final_address": "1500 BLK Odeon St",
    "address_councildis": "C",
    "status": "Resolved",
    "rowid": "1070017",
    "final_x": "3695958.21336",
    "final_y": "525683.325718",
    "longitude": "-90.02262754257997",
    "latitude": "29.938999955326945",
    "geocoded_column": {
      "latitude": "29.938999955326945",
      "longitude": "-90.02262754257997"
    }
  },
  {
    "service_request": "2024-1070016",
    "request_type": "Roads/Drainage",
    "request_reason": "Pothole",
    "date_created": "2024-02-23T13:04:00.000",
    "date_modified": "2024-02-23T13:04:23.000",
    "case_close_date": "2024-02-23T07:04:23.000",
    "request_status": "Closed",
    "responsible_agency": "Department of Public Works",
    "final_address": "8400 BLK Zimpel St",
    "address_councildis": "A",
    "status": "Resolved",
    "rowid": "1070016",
    "final_x": "3660800.64687",
    "final_y": "528956.387085",
    "longitude": "-90.13351654757068",
    "latitude": "29.949058819797724",
    "geocoded_column": {
      "latitude": "29.949058819797724",
      "longitude": "-90.13351654757068"
    }
  },
  {
    "service_request": "2024-1070015",
    "request_type": "Traffic Signals/Signs/Striping/Streetlights",
    "request_reason": "Traffic Sign Missing/Damaged",
    "date_created": "2024-02-23T13:03:54.000",
    "date_modified": "2024-02-23T13:03:54.000",
    "request_status": "Pending",
    "responsible_agency": "Department of Public Works",
    "final_address": "1700 BLK Henriette Delille St",
    "address_councildis": "C",
    "status": "Pending",
    "rowid": "1070015",
    "final_x": "3683315.70649",
    "final_y": "536164.412367",
    "longitude": "-90.06217428851551",
    "latitude": "29.96821096943555",
    "geocoded_column": {
      "latitude": "29.96821096943555",
      "longitude": "-90.06217428851551"
    }
  },
  {
    "service_request": "2024-1070014",
    "request_type": "Roads/Drainage",
    "request_reason": "Pothole",
    "date_created": "2024-02-23T13:01:59.000",
    "date_modified": "2024-02-23T13:02:31.000",
    "case_close_date": "2024-02-23T07:02:31.000",
    "request_status": "Closed",
    "responsible_agency": "Department of Public Works",
    "final_address": "1824 Cambronne St",
    "address_councildis": "A",
    "status": "Resolved",
    "rowid": "1070014",
    "final_x": "3662677.16749",
    "final_y": "530822.726914",
    "longitude": "-90.1275295119719",
    "latitude": "29.95413649085681",
    "geocoded_column": {
      "latitude": "29.95413649085681",
      "longitude": "-90.1275295119719"
    }
  },
  {
    "service_request": "2024-1070013",
    "request_type": "Traffic Signals/Signs/Striping/Streetlights",
    "request_reason": "Street Light Outage/Malfunction",
    "date_created": "2024-02-23T12:56:37.000",
    "date_modified": "2024-02-23T12:56:38.000",
    "request_status": "Pending",
    "responsible_agency": "Department of Public Works",
    "final_address": "2436 Mercedes Blvd",
    "address_councildis": "C",
    "status": "Assigned to Contractor",
    "contractor": "Legacy Professional Services",
    "rowid": "1070013",
    "final_x": "3698131.39735",
    "final_y": "522117.71033",
    "longitude": "-90.01589601291147",
    "latitude": "29.929127212208062",
    "geocoded_column": {
      "latitude": "29.929127212208062",
      "longitude": "-90.01589601291147"
    }
  },
  {
    "service_request": "2024-1070012",
    "request_type": "Trash/Recycling",
    "request_reason": "Replace Trash Cart",
    "date_created": "2024-02-23T12:55:22.000",
    "date_modified": "2024-02-23T12:55:22.000",
    "request_status": "Pending",
    "responsible_agency": "Department of Sanitation",
    "final_address": "214 N Alexander St",
    "address_councildis": "A",
    "status": "Assigned to Contractor",
    "contractor": "Richards Disposal",
    "rowid": "1070012",
    "final_x": "3670354.9954",
    "final_y": "539588.490634",
    "longitude": "-90.10298876225767",
    "latitude": "29.97801501768856",
    "geocoded_column": {
      "latitude": "29.97801501768856",
      "longitude": "-90.10298876225767"
    }
  },
  {
    "service_request": "2024-1070011",
    "request_type": "Trash/Recycling",
    "request_reason": "Replace Trash Cart",
    "date_created": "2024-02-23T12:49:16.000",
    "date_modified": "2024-02-23T12:49:16.000",
    "request_status": "Pending",
    "responsible_agency": "Department of Sanitation",
    "final_address": "2212 Valentine Ct",
    "address_councildis": "C",
    "status": "Assigned to Contractor",
    "contractor": "Richards Disposal",
    "rowid": "1070011",
    "final_x": "3699609.50788",
    "final_y": "522981.883835",
    "longitude": "-90.01119845712137",
    "latitude": "29.931456578626",
    "geocoded_column": {
      "latitude": "29.931456578626",
      "longitude": "-90.01119845712137"
    }
  },
  {
    "service_request": "2024-1070010",
    "request_type": "Trash/Recycling",
    "request_reason": "Request a Large Item Pick Up",
    "date_created": "2024-02-23T12:43:45.000",
    "date_modified": "2024-02-23T12:43:46.000",
    "request_status": "Pending",
    "responsible_agency": "Department of Sanitation",
    "final_address": "7801 Arcadia Ln",
    "address_councildis": "E",
    "status": "Assigned to Contractor",
    "contractor": "Waste Pro",
    "rowid": "1070010",
    "final_x": "3712083.34046",
    "final_y": "567574.543012",
    "longitude": "-89.97014572979624",
    "latitude": "30.053667753238766",
    "geocoded_column": {
      "latitude": "30.053667753238766",
      "longitude": "-89.97014572979624"
    }
  },
  {
    "service_request": "2024-1070009",
    "request_type": "Trash/Recycling",
    "request_reason": "Repair Recycling Cart",
    "date_created": "2024-02-23T12:41:25.000",
    "date_modified": "2024-02-23T12:41:25.000",
    "request_status": "Pending",
    "responsible_agency": "Department of Sanitation",
    "final_address": "2805 Bell St",
    "address_councildis": "A",
    "status": "Pending",
    "rowid": "1070009",
    "final_x": "3677321.23758",
    "final_y": "539199.502218",
    "longitude": "-90.08100032790301",
    "latitude": "29.976737920378408",
    "geocoded_column": {
      "latitude": "29.976737920378408",
      "longitude": "-90.08100032790301"
    }
  },
  {
    "service_request": "2024-1070008",
    "request_type": "Trash/Recycling",
    "request_reason": "Dead Animal Pick Up",
    "date_created": "2024-02-23T12:39:09.000",
    "date_modified": "2024-02-23T15:11:31.000",
    "case_close_date": "2024-02-23T09:11:31.000",
    "request_status": "Closed",
    "responsible_agency": "Department of Sanitation",
    "final_address": "5627 Bancroft Dr",
    "address_councildis": "D",
    "status": "Invalid Request",
    "contractor": "IV Waste",
    "contractor_action": "Invalid",
    "rowid": "1070008",
    "final_x": "3676614.5956",
    "final_y": "552839.931542",
    "longitude": "-90.0827619418469",
    "latitude": "30.014265529323684",
    "geocoded_column": {
      "latitude": "30.014265529323684",
      "longitude": "-90.0827619418469"
    }
  },
  {
    "service_request": "2024-1070007",
    "request_type": "Trash/Recycling",
    "request_reason": "Dead Animal Pick Up",
    "date_created": "2024-02-23T12:33:02.000",
    "date_modified": "2024-02-23T12:33:02.000",
    "request_status": "Pending",
    "responsible_agency": "Department of Sanitation",
    "final_address": "1130 Hillary St",
    "address_councildis": "A",
    "status": "Assigned to Contractor",
    "contractor": "Richards Disposal",
    "rowid": "1070007",
    "final_x": "3663221.80512",
    "final_y": "527134.787327",
    "longitude": "-90.12593246447543",
    "latitude": "29.943980072696572",
    "geocoded_column": {
      "latitude": "29.943980072696572",
      "longitude": "-90.12593246447543"
    }
  },
  {
    "service_request": "2024-1070006",
    "request_type": "Trash/Recycling",
    "request_reason": "Request a Large Item Pick Up",
    "date_created": "2024-02-23T12:31:18.000",
    "date_modified": "2024-02-23T12:31:19.000",
    "request_status": "Pending",
    "responsible_agency": "Department of Sanitation",
    "final_address": "3151 Ridgeway Blvd",
    "address_councildis": "E",
    "status": "Assigned to Contractor",
    "contractor": "Waste Pro",
    "rowid": "1070006",
    "final_x": "3744676.63893",
    "final_y": "597547.333056",
    "longitude": "-89.86591546644853",
    "latitude": "30.134972745992727",
    "geocoded_column": {
      "latitude": "30.134972745992727",
      "longitude": "-89.86591546644853"
    }
  },
  {
    "service_request": "2024-1070005",
    "request_type": "Trash/Recycling",
    "request_reason": "Illegal Dumping",
    "date_created": "2024-02-23T12:31:15.000",
    "date_modified": "2024-02-23T12:31:15.000",
    "request_status": "Pending",
    "responsible_agency": "Department of Sanitation",
    "final_address": "2700 BLK Odin St",
    "address_councildis": "D",
    "status": "Pending",
    "rowid": "1070005",
    "final_x": "3687467.75561",
    "final_y": "553341.341596",
    "longitude": "-90.04845369874155",
    "latitude": "30.01531405826127",
    "geocoded_column": {
      "latitude": "30.01531405826127",
      "longitude": "-90.04845369874155"
    }
  },
  {
    "service_request": "2024-1070004",
    "request_type": "Health Related Request",
    "request_reason": "Noise Ordinance Complaint",
    "date_created": "2024-02-23T12:30:56.000",
    "date_modified": "2024-02-23T12:30:56.000",
    "request_status": "Pending",
    "responsible_agency": "Health Department",
    "final_address": "4414 S Carrollton Ave",
    "address_councildis": "A",
    "status": "Pending",
    "rowid": "1070004",
    "final_x": "3670197.72001",
    "final_y": "537191.802952",
    "longitude": "-90.103566734939",
    "latitude": "29.97142957744186",
    "geocoded_column": {
      "latitude": "29.97142957744186",
      "longitude": "-90.103566734939"
    }
  },
  {
    "service_request": "2024-1070002",
    "request_type": "Property Maintenance",
    "request_reason": "Property Maintenance",
    "date_created": "2024-02-23T12:28:30.000",
    "date_modified": "2024-02-23T12:28:30.000",
    "request_status": "Pending",
    "responsible_agency": "Department of Code Enforcement",
    "final_address": "2319 George Nick Connor Dr",
    "address_councildis": "D",
    "status": "Pending",
    "rowid": "1070002",
    "final_x": "3681278.15106",
    "final_y": "540613.288459",
    "longitude": "-90.06845387722998",
    "latitude": "29.980505833995906",
    "geocoded_column": {
      "latitude": "29.980505833995906",
      "longitude": "-90.06845387722998"
    }
  },
  {
    "service_request": "2024-1070001",
    "request_type": "Trash/Recycling",
    "request_reason": "Request a Large Item Pick Up",
    "date_created": "2024-02-23T12:28:11.000",
    "date_modified": "2024-02-23T12:28:56.000",
    "request_status": "Pending",
    "responsible_agency": "Department of Sanitation",
    "final_address": "9 Tennyson Pl",
    "address_councildis": "C",
    "status": "Assigned to Contractor",
    "contractor": "Richards Disposal",
    "rowid": "1070001",
    "final_x": "3704830.2931",
    "final_y": "517427.244406",
    "longitude": "-89.99492202165032",
    "latitude": "29.916016576643006",
    "geocoded_column": {
      "latitude": "29.916016576643006",
      "longitude": "-89.99492202165032"
    }
  },
  {
    "service_request": "2024-1070000",
    "request_type": "Health Related Request",
    "request_reason": "Noise Ordinance Complaint",
    "date_created": "2024-02-23T12:27:40.000",
    "date_modified": "2024-02-23T12:27:40.000",
    "request_status": "Pending",
    "responsible_agency": "Health Department",
    "final_address": "4414 S Carrollton Ave",
    "address_councildis": "A",
    "status": "Pending",
    "rowid": "1070000",
    "final_x": "3670197.72001",
    "final_y": "537191.802952",
    "longitude": "-90.103566734939",
    "latitude": "29.97142957744186",
    "geocoded_column": {
      "latitude": "29.97142957744186",
      "longitude": "-90.103566734939"
    }
  },
  {
    "service_request": "2024-1069999",
    "request_type": "Trash/Recycling",
    "request_reason": "Replace Trash Cart",
    "date_created": "2024-02-23T12:26:50.000",
    "date_modified": "2024-02-23T12:26:51.000",
    "request_status": "Pending",
    "responsible_agency": "Department of Sanitation",
    "final_address": "9 Tennyson Pl",
    "address_councildis": "C",
    "status": "Assigned to Contractor",
    "contractor": "Richards Disposal",
    "rowid": "1069999",
    "final_x": "3704830.2931",
    "final_y": "517427.244406",
    "longitude": "-89.99492202165032",
    "latitude": "29.916016576643006",
    "geocoded_column": {
      "latitude": "29.916016576643006",
      "longitude": "-89.99492202165032"
    }
  },
  {
    "service_request": "2024-1069998",
    "request_type": "Trash/Recycling",
    "request_reason": "Request a Large Item Pick Up",
    "date_created": "2024-02-23T12:20:29.000",
    "date_modified": "2024-02-23T12:20:30.000",
    "request_status": "Pending",
    "responsible_agency": "Department of Sanitation",
    "final_address": "4421 Crowder Blvd",
    "address_councildis": "E",
    "status": "Assigned to Contractor",
    "contractor": "Waste Pro",
    "rowid": "1069998",
    "final_x": "3706698.72151",
    "final_y": "554082.458136",
    "longitude": "-89.98766583413962",
    "latitude": "30.016744878512526",
    "geocoded_column": {
      "latitude": "30.016744878512526",
      "longitude": "-89.98766583413962"
    }
  },
  {
    "service_request": "2024-1069997",
    "request_type": "Trash/Recycling",
    "request_reason": "Order Recycling Cart",
    "date_created": "2024-02-23T12:18:43.000",
    "date_modified": "2024-02-23T12:18:43.000",
    "request_status": "Pending",
    "responsible_agency": "Department of Sanitation",
    "final_address": "4421 Crowder Blvd",
    "address_councildis": "E",
    "status": "Pending",
    "rowid": "1069997",
    "final_x": "3706698.72151",
    "final_y": "554082.458136",
    "longitude": "-89.98766583413962",
    "latitude": "30.016744878512526",
    "geocoded_column": {
      "latitude": "30.016744878512526",
      "longitude": "-89.98766583413962"
    }
  },
  {
    "service_request": "2024-1069996",
    "request_type": "Trash/Recycling",
    "request_reason": "Replace Trash Cart",
    "date_created": "2024-02-23T12:18:00.000",
    "date_modified": "2024-02-23T12:18:01.000",
    "request_status": "Pending",
    "responsible_agency": "Department of Sanitation",
    "final_address": "4421 Crowder Blvd",
    "address_councildis": "E",
    "status": "Assigned to Contractor",
    "contractor": "Waste Pro",
    "rowid": "1069996",
    "final_x": "3706698.72151",
    "final_y": "554082.458136",
    "longitude": "-89.98766583413962",
    "latitude": "30.016744878512526",
    "geocoded_column": {
      "latitude": "30.016744878512526",
      "longitude": "-89.98766583413962"
    }
  },
  {
    "service_request": "2024-1069994",
    "request_type": "Trash/Recycling",
    "request_reason": "Repair Trash Cart",
    "date_created": "2024-02-23T12:15:38.000",
    "date_modified": "2024-02-23T12:15:39.000",
    "request_status": "Pending",
    "responsible_agency": "Department of Sanitation",
    "final_address": "4848 Chantilly Dr",
    "address_councildis": "E",
    "status": "Assigned to Contractor",
    "contractor": "Waste Pro",
    "rowid": "1069994",
    "final_x": "3700746.28874",
    "final_y": "554765.79132",
    "longitude": "-90.00644788852192",
    "latitude": "30.01881465402659",
    "geocoded_column": {
      "latitude": "30.01881465402659",
      "longitude": "-90.00644788852192"
    }
  },
  {
    "service_request": "2024-1069993",
    "request_type": "Trash/Recycling",
    "request_reason": "Order Trash Cart",
    "date_created": "2024-02-23T12:12:27.000",
    "date_modified": "2024-02-23T12:12:27.000",
    "request_status": "Pending",
    "responsible_agency": "Department of Sanitation",
    "final_address": "7860 Tulsa St",
    "address_councildis": "E",
    "status": "Assigned to Contractor",
    "contractor": "Waste Pro",
    "rowid": "1069993",
    "final_x": "3704330.45098",
    "final_y": "553459.666775",
    "longitude": "-89.99517149373516",
    "latitude": "30.015108703422385",
    "geocoded_column": {
      "latitude": "30.015108703422385",
      "longitude": "-89.99517149373516"
    }
  },
  {
    "service_request": "2024-1069992",
    "request_type": "Trash/Recycling",
    "request_reason": "Replace Trash Cart",
    "date_created": "2024-02-23T12:12:07.000",
    "date_modified": "2024-02-23T12:12:08.000",
    "request_status": "Pending",
    "responsible_agency": "Department of Sanitation",
    "final_address": "7833 S Coronet Ct",
    "address_councildis": "E",
    "status": "Assigned to Contractor",
    "contractor": "Waste Pro",
    "rowid": "1069992",
    "final_x": "3703241.52535",
    "final_y": "557425.652443",
    "longitude": "-89.99846598051644",
    "latitude": "30.026048560928984",
    "geocoded_column": {
      "latitude": "30.026048560928984",
      "longitude": "-89.99846598051644"
    }
  },
  {
    "service_request": "2024-1069991",
    "request_type": "Trash/Recycling",
    "request_reason": "Order Trash Cart",
    "date_created": "2024-02-23T12:09:46.000",
    "date_modified": "2024-02-23T12:09:46.000",
    "request_status": "Pending",
    "responsible_agency": "Department of Sanitation",
    "final_address": "2318 Jackson Ave",
    "address_councildis": "B",
    "status": "Assigned to Contractor",
    "contractor": "Richards Disposal",
    "rowid": "1069991",
    "final_x": "3675684.39547",
    "final_y": "526148.651518",
    "longitude": "-90.08661846571856",
    "latitude": "29.94090154950958",
    "geocoded_column": {
      "latitude": "29.94090154950958",
      "longitude": "-90.08661846571856"
    }
  },
  {
    "service_request": "2024-1069990",
    "request_type": "Trash/Recycling",
    "request_reason": "Request a Large Item Pick Up",
    "date_created": "2024-02-23T12:08:27.000",
    "date_modified": "2024-02-23T12:08:27.000",
    "request_status": "Pending",
    "responsible_agency": "Department of Sanitation",
    "final_address": "4649 Chantilly Dr",
    "address_councildis": "E",
    "status": "Assigned to Contractor",
    "contractor": "Waste Pro",
    "rowid": "1069990",
    "final_x": "3701007.96887",
    "final_y": "553718.353303",
    "longitude": "-90.00565942503414",
    "latitude": "30.015926264011714",
    "geocoded_column": {
      "latitude": "30.015926264011714",
      "longitude": "-90.00565942503414"
    }
  },