[
  {
    "service_request": "2024-1115979",
    "request_type": "Roads/Drainage",
    "request_reason": "Debris in Roadway",
    "date_created": "2024-07-25T23:40:52.000",
    "date_modified": "2024-07-25T23:40:52.000",
    "request_status": "Pending",
    "responsible_agency": "Department of Public Works",
    "final_address": "1207 Soniat St",
    "address_councildis": "B",
    "status": "Pending",
    "rowid": "1115979",
    "final_x": "3668428.42766",
    "final_y": "519725.781304",
    "longitude": "-90.10974346449065",
    "latitude": "29.92345579475687",
    "geocoded_column": {
      "latitude": "29.92345579475687",
      "longitude": "-90.10974346449065"
    }
  },
  {
    "service_request": "2024-1115978",
    "request_type": "Roads/Drainage",
    "request_reason": "Street Flooding / Drainage",
    "date_created": "2024-07-25T23:38:21.000",
    "date_modified": "2024-07-25T23:38:21.000",
    "request_status": "Pending",
    "responsible_agency": "Department of Public Works",
    "final_address": "1200 BLK Caton St",
    "address_councildis": "D",
    "status": "Pending",
    "rowid": "1115978",
    "final_x": "3677132.62011",
    "final_y": "546787.9715",
    "longitude": "-90.08133416902471",
    "latitude": "29.99760923692975",
    "geocoded_column": {
      "latitude": "29.99760923692975",
      "longitude": "-90.08133416902471"
    }
  },
  {
    "service_request": "2024-1115977",
    "request_type": "Utility Poles",
    "request_reason": "Utility Pole Leaning",
    "date_created": "2024-07-25T23:28:40.000",
    "date_modified": "2024-07-25T23:28:45.000",
    "request_status": "Pending",
    "responsible_agency": "Utility Company Collective",
    "final_address": "1200 BLK Milton St",
    "address_councildis": "D",
    "status": "Pending",
    "rowid": "1115977",
    "final_x": "3677190.13016",
    "final_y": "546053.14423",
    "longitude": "-90.08117786300132",
    "latitude": "29.995586992609468",
    "geocoded_column": {
      "latitude": "29.995586992609468",
      "longitude": "-90.08117786300132"
    }
  },
  {
    "service_request": "2024-1115976",
    "request_type": "Trash/Recycling",
    "request_reason": "Request a Large Item Pick Up",
    "date_created": "2024-07-25T23:17:08.000",
    "date_modified": "2024-07-25T23:17:09.000",
    "request_status": "Pending",
    "responsible_agency": "Department of Sanitation",
    "final_address": "424 Fern St",
    "address_councildis": "A",
    "status": "Assigned to Contractor",
    "contractor": "IV Waste",
    "rowid": "1115976",
    "final_x": "3660764.7849",
    "final_y": "525972.910141",
    "longitude": "-90.13372840169654",
    "latitude": "29.94085624001353",
    "geocoded_column": {
      "latitude": "29.94085624001353",
      "longitude": "-90.13372840169654"
    }
  },
  {
    "service_request": "2024-1115975",
    "request_type": "Trash/Recycling",
    "request_reason": "Request a Large Item Pick Up",
    "date_created": "2024-07-25T23:03:28.000",
    "date_modified": "2024-07-25T23:03:29.000",
    "request_status": "Pending",
    "responsible_agency": "Department of Sanitation",
    "final_address": "6635 Coventry St",
    "address_councildis": "E",
    "status": "Assigned to Contractor",
    "contractor": "Waste Pro",
    "rowid": "1115975",
    "final_x": "3697730.2929",
    "final_y": "559373.122973",
    "longitude": "-90.01580992205524",
    "latitude": "30.03157874409579",
    "geocoded_column": {
      "latitude": "30.03157874409579",
      "longitude": "-90.01580992205524"
    }
  },
  {
    "service_request": "2024-1115974",
    "request_type": "Trash/Recycling",
    "request_reason": "Replace Trash Cart",
    "date_created": "2024-07-25T22:48:43.000",
    "date_modified": "2024-07-25T22:48:44.000",
    "request_status": "Pending",
    "responsible_agency": "Department of Sanitation",
    "final_address": "421 40Th St",
    "address_councildis": "A",
    "status": "Assigned to Contractor",
    "contractor": "IV Waste",
    "rowid": "1115974",
    "final_x": "3664877.54669",
    "final_y": "553418.406615",
    "longitude": "-90.11982595665502",
    "latitude": "30.016203135354218",
    "geocoded_column": {
      "latitude": "30.016203135354218",
      "longitude": "-90.11982595665502"
    }
  },
  {
    "service_request": "2024-1115972",
    "request_type": "Health Related Request",
    "request_reason": "Noise Ordinance Complaint",
    "date_created": "2024-07-25T22:31:25.000",
    "date_modified": "2024-07-25T22:31:25.000",
    "request_status": "Pending",
    "responsible_agency": "Health Department",
    "final_address": "600 BLK N Broad St",
    "address_councildis": "A",
    "status": "Pending",
    "rowid": "1115972",
    "final_x": "3676359.9435",
    "final_y": "536531.150807",
    "longitude": "-90.08412827453832",
    "latitude": "29.969429719559482",
    "geocoded_column": {
      "latitude": "29.969429719559482",
      "longitude": "-90.08412827453832"
    }
  },
  {
    "service_request": "2024-1115971",
    "request_type": "Utility Poles",
    "request_reason": "Utility Pole Leaning",
    "date_created": "2024-07-25T21:59:46.000",
    "date_modified": "2024-07-25T21:59:50.000",
    "request_status": "Pending",
    "responsible_agency": "Utility Company Collective",
    "final_address": "4532 Crowder Blvd",
    "address_councildis": "E",
    "status": "Pending",
    "rowid": "1115971",
    "final_x": "3706426.34052",
    "final_y": "554556.5958",
    "longitude": "-89.98850885385117",
    "latitude": "30.018057366864394",
    "geocoded_column": {
      "latitude": "30.018057366864394",
      "longitude": "-89.98850885385117"
    }
  },
  {
    "service_request": "2024-1115970",
    "request_type": "Trash/Recycling",
    "request_reason": "Repair Trash Cart",
    "date_created": "2024-07-25T21:05:34.000",
    "date_modified": "2024-07-25T21:05:35.000",
    "request_status": "Pending",
    "responsible_agency": "Department of Sanitation",
    "final_address": "1705 Eagle St Apt 1A",
    "address_councildis": "A",
    "status": "Assigned to Contractor",
    "contractor": "IV Waste",
    "rowid": "1115970",
    "final_x": "3661385.1703",
    "final_y": "531361.683906",
    "longitude": "-90.13159129141246",
    "latitude": "29.95565577029256",
    "geocoded_column": {
      "latitude": "29.95565577029256",
      "longitude": "-90.13159129141246"
    }
  },
  {
    "service_request": "2024-1115969",
    "request_type": "Trash/Recycling",
    "request_reason": "Repair Trash Cart",
    "date_created": "2024-07-25T20:41:16.000",
    "date_modified": "2024-07-25T20:41:17.000",
    "request_status": "Pending",
    "responsible_agency": "Department of Sanitation",
    "final_address": "5413 Provincial Pl",
    "address_councildis": "E",
    "status": "Assigned to Contractor",
    "contractor": "Waste Pro",
    "rowid": "1115969",
    "final_x": "3726047.37292",
    "final_y": "563934.900705",
    "longitude": "-89.9261508639126",
    "latitude": "30.04319607561792",
    "geocoded_column": {
      "latitude": "30.04319607561792",
      "longitude": "-89.9261508639126"
    }
  },
  {
    "service_request": "2024-1115968",
    "request_type": "Trash/Recycling",
    "request_reason": "Order Recycling Cart",
    "date_created": "2024-07-25T20:28:05.000",
    "date_modified": "2024-07-25T20:28:05.000",
    "request_status": "Pending",
    "responsible_agency": "Department of Sanitation",
    "final_address": "2916 Dryades St",
    "address_councildis": "B",
    "status": "Pending",
    "rowid": "1115968",
    "final_x": "3674782.22446",
    "final_y": "523046.110715",
    "longitude": "-90.08957310768452",
    "latitude": "29.93239753486066",
    "geocoded_column": {
      "latitude": "29.93239753486066",
      "longitude": "-90.08957310768452"
    }
  },
  {
    "service_request": "2024-1115967",
    "request_type": "Property Maintenance",
    "request_reason": "Property Maintenance",
    "date_created": "2024-07-25T20:10:37.000",
    "date_modified": "2024-07-25T20:10:37.000",
    "request_status": "Pending",
    "responsible_agency": "Department of Code Enforcement",
    "final_address": "1405 Arts St",
    "address_councildis": "C",
    "status": "Pending",
    "rowid": "1115967",
    "final_x": "3687146.95196",
    "final_y": "537643.741064",
    "longitude": "-90.05002276008075",
    "latitude": "29.97216118248314",
    "geocoded_column": {
      "latitude": "29.97216118248314",
      "longitude": "-90.05002276008075"
    }
  },
  {
    "service_request": "2024-1115966",
    "request_type": "Roads/Drainage",
    "request_reason": "Pothole",
    "date_created": "2024-07-25T20:04:23.000",
    "date_modified": "2024-07-25T20:04:23.000",
    "request_status": "Pending",
    "responsible_agency": "Department of Public Works",
    "final_address": "8422 Green St",
    "address_councildis": "A",
    "status": "Pending",
    "rowid": "1115966",
    "final_x": "3662181.77152",
    "final_y": "530496.033858",
    "longitude": "-90.12910462195475",
    "latitude": "29.953252515640536",
    "geocoded_column": {
      "latitude": "29.953252515640536",
      "longitude": "-90.12910462195475"
    }
  },
  {
    "service_request": "2024-1115965",
    "request_type": "Roads/Drainage",
    "request_reason": "Catch Basin - Clogged",
    "date_created": "2024-07-25T19:26:43.000",
    "date_modified": "2024-07-25T19:26:43.000",
    "request_status": "Pending",
    "responsible_agency": "Department of Public Works",
    "final_address": "2726 Prytania St Unit 5",
    "address_councildis": "B",
    "status": "Pending",
    "rowid": "1115965",
    "final_x": "3676328.87419",
    "final_y": "522074.13945",
    "longitude": "-90.0847239069323",
    "latitude": "29.929678677712445",
    "geocoded_column": {
      "latitude": "29.929678677712445",
      "longitude": "-90.0847239069323"
    }
  },
  {
    "service_request": "2024-1115964",
    "request_type": "Trash/Recycling",
    "request_reason": "Return Trash Cart",
    "date_created": "2024-07-25T18:54:17.000",
    "date_modified": "2024-07-25T18:54:18.000",
    "request_status": "Pending",
    "responsible_agency": "Department of Sanitation",
    "final_address": "419 Eleonore St",
    "address_councildis": "A",
    "status": "Assigned to Contractor",
    "contractor": "IV Waste",
    "rowid": "1115964",
    "final_x": "3665010.26464",
    "final_y": "517888.92095",
    "longitude": "-90.12059474199943",
    "latitude": "29.918504926886353",
    "geocoded_column": {
      "latitude": "29.918504926886353",
      "longitude": "-90.12059474199943"
    }
  },
  {
    "service_request": "2024-1115963",
    "request_type": "Abandoned Vehicles",
    "request_reason": "Abandoned/Junk Vehicles",
    "date_created": "2024-07-25T18:46:48.000",
    "date_modified": "2024-07-25T18:46:48.000",
    "request_status": "Pending",
    "responsible_agency": "Department of Public Works",
    "final_address": "1000 BLK Governor Nicholls St",
    "address_councildis": "C",
    "status": "Pending",
    "rowid": "1115963",
    "final_x": "3682652.11694",
    "final_y": "534685.464866",
    "longitude": "-90.06432165655626",
    "latitude": "29.964164598188365",
    "geocoded_column": {
      "latitude": "29.964164598188365",
      "longitude": "-90.06432165655626"
    }
  },
  {
    "service_request": "2024-1115962",
    "request_type": "Trash/Recycling",
    "request_reason": "Request a Large Item Pick Up",
    "date_created": "2024-07-25T18:15:55.000",
    "date_modified": "2024-07-25T18:15:56.000",
    "request_status": "Pending",
    "responsible_agency": "Department of Sanitation",
    "final_address": "814 Deslonde St",
    "address_councildis": "E",
    "status": "Assigned to Contractor",
    "contractor": "Waste Pro",
    "rowid": "1115962",
    "final_x": "3695073.63894",
    "final_y": "533426.15962",
    "longitude": "-90.02514114908858",
    "latitude": "29.960317843522873",
    "geocoded_column": {
      "latitude": "29.960317843522873",
      "longitude": "-90.02514114908858"
    }
  },
  {
    "service_request": "2024-1115960",
    "request_type": "Trash/Recycling",
    "request_reason": "Illegal Dumping",
    "date_created": "2024-07-25T18:15:13.000",
    "date_modified": "2024-07-25T18:15:13.000",
    "request_status": "Pending",
    "responsible_agency": "Department of Sanitation",
    "final_address": "4211 Martin Luther King, Jr. Blvd",
    "address_councildis": "B",
    "status": "Pending",
    "rowid": "1115960",
    "final_x": "3671022.18689",
    "final_y": "530810.587522",
    "longitude": "-90.10117965199692",
    "latitude": "29.953859004961576",
    "geocoded_column": {
      "latitude": "29.953859004961576",
      "longitude": "-90.10117965199692"
    }
  },
  {
    "service_request": "2024-1115961",
    "request_type": "Roads/Drainage",
    "request_reason": "Damaged Sidewalk",
    "date_created": "2024-07-25T18:15:13.000",
    "date_modified": "2024-07-25T18:15:13.000",
    "request_status": "Pending",
    "responsible_agency": "Department of Public Works",
    "final_address": "5200 BLK Danneel St",
    "address_councildis": "B",
    "status": "Pending",
    "rowid": "1115961",
    "final_x": "3668060.05328",
    "final_y": "522163.577836",
    "longitude": "-90.11082418753892",
    "latitude": "29.93016977275902",
    "geocoded_column": {
      "latitude": "29.93016977275902",
      "longitude": "-90.11082418753892"
    }
  },
  {
    "service_request": "2024-1115959",
    "request_type": "Trash/Recycling",
    "request_reason": "MIssed Recycling Pick-Up",
    "date_created": "2024-07-25T18:05:49.000",
    "date_modified": "2024-07-25T18:05:50.000",
    "request_status": "Pending",
    "responsible_agency": "Department of Sanitation",
    "final_address": "1988 Hope St",
    "address_councildis": "D",
    "status": "Assigned to Contractor",
    "contractor": "IV Waste",
    "rowid": "1115959",
    "final_x": "3682200.15503",
    "final_y": "541980.268876",
    "longitude": "-90.06549402152879",
    "latitude": "29.984236533459626",
    "geocoded_column": {
      "latitude": "29.984236533459626",
      "longitude": "-90.06549402152879"
    }
  },
  {
    "service_request": "2024-1115958",
    "request_type": "Trash/Recycling",
    "request_reason": "Request a Large Item Pick Up",
    "date_created": "2024-07-25T18:00:00.000",
    "date_modified": "2024-07-25T18:00:01.000",
    "request_status": "Pending",
    "responsible_agency": "Department of Sanitation",
    "final_address": "6928 Lamb Rd",
    "address_councildis": "D",
    "status": "Assigned to Contractor",
    "contractor": "Waste Pro",
    "rowid": "1115958",
    "final_x": "3697684.56426",
    "final_y": "556884.112666",
    "longitude": "-90.01604484846655",
    "latitude": "30.024736364694895",
    "geocoded_column": {
      "latitude": "30.024736364694895",
      "longitude": "-90.01604484846655"
    }
  },
  {
    "service_request": "2024-1115957",
    "request_type": "Traffic Signals/Signs/Striping/Streetlights",
    "request_reason": "Traffic Signal Malfunctioning/Damaged",
    "date_created": "2024-07-25T17:57:24.000",
    "date_modified": "2024-07-25T17:57:24.000",
    "request_status": "Pending",
    "responsible_agency": "Department of Public Works",
    "final_address": "800 BLK Canal St",
    "address_councildis": "B",
    "status": "Pending",
    "rowid": "1115957",
    "final_x": "3680733.29138",
    "final_y": "530967.011673",
    "longitude": "-90.07051055422055",
    "latitude": "29.95399840873489",
    "geocoded_column": {
      "latitude": "29.95399840873489",
      "longitude": "-90.07051055422055"
    }
  },
  {
    "service_request": "2024-1115956",
    "request_type": "Trash/Recycling",
    "request_reason": "MIssed Recycling Pick-Up",
    "date_created": "2024-07-25T17:49:20.000",
    "date_modified": "2024-07-25T17:49:21.000",
    "request_status": "Pending",
    "responsible_agency": "Department of Sanitation",
    "final_address": "11200 Chef Menteur Hwy",
    "address_councildis": "E",
    "status": "Assigned to Contractor",
    "contractor": "Waste Pro",
    "rowid": "1115956",
    "final_x": "3716501.04197",
    "final_y": "555743.655193",
    "longitude": "-89.95663193198165",
    "latitude": "30.020992339521815",
    "geocoded_column": {
      "latitude": "30.020992339521815",
      "longitude": "-89.95663193198165"
    }
  },
  {
    "service_request": "2024-1115955",
    "request_type": "Trash/Recycling",
    "request_reason": "Illegal Dumping",
    "date_created": "2024-07-25T17:48:49.000",
    "date_modified": "2024-07-25T17:48:49.000",
    "request_status": "Pending",
    "responsible_agency": "Department of Sanitation",
    "final_address": "2601 St Ann St",
    "address_councildis": "D",
    "status": "Pending",
    "rowid": "1115955",
    "final_x": "3677358.74242",
    "final_y": "536937.055176",
    "longitude": "-90.08095997443978",
    "latitude": "29.9705158392504",
    "geocoded_column": {
      "latitude": "29.9705158392504",
      "longitude": "-90.08095997443978"
    }
  },
  {
    "service_request": "2024-1115954",
    "request_type": "Roads/Drainage",
    "request_reason": "Pothole",
    "date_created": "2024-07-25T17:47:22.000",
    "date_modified": "2024-07-25T17:47:22.000",
    "request_status": "Pending",
    "responsible_agency": "Department of Public Works",
    "final_address": "1400 BLK Valence St",
    "address_councildis": "B",
    "status": "Pending",
    "rowid": "1115954",
    "final_x": "3669784.65285",
    "final_y": "520336.257015",
    "longitude": "-90.1054417057675",
    "latitude": "29.925094517046503",
    "geocoded_column": {
      "latitude": "29.925094517046503",
      "longitude": "-90.1054417057675"
    }
  },
  {
    "service_request": "2024-1115953",
    "request_type": "Trash/Recycling",
    "request_reason": "Request a Large Item Pick Up",
    "date_created": "2024-07-25T17:43:04.000",
    "date_modified": "2024-07-25T17:43:04.000",
    "request_status": "Pending",
    "responsible_agency": "Department of Sanitation",
    "final_address": "933 Toledano St",
    "address_councildis": "B",
    "status": "Assigned to Contractor",
    "contractor": "IV Waste",
    "rowid": "1115953",
    "final_x": "3675604.82126",
    "final_y": "519376.607287",
    "longitude": "-90.08710223370564",
    "latitude": "29.922283011090915",
    "geocoded_column": {
      "latitude": "29.922283011090915",
      "longitude": "-90.08710223370564"
    }
  },
  {
    "service_request": "2024-1115952",
    "request_type": "Property Maintenance",
    "request_reason": "Property Maintenance",
    "date_created": "2024-07-25T17:19:13.000",
    "date_modified": "2024-07-25T17:19:13.000",
    "request_status": "Pending",
    "responsible_agency": "Department of Code Enforcement",
    "final_address": "5101 Perlita St",
    "address_councildis": "D",
    "status": "Pending",
    "rowid": "1115952",
    "final_x": "3678658.38222",
    "final_y": "551023.448917",
    "longitude": "-90.0763675535134",
    "latitude": "30.00920936373124",
    "geocoded_column": {
      "latitude": "30.00920936373124",
      "longitude": "-90.0763675535134"
    }
  },
  {
    "service_request": "2024-1115951",
    "request_type": "Parks & Parkways",
    "request_reason": "Request Grass Cutting Service (City Owned Property)",
    "date_created": "2024-07-25T17:04:40.000",
    "date_modified": "2024-07-25T17:04:41.000",
    "request_status": "Pending",
    "responsible_agency": "Department of Parks & Parkway",
    "final_address": "FLORIDA AVE & ALMONASTER AV OVERPASS",
    "address_councildis": "D",
    "status": "Pending",
    "rowid": "1115951",
    "final_x": "3688658.6",
    "final_y": "542584.71",
    "longitude": "-90.0450732975365",
    "latitude": "29.98570045791429",
    "geocoded_column": {
      "latitude": "29.98570045791429",
      "longitude": "-90.0450732975365"
    }
  },
  {
    "service_request": "2024-1115950",
    "request_type": "Abandoned Vehicles",
    "request_reason": "Abandoned/Junk Vehicles",
    "date_created": "2024-07-25T17:00:07.000",
    "date_modified": "2024-07-25T17:00:07.000",
    "request_status": "Closed",
    "responsible_agency": "Department of Public Works",
    "final_address": "6202 Warrington Dr",
    "address_councildis": "D",
    "status": "GOA - Gone on Arrival",
    "rowid": "1115950",
    "final_x": "3680785.19739",
    "final_y": "555597.856025",
    "longitude": "-90.0694888192446",
    "latitude": "30.021723000195372",
    "geocoded_column": {
      "latitude": "30.021723000195372",
      "longitude": "-90.0694888192446"
    }
  },
  {
    "service_request": "2024-1115949",
    "request_type": "Property Maintenance",
    "request_reason": "Property Maintenance",
    "date_created": "2024-07-25T16:59:06.000",
    "date_modified": "2024-07-25T16:59:07.000",
    "request_status": "Pending",
    "responsible_agency": "Department of Code Enforcement",
    "final_address": "2628 Almonaster Ave",
    "address_councildis": "D",
    "status": "Pending",
    "rowid": "1115949",
    "final_x": "3688460.57846",
    "final_y": "542375.304717",
    "longitude": "-90.0457061985007",
    "latitude": "29.985130788273224",
    "geocoded_column": {
      "latitude": "29.985130788273224",
      "longitude": "-90.0457061985007"
    }
  },
  {
    "service_request": "2024-1115948",
    "request_type": "Abandoned Vehicles",
    "request_reason": "Abandoned/Junk Vehicles",
    "date_created": "2024-07-25T16:57:03.000",
    "date_modified": "2024-07-25T16:58:48.000",
    "request_status": "Pending",
    "responsible_agency": "Department of Public Works",
    "final_address": "6202 Warrington Dr",
    "address_councildis": "D",
    "status": "Pending",
    "rowid": "1115948",
    "final_x": "3680785.19739",
    "final_y": "555597.856025",
    "longitude": "-90.0694888192446",
    "latitude": "30.021723000195372",
    "geocoded_column": {
      "latitude": "30.021723000195372",
      "longitude": "-90.0694888192446"
    }
  },
  {
    "service_request": "2024-1115947",
    "request_type": "Trash/Recycling",
    "request_reason": "Illegal Dumping",
    "date_created": "2024-07-25T16:56:19.000",
    "date_modified": "2024-07-25T16:56:19.000",
    "request_status": "Pending",
    "responsible_agency": "Department of Sanitation",
    "final_address": "1767 N Roman St",
    "address_councildis": "D",
    "status": "Pending",
    "rowid": "1115947",
    "final_x": "3682773.50152",
    "final_y": "538763.831433",
    "longitude": "-90.06379564017614",
    "latitude": "29.975374999321474",
    "geocoded_column": {
      "latitude": "29.975374999321474",
      "longitude": "-90.06379564017614"
    }
  },
  {
    "service_request": "2024-1115946",
    "request_type": "Trash/Recycling",
    "request_reason": "Request a Large Item Pick Up",
    "date_created": "2024-07-25T16:55:37.000",
    "date_modified": "2024-07-25T16:55:38.000",
    "request_status": "Pending",
    "responsible_agency": "Department of Sanitation",
    "final_address": "10727 Vienna St",
    "address_councildis": "E",
    "status": "Assigned to Contractor",
    "contractor": "Waste Pro",
    "rowid": "1115946",
    "final_x": "3715144.86399",
    "final_y": "558110.054683",
    "longitude": "-89.96082745517508",
    "latitude": "30.027543732238538",
    "geocoded_column": {
      "latitude": "30.027543732238538",
      "longitude": "-89.96082745517508"
    }
  },
  {
    "service_request": "2024-1115945",
    "request_type": "Abandoned Vehicles",
    "request_reason": "Abandoned/Junk Vehicles",
    "date_created": "2024-07-25T16:51:06.000",
    "date_modified": "2024-07-25T16:53:30.000",
    "request_status": "Pending",
    "responsible_agency": "Department of Public Works",
    "final_address": "1200 BLK Bienville St",
    "address_councildis": "C",
    "status": "Pending",
    "rowid": "1115945",
    "final_x": "3680159.37816",
    "final_y": "532438.387011",
    "longitude": "-90.07227160590912",
    "latitude": "29.95806157263728",
    "geocoded_column": {
      "latitude": "29.95806157263728",
      "longitude": "-90.07227160590912"
    }
  },
  {
    "service_request": "2024-1115944",
    "request_type": "Trash/Recycling",
    "request_reason": "Repair Recycling Cart",
    "date_created": "2024-07-25T16:49:24.000",
    "date_modified": "2024-07-25T16:49:24.000",
    "request_status": "Pending",
    "responsible_agency": "Department of Sanitation",
    "final_address": "2220 Fern St",
    "address_councildis": "A",
    "status": "Pending",
    "rowid": "1115944",
    "final_x": "3664986.82087",
    "final_y": "530606.46381",
    "longitude": "-90.12024375630753",
    "latitude": "29.95347480424071",
    "geocoded_column": {
      "latitude": "29.95347480424071",
      "longitude": "-90.12024375630753"
    }
  },
  {
    "service_request": "2024-1115943",
    "request_type": "Trash/Recycling",
    "request_reason": "Repair Trash Cart",
    "date_created": "2024-07-25T16:47:39.000",
    "date_modified": "2024-07-25T16:47:40.000",
    "request_status": "Pending",
    "responsible_agency": "Department of Sanitation",
    "final_address": "2220 Fern St",
    "address_councildis": "A",
    "status": "Assigned to Contractor",
    "contractor": "IV Waste",
    "rowid": "1115943",
    "final_x": "3664986.82087",
    "final_y": "530606.46381",
    "longitude": "-90.12024375630753",
    "latitude": "29.95347480424071",
    "geocoded_column": {
      "latitude": "29.95347480424071",
      "longitude": "-90.12024375630753"
    }
  },
  {
    "service_request": "2024-1115942",
    "request_type": "Trash/Recycling",
    "request_reason": "Request a Large Item Pick Up",
    "date_created": "2024-07-25T16:46:02.000",
    "date_modified": "2024-07-25T16:46:03.000",
    "request_status": "Pending",
    "responsible_agency": "Department of Sanitation",
    "final_address": "2220 Fern St",
    "address_councildis": "A",
    "status": "Assigned to Contractor",
    "contractor": "IV Waste",
    "rowid": "1115942",
    "final_x": "3664986.82087",
    "final_y": "530606.46381",
    "longitude": "-90.12024375630753",
    "latitude": "29.95347480424071",
    "geocoded_column": {
      "latitude": "29.95347480424071",
      "longitude": "-90.12024375630753"
    }
  },
  {
    "service_request": "2024-1115941",
    "request_type": "Traffic Signals/Signs/Striping/Streetlights",
    "request_reason": "Street Light Outage/Malfunction",
    "date_created": "2024-07-25T16:45:38.000",
    "date_modified": "2024-07-25T16:45:38.000",
    "request_status": "Pending",
    "responsible_agency": "Department of Public Works",
    "final_address": "521 Second St",
    "address_councildis": "B",
    "status": "Assigned to Contractor",
    "contractor": "Legacy Professional Services",
    "rowid": "1115941",
    "final_x": "3678990.28981",
    "final_y": "519626.089656",
    "longitude": "-90.07640706037073",
    "latitude": "29.922867327225756",
    "geocoded_column": {
      "latitude": "29.922867327225756",
      "longitude": "-90.07640706037073"
    }
  },
  {
    "service_request": "2024-1115940",
    "request_type": "Roads/Drainage",
    "request_reason": "Pothole",
    "date_created": "2024-07-25T16:44:07.000",
    "date_modified": "2024-07-25T16:44:08.000",
    "request_status": "Pending",
    "responsible_agency": "Department of Public Works",
    "final_address": "521 Second St",
    "address_councildis": "B",
    "status": "Pending",
    "rowid": "1115940",
    "final_x": "3678990.28981",
    "final_y": "519626.089656",
    "longitude": "-90.07640706037073",
    "latitude": "29.922867327225756",
    "geocoded_column": {
      "latitude": "29.922867327225756",
      "longitude": "-90.07640706037073"
    }
  },
  {
    "service_request": "2024-1115939",
    "request_type": "Safety & Permits",
    "request_reason": "Licenses & Permits",
    "date_created": "2024-07-25T16:42:09.000",
    "date_modified": "2024-07-25T16:42:09.000",
    "request_status": "Pending",
    "responsible_agency": "Safety and Permits",
    "final_address": "1112 Nunez St",
    "address_councildis": "C",
    "status": "Pending",
    "rowid": "1115939",
    "final_x": "3687031.20098",
    "final_y": "527431.645695",
    "longitude": "-90.05074932360584",
    "latitude": "29.944085005234",
    "geocoded_column": {
      "latitude": "29.944085005234",
      "longitude": "-90.05074932360584"
    }
  },
  {
    "service_request": "2024-1115938",
    "request_type": "Utility Poles",
    "request_reason": "Utility Pole Leaning",
    "date_created": "2024-07-25T16:42:07.000",
    "date_modified": "2024-07-25T16:42:11.000",
    "request_status": "Pending",
    "responsible_agency": "Utility Company Collective",
    "final_address": "1717 Frenchmen St",
    "address_councildis": "D",
    "status": "Pending",
    "rowid": "1115938",
    "final_x": "3684434.24213",
    "final_y": "538618.513929",
    "longitude": "-90.05855568884678",
    "latitude": "29.97492472815723",
    "geocoded_column": {
      "latitude": "29.97492472815723",
      "longitude": "-90.05855568884678"
    }
  },
  {
    "service_request": "2024-1115937",
    "request_type": "Property Maintenance",
    "request_reason": "Property Maintenance",
    "date_created": "2024-07-25T16:41:16.000",
    "date_modified": "2024-07-25T16:41:16.000",
    "request_status": "Pending",
    "responsible_agency": "Department of Code Enforcement",
    "final_address": "4842 Camelia St",
    "address_councildis": "E",
    "status": "Pending",
    "rowid": "1115937",
    "final_x": "3701409.51005",
    "final_y": "554799.830808",
    "longitude": "-90.00435111191017",
    "latitude": "30.01888711545372",
    "geocoded_column": {
      "latitude": "30.01888711545372",
      "longitude": "-90.00435111191017"
    }
  },
  {
    "service_request": "2024-1115936",
    "request_type": "Traffic Signals/Signs/Striping/Streetlights",
    "request_reason": "Traffic Signal Malfunctioning/Damaged",
    "date_created": "2024-07-25T16:40:22.000",
    "date_modified": "2024-07-25T16:40:24.000",
    "request_status": "Pending",
    "responsible_agency": "Department of Public Works",
    "final_address": "S BROAD ST & TULANE AVE",
    "address_councildis": "B",
    "status": "Pending",
    "rowid": "1115936",
    "final_x": "3674313.3",
    "final_y": "533773.18",
    "longitude": "-90.09068620733277",
    "latitude": "29.961907423023113",
    "geocoded_column": {
      "latitude": "29.961907423023113",
      "longitude": "-90.09068620733277"
    }
  },
  {
    "service_request": "2024-1115935",
    "request_type": "Trash/Recycling",
    "request_reason": "Request a Large Item Pick Up",
    "date_created": "2024-07-25T16:37:55.000",
    "date_modified": "2024-07-25T16:37:56.000",
    "request_status": "Pending",
    "responsible_agency": "Department of Sanitation",
    "final_address": "4900 Dodt Ave",
    "address_councildis": "E",
    "status": "Assigned to Contractor",
    "contractor": "Waste Pro",
    "rowid": "1115935",
    "final_x": "3705277.79134",
    "final_y": "556113.521178",
    "longitude": "-89.99208022177203",
    "latitude": "30.02237532551325",
    "geocoded_column": {
      "latitude": "30.02237532551325",
      "longitude": "-89.99208022177203"
    }
  },
  {
    "service_request": "2024-1115934",
    "request_type": "Trash/Recycling",
    "request_reason": "Order Recycling Cart",
    "date_created": "2024-07-25T16:34:57.000",
    "date_modified": "2024-07-25T16:34:57.000",
    "request_status": "Pending",
    "responsible_agency": "Department of Sanitation",
    "final_address": "6985 Whitmore Pl",
    "address_councildis": "E",
    "status": "Pending",
    "rowid": "1115934",
    "final_x": "3719212.33253",
    "final_y": "569050.288614",
    "longitude": "-89.94755664876841",
    "latitude": "30.057490313075075",
    "geocoded_column": {
      "latitude": "30.057490313075075",
      "longitude": "-89.94755664876841"
    }
  },
  {
    "service_request": "2024-1115933",
    "request_type": "Trash/Recycling",
    "request_reason": "Request a Large Item Pick Up",
    "date_created": "2024-07-25T16:34:32.000",
    "date_modified": "2024-07-25T17:08:20.000",
    "case_close_date": "2024-07-25T12:08:20.000",
    "request_status": "Closed",
    "responsible_agency": "Department of Sanitation",
    "final_address": "7731 Shelly St",
    "address_councildis": "E",
    "status": "Duplicate Request",
    "contractor": "Waste Pro",
    "contractor_action": "Duplicate",
    "rowid": "1115933",
    "final_x": "3695932.63082",
    "final_y": "559352.779357",
    "longitude": "-90.02149132910432",
    "latitude": "30.03157951942622",
    "geocoded_column": {
      "latitude": "30.03157951942622",
      "longitude": "-90.02149132910432"
    }
  },
  {
    "service_request": "2024-1115932",
    "request_type": "Trash/Recycling",
    "request_reason": "Order Recycling Cart",
    "date_created": "2024-07-25T16:33:36.000",
    "date_modified": "2024-07-25T16:33:36.000",
    "request_status": "Pending",
    "responsible_agency": "Department of Sanitation",
    "final_address": "6985 Whitmore Pl",
    "address_councildis": "E",
    "status": "Pending",
    "rowid": "1115932",
    "final_x": "3719212.33253",
    "final_y": "569050.288614",
    "longitude": "-89.94755664876841",
    "latitude": "30.057490313075075",
    "geocoded_column": {
      "latitude": "30.057490313075075",
      "longitude": "-89.94755664876841"
    }
  },
  {
    "service_request": "2024-1115931",
    "request_type": "Trash/Recycling",
    "request_reason": "Request a Large Item Pick Up",
    "date_created": "2024-07-25T16:31:18.000",
    "date_modified": "2024-07-25T16:31:19.000",
    "request_status": "Pending",
    "responsible_agency": "Department of Sanitation",
    "final_address": "4762 Dodt Ave",
    "address_councildis": "E",
    "status": "Assigned to Contractor",
    "contractor": "Waste Pro",
    "rowid": "1115931",
    "final_x": "3705368.76497",
    "final_y": "555529.164825",
    "longitude": "-89.99181438689506",
    "latitude": "30.02076564324505",
    "geocoded_column": {
      "latitude": "30.02076564324505",
      "longitude": "-89.99181438689506"
    }
  },
  {
    "service_request": "2024-1115930",
    "request_type": "Property Maintenance",
    "request_reason": "Property Maintenance",
    "date_created": "2024-07-25T16:31:14.000",
    "date_modified": "2024-07-25T16:31:15.000",
    "request_status": "Pending",
    "responsible_agency": "Department of Code Enforcement",
    "final_address": "7400 Adventure Ave",
    "address_councildis": "E",
    "status": "Pending",
    "rowid": "1115930",
    "final_x": "3726016.75372",
    "final_y": "570013.408102",
    "longitude": "-89.92601168817511",
    "latitude": "30.059910456844264",
    "geocoded_column": {
      "latitude": "30.059910456844264",
      "longitude": "-89.92601168817511"
    }
  },
  {
    "service_request": "2024-1115929",
    "request_type": "Trash/Recycling",
    "request_reason": "Order Recycling Cart",
    "date_created": "2024-07-25T16:31:06.000",
    "date_modified": "2024-07-25T16:31:06.000",
    "request_status": "Pending",
    "responsible_agency": "Department of Sanitation",
    "final_address": "6985 Whitmore Pl",
    "address_councildis": "E",
    "status": "Pending",
    "rowid": "1115929",
    "final_x": "3719212.33253",
    "final_y": "569050.288614",
    "longitude": "-89.94755664876841",
    "latitude": "30.057490313075075",
    "geocoded_column": {
      "latitude": "30.057490313075075",
      "longitude": "-89.94755664876841"
    }
  },
  {
    "service_request": "2024-1115928",
    "request_type": "Trash/Recycling",
    "request_reason": "Request a Large Item Pick Up",
    "date_created": "2024-07-25T16:30:56.000",
    "date_modified": "2024-07-25T16:30:57.000",
    "request_status": "Pending",
    "responsible_agency": "Department of Sanitation",
    "final_address": "7731 Shelly St",
    "address_councildis": "E",
    "status": "Assigned to Contractor",
    "contractor": "Waste Pro",
    "rowid": "1115928",
    "final_x": "3695932.63082",
    "final_y": "559352.779357",
    "longitude": "-90.02149132910432",
    "latitude": "30.03157951942622",
    "geocoded_column": {
      "latitude": "30.03157951942622",
      "longitude": "-90.02149132910432"
    }
  },
  {
    "service_request": "2024-1115927",
    "request_type": "Property Maintenance",
    "request_reason": "Property Maintenance",
    "date_created": "2024-07-25T16:29:50.000",
    "date_modified": "2024-07-25T16:29:51.000",
    "request_status": "Pending",
    "responsible_agency": "Department of Code Enforcement",
    "final_address": "4910 Knight Dr",
    "address_councildis": "E",
    "status": "Pending",
    "rowid": "1115927",
    "final_x": "3707957.70929",
    "final_y": "556592.262042",
    "longitude": "-89.98359458862569",
    "latitude": "30.023605149483217",
    "geocoded_column": {
      "latitude": "30.023605149483217",
      "longitude": "-89.98359458862569"
    }
  },
  {
    "service_request": "2024-1115926",
    "request_type": "Abandoned Vehicles",
    "request_reason": "Abandoned/Junk Vehicles",
    "date_created": "2024-07-25T16:27:45.000",
    "date_modified": "2024-07-25T16:27:45.000",
    "request_status": "Pending",
    "responsible_agency": "Department of Public Works",
    "final_address": "1224 Kerlerec St",
    "address_councildis": "C",
    "status": "Pending",
    "rowid": "1115926",
    "final_x": "3682622.28597",
    "final_y": "535947.950471",
    "longitude": "-90.0643717080448",
    "latitude": "29.967636907624925",
    "geocoded_column": {
      "latitude": "29.967636907624925",
      "longitude": "-90.0643717080448"
    }
  },
  {
    "service_request": "2024-1115925",
    "request_type": "Parks & Parkways",
    "request_reason": "Request Tree Service (Right of Way/Public Property)",
    "date_created": "2024-07-25T16:26:30.000",
    "date_modified": "2024-07-25T16:26:31.000",
    "request_status": "Pending",
    "responsible_agency": "Department of Parks & Parkway",
    "final_address": "901 Cherokee St",
    "address_councildis": "A",
    "status": "Pending",
    "rowid": "1115925",
    "final_x": "3662889.51693",
    "final_y": "526172.649278",
    "longitude": "-90.12701357570316",
    "latitude": "29.941344123538244",
    "geocoded_column": {
      "latitude": "29.941344123538244",
      "longitude": "-90.12701357570316"
    }
  },
  {
    "service_request": "2024-1115924",
    "request_type": "Trash/Recycling",
    "request_reason": "Order Recycling Cart",
    "date_created": "2024-07-25T16:26:22.000",
    "date_modified": "2024-07-25T16:26:22.000",
    "request_status": "Pending",
    "responsible_agency": "Department of Sanitation",
    "final_address": "6985 Whitmore Pl",
    "address_councildis": "E",
    "status": "Pending",
    "rowid": "1115924",
    "final_x": "3719212.33253",
    "final_y": "569050.288614",
    "longitude": "-89.94755664876841",
    "latitude": "30.057490313075075",
    "geocoded_column": {
      "latitude": "30.057490313075075",
      "longitude": "-89.94755664876841"
    }
  },
  {
    "service_request": "2024-1115923",
    "request_type": "Health Related Request",
    "request_reason": "Request Health Records (Immunization, Lead and Health)",
    "date_created": "2024-07-25T16:23:58.000",
    "date_modified": "2024-07-25T16:23:59.000",
    "request_status": "Pending",
    "responsible_agency": "Health Department",
    "final_address": "1530 Murl St",
    "address_councildis": "C",
    "status": "Pending",
    "rowid": "1115923",
    "final_x": "3695435.45296",
    "final_y": "525611.287613",
    "longitude": "-90.02428054888155",
    "latitude": "29.938818307350463",
    "geocoded_column": {
      "latitude": "29.938818307350463",
      "longitude": "-90.02428054888155"
    }
  },
  {
    "service_request": "2024-1115922",
    "request_type": "Abandoned Vehicles",
    "request_reason": "Abandoned/Junk Vehicles",
    "date_created": "2024-07-25T16:17:44.000",
    "date_modified": "2024-07-25T16:19:47.000",
    "request_status": "Pending",
    "responsible_agency": "Department of Public Works",
    "final_address": "7618 Cohn St",
    "address_councildis": "A",
    "status": "Pending",
    "rowid": "1115922",
    "final_x": "3664784.24128",
    "final_y": "529054.945024",
    "longitude": "-90.12093525562163",
    "latitude": "29.949214525596727",
    "geocoded_column": {
      "latitude": "29.949214525596727",
      "longitude": "-90.12093525562163"
    }
  },
  {
    "service_request": "2024-1115921",
    "request_type": "Trash/Recycling",
    "request_reason": "Illegal Dumping",
    "date_created": "2024-07-25T16:16:47.000",
    "date_modified": "2024-07-25T16:20:26.000",
    "request_status": "Pending",
    "responsible_agency": "Department of Sanitation",
    "final_address": "7618 Cohn St",
    "address_councildis": "A",
    "status": "Pending",
    "rowid": "1115921",
    "final_x": "3664784.24128",
    "final_y": "529054.945024",
    "longitude": "-90.12093525562163",
    "latitude": "29.949214525596727",
    "geocoded_column": {
      "latitude": "29.949214525596727",
      "longitude": "-90.12093525562163"
    }
  },
  {
    "service_request": "2024-1115920",
    "request_type": "Trash/Recycling",
    "request_reason": "Replace Trash Cart",
    "date_created": "2024-07-25T16:11:10.000",
    "date_modified": "2024-07-25T16:11:11.000",
    "request_status": "Pending",
    "responsible_agency": "Department of Sanitation",
    "final_address": "0 BLK Downs St",
    "address_councildis": "A",
    "status": "Assigned to Contractor",
    "contractor": "IV Waste",
    "rowid": "1115920",
    "final_x": "3667484.28671",
    "final_y": "553136.896467",
    "longitude": "-90.11159925491211",
    "latitude": "30.01535291518968",
    "geocoded_column": {
      "latitude": "30.01535291518968",
      "longitude": "-90.11159925491211"
    }
  },
  {
    "service_request": "2024-1115919",
    "request_type": "Trash/Recycling",
    "request_reason": "Missed Trash Pick-Up",
    "date_created": "2024-07-25T16:09:55.000",
    "date_modified": "2024-07-25T16:09:56.000",
    "request_status": "Pending",
    "responsible_agency": "Department of Sanitation",
    "final_address": "7611 Bullard Ave",
    "address_councildis": "E",
    "status": "Assigned to Contractor",
    "contractor": "Waste Pro",
    "rowid": "1115919",
    "final_x": "3712984.06488",
    "final_y": "567719.88298",
    "longitude": "-89.96729331952507",
    "latitude": "30.05403788383646",
    "geocoded_column": {
      "latitude": "30.05403788383646",
      "longitude": "-89.96729331952507"
    }
  },
  {
    "service_request": "2024-1115918",
    "request_type": "Trash/Recycling",
    "request_reason": "Return Recycling Cart",
    "date_created": "2024-07-25T16:03:24.000",
    "date_modified": "2024-07-25T16:03:24.000",
    "request_status": "Pending",
    "responsible_agency": "Department of Sanitation",
    "final_address": "3601 Canal St",
    "address_councildis": "B",
    "status": "Pending",
    "rowid": "1115918",
    "final_x": "3672619.87419",
    "final_y": "537298.879816",
    "longitude": "-90.09591355584773",
    "latitude": "29.971652301208948",
    "geocoded_column": {
      "latitude": "29.971652301208948",
      "longitude": "-90.09591355584773"
    }
  },
  {
    "service_request": "2024-1115917",
    "request_type": "Traffic Signals/Signs/Striping/Streetlights",
    "request_reason": "Street Light Outage/Malfunction",
    "date_created": "2024-07-25T16:00:01.000",
    "date_modified": "2024-07-25T16:00:02.000",
    "request_status": "Pending",
    "responsible_agency": "Department of Public Works",
    "final_address": "7631 Jonlee Dr",
    "address_councildis": "E",
    "status": "Assigned to Contractor",
    "contractor": "Legacy Professional Services",
    "rowid": "1115917",
    "final_x": "3717144.96044",
    "final_y": "570590.786727",
    "longitude": "-89.95403265138751",
    "latitude": "30.061794629566048",
    "geocoded_column": {
      "latitude": "30.061794629566048",
      "longitude": "-89.95403265138751"
    }
  },
  {
    "service_request": "2024-1115916",
    "request_type": "Property Maintenance",
    "request_reason": "Property Maintenance",
    "date_created": "2024-07-25T15:59:17.000",
    "date_modified": "2024-07-25T15:59:17.000",
    "request_status": "Pending",
    "responsible_agency": "Department of Code Enforcement",
    "final_address": "500 BLK Atlantic Ave",
    "address_councildis": "C",
    "status": "Pending",
    "rowid": "1115916",
    "final_x": "3688801.80445",
    "final_y": "529659.203593",
    "longitude": "-90.04507997984459",
    "latitude": "29.95015541297997",
    "geocoded_column": {
      "latitude": "29.95015541297997",
      "longitude": "-90.04507997984459"
    }
  },
  {
    "service_request": "2024-1115915",
    "request_type": "Trash/Recycling",
    "request_reason": "Request a Large Item Pick Up",
    "date_created": "2024-07-25T15:58:32.000",
    "date_modified": "2024-07-25T15:58:33.000",
    "request_status": "Pending",
    "responsible_agency": "Department of Sanitation",
    "final_address": "1509 Verna St",
    "address_councildis": "A",
    "status": "Assigned to Contractor",
    "contractor": "IV Waste",
    "rowid": "1115915",
    "final_x": "3675854.69333",
    "final_y": "541509.619084",
    "longitude": "-90.08555268539517",
    "latitude": "29.983133938181357",
    "geocoded_column": {
      "latitude": "29.983133938181357",
      "longitude": "-90.08555268539517"
    }
  },
  {
    "service_request": "2024-1115914",
    "request_type": "Abandoned Vehicles",
    "request_reason": "Abandoned/Junk Vehicles",
    "date_created": "2024-07-25T15:57:55.000",
    "date_modified": "2024-07-25T15:57:55.000",
    "request_status": "Pending",
    "responsible_agency": "Department of Public Works",
    "final_address": "540 Turquoise St",
    "address_councildis": "D",
    "status": "Pending",
    "rowid": "1115914",
    "final_x": "3668496.03751",
    "final_y": "555292.160025",
    "longitude": "-90.10832978166168",
    "latitude": "30.02124942589741",
    "geocoded_column": {
      "latitude": "30.02124942589741",
      "longitude": "-90.10832978166168"
    }
  },
  {
    "service_request": "2024-1115913",
    "request_type": "Trash/Recycling",
    "request_reason": "Missed Trash Pick-Up",
    "date_created": "2024-07-25T15:53:54.000",
    "date_modified": "2024-07-25T15:53:55.000",
    "request_status": "Pending",
    "responsible_agency": "Department of Sanitation",
    "final_address": "6911 Downman Rd",
    "address_councildis": "D",
    "status": "Assigned to Contractor",
    "contractor": "Waste Pro",
    "rowid": "1115913",
    "final_x": "3695552.84938",
    "final_y": "556050.317529",
    "longitude": "-90.02281080898757",
    "latitude": "30.022510956414845",
    "geocoded_column": {
      "latitude": "30.022510956414845",
      "longitude": "-90.02281080898757"
    }
  },
  {
    "service_request": "2024-1115912",
    "request_type": "Trash/Recycling",
    "request_reason": "Repair Recycling Cart",
    "date_created": "2024-07-25T15:53:19.000",
    "date_modified": "2024-07-25T15:53:20.000",
    "request_status": "Pending",
    "responsible_agency": "Department of Sanitation",
    "final_address": "5325 Wingate Dr",
    "address_councildis": "D",
    "status": "Pending",
    "rowid": "1115912",
    "final_x": "3681426.4781",
    "final_y": "552800.741782",
    "longitude": "-90.06756017445883",
    "latitude": "30.01401249135022",
    "geocoded_column": {
      "latitude": "30.01401249135022",
      "longitude": "-90.06756017445883"
    }
  },
  {
    "service_request": "2024-1115911",
    "request_type": "Property Maintenance",
    "request_reason": "Property Maintenance",
    "date_created": "2024-07-25T15:49:14.000",
    "date_modified": "2024-07-25T15:49:15.000",
    "request_status": "Pending",
    "responsible_agency": "Department of Code Enforcement",
    "final_address": "1768 Shirley Dr",
    "address_councildis": "C",
    "status": "Pending",
    "rowid": "1115911",
    "final_x": "3693053.40553",
    "final_y": "523381.910971",
    "longitude": "-90.03188085050519",
    "latitude": "29.93276289583492",
    "geocoded_column": {
      "latitude": "29.93276289583492",
      "longitude": "-90.03188085050519"
    }
  },
  {
    "service_request": "2024-1115910",
    "request_type": "Property Maintenance",
    "request_reason": "Property Maintenance",
    "date_created": "2024-07-25T15:48:44.000",
    "date_modified": "2024-07-25T15:48:44.000",
    "request_status": "Pending",
    "responsible_agency": "Department of Code Enforcement",
    "final_address": "1003 Independence St",
    "address_councildis": "C",
    "status": "Pending",
    "rowid": "1115910",
    "final_x": "3690950.48726",
    "final_y": "535111.616134",
    "longitude": "-90.03810099721828",
    "latitude": "29.96508105113699",
    "geocoded_column": {
      "latitude": "29.96508105113699",
      "longitude": "-90.03810099721828"
    }
  },
  {
    "service_request": "2024-1115909",
    "request_type": "Parks & Parkways",
    "request_reason": "Request Grass Cutting Service (City Owned Property)",
    "date_created": "2024-07-25T15:47:46.000",
    "date_modified": "2024-07-25T15:47:47.000",
    "request_status": "Pending",
    "responsible_agency": "Department of Parks & Parkway",
    "final_address": "1100 BLK Shirley Dr",
    "address_councildis": "C",
    "status": "Pending",
    "rowid": "1115909",
    "final_x": "3693113.97069",
    "final_y": "527217.586757",
    "longitude": "-90.03155208347849",
    "latitude": "29.943307799355264",
    "geocoded_column": {
      "latitude": "29.943307799355264",
      "longitude": "-90.03155208347849"
    }
  },
  {
    "service_request": "2024-1115908",
    "request_type": "Trash/Recycling",
    "request_reason": "Order Trash Cart",
    "date_created": "2024-07-25T15:47:33.000",
    "date_modified": "2024-07-25T15:47:34.000",
    "request_status": "Pending",
    "responsible_agency": "Department of Sanitation",
    "final_address": "2647 N Rocheblave St",
    "address_councildis": "D",
    "status": "Assigned to Contractor",
    "contractor": "IV Waste",
    "rowid": "1115908",
    "final_x": "3686896.81314",
    "final_y": "541307.509004",
    "longitude": "-90.05068321548434",
    "latitude": "29.982242954867033",
    "geocoded_column": {
      "latitude": "29.982242954867033",
      "longitude": "-90.05068321548434"
    }
  },
  {
    "service_request": "2024-1115907",
    "request_type": "Parks & Parkways",
    "request_reason": "Request Tree Service (Right of Way/Public Property)",
    "date_created": "2024-07-25T15:46:48.000",
    "date_modified": "2024-07-25T15:46:49.000",
    "request_status": "Pending",
    "responsible_agency": "Department of Parks & Parkway",
    "final_address": "1100 BLK Shirley Dr",
    "address_councildis": "C",
    "status": "Pending",
    "rowid": "1115907",
    "final_x": "3693113.97069",
    "final_y": "527217.586757",
    "longitude": "-90.03155208347849",
    "latitude": "29.943307799355264",
    "geocoded_column": {
      "latitude": "29.943307799355264",
      "longitude": "-90.03155208347849"
    }
  },
  {
    "service_request": "2024-1115906",
    "request_type": "Roads/Drainage",
    "request_reason": "Alley Way",
    "date_created": "2024-07-25T15:43:02.000",
    "date_modified": "2024-07-25T15:43:02.000",
    "request_status": "Pending",
    "responsible_agency": "Department of Public Works",
    "final_address": "5931 Argonne Blvd",
    "address_councildis": "A",
    "status": "Pending",
    "rowid": "1115906",
    "final_x": "3670173.65396",
    "final_y": "546716.591569",
    "longitude": "-90.10331983521009",
    "latitude": "29.997620206115894",
    "geocoded_column": {
      "latitude": "29.997620206115894",
      "longitude": "-90.10331983521009"
    }
  },
  {
    "service_request": "2024-1115904",
    "request_type": "Traffic Signals/Signs/Striping/Streetlights",
    "request_reason": "Traffic Signal Malfunctioning/Damaged",
    "date_created": "2024-07-25T15:36:58.000",
    "date_modified": "2024-07-25T15:36:59.000",
    "request_status": "Pending",
    "responsible_agency": "Department of Public Works",
    "final_address": "CALLIOPE ST & ANNUNCIATION ST & TCHOUPITOULAS EXIT",
    "address_councildis": "B",
    "status": "Pending",
    "rowid": "1115904",
    "final_x": "3681443.2",
    "final_y": "525519.78",
    "longitude": "-90.06845882301015",
    "latitude": "29.938998817801245",
    "geocoded_column": {
      "latitude": "29.938998817801245",
      "longitude": "-90.06845882301015"
    }
  },
  {
    "service_request": "2024-1115903",
    "request_type": "Abandoned Vehicles",
    "request_reason": "Abandoned/Junk Vehicles",
    "date_created": "2024-07-25T15:34:07.000",
    "date_modified": "2024-07-25T15:35:48.000",
    "request_status": "Pending",
    "responsible_agency": "Department of Public Works",
    "final_address": "1635 Pauger St",
    "address_councildis": "C",
    "status": "Pending",
    "rowid": "1115903",
    "final_x": "3683942.71913",
    "final_y": "535783.745159",
    "longitude": "-90.0602075159868",
    "latitude": "29.96714512509436",
    "geocoded_column": {
      "latitude": "29.96714512509436",
      "longitude": "-90.0602075159868"
    }
  },
  {
    "service_request": "2024-1115902",
    "request_type": "Trash/Recycling",
    "request_reason": "Request a Large Item Pick Up",
    "date_created": "2024-07-25T15:27:31.000",
    "date_modified": "2024-07-25T15:27:31.000",
    "request_status": "Pending",
    "responsible_agency": "Department of Sanitation",
    "final_address": "3905 Dauphine St",
    "address_councildis": "C",
    "status": "Assigned to Contractor",
    "contractor": "IV Waste",
    "rowid": "1115902",
    "final_x": "3691290.53276",
    "final_y": "534246.234757",
    "longitude": "-90.03705807289873",
    "latitude": "29.962690982266395",
    "geocoded_column": {
      "latitude": "29.962690982266395",
      "longitude": "-90.03705807289873"
    }
  },
  {
    "service_request": "2024-1115901",
    "request_type": "Trash/Recycling",
    "request_reason": "Request a Large Item Pick Up",
    "date_created": "2024-07-25T15:25:00.000",
    "date_modified": "2024-07-25T15:25:01.000",
    "request_status": "Pending",
    "responsible_agency": "Department of Sanitation",
    "final_address": "5144 Lakeview Ct",
    "address_councildis": "E",
    "status": "Assigned to Contractor",
    "contractor": "Waste Pro",
    "rowid": "1115901",
    "final_x": "3698795.30186",
    "final_y": "556349.930202",
    "longitude": "-90.01255458150585",
    "latitude": "30.023232409327548",
    "geocoded_column": {
      "latitude": "30.023232409327548",
      "longitude": "-90.01255458150585"
    }
  },
  {
    "service_request": "2024-1115900",
    "request_type": "Traffic Signals/Signs/Striping/Streetlights",
    "request_reason": "Traffic Signal Malfunctioning/Damaged",
    "date_created": "2024-07-25T15:25:00.000",
    "date_modified": "2024-07-25T15:25:08.000",
    "request_status": "Pending",
    "responsible_agency": "Department of Public Works",
    "final_address": "EARHART BLVD & MAGNOLIA ST",
    "address_councildis": "B",
    "rowid": "1115900",
    "final_x": "3676590.5",
    "final_y": "528721.38",
    "longitude": "-90.08366914458753",
    "latitude": "29.947948562397546",
    "geocoded_column": {
      "latitude": "29.947948562397546",
      "longitude": "-90.08366914458753"
    }
  },
  {
    "service_request": "2024-1115899",
    "request_type": "Property Maintenance",
    "request_reason": "Property Maintenance",
    "date_created": "2024-07-25T15:18:47.000",
    "date_modified": "2024-07-25T15:18:47.000",
    "request_status": "Pending",
    "responsible_agency": "Department of Code Enforcement",
    "final_address": "4901 Spain St",
    "address_councildis": "D",
    "status": "Pending",
    "rowid": "1115899",
    "final_x": "3685015.81519",
    "final_y": "550836.961365",
    "longitude": "-90.0562888606902",
    "latitude": "30.008503299151716",
    "geocoded_column": {
      "latitude": "30.008503299151716",
      "longitude": "-90.0562888606902"
    }
  },
  {
    "service_request": "2024-1115898",
    "request_type": "Roads/Drainage",
    "request_reason": "Street Subsidence (Sinking)",
    "date_created": "2024-07-25T15:16:11.000",
    "date_modified": "2024-07-25T15:16:11.000",
    "request_status": "Pending",
    "responsible_agency": "Department of Public Works",
    "final_address": "RHODES AVE & CHELSEA DR",
    "address_councildis": "C",
    "status": "Pending",
    "rowid": "1115898",
    "final_x": "3704135.3",
    "final_y": "519893.88",
    "longitude": "-89.99702487650734",
    "latitude": "29.922821276239247",
    "geocoded_column": {
      "latitude": "29.922821276239247",
      "longitude": "-89.99702487650734"
    }
  },
  {
    "service_request": "2024-1115897",
    "request_type": "Abandoned Vehicles",
    "request_reason": "Abandoned/Junk Vehicles",
    "date_created": "2024-07-25T15:10:05.000",
    "date_modified": "2024-07-25T15:10:06.000",
    "request_status": "Pending",
    "responsible_agency": "Department of Public Works",
    "final_address": "602 Valence St",
    "address_councildis": "B",
    "status": "Pending",
    "rowid": "1115897",
    "final_x": "3670002.2217",
    "final_y": "517677.564214",
    "longitude": "-90.10484488896986",
    "latitude": "29.91777754213483",
    "geocoded_column": {
      "latitude": "29.91777754213483",
      "longitude": "-90.10484488896986"
    }
  },
  {
    "service_request": "2024-1115896",
    "request_type": "Trash/Recycling",
    "request_reason": "Missed Trash Pick-Up",
    "date_created": "2024-07-25T15:07:31.000",
    "date_modified": "2024-07-25T15:50:46.000",
    "case_close_date": "2024-07-25T10:50:46.000",
    "request_status": "Closed",
    "responsible_agency": "Department of Sanitation",
    "final_address": "5143 Western St",
    "address_councildis": "D",
    "status": "Invalid Request",
    "contractor": "IV Waste",
    "contractor_action": "Invalid",
    "rowid": "1115896",
    "final_x": "3684074.91503",
    "final_y": "551617.541397",
    "longitude": "-90.05923403769575",
    "latitude": "30.0106784109205",
    "geocoded_column": {
      "latitude": "30.0106784109205",
      "longitude": "-90.05923403769575"
    }
  },
  {
    "service_request": "2024-1115895",
    "request_type": "Trash/Recycling",
    "request_reason": "Replace Recycling Cart",
    "date_created": "2024-07-25T15:03:42.000",
    "date_modified": "2024-07-25T15:03:42.000",
    "request_status": "Pending",
    "responsible_agency": "Department of Sanitation",
    "final_address": "4600 S Prieur St",
    "address_councildis": "B",
    "status": "Pending",
    "rowid": "1115895",
    "final_x": "3669465.75258",
    "final_y": "526785.365758",
    "longitude": "-90.10623035877396",
    "latitude": "29.94283688791381",
    "geocoded_column": {
      "latitude": "29.94283688791381",
      "longitude": "-90.10623035877396"
    }
  },
  {
    "service_request": "2024-1115894",
    "request_type": "Property Maintenance",
    "request_reason": "Property Maintenance",
    "date_created": "2024-07-25T15:02:57.000",
    "date_modified": "2024-07-25T15:02:58.000",
    "request_status": "Pending",
    "responsible_agency": "Department of Code Enforcement",
    "final_address": "8900 Olive St",
    "address_councildis": "A",
    "status": "Pending",
    "rowid": "1115894",
    "final_x": "3665103.44711",
    "final_y": "536082.387527",
    "longitude": "-90.11969236080941",
    "latitude": "29.968528404058787",
    "geocoded_column": {
      "latitude": "29.968528404058787",
      "longitude": "-90.11969236080941"
    }
  },
  {
    "service_request": "2024-1115893",
    "request_type": "Trash/Recycling",
    "request_reason": "Order Trash Cart",
    "date_created": "2024-07-25T15:02:14.000",
    "date_modified": "2024-07-25T15:02:15.000",
    "request_status": "Pending",
    "responsible_agency": "Department of Sanitation",
    "final_address": "4429 Dale St",
    "address_councildis": "E",
    "status": "Assigned to Contractor",
    "contractor": "Waste Pro",
    "rowid": "1115893",
    "final_x": "3699653.39152",
    "final_y": "553364.408407",
    "longitude": "-90.0099521727904",
    "latitude": "30.01499613663033",
    "geocoded_column": {
      "latitude": "30.01499613663033",
      "longitude": "-90.0099521727904"
    }
  },
  {
    "service_request": "2024-1115892",
    "request_type": "Roads/Drainage",
    "request_reason": "Catch Basin - Clogged",
    "date_created": "2024-07-25T15:00:26.000",
    "date_modified": "2024-07-25T15:00:27.000",
    "request_status": "Pending",
    "responsible_agency": "Department of Public Works",
    "final_address": "1519 Marigny St",
    "address_councildis": "C",
    "status": "Pending",
    "rowid": "1115892",
    "final_x": "3685321.39132",
    "final_y": "537973.086217",
    "longitude": "-90.0557765783403",
    "latitude": "29.973122859281244",
    "geocoded_column": {
      "latitude": "29.973122859281244",
      "longitude": "-90.0557765783403"
    }
  },
  {
    "service_request": "2024-1115891",
    "request_type": "Trash/Recycling",
    "request_reason": "Request a Large Item Pick Up",
    "date_created": "2024-07-25T14:59:11.000",
    "date_modified": "2024-07-25T14:59:12.000",
    "request_status": "Pending",
    "responsible_agency": "Department of Sanitation",
    "final_address": "4408 Eastview Dr",
    "address_councildis": "E",
    "status": "Assigned to Contractor",
    "contractor": "Waste Pro",
    "rowid": "1115891",
    "final_x": "3705245.08126",
    "final_y": "553348.749783",
    "longitude": "-89.99228581943822",
    "latitude": "30.01477432251589",
    "geocoded_column": {
      "latitude": "30.01477432251589",
      "longitude": "-89.99228581943822"
    }
  },
  {
    "service_request": "2024-1115890",
    "request_type": "Abandoned Vehicles",
    "request_reason": "Abandoned/Junk Vehicles",
    "date_created": "2024-07-25T14:56:20.000",
    "date_modified": "2024-07-25T14:56:20.000",
    "request_status": "Pending",
    "responsible_agency": "Department of Public Works",
    "final_address": "2701 Urquhart St",
    "address_councildis": "C",
    "status": "Pending",
    "rowid": "1115890",
    "final_x": "3687650.38927",
    "final_y": "537146.714696",
    "longitude": "-90.04845042659102",
    "latitude": "29.97077902102556",
    "geocoded_column": {
      "latitude": "29.97077902102556",
      "longitude": "-90.04845042659102"
    }
  },
  {
    "service_request": "2024-1115889",
    "request_type": "Property Maintenance",
    "request_reason": "Property Maintenance",
    "date_created": "2024-07-25T14:53:44.000",
    "date_modified": "2024-07-25T14:53:45.000",
    "request_status": "Pending",
    "responsible_agency": "Department of Code Enforcement",
    "final_address": "9401 Forshey St",
    "address_councildis": "A",
    "status": "Pending",
    "rowid": "1115889",
    "final_x": "3663620.94349",
    "final_y": "537058.682312",
    "longitude": "-90.12434167524951",
    "latitude": "29.971255985071036",
    "geocoded_column": {
      "latitude": "29.971255985071036",
      "longitude": "-90.12434167524951"
    }
  },
  {
    "service_request": "2024-1115888",
    "request_type": "Trash/Recycling",
    "request_reason": "Illegal Dumping",
    "date_created": "2024-07-25T14:52:09.000",
    "date_modified": "2024-07-25T14:52:10.000",
    "request_status": "Pending",
    "responsible_agency": "Department of Sanitation",
    "final_address": "3957 Annunciation St",
    "address_councildis": "B",
    "status": "Pending",
    "rowid": "1115888",
    "final_x": "3672833.94683",
    "final_y": "517953.126006",
    "longitude": "-90.09589728858752",
    "latitude": "29.918451466175174",
    "geocoded_column": {
      "latitude": "29.918451466175174",
      "longitude": "-90.09589728858752"
    }
  },
  {
    "service_request": "2024-1115887",
    "request_type": "Property Maintenance",
    "request_reason": "Property Maintenance",
    "date_created": "2024-07-25T14:50:06.000",
    "date_modified": "2024-07-25T14:50:07.000",
    "request_status": "Pending",
    "responsible_agency": "Department of Code Enforcement",
    "final_address": "9323 Forshey St",
    "address_councildis": "A",
    "status": "Pending",
    "rowid": "1115887",
    "final_x": "3663830.33715",
    "final_y": "536984.49844",
    "longitude": "-90.12368285132153",
    "latitude": "29.971045927358034",
    "geocoded_column": {
      "latitude": "29.971045927358034",
      "longitude": "-90.12368285132153"
    }
  },
  {
    "service_request": "2024-1115886",
    "request_type": "Roads/Drainage",
    "request_reason": "Damaged Sidewalk",
    "date_created": "2024-07-25T14:49:57.000",
    "date_modified": "2024-07-25T14:49:58.000",
    "request_status": "Pending",
    "responsible_agency": "Department of Public Works",
    "final_address": "3961 Annunciation St",
    "address_councildis": "B",
    "status": "Pending",
    "rowid": "1115886",
    "final_x": "3672814.35214",
    "final_y": "517949.723574",
    "longitude": "-90.09595925469827",
    "latitude": "29.918442692416036",
    "geocoded_column": {
      "latitude": "29.918442692416036",
      "longitude": "-90.09595925469827"
    }
  },
  {
    "service_request": "2024-1115885",
    "request_type": "Trash/Recycling",
    "request_reason": "Missed Trash Pick-Up",
    "date_created": "2024-07-25T14:49:22.000",
    "date_modified": "2024-07-25T14:49:23.000",
    "request_status": "Pending",
    "responsible_agency": "Department of Sanitation",
    "final_address": "1838 Fats Domino Ave",
    "address_councildis": "E",
    "status": "Assigned to Contractor",
    "contractor": "Waste Pro",
    "rowid": "1115885",
    "final_x": "3698708.52586",
    "final_y": "536692.028295",
    "longitude": "-90.01354421493856",
    "latitude": "29.969183206555748",
    "geocoded_column": {
      "latitude": "29.969183206555748",
      "longitude": "-90.01354421493856"
    }
  },
  {
    "service_request": "2024-1115884",
    "request_type": "Trash/Recycling",
    "request_reason": "Request a Large Item Pick Up",
    "date_created": "2024-07-25T14:48:43.000",
    "date_modified": "2024-07-25T14:54:04.000",
    "request_status": "Pending",
    "responsible_agency": "Department of Sanitation",
    "final_address": "2069 Hyman Pl",
    "address_councildis": "C",
    "status": "Assigned to Contractor",
    "contractor": "Richards Disposal",
    "rowid": "1115884",
    "final_x": "3701058.61508",
    "final_y": "523092.078843",
    "longitude": "-90.00661980359094",
    "latitude": "29.9317135210425",
    "geocoded_column": {
      "latitude": "29.9317135210425",
      "longitude": "-90.00661980359094"
    }
  },
  {
    "service_request": "2024-1115883",
    "request_type": "Abandoned Vehicles",
    "request_reason": "Abandoned/Junk Vehicles",
    "date_created": "2024-07-25T14:45:09.000",
    "date_modified": "2024-07-25T14:45:09.000",
    "request_status": "Pending",
    "responsible_agency": "Department of Public Works",
    "final_address": "2614 Cleveland Ave",
    "address_councildis": "B",
    "status": "Pending",
    "rowid": "1115883",
    "final_x": "3675386.84104",
    "final_y": "534444.604933",
    "longitude": "-90.08727307259714",
    "latitude": "29.963721559123726",
    "geocoded_column": {
      "latitude": "29.963721559123726",
      "longitude": "-90.08727307259714"
    }
  },
  {
    "service_request": "2024-1115882",
    "request_type": "Property Maintenance",
    "request_reason": "Property Maintenance",
    "date_created": "2024-07-25T14:43:39.000",
    "date_modified": "2024-07-25T14:43:40.000",
    "request_status": "Pending",
    "responsible_agency": "Department of Code Enforcement",
    "final_address": "9307 Forshey St",
    "address_councildis": "A",
    "status": "Pending",
    "rowid": "1115882",
    "final_x": "3663857.71424",
    "final_y": "536844.891336",
    "longitude": "-90.1236010452908",
    "latitude": "29.970661259253003",
    "geocoded_column": {
      "latitude": "29.970661259253003",
      "longitude": "-90.1236010452908"
    }
  },
  {
    "service_request": "2024-1115881",
    "request_type": "Trash/Recycling",
    "request_reason": "Request a Large Item Pick Up",
    "date_created": "2024-07-25T14:43:04.000",
    "date_modified": "2024-07-25T14:43:05.000",
    "request_status": "Pending",
    "responsible_agency": "Department of Sanitation",
    "final_address": "720 Lamanche St",
    "address_councildis": "E",
    "status": "Assigned to Contractor",
    "contractor": "Waste Pro",
    "rowid": "1115881",
    "final_x": "3697967.72394",
    "final_y": "532389.404803",
    "longitude": "-90.01603991947087",
    "latitude": "29.957375965341342",
    "geocoded_column": {
      "latitude": "29.957375965341342",
      "longitude": "-90.01603991947087"
    }
  },
  {
    "service_request": "2024-1115880",
    "request_type": "Trash/Recycling",
    "request_reason": "Illegal Dumping",
    "date_created": "2024-07-25T14:43:04.000",
    "date_modified": "2024-07-25T14:43:05.000",
    "request_status": "Pending",
    "responsible_agency": "Department of Code Enforcement",
    "final_address": "PONTCHARTRAIN BLVD & EAGLE ST",
    "address_councildis": "A",
    "status": "Pending",
    "rowid": "1115880",
    "final_x": "3667642.2",
    "final_y": "538291.98",
    "longitude": "-90.11160041682201",
    "latitude": "29.974529863644523",
    "geocoded_column": {
      "latitude": "29.974529863644523",
      "longitude": "-90.11160041682201"
    }
  },
  {
    "service_request": "2024-1115879",
    "request_type": "Traffic Signals/Signs/Striping/Streetlights",
    "request_reason": "Street Light Outage/Malfunction",
    "date_created": "2024-07-25T14:42:09.000",
    "date_modified": "2024-07-25T14:43:06.000",
    "request_status": "Pending",
    "responsible_agency": "Department of Public Works",
    "final_address": "751 Allen Toussaint Blvd",
    "address_councildis": "D",
    "status": "Assigned to Contractor",
    "contractor": "Legacy Professional Services",
    "rowid": "1115879",
    "final_x": "3669747.45274",
    "final_y": "554785.736344",
    "longitude": "-90.10439280855232",
    "latitude": "30.019820095077293",
    "geocoded_column": {
      "latitude": "30.019820095077293",
      "longitude": "-90.10439280855232"
    }
  },
  {
    "service_request": "2024-1115878",
    "request_type": "Graffiti Removal",
    "request_reason": "Graffiti Removal",
    "date_created": "2024-07-25T14:41:28.000",
    "date_modified": "2024-07-25T14:41:28.000",
    "request_status": "Pending",
    "responsible_agency": "Department of Code Enforcement",
    "final_address": "5300 BLK Pitt St",
    "address_councildis": "B",
    "status": "Pending",
    "rowid": "1115878",
    "final_x": "3667569.65892",
    "final_y": "520470.784634",
    "longitude": "-90.11242922841326",
    "latitude": "29.92552950606504",
    "geocoded_column": {
      "latitude": "29.92552950606504",
      "longitude": "-90.11242922841326"
    }
  },
  {
    "service_request": "2024-1115877",
    "request_type": "Property Maintenance",
    "request_reason": "Property Maintenance",
    "date_created": "2024-07-25T14:40:19.000",
    "date_modified": "2024-07-25T14:40:19.000",
    "request_status": "Pending",
    "responsible_agency": "Department of Code Enforcement",
    "final_address": "7540 Mackenzie St",
    "address_councildis": "E",
    "status": "Pending",
    "rowid": "1115877",
    "final_x": "3711320.12875",
    "final_y": "565571.572066",
    "longitude": "-89.9726332060892",
    "latitude": "30.048185339040817",
    "geocoded_column": {
      "latitude": "30.048185339040817",
      "longitude": "-89.9726332060892"
    }
  },
  {
    "service_request": "2024-1115876",
    "request_type": "Roads/Drainage",
    "request_reason": "Catch Basin - Clogged",
    "date_created": "2024-07-25T14:40:08.000",
    "date_modified": "2024-07-25T14:40:08.000",
    "request_status": "Pending",
    "responsible_agency": "Department of Public Works",
    "final_address": "720 Lamanche St",
    "address_councildis": "E",
    "status": "Pending",
    "rowid": "1115876",
    "final_x": "3697967.72394",
    "final_y": "532389.404803",
    "longitude": "-90.01603991947087",
    "latitude": "29.957375965341342",
    "geocoded_column": {
      "latitude": "29.957375965341342",
      "longitude": "-90.01603991947087"
    }
  },
  {
    "service_request": "2024-1115875",
    "request_type": "Abandoned Vehicles",
    "request_reason": "Abandoned/Junk Vehicles",
    "date_created": "2024-07-25T14:39:36.000",
    "date_modified": "2024-07-25T14:39:36.000",
    "request_status": "Pending",
    "responsible_agency": "Department of Public Works",
    "final_address": "3147 Royal St",
    "address_councildis": "C",
    "status": "Pending",
    "rowid": "1115875",
    "final_x": "3688979.10799",
    "final_y": "534449.628229",
    "longitude": "-90.04434999913762",
    "latitude": "29.96332194144711",
    "geocoded_column": {
      "latitude": "29.96332194144711",
      "longitude": "-90.04434999913762"
    }
  },
  {
    "service_request": "2024-1115874",
    "request_type": "Trash/Recycling",
    "request_reason": "Request a Large Item Pick Up",
    "date_created": "2024-07-25T14:39:00.000",
    "date_modified": "2024-07-25T14:39:01.000",
    "request_status": "Pending",
    "responsible_agency": "Department of Sanitation",
    "final_address": "817 Dumaine St",
    "address_councildis": "C",
    "status": "Assigned to Contractor",
    "contractor": "Empire Services",
    "rowid": "1115874",
    "final_x": "3682600.53967",
    "final_y": "533388.8249",
    "longitude": "-90.06452987384637",
    "latitude": "29.96060085313952",
    "geocoded_column": {
      "latitude": "29.96060085313952",
      "longitude": "-90.06452987384637"
    }
  },
  {
    "service_request": "2024-1115873",
    "request_type": "Abandoned Vehicles",
    "request_reason": "Abandoned/Junk Vehicles",
    "date_created": "2024-07-25T14:36:24.000",
    "date_modified": "2024-07-25T14:36:24.000",
    "request_status": "Pending",
    "responsible_agency": "Department of Public Works",
    "final_address": "2400 BLK Urquhart St",
    "address_councildis": "C",
    "status": "Pending",
    "rowid": "1115873",
    "final_x": "3686630.68773",
    "final_y": "537174.744664",
    "longitude": "-90.05166977259066",
    "latitude": "29.97088749482962",
    "geocoded_column": {
      "latitude": "29.97088749482962",
      "longitude": "-90.05166977259066"
    }
  },
  {
    "service_request": "2024-1115871",
    "request_type": "Trash/Recycling",
    "request_reason": "Order Trash Cart",
    "date_created": "2024-07-25T14:34:03.000",
    "date_modified": "2024-07-25T14:34:04.000",
    "request_status": "Pending",
    "responsible_agency": "Department of Sanitation",
    "final_address": "1930 Annunciation St Unit C",
    "address_councildis": "B",
    "status": "Assigned to Contractor",
    "contractor": "IV Waste",
    "rowid": "1115871",
    "final_x": "3680391.95119",
    "final_y": "521797.609466",
    "longitude": "-90.07190710577153",
    "latitude": "29.928795944302017",
    "geocoded_column": {
      "latitude": "29.928795944302017",
      "longitude": "-90.07190710577153"
    }
  },
  {
    "service_request": "2024-1115870",
    "request_type": "Trash/Recycling",
    "request_reason": "Repair Trash Cart",
    "date_created": "2024-07-25T14:33:51.000",
    "date_modified": "2024-07-25T14:33:52.000",
    "request_status": "Pending",
    "responsible_agency": "Department of Sanitation",
    "final_address": "208 Brunswick Ct",
    "address_councildis": "C",
    "status": "Assigned to Contractor",
    "contractor": "Richards Disposal",
    "rowid": "1115870",
    "final_x": "3706333.81892",
    "final_y": "517246.127349",
    "longitude": "-89.99018304732537",
    "latitude": "29.91547019181327",
    "geocoded_column": {
      "latitude": "29.91547019181327",
      "longitude": "-89.99018304732537"
    }
  },
  {
    "service_request": "2024-1115869",
    "request_type": "Trash/Recycling",
    "request_reason": "Request a Large Item Pick Up",
    "date_created": "2024-07-25T14:32:34.000",
    "date_modified": "2024-07-25T14:32:35.000",
    "request_status": "Pending",
    "responsible_agency": "Department of Sanitation",
    "final_address": "7719 Green St",
    "address_councildis": "A",
    "status": "Assigned to Contractor",
    "contractor": "IV Waste",
    "rowid": "1115869",
    "final_x": "3664151.92135",
    "final_y": "528814.220032",
    "longitude": "-90.12293980648849",
    "latitude": "29.948570990959954",
    "geocoded_column": {
      "latitude": "29.948570990959954",
      "longitude": "-90.12293980648849"
    }
  },
  {
    "service_request": "2024-1115868",
    "request_type": "Traffic Signals/Signs/Striping/Streetlights",
    "request_reason": "Street Light Outage/Malfunction",
    "date_created": "2024-07-25T14:32:24.000",
    "date_modified": "2024-07-25T14:32:25.000",
    "request_status": "Pending",
    "responsible_agency": "Department of Public Works",
    "final_address": "720 Lamanche St",
    "address_councildis": "E",
    "status": "Assigned to Contractor",
    "contractor": "Legacy Professional Services",
    "rowid": "1115868",
    "final_x": "3697967.72394",
    "final_y": "532389.404803",
    "longitude": "-90.01603991947087",
    "latitude": "29.957375965341342",
    "geocoded_column": {
      "latitude": "29.957375965341342",
      "longitude": "-90.01603991947087"
    }
  },
  {
    "service_request": "2024-1115867",
    "request_type": "Abandoned Vehicles",
    "request_reason": "Abandoned/Junk Vehicles",
    "date_created": "2024-07-25T14:26:55.000",
    "date_modified": "2024-07-25T14:26:55.000",
    "request_status": "Pending",
    "responsible_agency": "Department of Public Works",
    "final_address": "4419 Tchoupitoulas St",
    "address_councildis": "B",
    "status": "Pending",
    "rowid": "1115867",
    "final_x": "3670971.29627",
    "final_y": "517523.160758",
    "longitude": "-90.10179128718475",
    "latitude": "29.91732437751281",
    "geocoded_column": {
      "latitude": "29.91732437751281",
      "longitude": "-90.10179128718475"
    }
  },
  {
    "service_request": "2024-1115865",
    "request_type": "Traffic Signals/Signs/Striping/Streetlights",
    "request_reason": "Street Light Outage/Malfunction",
    "date_created": "2024-07-25T14:19:47.000",
    "date_modified": "2024-07-25T14:20:20.000",
    "request_status": "Pending",
    "responsible_agency": "Department of Public Works",
    "final_address": "5801 Congress Dr",
    "address_councildis": "D",
    "status": "Assigned to Contractor",
    "contractor": "Legacy Professional Services",
    "rowid": "1115865",
    "final_x": "3691284.80304",
    "final_y": "555368.099033",
    "longitude": "-90.03632116903466",
    "latitude": "30.020768642572207",
    "geocoded_column": {
      "latitude": "30.020768642572207",
      "longitude": "-90.03632116903466"
    }
  },
  {
    "service_request": "2024-1115864",
    "request_type": "Trash/Recycling",
    "request_reason": "Request a Large Item Pick Up",
    "date_created": "2024-07-25T14:19:17.000",
    "date_modified": "2024-07-25T14:19:18.000",
    "request_status": "Pending",
    "responsible_agency": "Department of Sanitation",
    "final_address": "5208 Tchoupitoulas St",
    "address_councildis": "B",
    "status": "Assigned to Contractor",
    "contractor": "IV Waste",
    "rowid": "1115864",
    "final_x": "3667891.53537",
    "final_y": "517149.618037",
    "longitude": "-90.11152494998358",
    "latitude": "29.91638791034538",
    "geocoded_column": {
      "latitude": "29.91638791034538",
      "longitude": "-90.11152494998358"
    }
  },
  {
    "service_request": "2024-1115863",
    "request_type": "Trash/Recycling",
    "request_reason": "Replace Trash Cart",
    "date_created": "2024-07-25T14:18:22.000",
    "date_modified": "2024-07-25T14:28:13.000",
    "request_status": "Pending",
    "responsible_agency": "Department of Sanitation",
    "final_address": "4754 Babylon St",
    "address_councildis": "D",
    "contractor": "Waste Pro",
    "rowid": "1115863",
    "final_x": "3696593.47517",
    "final_y": "554305.14332",
    "longitude": "-90.01958592080078",
    "latitude": "30.017679621061568",
    "geocoded_column": {
      "latitude": "30.017679621061568",
      "longitude": "-90.01958592080078"
    }
  },
  {
    "service_request": "2024-1115862",
    "request_type": "Trash/Recycling",
    "request_reason": "Repair Trash Cart",
    "date_created": "2024-07-25T14:17:35.000",
    "date_modified": "2024-07-25T14:17:36.000",
    "request_status": "Pending",
    "responsible_agency": "Department of Sanitation",
    "final_address": "4754 Babylon St",
    "address_councildis": "D",
    "status": "Assigned to Contractor",
    "contractor": "Waste Pro",
    "rowid": "1115862",
    "final_x": "3696593.47517",
    "final_y": "554305.14332",
    "longitude": "-90.01958592080078",
    "latitude": "30.017679621061568",
    "geocoded_column": {
      "latitude": "30.017679621061568",
      "longitude": "-90.01958592080078"
    }
  },
  {
    "service_request": "2024-1115861",
    "request_type": "Trash/Recycling",
    "request_reason": "Illegal Dumping",
    "date_created": "2024-07-25T14:16:24.000",
    "date_modified": "2024-07-25T14:16:55.000",
    "request_status": "Pending",
    "responsible_agency": "Department of Sanitation",
    "final_address": "4015 Iroquois St",
    "address_councildis": "D",
    "status": "Pending",
    "rowid": "1115861",
    "final_x": "3689180.2214",
    "final_y": "547945.966546",
    "longitude": "-90.04323505170605",
    "latitude": "30.000425844543464",
    "geocoded_column": {
      "latitude": "30.000425844543464",
      "longitude": "-90.04323505170605"
    }
  },
  {
    "service_request": "2024-1115860",
    "request_type": "Property Maintenance",
    "request_reason": "Property Maintenance",
    "date_created": "2024-07-25T14:14:35.000",
    "date_modified": "2024-07-25T14:14:35.000",
    "request_status": "Pending",
    "responsible_agency": "Department of Code Enforcement",
    "final_address": "3208 Derby Pl",
    "address_councildis": "A",
    "status": "Pending",
    "rowid": "1115860",
    "final_x": "3677940.0013",
    "final_y": "542861.773261",
    "longitude": "-90.07891945236359",
    "latitude": "29.986789287258187",
    "geocoded_column": {
      "latitude": "29.986789287258187",
      "longitude": "-90.07891945236359"
    }
  },
  {
    "service_request": "2024-1115859",
    "request_type": "Roads/Drainage",
    "request_reason": "Accessibility Ramps, Curbs and Sidewalk Repair",
    "date_created": "2024-07-25T14:12:46.000",
    "date_modified": "2024-07-25T14:12:46.000",
    "request_status": "Pending",
    "responsible_agency": "Department of Public Works",
    "final_address": "6808 Orleans Ave",
    "address_councildis": "A",
    "status": "Pending",
    "rowid": "1115859",
    "final_x": "3671283.15911",
    "final_y": "552571.893142",
    "longitude": "-90.09961577661993",
    "latitude": "30.013687435503673",
    "geocoded_column": {
      "latitude": "30.013687435503673",
      "longitude": "-90.09961577661993"
    }
  },
  {
    "service_request": "2024-1115858",
    "request_type": "Trash/Recycling",
    "request_reason": "Order Trash Cart",
    "date_created": "2024-07-25T14:11:36.000",
    "date_modified": "2024-07-25T14:11:36.000",
    "request_status": "Pending",
    "responsible_agency": "Department of Sanitation",
    "final_address": "1447 Benton St",
    "address_councildis": "E",
    "status": "Assigned to Contractor",
    "contractor": "Waste Pro",
    "rowid": "1115858",
    "final_x": "3699403.5658",
    "final_y": "534938.014022",
    "longitude": "-90.0114131468728",
    "latitude": "29.964338265860604",
    "geocoded_column": {
      "latitude": "29.964338265860604",
      "longitude": "-90.0114131468728"
    }
  },
  {
    "service_request": "2024-1115857",
    "request_type": "Roads/Drainage",
    "request_reason": "Catch Basin - Clogged",
    "date_created": "2024-07-25T14:09:36.000",
    "date_modified": "2024-07-25T14:09:37.000",
    "request_status": "Pending",
    "responsible_agency": "Department of Public Works",
    "final_address": "3000 BLK Frenchmen St",
    "address_councildis": "D",
    "status": "Pending",
    "rowid": "1115857",
    "final_x": "3683983.40595",
    "final_y": "543821.052237",
    "longitude": "-90.05979692180173",
    "latitude": "29.98924366261498",
    "geocoded_column": {
      "latitude": "29.98924366261498",
      "longitude": "-90.05979692180173"
    }
  },
  {
    "service_request": "2024-1115856",
    "request_type": "Parks & Parkways",
    "request_reason": "Request Tree Service (Right of Way/Public Property)",
    "date_created": "2024-07-25T14:06:39.000",
    "date_modified": "2024-07-25T14:06:40.000",
    "request_status": "Pending",
    "responsible_agency": "Department of Parks & Parkway",
    "final_address": "3700 Silver Maple Ct",
    "address_councildis": "C",
    "status": "Pending",
    "rowid": "1115856",
    "final_x": "3703114.36266",
    "final_y": "512718.271665",
    "longitude": "-90.00051101688979",
    "latitude": "29.903123507518266",
    "geocoded_column": {
      "latitude": "29.903123507518266",
      "longitude": "-90.00051101688979"
    }
  },
  {
    "service_request": "2024-1115854",
    "request_type": "Property Maintenance",
    "request_reason": "Property Maintenance",
    "date_created": "2024-07-25T14:04:10.000",
    "date_modified": "2024-07-25T14:04:11.000",
    "request_status": "Pending",
    "responsible_agency": "Department of Code Enforcement",
    "final_address": "18 Eugenie Ct",
    "address_councildis": "C",
    "status": "Pending",
    "rowid": "1115854",
    "final_x": "3700172.697",
    "final_y": "511799.900016",
    "longitude": "-90.00982828285903",
    "latitude": "29.90069205166559",
    "geocoded_column": {
      "latitude": "29.90069205166559",
      "longitude": "-90.00982828285903"
    }
  },
  {
    "service_request": "2024-1115853",
    "request_type": "Trash/Recycling",
    "request_reason": "Order Recycling Cart",
    "date_created": "2024-07-25T14:04:06.000",
    "date_modified": "2024-07-25T14:04:07.000",
    "request_status": "Pending",
    "responsible_agency": "Department of Sanitation",
    "final_address": "129 N Hennessey St",
    "address_councildis": "A",
    "status": "Pending",
    "rowid": "1115853",
    "final_x": "3670451.86228",
    "final_y": "539239.640458",
    "longitude": "-90.1026946550062",
    "latitude": "29.977052937536865",
    "geocoded_column": {
      "latitude": "29.977052937536865",
      "longitude": "-90.1026946550062"
    }
  },
  {
    "service_request": "2024-1115852",
    "request_type": "Trash/Recycling",
    "request_reason": "Order Trash Cart",
    "date_created": "2024-07-25T14:03:46.000",
    "date_modified": "2024-07-25T14:03:47.000",
    "request_status": "Pending",
    "responsible_agency": "Department of Sanitation",
    "final_address": "129 N Hennessey St",
    "address_councildis": "A",
    "status": "Assigned to Contractor",
    "contractor": "IV Waste",
    "rowid": "1115852",
    "final_x": "3670451.86228",
    "final_y": "539239.640458",
    "longitude": "-90.1026946550062",
    "latitude": "29.977052937536865",
    "geocoded_column": {
      "latitude": "29.977052937536865",
      "longitude": "-90.1026946550062"
    }
  },
  {
    "service_request": "2024-1115851",
    "request_type": "Trash/Recycling",
    "request_reason": "Request a Large Item Pick Up",
    "date_created": "2024-07-25T14:02:40.000",
    "date_modified": "2024-07-25T14:02:41.000",
    "request_status": "Pending",
    "responsible_agency": "Department of Sanitation",
    "final_address": "12601 Carmel Pl",
    "address_councildis": "E",
    "status": "Assigned to Contractor",
    "contractor": "Waste Pro",
    "rowid": "1115851",
    "final_x": "3716475.57695",
    "final_y": "567050.42026",
    "longitude": "-89.95628304460487",
    "latitude": "30.05208222205913",
    "geocoded_column": {
      "latitude": "30.05208222205913",
      "longitude": "-89.95628304460487"
    }
  },
  {
    "service_request": "2024-1115849",
    "request_type": "Trash/Recycling",
    "request_reason": "Replace Trash Cart",
    "date_created": "2024-07-25T13:56:18.000",
    "date_modified": "2024-07-25T13:56:19.000",
    "request_status": "Pending",
    "responsible_agency": "Department of Sanitation",
    "final_address": "1209 Decatur St",
    "address_councildis": "C",
    "status": "Assigned to Contractor",
    "contractor": "Empire Services",
    "rowid": "1115849",
    "final_x": "3684308.84796",
    "final_y": "533552.958405",
    "longitude": "-90.05912962021254",
    "latitude": "29.961000039913422",
    "geocoded_column": {
      "latitude": "29.961000039913422",
      "longitude": "-90.05912962021254"
    }
  },
  {
    "service_request": "2024-1115848",
    "request_type": "Traffic Signals/Signs/Striping/Streetlights",
    "request_reason": "Street Light Outage/Malfunction",
    "date_created": "2024-07-25T13:53:15.000",
    "date_modified": "2024-07-25T13:54:58.000",
    "request_status": "Pending",
    "responsible_agency": "Department of Public Works",
    "final_address": "1100 BLK N Miro St",
    "address_councildis": "D",
    "status": "Assigned to Contractor",
    "contractor": "Legacy Professional Services",
    "rowid": "1115848",
    "final_x": "3679094.32156",
    "final_y": "537233.253077",
    "longitude": "-90.07546854654606",
    "latitude": "29.971278008313902",
    "geocoded_column": {
      "latitude": "29.971278008313902",
      "longitude": "-90.07546854654606"
    }
  },
  {
    "service_request": "2024-1115847",
    "request_type": "Property Maintenance",
    "request_reason": "Property Maintenance",
    "date_created": "2024-07-25T13:51:33.000",
    "date_modified": "2024-07-25T13:51:33.000",
    "request_status": "Pending",
    "responsible_agency": "Department of Code Enforcement",
    "final_address": "1107 S Gayoso St",
    "address_councildis": "B",
    "status": "Pending",
    "rowid": "1115847",
    "final_x": "3671418.64686",
    "final_y": "531866.386691",
    "longitude": "-90.09989190525776",
    "latitude": "29.9567503751011",
    "geocoded_column": {
      "latitude": "29.9567503751011",
      "longitude": "-90.09989190525776"
    }
  },
  {
    "service_request": "2024-1115846",
    "request_type": "Roads/Drainage",
    "request_reason": "Pothole",
    "date_created": "2024-07-25T13:51:00.000",
    "date_modified": "2024-07-25T13:51:00.000",
    "request_status": "Pending",
    "responsible_agency": "Department of Public Works",
    "final_address": "1837 Dublin St",
    "address_councildis": "A",
    "status": "Pending",
    "rowid": "1115846",
    "final_x": "3663324.06208",
    "final_y": "530338.03469",
    "longitude": "-90.1255030026309",
    "latitude": "29.952785009860396",
    "geocoded_column": {
      "latitude": "29.952785009860396",
      "longitude": "-90.1255030026309"
    }
  },
  {
    "service_request": "2024-1115845",
    "request_type": "Trash/Recycling",
    "request_reason": "Repair Trash Cart",
    "date_created": "2024-07-25T13:49:48.000",
    "date_modified": "2024-07-25T13:49:49.000",
    "request_status": "Pending",
    "responsible_agency": "Department of Sanitation",
    "final_address": "3513 Cecil St",
    "address_councildis": "A",
    "status": "Assigned to Contractor",
    "contractor": "IV Waste",
    "rowid": "1115845",
    "final_x": "3663557.21082",
    "final_y": "538096.906953",
    "longitude": "-90.12450836184381",
    "latitude": "29.97411260792741",
    "geocoded_column": {
      "latitude": "29.97411260792741",
      "longitude": "-90.12450836184381"
    }
  },
  {
    "service_request": "2024-1115844",
    "request_type": "Trash/Recycling",
    "request_reason": "Request a Large Item Pick Up",
    "date_created": "2024-07-25T13:48:57.000",
    "date_modified": "2024-07-25T13:48:58.000",
    "request_status": "Pending",
    "responsible_agency": "Department of Sanitation",
    "final_address": "930 France St",
    "address_councildis": "C",
    "status": "Assigned to Contractor",
    "contractor": "IV Waste",
    "rowid": "1115844",
    "final_x": "3692219.21366",
    "final_y": "534605.497286",
    "longitude": "-90.03411256968401",
    "latitude": "29.96364990735731",
    "geocoded_column": {
      "latitude": "29.96364990735731",
      "longitude": "-90.03411256968401"
    }
  },
  {
    "service_request": "2024-1115843",
    "request_type": "Traffic Signals/Signs/Striping/Streetlights",
    "request_reason": "Street Light Outage/Malfunction",
    "date_created": "2024-07-25T13:47:03.000",
    "date_modified": "2024-07-25T13:47:04.000",
    "request_status": "Pending",
    "responsible_agency": "Department of Public Works",
    "final_address": "4801 E Adams Ct",
    "address_councildis": "E",
    "status": "Assigned to Contractor",
    "contractor": "Legacy Professional Services",
    "rowid": "1115843",
    "final_x": "3718805.76095",
    "final_y": "557440.573147",
    "longitude": "-89.94928500766814",
    "latitude": "30.025581845300838",
    "geocoded_column": {
      "latitude": "30.025581845300838",
      "longitude": "-89.94928500766814"
    }
  },
  {
    "service_request": "2024-1115842",
    "request_type": "Traffic Signals/Signs/Striping/Streetlights",
    "request_reason": "Street Light Outage/Malfunction",
    "date_created": "2024-07-25T13:44:54.000",
    "date_modified": "2024-07-25T13:44:54.000",
    "request_status": "Pending",
    "responsible_agency": "Department of Public Works",
    "final_address": "4429 S Liberty St",
    "address_councildis": "B",
    "status": "Assigned to Contractor",
    "contractor": "Legacy Professional Services",
    "rowid": "1115842",
    "final_x": "3670311.06625",
    "final_y": "523357.326459",
    "longitude": "-90.1036776423614",
    "latitude": "29.93338596936739",
    "geocoded_column": {
      "latitude": "29.93338596936739",
      "longitude": "-90.1036776423614"
    }
  },
  {
    "service_request": "2024-1115841",
    "request_type": "Trash/Recycling",
    "request_reason": "MIssed Recycling Pick-Up",
    "date_created": "2024-07-25T13:40:31.000",
    "date_modified": "2024-07-25T13:40:47.000",
    "request_status": "Pending",
    "responsible_agency": "Department of Sanitation",
    "final_address": "5317 Douglass St",
    "address_councildis": "E",
    "status": "Assigned to Contractor",
    "contractor": "Waste Pro",
    "rowid": "1115841",
    "final_x": "3696381.23191",
    "final_y": "531917.787075",
    "longitude": "-90.02106661305902",
    "latitude": "29.956129237803463",
    "geocoded_column": {
      "latitude": "29.956129237803463",
      "longitude": "-90.02106661305902"
    }
  },
  {
    "service_request": "2024-1115840",
    "request_type": "Traffic Signals/Signs/Striping/Streetlights",
    "request_reason": "Street Light Outage/Malfunction",
    "date_created": "2024-07-25T13:35:55.000",
    "date_modified": "2024-07-25T13:35:56.000",
    "request_status": "Pending",
    "responsible_agency": "Department of Public Works",
    "final_address": "2721 Monroe St",
    "address_councildis": "A",
    "status": "Assigned to Contractor",
    "contractor": "Legacy Professional Services",
    "rowid": "1115840",
    "final_x": "3664168.77376",
    "final_y": "533896.950597",
    "longitude": "-90.1227170403393",
    "latitude": "29.962546359012983",
    "geocoded_column": {
      "latitude": "29.962546359012983",
      "longitude": "-90.1227170403393"
    }
  },
  {
    "service_request": "2024-1115839",
    "request_type": "Trash/Recycling",
    "request_reason": "Replace Trash Cart",
    "date_created": "2024-07-25T13:35:46.000",
    "date_modified": "2024-07-25T13:35:46.000",
    "request_status": "Pending",
    "responsible_agency": "Department of Sanitation",
    "final_address": "5860 Winchester Park Dr",
    "address_councildis": "E",
    "status": "Assigned to Contractor",
    "contractor": "Waste Pro",
    "rowid": "1115839",
    "final_x": "3714859.69304",
    "final_y": "562481.330847",
    "longitude": "-89.96156319906983",
    "latitude": "30.039572379295688",
    "geocoded_column": {
      "latitude": "30.039572379295688",
      "longitude": "-89.96156319906983"
    }
  },
  {
    "service_request": "2024-1115838",
    "request_type": "Roads/Drainage",
    "request_reason": "Catch Basin - Clogged",
    "date_created": "2024-07-25T13:32:43.000",
    "date_modified": "2024-07-25T13:32:44.000",
    "request_status": "Pending",
    "responsible_agency": "Department of Public Works",
    "final_address": "1629 Coliseum St",
    "address_councildis": "B",
    "status": "Pending",
    "rowid": "1115838",
    "final_x": "3679727.82485",
    "final_y": "524562.251004",
    "longitude": "-90.07390769094786",
    "latitude": "29.93641788549534",
    "geocoded_column": {
      "latitude": "29.93641788549534",
      "longitude": "-90.07390769094786"
    }
  },
  {
    "service_request": "2024-1115837",
    "request_type": "Trash/Recycling",
    "request_reason": "Repair Trash Cart",
    "date_created": "2024-07-25T13:31:59.000",
    "date_modified": "2024-07-25T13:31:59.000",
    "request_status": "Pending",
    "responsible_agency": "Department of Sanitation",
    "final_address": "6250 Carlisle Ct",
    "address_councildis": "C",
    "status": "Assigned to Contractor",
    "contractor": "Richards Disposal",
    "rowid": "1115837",
    "final_x": "3707311.3827",
    "final_y": "516515.148085",
    "longitude": "-89.98712462453801",
    "latitude": "29.91342870742816",
    "geocoded_column": {
      "latitude": "29.91342870742816",
      "longitude": "-89.98712462453801"
    }
  },
  {
    "service_request": "2024-1115836",
    "request_type": "Property Maintenance",
    "request_reason": "Property Maintenance",
    "date_created": "2024-07-25T13:30:47.000",
    "date_modified": "2024-07-25T13:30:47.000",
    "request_status": "Pending",
    "responsible_agency": "Department of Code Enforcement",
    "final_address": "4227 Hamilton St",
    "address_councildis": "A",
    "status": "Pending",
    "rowid": "1115836",
    "final_x": "3666720.73511",
    "final_y": "538714.249481",
    "longitude": "-90.11449645111135",
    "latitude": "29.97571794653267",
    "geocoded_column": {
      "latitude": "29.97571794653267",
      "longitude": "-90.11449645111135"
    }
  },
  {
    "service_request": "2024-1115835",
    "request_type": "Parks & Parkways",
    "request_reason": "Request Grass Cutting Service (City Owned Property)",
    "date_created": "2024-07-25T13:28:52.000",
    "date_modified": "2024-07-25T13:28:52.000",
    "request_status": "Pending",
    "responsible_agency": "Department of Parks & Parkway",
    "final_address": "CROWDER BLVD & CROWDER EXIT & I 10 W ONRAMP",
    "address_councildis": "E",
    "status": "Pending",
    "rowid": "1115835",
    "final_x": "3704699.5",
    "final_y": "559063.58",
    "longitude": "-89.99379849601604",
    "latitude": "30.030505441406184",
    "geocoded_column": {
      "latitude": "30.030505441406184",
      "longitude": "-89.99379849601604"
    }
  },