[
  {
    "service_request": "2022-871298",
    "request_type": "Traffic Signals/Signs/Striping/Streetlights",
    "request_reason": "Street Light Outage/Malfunction",
    "date_created": "2022-03-31T23:42:25.000",
    "date_modified": "2022-03-31T23:42:25.000",
    "request_status": "Pending",
    "responsible_agency": "Department of Public Works",
    "final_address": "7 Park Timbers Dr",
    "address_councildis": "C",
    "status": "Pending",
    "contractor": "Royal Engineering",
    "rowid": "871298",
    "final_x": "3699197.85271",
    "final_y": "518309.875062",
    "longitude": "-90.01266798718764",
    "latitude": "29.918623210936165",
    "geocoded_column": {
      "latitude": "29.918623210936165",
      "longitude": "-90.01266798718764"
    }
  },
  {
    "service_request": "2022-871299",
    "request_type": "Traffic Signals/Signs/Striping/Streetlights",
    "request_reason": "Street Light Outage/Malfunction",
    "date_created": "2022-03-31T23:42:25.000",
    "date_modified": "2022-03-31T23:42:26.000",
    "request_status": "Pending",
    "responsible_agency": "Department of Public Works",
    "final_address": "7 Park Timbers Dr",
    "address_councildis": "C",
    "status": "Pending",
    "contractor": "Royal Engineering",
    "rowid": "871299",
    "final_x": "3699197.85271",
    "final_y": "518309.875062",
    "longitude": "-90.01266798718764",
    "latitude": "29.918623210936165",
    "geocoded_column": {
      "latitude": "29.918623210936165",
      "longitude": "-90.01266798718764"
    }
  },
  {
    "service_request": "2022-871296",
    "request_type": "Traffic Signals/Signs/Striping/Streetlights",
    "request_reason": "Traffic Signal Malfunctioning/Damaged",
    "date_created": "2022-03-31T22:35:18.000",
    "date_modified": "2022-03-31T22:35:18.000",
    "request_status": "Pending",
    "responsible_agency": "Department of Public Works",
    "final_address": "8042 Hayne Blvd",
    "address_councildis": "E",
    "status": "Pending",
    "rowid": "871296",
    "final_x": "3701881.32055",
    "final_y": "562754.418336",
    "longitude": "-90.00256846902161",
    "latitude": "30.040744094430075",
    "geocoded_column": {
      "latitude": "30.040744094430075",
      "longitude": "-90.00256846902161"
    }
  },
  {
    "service_request": "2022-871295",
    "request_type": "Property Maintenance",
    "request_reason": "Property Maintenance",
    "date_created": "2022-03-31T22:10:07.000",
    "date_modified": "2022-03-31T22:10:07.000",
    "request_status": "Pending",
    "responsible_agency": "Department of Code Enforcement",
    "final_address": "601 Common St",
    "address_councildis": "B",
    "status": "Pending",
    "rowid": "871295",
    "final_x": "3681309.32565",
    "final_y": "530166.240961",
    "longitude": "-90.06871957989158",
    "latitude": "29.951779091252103",
    "geocoded_column": {
      "latitude": "29.951779091252103",
      "longitude": "-90.06871957989158"
    }
  },
  {
    "service_request": "2022-871294",
    "request_type": "Property Maintenance",
    "request_reason": "Property Maintenance",
    "date_created": "2022-03-31T22:04:14.000",
    "date_modified": "2022-03-31T22:04:14.000",
    "request_status": "Pending",
    "responsible_agency": "Department of Code Enforcement",
    "final_address": "532 S Hennessey St",
    "address_councildis": "A",
    "status": "Pending",
    "rowid": "871294",
    "final_x": "3669206.83354",
    "final_y": "537457.6914",
    "longitude": "-90.1066871172714",
    "latitude": "29.97218988592311",
    "geocoded_column": {
      "latitude": "29.97218988592311",
      "longitude": "-90.1066871172714"
    }
  },
  {
    "service_request": "2022-871293",
    "request_type": "Trash/Recycling",
    "request_reason": "Missed Trash Pick-Up",
    "date_created": "2022-03-31T22:03:58.000",
    "date_modified": "2022-03-31T22:03:59.000",
    "request_status": "Pending",
    "responsible_agency": "Department of Sanitation",
    "final_address": "1138 Josephine St, New Orleans, Louisiana, 70130",
    "address_councildis": "B",
    "status": "Assigned to Contractor",
    "contractor": "Richards Disposal",
    "rowid": "871293",
    "final_x": "3678939.07432",
    "final_y": "522549.966266",
    "longitude": "-90.0764674893942",
    "latitude": "29.930908578442235",
    "geocoded_column": {
      "latitude": "29.930908578442235",
      "longitude": "-90.0764674893942"
    }
  },
  {
    "service_request": "2022-871292",
    "request_type": "Roads/Drainage",
    "request_reason": "Damaged Sidewalk",
    "date_created": "2022-03-31T21:58:56.000",
    "date_modified": "2022-03-31T21:58:56.000",
    "request_status": "Pending",
    "responsible_agency": "Department of Public Works",
    "final_address": "101 St Charles Ave",
    "address_councildis": "B",
    "status": "Pending",
    "rowid": "871292",
    "final_x": "3681092.68923",
    "final_y": "530606.959234",
    "longitude": "-90.06938826371973",
    "latitude": "29.952997490186554",
    "geocoded_column": {
      "latitude": "29.952997490186554",
      "longitude": "-90.06938826371973"
    }
  },
  {
    "service_request": "2022-871291",
    "request_type": "Trash/Recycling",
    "request_reason": "Request a Large Item Pick Up",
    "date_created": "2022-03-31T21:57:53.000",
    "date_modified": "2022-03-31T21:57:53.000",
    "request_status": "Pending",
    "responsible_agency": "Department of Sanitation",
    "final_address": "1114 Crete St",
    "address_councildis": "A",
    "status": "Assigned to Contractor",
    "contractor": "Richards Disposal",
    "rowid": "871291",
    "final_x": "3677700.60859",
    "final_y": "538821.533961",
    "longitude": "-90.0798152144879",
    "latitude": "29.975687231380913",
    "geocoded_column": {
      "latitude": "29.975687231380913",
      "longitude": "-90.0798152144879"
    }
  },
  {
    "service_request": "2022-871290",
    "request_type": "Abandoned Vehicles",
    "request_reason": "Vehicle Blocking Your Driveway",
    "date_created": "2022-03-31T21:23:53.000",
    "date_modified": "2022-03-31T21:23:53.000",
    "request_status": "Pending",
    "responsible_agency": "Department of Public Works",
    "final_address": "3100 Banks St",
    "address_councildis": "B",
    "status": "Pending",
    "rowid": "871290",
    "final_x": "3673242.86356",
    "final_y": "535116.448326",
    "longitude": "-90.09402060475061",
    "latitude": "29.96563283697744",
    "geocoded_column": {
      "latitude": "29.96563283697744",
      "longitude": "-90.09402060475061"
    }
  },
  {
    "service_request": "2022-871289",
    "request_type": "Abandoned Vehicles",
    "request_reason": "Vehicle Blocking Your Driveway",
    "date_created": "2022-03-31T21:21:53.000",
    "date_modified": "2022-03-31T21:21:53.000",
    "request_status": "Pending",
    "responsible_agency": "Department of Public Works",
    "final_address": "3100 Banks St",
    "address_councildis": "B",
    "status": "Pending",
    "rowid": "871289",
    "final_x": "3673242.86356",
    "final_y": "535116.448326",
    "longitude": "-90.09402060475061",
    "latitude": "29.96563283697744",
    "geocoded_column": {
      "latitude": "29.96563283697744",
      "longitude": "-90.09402060475061"
    }
  },
  {
    "service_request": "2022-871288",
    "request_type": "Trash/Recycling",
    "request_reason": "Replace Trash Cart",
    "date_created": "2022-03-31T21:21:41.000",
    "date_modified": "2022-03-31T21:21:42.000",
    "request_status": "Pending",
    "responsible_agency": "Department of Sanitation",
    "final_address": "3017 Toledano St",
    "address_councildis": "B",
    "status": "Assigned to Contractor",
    "contractor": "Richards Disposal",
    "rowid": "871288",
    "final_x": "3672513.95227",
    "final_y": "526960.45779",
    "longitude": "-90.09660047666142",
    "latitude": "29.94322822219608",
    "geocoded_column": {
      "latitude": "29.94322822219608",
      "longitude": "-90.09660047666142"
    }
  },
  {
    "service_request": "2022-871287",
    "request_type": "Roads/Drainage",
    "request_reason": "Street Subsidence (Sinking)",
    "date_created": "2022-03-31T21:05:32.000",
    "date_modified": "2022-03-31T21:05:32.000",
    "request_status": "Pending",
    "responsible_agency": "Department of Public Works",
    "final_address": "315 Julia St",
    "address_councildis": "B",
    "status": "Pending",
    "rowid": "871287",
    "final_x": "3682106.51797",
    "final_y": "527638.180735",
    "longitude": "-90.06629069704503",
    "latitude": "29.944803560865584",
    "geocoded_column": {
      "latitude": "29.944803560865584",
      "longitude": "-90.06629069704503"
    }
  },
  {
    "service_request": "2022-871285",
    "request_type": "Roads/Drainage",
    "request_reason": "Pothole",
    "date_created": "2022-03-31T20:58:18.000",
    "date_modified": "2022-03-31T20:58:18.000",
    "request_status": "Pending",
    "responsible_agency": "Department of Public Works",
    "final_address": "322 Lafayette St",
    "address_councildis": "B",
    "status": "Pending",
    "rowid": "871285",
    "final_x": "3681973.35426",
    "final_y": "528564.886976",
    "longitude": "-90.0666787908127",
    "latitude": "29.94735573993066",
    "geocoded_column": {
      "latitude": "29.94735573993066",
      "longitude": "-90.0666787908127"
    }
  },
  {
    "service_request": "2022-871284",
    "request_type": "Trash/Recycling",
    "request_reason": "Missed Trash Pick-Up",
    "date_created": "2022-03-31T20:55:25.000",
    "date_modified": "2022-03-31T20:55:25.000",
    "request_status": "Pending",
    "responsible_agency": "Department of Sanitation",
    "final_address": "1416 Erato St",
    "address_councildis": "B",
    "status": "Assigned to Contractor",
    "contractor": "Richards Disposal",
    "rowid": "871284",
    "final_x": "3680035.10523",
    "final_y": "525690.411517",
    "longitude": "-90.07289841745755",
    "latitude": "29.939510662856925",
    "geocoded_column": {
      "latitude": "29.939510662856925",
      "longitude": "-90.07289841745755"
    }
  },
  {
    "service_request": "2022-871283",
    "request_type": "Trash/Recycling",
    "request_reason": "Missed Trash Pick-Up",
    "date_created": "2022-03-31T20:54:04.000",
    "date_modified": "2022-03-31T20:54:05.000",
    "request_status": "Pending",
    "responsible_agency": "Department of Sanitation",
    "final_address": "1414 Erato St",
    "address_councildis": "B",
    "status": "Assigned to Contractor",
    "contractor": "Richards Disposal",
    "rowid": "871283",
    "final_x": "3680046.49218",
    "final_y": "525683.806333",
    "longitude": "-90.07286269673378",
    "latitude": "29.939492156371344",
    "geocoded_column": {
      "latitude": "29.939492156371344",
      "longitude": "-90.07286269673378"
    }
  },
  {
    "service_request": "2022-871282",
    "request_type": "Trash/Recycling",
    "request_reason": "Missed Trash Pick-Up",
    "date_created": "2022-03-31T20:51:57.000",
    "date_modified": "2022-03-31T20:51:58.000",
    "request_status": "Pending",
    "responsible_agency": "Department of Sanitation",
    "final_address": "1414 Erato St",
    "address_councildis": "B",
    "status": "Assigned to Contractor",
    "contractor": "Richards Disposal",
    "rowid": "871282",
    "final_x": "3680046.49218",
    "final_y": "525683.806333",
    "longitude": "-90.07286269673378",
    "latitude": "29.939492156371344",
    "geocoded_column": {
      "latitude": "29.939492156371344",
      "longitude": "-90.07286269673378"
    }
  },
  {
    "service_request": "2022-871281",
    "request_type": "Traffic Signals/Signs/Striping/Streetlights",
    "request_reason": "Street Light Outage/Malfunction",
    "date_created": "2022-03-31T20:47:00.000",
    "date_modified": "2022-03-31T20:47:01.000",
    "request_status": "Pending",
    "responsible_agency": "Department of Public Works",
    "final_address": "600 Decatur St",
    "address_councildis": "C",
    "status": "Pending",
    "contractor": "Royal Engineering",
    "rowid": "871281",
    "final_x": "3683031.20853",
    "final_y": "531719.273731",
    "longitude": "-90.0632283472796",
    "latitude": "29.955997037734843",
    "geocoded_column": {
      "latitude": "29.955997037734843",
      "longitude": "-90.0632283472796"
    }
  },
  {
    "service_request": "2022-871280",
    "request_type": "Abandoned Vehicles",
    "request_reason": "Abandoned/Junk Vehicles",
    "date_created": "2022-03-31T20:26:12.000",
    "date_modified": "2022-03-31T20:34:20.000",
    "request_status": "Pending",
    "responsible_agency": "Department of Public Works",
    "status": "Inspected",
    "rowid": "871280",
    "longitude": "0.0",
    "latitude": "0.0",
    "geocoded_column": {
      "latitude": "0.0",
      "longitude": "0.0"
    }
  },
  {
    "service_request": "2022-871279",
    "request_type": "Trash/Recycling",
    "request_reason": "Request a Large Item Pick Up",
    "date_created": "2022-03-31T20:14:31.000",
    "date_modified": "2022-03-31T20:14:32.000",
    "request_status": "Pending",
    "responsible_agency": "Department of Sanitation",
    "final_address": "4423 Venus St",
    "address_councildis": "D",
    "status": "Assigned to Contractor",
    "contractor": "Metro Disposal",
    "rowid": "871279",
    "final_x": "3686695.28585",
    "final_y": "549085.556627",
    "longitude": "-90.0510448123428",
    "latitude": "30.003635999411983",
    "geocoded_column": {
      "latitude": "30.003635999411983",
      "longitude": "-90.0510448123428"
    }
  },
  {
    "service_request": "2022-871278",
    "request_type": "Traffic Signals/Signs/Striping/Streetlights",
    "request_reason": "Street Light Knocked Down/Leaning",
    "date_created": "2022-03-31T20:13:07.000",
    "date_modified": "2022-03-31T20:13:08.000",
    "request_status": "Pending",
    "responsible_agency": "Department of Public Works",
    "final_address": "2306 Annunciation St",
    "address_councildis": "B",
    "status": "Pending",
    "contractor": "Royal Engineering",
    "rowid": "871278",
    "final_x": "3679164.05858",
    "final_y": "520899.172025",
    "longitude": "-90.07581443756943",
    "latitude": "29.926362646658227",
    "geocoded_column": {
      "latitude": "29.926362646658227",
      "longitude": "-90.07581443756943"
    }
  },
  {
    "service_request": "2022-871277",
    "request_type": "Traffic Signals/Signs/Striping/Streetlights",
    "request_reason": "Street Light Outage/Malfunction",
    "date_created": "2022-03-31T20:11:55.000",
    "date_modified": "2022-03-31T20:11:56.000",
    "request_status": "Pending",
    "responsible_agency": "Department of Public Works",
    "final_address": "3242 Castiglione St",
    "address_councildis": "A",
    "status": "Pending",
    "contractor": "Royal Engineering",
    "rowid": "871277",
    "final_x": "3677900.40392",
    "final_y": "542760.405645",
    "longitude": "-90.0790480307572",
    "latitude": "29.98651175353153",
    "geocoded_column": {
      "latitude": "29.98651175353153",
      "longitude": "-90.0790480307572"
    }
  },
  {
    "service_request": "2022-871275",
    "request_type": "Trash/Recycling",
    "request_reason": "Replace Trash Cart",
    "date_created": "2022-03-31T19:41:13.000",
    "date_modified": "2022-03-31T19:41:14.000",
    "request_status": "Pending",
    "responsible_agency": "Department of Sanitation",
    "final_address": "543 Philip St",
    "address_councildis": "B",
    "status": "Assigned to Contractor",
    "contractor": "Richards Disposal",
    "rowid": "871275",
    "final_x": "3679726.49525",
    "final_y": "520356.061944",
    "longitude": "-90.07405782538582",
    "latitude": "29.924852286817508",
    "geocoded_column": {
      "latitude": "29.924852286817508",
      "longitude": "-90.07405782538582"
    }
  },
  {
    "service_request": "2022-871274",
    "request_type": "Traffic Signals/Signs/Striping/Streetlights",
    "request_reason": "Street Light Outage/Malfunction",
    "date_created": "2022-03-31T19:29:16.000",
    "date_modified": "2022-03-31T19:29:17.000",
    "request_status": "Pending",
    "responsible_agency": "Department of Public Works",
    "final_address": "11921 Curran Rd",
    "address_councildis": "E",
    "status": "Pending",
    "contractor": "Royal Engineering",
    "rowid": "871274",
    "final_x": "3713007.79352",
    "final_y": "567850.976804",
    "longitude": "-89.96721337965172",
    "latitude": "30.054397560455016",
    "geocoded_column": {
      "latitude": "30.054397560455016",
      "longitude": "-89.96721337965172"
    }
  },
  {
    "service_request": "2022-871273",
    "request_type": "Trash/Recycling",
    "request_reason": "Missed Trash Pick-Up",
    "date_created": "2022-03-31T19:21:03.000",
    "date_modified": "2022-03-31T19:21:04.000",
    "request_status": "Pending",
    "responsible_agency": "Department of Sanitation",
    "final_address": "2313 Annunciation St, New Orleans, Louisiana, 70130",
    "address_councildis": "B",
    "status": "Assigned to Contractor",
    "contractor": "Richards Disposal",
    "rowid": "871273",
    "final_x": "3679086.52072",
    "final_y": "520910.436665",
    "longitude": "-90.07605881259057",
    "latitude": "29.926395960350664",
    "geocoded_column": {
      "latitude": "29.926395960350664",
      "longitude": "-90.07605881259057"
    }
  },
  {
    "service_request": "2022-871271",
    "request_type": "Trash/Recycling",
    "request_reason": "Replace Trash Cart",
    "date_created": "2022-03-31T19:18:20.000",
    "date_modified": "2022-03-31T19:18:21.000",
    "request_status": "Pending",
    "responsible_agency": "Department of Sanitation",
    "final_address": "25432 Chef Menteur Hwy",
    "address_councildis": "E",
    "status": "Assigned to Contractor",
    "contractor": "Metro Disposal",
    "rowid": "871271",
    "final_x": "3780138.86578",
    "final_y": "599223.994754",
    "longitude": "-89.75366751191464",
    "latitude": "30.138286274249165",
    "geocoded_column": {
      "latitude": "30.138286274249165",
      "longitude": "-89.75366751191464"
    }
  },
  {
    "service_request": "2022-871270",
    "request_type": "Trash/Recycling",
    "request_reason": "Request a Large Item Pick Up",
    "date_created": "2022-03-31T19:12:59.000",
    "date_modified": "2022-03-31T19:13:00.000",
    "request_status": "Pending",
    "responsible_agency": "Department of Sanitation",
    "final_address": "1221 Frenchmen St, New Orleans, Louisiana, 70116",
    "address_councildis": "C",
    "status": "Assigned to Contractor",
    "contractor": "Metro Disposal",
    "rowid": "871270",
    "final_x": "3684575.50613",
    "final_y": "536811.546568",
    "longitude": "-90.05817305124928",
    "latitude": "29.969951875134406",
    "geocoded_column": {
      "latitude": "29.969951875134406",
      "longitude": "-90.05817305124928"
    }
  },
  {
    "service_request": "2022-871269",
    "request_type": "Roads/Drainage",
    "request_reason": "Street Flooding / Drainage",
    "date_created": "2022-03-31T19:10:51.000",
    "date_modified": "2022-03-31T19:10:51.000",
    "request_status": "Pending",
    "responsible_agency": "Department of Public Works",
    "final_address": "6060 Marshal Foch St",
    "address_councildis": "A",
    "status": "Pending",
    "rowid": "871269",
    "final_x": "3669777.18196",
    "final_y": "547643.038994",
    "longitude": "-90.10454089825942",
    "latitude": "30.000179311663953",
    "geocoded_column": {
      "latitude": "30.000179311663953",
      "longitude": "-90.10454089825942"
    }
  },
  {
    "service_request": "2022-871268",
    "request_type": "Trash/Recycling",
    "request_reason": "Illegal Dumping",
    "date_created": "2022-03-31T19:09:31.000",
    "date_modified": "2022-03-31T19:09:31.000",
    "request_status": "Pending",
    "responsible_agency": "Department of Sanitation",
    "final_address": "2119 Harmony St",
    "address_councildis": "B",
    "status": "Pending",
    "rowid": "871268",
    "final_x": "3673999.47668",
    "final_y": "523584.880955",
    "longitude": "-90.09202574964951",
    "latitude": "29.93390231725989",
    "geocoded_column": {
      "latitude": "29.93390231725989",
      "longitude": "-90.09202574964951"
    }
  },
  {
    "service_request": "2022-871267",
    "request_type": "Trash/Recycling",
    "request_reason": "Missed Trash Pick-Up",
    "date_created": "2022-03-31T19:05:54.000",
    "date_modified": "2022-03-31T19:05:55.000",
    "request_status": "Pending",
    "responsible_agency": "Department of Sanitation",
    "final_address": "1218 Race St",
    "address_councildis": "B",
    "status": "Assigned to Contractor",
    "contractor": "Richards Disposal",
    "rowid": "871267",
    "final_x": "3679562.20181",
    "final_y": "523954.95238",
    "longitude": "-90.07445163294042",
    "latitude": "29.93475301917532",
    "geocoded_column": {
      "latitude": "29.93475301917532",
      "longitude": "-90.07445163294042"
    }
  },
  {
    "service_request": "2022-871266",
    "request_type": "Trash/Recycling",
    "request_reason": "Replace Trash Cart",
    "date_created": "2022-03-31T18:59:18.000",
    "date_modified": "2022-03-31T18:59:19.000",
    "request_status": "Pending",
    "responsible_agency": "Department of Sanitation",
    "final_address": "New Orleans,LA",
    "status": "Assigned to Contractor",
    "rowid": "871266",
    "longitude": "0.0",
    "latitude": "0.0",
    "geocoded_column": {
      "latitude": "0.0",
      "longitude": "0.0"
    }
  },
  {
    "service_request": "2022-871265",
    "request_type": "Trash/Recycling",
    "request_reason": "Missed Trash Pick-Up",
    "date_created": "2022-03-31T18:49:08.000",
    "date_modified": "2022-03-31T18:49:09.000",
    "request_status": "Pending",
    "responsible_agency": "Department of Sanitation",
    "final_address": "2026 Chestnut St",
    "address_councildis": "B",
    "status": "Assigned to Contractor",
    "contractor": "Richards Disposal",
    "rowid": "871265",
    "final_x": "3678886.36078",
    "final_y": "522995.002299",
    "longitude": "-90.07661849018102",
    "latitude": "29.932133871368038",
    "geocoded_column": {
      "latitude": "29.932133871368038",
      "longitude": "-90.07661849018102"
    }
  },
  {
    "service_request": "2022-871264",
    "request_type": "Trash/Recycling",
    "request_reason": "Request a Large Item Pick Up",
    "date_created": "2022-03-31T18:47:35.000",
    "date_modified": "2022-03-31T18:47:36.000",
    "request_status": "Pending",
    "responsible_agency": "Department of Sanitation",
    "final_address": "2026 Chestnut St",
    "address_councildis": "B",
    "status": "Assigned to Contractor",
    "contractor": "Richards Disposal",
    "rowid": "871264",
    "final_x": "3678886.36078",
    "final_y": "522995.002299",
    "longitude": "-90.07661849018102",
    "latitude": "29.932133871368038",
    "geocoded_column": {
      "latitude": "29.932133871368038",
      "longitude": "-90.07661849018102"
    }
  },
  {
    "service_request": "2022-871263",
    "request_type": "Roads/Drainage",
    "request_reason": "Pothole",
    "date_created": "2022-03-31T18:43:44.000",
    "date_modified": "2022-03-31T18:45:53.000",
    "request_status": "Pending",
    "responsible_agency": "Department of Public Works",
    "final_address": "4901 Bonita Dr",
    "address_councildis": "E",
    "status": "Pending",
    "rowid": "871263",
    "final_x": "3704457.0113",
    "final_y": "556047.898457",
    "longitude": "-89.99467608960494",
    "latitude": "30.022221280077144",
    "geocoded_column": {
      "latitude": "30.022221280077144",
      "longitude": "-89.99467608960494"
    }
  },
  {
    "service_request": "2022-871262",
    "request_type": "Trash/Recycling",
    "request_reason": "MIssed Recycling Pick-Up",
    "date_created": "2022-03-31T18:38:28.000",
    "date_modified": "2022-03-31T18:38:29.000",
    "request_status": "Pending",
    "responsible_agency": "Department of Sanitation",
    "final_address": "8919 Apple St",
    "address_councildis": "A",
    "status": "Assigned to Contractor",
    "contractor": "Richards Disposal",
    "rowid": "871262",
    "final_x": "3663166.35411",
    "final_y": "534142.148613",
    "longitude": "-90.12587439990666",
    "latitude": "29.963249656672247",
    "geocoded_column": {
      "latitude": "29.963249656672247",
      "longitude": "-90.12587439990666"
    }
  },
  {
    "service_request": "2022-871261",
    "request_type": "Roads/Drainage",
    "request_reason": "Accessibility Ramps, Curbs and Sidewalk Repair",
    "date_created": "2022-03-31T18:34:51.000",
    "date_modified": "2022-03-31T18:34:51.000",
    "request_status": "Pending",
    "responsible_agency": "Department of Public Works",
    "final_address": "201 St Charles Ave",
    "address_councildis": "B",
    "status": "Pending",
    "rowid": "871261",
    "final_x": "3680907.66773",
    "final_y": "530296.154625",
    "longitude": "-90.06998330034857",
    "latitude": "29.952148492948435",
    "geocoded_column": {
      "latitude": "29.952148492948435",
      "longitude": "-90.06998330034857"
    }
  },
  {
    "service_request": "2022-871260",
    "request_type": "Trash/Recycling",
    "request_reason": "Illegal Dumping",
    "date_created": "2022-03-31T18:24:55.000",
    "date_modified": "2022-03-31T18:24:55.000",
    "request_status": "Pending",
    "responsible_agency": "Department of Sanitation",
    "final_address": "1940 Elysian Fields Ave",
    "address_councildis": "D",
    "status": "Pending",
    "rowid": "871260",
    "final_x": "3684647.57442",
    "final_y": "539586.343114",
    "longitude": "-90.05784790733217",
    "latitude": "29.977579392117953",
    "geocoded_column": {
      "latitude": "29.977579392117953",
      "longitude": "-90.05784790733217"
    }
  },
  {
    "service_request": "2022-871258",
    "request_type": "Parks & Parkways",
    "request_reason": "Request Tree Service (Right of Way/Public Property)",
    "date_created": "2022-03-31T18:24:37.000",
    "date_modified": "2022-03-31T18:24:37.000",
    "request_status": "Pending",
    "responsible_agency": "Department of Parks & Parkway",
    "final_address": "37 Versailles Blvd",
    "address_councildis": "A",
    "status": "Pending",
    "rowid": "871258",
    "final_x": "3667437.72186",
    "final_y": "529516.114561",
    "longitude": "-90.112541503764",
    "latitude": "29.950405125027203",
    "geocoded_column": {
      "latitude": "29.950405125027203",
      "longitude": "-90.112541503764"
    }
  },
  {
    "service_request": "2022-871257",
    "request_type": "Trash/Recycling",
    "request_reason": "Illegal Dumping",
    "date_created": "2022-03-31T18:23:44.000",
    "date_modified": "2022-03-31T18:23:44.000",
    "request_status": "Pending",
    "responsible_agency": "Department of Sanitation",
    "final_address": "1731 N Claiborne Ave",
    "address_councildis": "D",
    "status": "Pending",
    "rowid": "871257",
    "final_x": "3683243.85205",
    "final_y": "538043.267401",
    "longitude": "-90.06233539155777",
    "latitude": "29.973379361381095",
    "geocoded_column": {
      "latitude": "29.973379361381095",
      "longitude": "-90.06233539155777"
    }
  },
  {
    "service_request": "2022-871256",
    "request_type": "Roads/Drainage",
    "request_reason": "Damaged Sidewalk",
    "date_created": "2022-03-31T18:08:49.000",
    "date_modified": "2022-03-31T18:08:49.000",
    "request_status": "Pending",
    "responsible_agency": "Department of Public Works",
    "final_address": "327 Tchoupitoulas St",
    "address_councildis": "B",
    "status": "Pending",
    "rowid": "871256",
    "final_x": "3681897.18767",
    "final_y": "529334.718081",
    "longitude": "-90.06689241288359",
    "latitude": "29.949474831176378",
    "geocoded_column": {
      "latitude": "29.949474831176378",
      "longitude": "-90.06689241288359"
    }
  },
  {
    "service_request": "2022-871255",
    "request_type": "Traffic Signals/Signs/Striping/Streetlights",
    "request_reason": "Street Light Outage/Malfunction",
    "date_created": "2022-03-31T18:06:53.000",
    "date_modified": "2022-03-31T18:06:54.000",
    "request_status": "Pending",
    "responsible_agency": "Department of Public Works",
    "final_address": "7816 Vanderkloot Ave",
    "address_councildis": "E",
    "status": "Pending",
    "contractor": "Royal Engineering",
    "rowid": "871255",
    "final_x": "3705509.46532",
    "final_y": "563696.452193",
    "longitude": "-89.99106751902013",
    "latitude": "30.043217955023476",
    "geocoded_column": {
      "latitude": "30.043217955023476",
      "longitude": "-89.99106751902013"
    }
  },
  {
    "service_request": "2022-871254",
    "request_type": "Roads/Drainage",
    "request_reason": "Pothole",
    "date_created": "2022-03-31T18:05:32.000",
    "date_modified": "2022-03-31T18:05:32.000",
    "request_status": "Pending",
    "responsible_agency": "Department of Public Works",
    "final_address": "523 Iberville St",
    "address_councildis": "C",
    "status": "Pending",
    "rowid": "871254",
    "final_x": "3681913.306",
    "final_y": "530694.730178",
    "longitude": "-90.06679405510651",
    "latitude": "29.953213915114297",
    "geocoded_column": {
      "latitude": "29.953213915114297",
      "longitude": "-90.06679405510651"
    }
  },
  {
    "service_request": "2022-871253",
    "request_type": "Trash/Recycling",
    "request_reason": "Repair Recycling Cart",
    "date_created": "2022-03-31T18:03:12.000",
    "date_modified": "2022-03-31T18:03:12.000",
    "request_status": "Pending",
    "responsible_agency": "Department of Sanitation",
    "final_address": "4622 Herschel St",
    "address_councildis": "C",
    "status": "Pending",
    "rowid": "871253",
    "final_x": "3702116.29175",
    "final_y": "520865.460537",
    "longitude": "-90.00336244817544",
    "latitude": "29.92555737715068",
    "geocoded_column": {
      "latitude": "29.92555737715068",
      "longitude": "-90.00336244817544"
    }
  },
  {
    "service_request": "2022-871252",
    "request_type": "Trash/Recycling",
    "request_reason": "Replace Trash Cart",
    "date_created": "2022-03-31T17:58:43.000",
    "date_modified": "2022-03-31T17:58:44.000",
    "request_status": "Pending",
    "responsible_agency": "Department of Sanitation",
    "final_address": "745 S Genois St",
    "address_councildis": "B",
    "status": "Assigned to Contractor",
    "contractor": "Richards Disposal",
    "rowid": "871252",
    "final_x": "3670907.48359",
    "final_y": "535033.38247",
    "longitude": "-90.1013984815006",
    "latitude": "29.965473680370117",
    "geocoded_column": {
      "latitude": "29.965473680370117",
      "longitude": "-90.1013984815006"
    }
  },
  {
    "service_request": "2022-871251",
    "request_type": "Trash/Recycling",
    "request_reason": "Illegal Dumping",
    "date_created": "2022-03-31T17:53:32.000",
    "date_modified": "2022-03-31T17:53:32.000",
    "request_status": "Pending",
    "responsible_agency": "Department of Sanitation",
    "final_address": "3708 LaSalle St",
    "address_councildis": "B",
    "status": "Pending",
    "rowid": "871251",
    "final_x": "3672364.26651",
    "final_y": "523886.86278",
    "longitude": "-90.0971777632525",
    "latitude": "29.934781277333588",
    "geocoded_column": {
      "latitude": "29.934781277333588",
      "longitude": "-90.0971777632525"
    }
  },
  {
    "service_request": "2022-871250",
    "request_type": "Traffic Signals/Signs/Striping/Streetlights",
    "request_reason": "Traffic Sign Missing/Damaged",
    "date_created": "2022-03-31T17:51:56.000",
    "date_modified": "2022-03-31T17:51:56.000",
    "request_status": "Pending",
    "responsible_agency": "Department of Public Works",
    "final_address": "400 Lafayette St",
    "address_councildis": "B",
    "status": "Pending",
    "rowid": "871250",
    "final_x": "3681498.65909",
    "final_y": "528666.656768",
    "longitude": "-90.06817403606365",
    "latitude": "29.947649992871007",
    "geocoded_column": {
      "latitude": "29.947649992871007",
      "longitude": "-90.06817403606365"
    }
  },
  {
    "service_request": "2022-871249",
    "request_type": "Trash/Recycling",
    "request_reason": "Illegal Dumping",
    "date_created": "2022-03-31T17:51:04.000",
    "date_modified": "2022-03-31T17:51:04.000",
    "request_status": "Pending",
    "responsible_agency": "Department of Sanitation",
    "final_address": "3500 S Robertson St",
    "address_councildis": "B",
    "status": "Pending",
    "rowid": "871249",
    "final_x": "3672357.16763",
    "final_y": "524611.36262",
    "longitude": "-90.09717549914569",
    "latitude": "29.9367736276423",
    "geocoded_column": {
      "latitude": "29.9367736276423",
      "longitude": "-90.09717549914569"
    }
  },
  {
    "service_request": "2022-871248",
    "request_type": "Roads/Drainage",
    "request_reason": "Damaged Sidewalk",
    "date_created": "2022-03-31T17:44:27.000",
    "date_modified": "2022-03-31T17:44:27.000",
    "request_status": "Pending",
    "responsible_agency": "Department of Public Works",
    "final_address": "900 Howard Ave",
    "address_councildis": "B",
    "status": "Pending",
    "rowid": "871248",
    "final_x": "3679280.57096",
    "final_y": "527611.107455",
    "longitude": "-90.07521400248727",
    "latitude": "29.944814739164837",
    "geocoded_column": {
      "latitude": "29.944814739164837",
      "longitude": "-90.07521400248727"
    }
  },
  {
    "service_request": "2022-871247",
    "request_type": "Traffic Signals/Signs/Striping/Streetlights",
    "request_reason": "Traffic Sign Missing/Damaged",
    "date_created": "2022-03-31T17:34:41.000",
    "date_modified": "2022-03-31T17:34:41.000",
    "request_status": "Pending",
    "responsible_agency": "Department of Public Works",
    "final_address": "800 St Charles Ave",
    "address_councildis": "B",
    "status": "Pending",
    "rowid": "871247",
    "final_x": "3680423.79291",
    "final_y": "527963.034111",
    "longitude": "-90.07159227160511",
    "latitude": "29.945747855274586",
    "geocoded_column": {
      "latitude": "29.945747855274586",
      "longitude": "-90.07159227160511"
    }
  },
  {
    "service_request": "2022-871246",
    "request_type": "Roads/Drainage",
    "request_reason": "Pothole",
    "date_created": "2022-03-31T17:32:09.000",
    "date_modified": "2022-03-31T17:32:09.000",
    "request_status": "Pending",
    "responsible_agency": "Department of Public Works",
    "final_address": "400 Lafayette St",
    "address_councildis": "B",
    "status": "Pending",
    "rowid": "871246",
    "final_x": "3681498.65909",
    "final_y": "528666.656768",
    "longitude": "-90.06817403606365",
    "latitude": "29.947649992871007",
    "geocoded_column": {
      "latitude": "29.947649992871007",
      "longitude": "-90.06817403606365"
    }
  },
  {
    "service_request": "2022-871245",
    "request_type": "Abandoned Vehicles",
    "request_reason": "Abandoned/Junk Vehicles",
    "date_created": "2022-03-31T17:31:39.000",
    "date_modified": "2022-03-31T17:32:29.000",
    "request_status": "Pending",
    "responsible_agency": "Department of Public Works",
    "final_address": "2800 Louisiana Ave",
    "address_councildis": "B",
    "status": "Pending",
    "rowid": "871245",
    "final_x": "3672398.04123",
    "final_y": "525489.796733",
    "longitude": "-90.09701653659435",
    "latitude": "29.939187823447387",
    "geocoded_column": {
      "latitude": "29.939187823447387",
      "longitude": "-90.09701653659435"
    }
  },
  {
    "service_request": "2022-871244",
    "request_type": "Trash/Recycling",
    "request_reason": "Request a Large Item Pick Up",
    "date_created": "2022-03-31T17:30:38.000",
    "date_modified": "2022-03-31T17:30:39.000",
    "request_status": "Pending",
    "responsible_agency": "Department of Sanitation",
    "final_address": "5357 Magazine St",
    "address_councildis": "B",
    "status": "Assigned to Contractor",
    "contractor": "Richards Disposal",
    "rowid": "871244",
    "final_x": "3666965.1986",
    "final_y": "518827.693111",
    "longitude": "-90.1143925067963",
    "latitude": "29.921029218032334",
    "geocoded_column": {
      "latitude": "29.921029218032334",
      "longitude": "-90.1143925067963"
    }
  },
  {
    "service_request": "2022-871243",
    "request_type": "Roads/Drainage",
    "request_reason": "Road Shoulder Repair",
    "date_created": "2022-03-31T17:26:34.000",
    "date_modified": "2022-03-31T17:26:34.000",
    "request_status": "Pending",
    "responsible_agency": "Department of Public Works",
    "final_address": "4100 Carondelet St",
    "address_councildis": "B",
    "status": "Pending",
    "rowid": "871243",
    "final_x": "3671859.37268",
    "final_y": "521311.509497",
    "longitude": "-90.09885930142087",
    "latitude": "29.927714852782945",
    "geocoded_column": {
      "latitude": "29.927714852782945",
      "longitude": "-90.09885930142087"
    }
  },
  {
    "service_request": "2022-871241",
    "request_type": "Trash/Recycling",
    "request_reason": "Illegal Dumping",
    "date_created": "2022-03-31T17:23:21.000",
    "date_modified": "2022-03-31T17:23:21.000",
    "request_status": "Pending",
    "responsible_agency": "Department of Sanitation",
    "final_address": "637 Canal St",
    "address_councildis": "C",
    "status": "Pending",
    "rowid": "871241",
    "final_x": "3681272.61999",
    "final_y": "530728.234434",
    "longitude": "-90.06881589580188",
    "latitude": "29.953325497329327",
    "geocoded_column": {
      "latitude": "29.953325497329327",
      "longitude": "-90.06881589580188"
    }
  },
  {
    "service_request": "2022-871240",
    "request_type": "Traffic Signals/Signs/Striping/Streetlights",
    "request_reason": "Street Light Knocked Down/Leaning",
    "date_created": "2022-03-31T17:16:42.000",
    "date_modified": "2022-03-31T17:16:43.000",
    "request_status": "Pending",
    "responsible_agency": "Department of Public Works",
    "final_address": "1600 Perdido St",
    "address_councildis": "B",
    "status": "Pending",
    "contractor": "Royal Engineering",
    "rowid": "871240",
    "final_x": "3677701.5563",
    "final_y": "530841.940738",
    "longitude": "-90.08008786202394",
    "latitude": "29.953746030612695",
    "geocoded_column": {
      "latitude": "29.953746030612695",
      "longitude": "-90.08008786202394"
    }
  },
  {
    "service_request": "2022-871239",
    "request_type": "Trash/Recycling",
    "request_reason": "Illegal Dumping",
    "date_created": "2022-03-31T17:16:28.000",
    "date_modified": "2022-03-31T17:16:28.000",
    "request_status": "Pending",
    "responsible_agency": "Department of Sanitation",
    "final_address": "801 Canal St",
    "address_councildis": "C",
    "status": "Pending",
    "rowid": "871239",
    "final_x": "3680951.89391",
    "final_y": "530998.395906",
    "longitude": "-90.0698192041145",
    "latitude": "29.954078078458494",
    "geocoded_column": {
      "latitude": "29.954078078458494",
      "longitude": "-90.0698192041145"
    }
  },
  {
    "service_request": "2022-871238",
    "request_type": "Trash/Recycling",
    "request_reason": "Dead Animal Pick Up",
    "date_created": "2022-03-31T17:13:52.000",
    "date_modified": "2022-03-31T17:13:53.000",
    "request_status": "Pending",
    "responsible_agency": "Department of Sanitation",
    "final_address": "N VILLERE ST & CLOUET ST",
    "address_councildis": "C",
    "status": "Assigned to Contractor",
    "contractor": "Metro Disposal",
    "rowid": "871238",
    "final_x": "3689281.1",
    "final_y": "537106.48",
    "longitude": "-90.04330188707848",
    "latitude": "29.9706180090909",
    "geocoded_column": {
      "latitude": "29.9706180090909",
      "longitude": "-90.04330188707848"
    }
  },
  {
    "service_request": "2022-871237",
    "request_type": "Trash/Recycling",
    "request_reason": "Missed Trash Pick-Up",
    "date_created": "2022-03-31T17:08:45.000",
    "date_modified": "2022-03-31T17:08:45.000",
    "request_status": "Pending",
    "responsible_agency": "Department of Sanitation",
    "final_address": "3034 Second St",
    "address_councildis": "B",
    "status": "Assigned to Contractor",
    "contractor": "Richards Disposal",
    "rowid": "871237",
    "final_x": "3673716.32238",
    "final_y": "527496.690879",
    "longitude": "-90.09278595565222",
    "latitude": "29.94466694866385",
    "geocoded_column": {
      "latitude": "29.94466694866385",
      "longitude": "-90.09278595565222"
    }
  },
  {
    "service_request": "2022-871236",
    "request_type": "Traffic Signals/Signs/Striping/Streetlights",
    "request_reason": "Additional signage",
    "date_created": "2022-03-31T17:05:08.000",
    "date_modified": "2022-03-31T17:05:08.000",
    "request_status": "Pending",
    "responsible_agency": "Department of Public Works",
    "final_address": "615 Common St",
    "address_councildis": "B",
    "status": "Pending",
    "rowid": "871236",
    "final_x": "3681209.32079",
    "final_y": "530226.653249",
    "longitude": "-90.06903324253996",
    "latitude": "29.951948239109342",
    "geocoded_column": {
      "latitude": "29.951948239109342",
      "longitude": "-90.06903324253996"
    }
  },
  {
    "service_request": "2022-871235",
    "request_type": "Trash/Recycling",
    "request_reason": "MIssed Recycling Pick-Up",
    "date_created": "2022-03-31T17:04:34.000",
    "date_modified": "2022-03-31T17:04:35.000",
    "request_status": "Pending",
    "responsible_agency": "Department of Sanitation",
    "final_address": "6016 St Charles Ave",
    "address_councildis": "A",
    "status": "Assigned to Contractor",
    "contractor": "Richards Disposal",
    "rowid": "871235",
    "final_x": "3665536.5257",
    "final_y": "522450.08089",
    "longitude": "-90.11878100278054",
    "latitude": "29.931031355859783",
    "geocoded_column": {
      "latitude": "29.931031355859783",
      "longitude": "-90.11878100278054"
    }
  },
  {
    "service_request": "2022-871234",
    "request_type": "Traffic Signals/Signs/Striping/Streetlights",
    "request_reason": "Traffic Signal Malfunctioning/Damaged",
    "date_created": "2022-03-31T16:58:46.000",
    "date_modified": "2022-03-31T16:58:46.000",
    "request_status": "Pending",
    "responsible_agency": "Department of Public Works",
    "final_address": "JULIA ST & CAMP ST",
    "address_councildis": "B",
    "status": "Pending",
    "rowid": "871234",
    "final_x": "3680791.6",
    "final_y": "527933.18",
    "longitude": "-90.07043202214226",
    "latitude": "29.945654624905025",
    "geocoded_column": {
      "latitude": "29.945654624905025",
      "longitude": "-90.07043202214226"
    }
  },
  {
    "service_request": "2022-871233",
    "request_type": "Trash/Recycling",
    "request_reason": "Illegal Dumping",
    "date_created": "2022-03-31T16:57:28.000",
    "date_modified": "2022-03-31T16:57:28.000",
    "request_status": "Pending",
    "responsible_agency": "Department of Sanitation",
    "final_address": "ELMWOOD PARK DR & KANSAS ST",
    "address_councildis": "C",
    "status": "Pending",
    "rowid": "871233",
    "final_x": "3693781.2",
    "final_y": "519400.78",
    "longitude": "-90.02972625681889",
    "latitude": "29.921793385660358",
    "geocoded_column": {
      "latitude": "29.921793385660358",
      "longitude": "-90.02972625681889"
    }
  },
  {
    "service_request": "2022-871232",
    "request_type": "Traffic Signals/Signs/Striping/Streetlights",
    "request_reason": "Street Light Outage/Malfunction",
    "date_created": "2022-03-31T16:54:31.000",
    "date_modified": "2022-03-31T16:54:33.000",
    "request_status": "Pending",
    "responsible_agency": "Department of Public Works",
    "final_address": "506 Nashville Ave",
    "address_councildis": "A",
    "status": "Pending",
    "contractor": "Royal Engineering",
    "rowid": "871232",
    "final_x": "3665261.12",
    "final_y": "518079.812086",
    "longitude": "-90.11979653991249",
    "latitude": "29.919022515085167",
    "geocoded_column": {
      "latitude": "29.919022515085167",
      "longitude": "-90.11979653991249"
    }
  },
  {
    "service_request": "2022-871231",
    "request_type": "Trash/Recycling",
    "request_reason": "Illegal Dumping",
    "date_created": "2022-03-31T16:52:06.000",
    "date_modified": "2022-03-31T16:52:06.000",
    "request_status": "Pending",
    "responsible_agency": "Department of Sanitation",
    "final_address": "1500 Iberville St",
    "address_councildis": "C",
    "status": "Pending",
    "rowid": "871231",
    "final_x": "3679382.19067",
    "final_y": "532482.45498",
    "longitude": "-90.07472421861308",
    "latitude": "29.95820624067079",
    "geocoded_column": {
      "latitude": "29.95820624067079",
      "longitude": "-90.07472421861308"
    }
  },
  {
    "service_request": "2022-871230",
    "request_type": "Property Maintenance",
    "request_reason": "Property Maintenance",
    "date_created": "2022-03-31T16:50:21.000",
    "date_modified": "2022-03-31T16:50:21.000",
    "request_status": "Pending",
    "responsible_agency": "Department of Code Enforcement",
    "final_address": "3436 S Liberty St",
    "address_councildis": "B",
    "status": "Pending",
    "rowid": "871230",
    "final_x": "3672917.60731",
    "final_y": "523675.839611",
    "longitude": "-90.09543806874913",
    "latitude": "29.934184606106093",
    "geocoded_column": {
      "latitude": "29.934184606106093",
      "longitude": "-90.09543806874913"
    }
  },
  {
    "service_request": "2022-871229",
    "request_type": "Trash/Recycling",
    "request_reason": "Replace Trash Cart",
    "date_created": "2022-03-31T16:48:26.000",
    "date_modified": "2022-03-31T16:48:27.000",
    "request_status": "Pending",
    "responsible_agency": "Department of Sanitation",
    "final_address": "5923 Mandeville St",
    "address_councildis": "D",
    "status": "Assigned to Contractor",
    "contractor": "Metro Disposal",
    "rowid": "871229",
    "final_x": "3684375.97417",
    "final_y": "554870.69884",
    "longitude": "-90.05816849695914",
    "latitude": "30.019614195622335",
    "geocoded_column": {
      "latitude": "30.019614195622335",
      "longitude": "-90.05816849695914"
    }
  },
  {
    "service_request": "2022-871228",
    "request_type": "Trash/Recycling",
    "request_reason": "Start Trash Service",
    "date_created": "2022-03-31T16:47:52.000",
    "date_modified": "2022-03-31T16:47:53.000",
    "request_status": "Pending",
    "responsible_agency": "Department of Sanitation",
    "final_address": "5 Bethaney Ct",
    "address_councildis": "E",
    "status": "Assigned to Contractor",
    "contractor": "Metro Disposal",
    "rowid": "871228",
    "final_x": "3704210.23486",
    "final_y": "556727.073946",
    "longitude": "-89.99543077870547",
    "latitude": "30.02409667511198",
    "geocoded_column": {
      "latitude": "30.02409667511198",
      "longitude": "-89.99543077870547"
    }
  },
  {
    "service_request": "2022-871227",
    "request_type": "Trash/Recycling",
    "request_reason": "Order Trash Cart",
    "date_created": "2022-03-31T16:47:43.000",
    "date_modified": "2022-03-31T16:47:44.000",
    "request_status": "Pending",
    "responsible_agency": "Department of Sanitation",
    "final_address": "5 Bethaney Ct",
    "address_councildis": "E",
    "status": "Assigned to Contractor",
    "contractor": "Metro Disposal",
    "rowid": "871227",
    "final_x": "3704210.23486",
    "final_y": "556727.073946",
    "longitude": "-89.99543077870547",
    "latitude": "30.02409667511198",
    "geocoded_column": {
      "latitude": "30.02409667511198",
      "longitude": "-89.99543077870547"
    }
  },
  {
    "service_request": "2022-871226",
    "request_type": "Trash/Recycling",
    "request_reason": "Illegal Dumping",
    "date_created": "2022-03-31T16:39:46.000",
    "date_modified": "2022-03-31T16:39:46.000",
    "request_status": "Pending",
    "responsible_agency": "Department of Sanitation",
    "final_address": "3123 Urquhart St",
    "address_councildis": "C",
    "status": "Pending",
    "rowid": "871226",
    "final_x": "3689384.55574",
    "final_y": "536717.977351",
    "longitude": "-90.0429889792863",
    "latitude": "29.969546560285092",
    "geocoded_column": {
      "latitude": "29.969546560285092",
      "longitude": "-90.0429889792863"
    }
  },
  {
    "service_request": "2022-871225",
    "request_type": "Parks & Parkways",
    "request_reason": "Request Tree Service (Right of Way/Public Property)",
    "date_created": "2022-03-31T16:33:37.000",
    "date_modified": "2022-03-31T16:35:26.000",
    "request_status": "Pending",
    "responsible_agency": "Department of Parks & Parkway",
    "final_address": "INDUSTRY ST & PARIS AVE",
    "address_councildis": "D",
    "status": "Pending",
    "rowid": "871225",
    "final_x": "3679948.2",
    "final_y": "542571.18",
    "longitude": "-90.07258639558776",
    "latitude": "29.98592965402167",
    "geocoded_column": {
      "latitude": "29.98592965402167",
      "longitude": "-90.07258639558776"
    }
  },
  {
    "service_request": "2022-871224",
    "request_type": "Trash/Recycling",
    "request_reason": "Request a Large Item Pick Up",
    "date_created": "2022-03-31T16:32:36.000",
    "date_modified": "2022-03-31T16:32:58.000",
    "request_status": "Pending",
    "responsible_agency": "Department of Sanitation",
    "final_address": "PATTERSON DR & FIVE OAKS DR",
    "address_councildis": "C",
    "status": "Assigned to Contractor",
    "contractor": "Richards Disposal",
    "rowid": "871224",
    "final_x": "3699295.6",
    "final_y": "526468.38",
    "longitude": "-90.0120625049785",
    "latitude": "29.941053188653466",
    "geocoded_column": {
      "latitude": "29.941053188653466",
      "longitude": "-90.0120625049785"
    }
  },
  {
    "service_request": "2022-871223",
    "request_type": "Trash/Recycling",
    "request_reason": "Request a Large Item Pick Up",
    "date_created": "2022-03-31T16:27:59.000",
    "date_modified": "2022-03-31T16:28:00.000",
    "request_status": "Pending",
    "responsible_agency": "Department of Sanitation",
    "final_address": "636 State St",
    "address_councildis": "A",
    "status": "Assigned to Contractor",
    "contractor": "Richards Disposal",
    "rowid": "871223",
    "final_x": "3664529.68775",
    "final_y": "518875.585079",
    "longitude": "-90.1220787533461",
    "latitude": "29.92123192240745",
    "geocoded_column": {
      "latitude": "29.92123192240745",
      "longitude": "-90.1220787533461"
    }
  },
  {
    "service_request": "2022-871222",
    "request_type": "Trash/Recycling",
    "request_reason": "Repair Trash Cart",
    "date_created": "2022-03-31T16:27:02.000",
    "date_modified": "2022-03-31T16:27:03.000",
    "request_status": "Pending",
    "responsible_agency": "Department of Sanitation",
    "final_address": "4525 Dryades St",
    "address_councildis": "B",
    "status": "Assigned to Contractor",
    "contractor": "Richards Disposal",
    "rowid": "871222",
    "final_x": "3670098.83694",
    "final_y": "521965.744954",
    "longitude": "-90.10439475690283",
    "latitude": "29.929565827303957",
    "geocoded_column": {
      "latitude": "29.929565827303957",
      "longitude": "-90.10439475690283"
    }
  },
  {
    "service_request": "2022-871221",
    "request_type": "Trash/Recycling",
    "request_reason": "Repair Trash Cart",
    "date_created": "2022-03-31T16:26:24.000",
    "date_modified": "2022-03-31T16:26:24.000",
    "request_status": "Pending",
    "responsible_agency": "Department of Sanitation",
    "final_address": "711 Jena St",
    "address_councildis": "B",
    "status": "Assigned to Contractor",
    "contractor": "Richards Disposal",
    "rowid": "871221",
    "final_x": "3670750.99278",
    "final_y": "518154.161014",
    "longitude": "-90.10246526698398",
    "latitude": "29.91906593737538",
    "geocoded_column": {
      "latitude": "29.91906593737538",
      "longitude": "-90.10246526698398"
    }
  },
  {
    "service_request": "2022-871220",
    "request_type": "Trash/Recycling",
    "request_reason": "Missed Trash Pick-Up",
    "date_created": "2022-03-31T16:25:29.000",
    "date_modified": "2022-03-31T16:25:29.000",
    "request_status": "Pending",
    "responsible_agency": "Department of Sanitation",
    "final_address": "711 Jena St",
    "address_councildis": "B",
    "status": "Assigned to Contractor",
    "contractor": "Richards Disposal",
    "rowid": "871220",
    "final_x": "3670750.99278",
    "final_y": "518154.161014",
    "longitude": "-90.10246526698398",
    "latitude": "29.91906593737538",
    "geocoded_column": {
      "latitude": "29.91906593737538",
      "longitude": "-90.10246526698398"
    }
  },
  {
    "service_request": "2022-871219",
    "request_type": "Trash/Recycling",
    "request_reason": "MIssed Recycling Pick-Up",
    "date_created": "2022-03-31T16:24:59.000",
    "date_modified": "2022-03-31T16:25:00.000",
    "request_status": "Pending",
    "responsible_agency": "Department of Sanitation",
    "final_address": "18 Richmond Pl",
    "address_councildis": "A",
    "status": "Assigned to Contractor",
    "contractor": "Richards Disposal",
    "rowid": "871219",
    "final_x": "3666565.54554",
    "final_y": "524105.339644",
    "longitude": "-90.11547697427197",
    "latitude": "29.935552758662038",
    "geocoded_column": {
      "latitude": "29.935552758662038",
      "longitude": "-90.11547697427197"
    }
  },
  {
    "service_request": "2022-871218",
    "request_type": "Roads/Drainage",
    "request_reason": "Street Flooding / Drainage",
    "date_created": "2022-03-31T16:23:44.000",
    "date_modified": "2022-03-31T16:23:44.000",
    "request_status": "Pending",
    "responsible_agency": "Department of Public Works",
    "final_address": "1000 Clouet St",
    "address_councildis": "C",
    "status": "Pending",
    "rowid": "871218",
    "final_x": "3688877.72911",
    "final_y": "535606.325894",
    "longitude": "-90.04462905989396",
    "latitude": "29.96650559180051",
    "geocoded_column": {
      "latitude": "29.96650559180051",
      "longitude": "-90.04462905989396"
    }
  },
  {
    "service_request": "2022-871217",
    "request_type": "Traffic Signals/Signs/Striping/Streetlights",
    "request_reason": "Traffic Sign Missing/Damaged",
    "date_created": "2022-03-31T16:22:43.000",
    "date_modified": "2022-03-31T16:22:43.000",
    "request_status": "Pending",
    "responsible_agency": "Department of Public Works",
    "final_address": "7030 Vicksburg St",
    "address_councildis": "A",
    "status": "Pending",
    "rowid": "871217",
    "final_x": "3669427.67642",
    "final_y": "554212.899992",
    "longitude": "-90.10542259742357",
    "latitude": "30.018254425057947",
    "geocoded_column": {
      "latitude": "30.018254425057947",
      "longitude": "-90.10542259742357"
    }
  },
  {
    "service_request": "2022-871216",
    "request_type": "Abandoned Vehicles",
    "request_reason": "Abandoned/Junk Vehicles",
    "date_created": "2022-03-31T16:21:16.000",
    "date_modified": "2022-03-31T16:21:16.000",
    "request_status": "Pending",
    "responsible_agency": "Department of Public Works",
    "final_address": "3839 Ulloa St",
    "address_councildis": "B",
    "status": "Pending",
    "rowid": "871216",
    "final_x": "3670446.43547",
    "final_y": "535940.068231",
    "longitude": "-90.10282370631889",
    "latitude": "29.967980384823704",
    "geocoded_column": {
      "latitude": "29.967980384823704",
      "longitude": "-90.10282370631889"
    }
  },
  {
    "service_request": "2022-871215",
    "request_type": "Trash/Recycling",
    "request_reason": "Replace Trash Cart",
    "date_created": "2022-03-31T16:19:12.000",
    "date_modified": "2022-03-31T16:19:12.000",
    "request_status": "Pending",
    "responsible_agency": "Department of Sanitation",
    "final_address": "3535 Huntlee Dr",
    "address_councildis": "C",
    "status": "Assigned to Contractor",
    "contractor": "Richards Disposal",
    "rowid": "871215",
    "final_x": "3701645.7473",
    "final_y": "517941.413302",
    "longitude": "-90.00495480945071",
    "latitude": "29.91753226178205",
    "geocoded_column": {
      "latitude": "29.91753226178205",
      "longitude": "-90.00495480945071"
    }
  },
  {
    "service_request": "2022-871214",
    "request_type": "Trash/Recycling",
    "request_reason": "Missed Trash Pick-Up",
    "date_created": "2022-03-31T16:16:23.000",
    "date_modified": "2022-03-31T16:16:24.000",
    "request_status": "Pending",
    "responsible_agency": "Department of Sanitation",
    "final_address": "3319 Cherry St",
    "address_councildis": "A",
    "status": "Assigned to Contractor",
    "contractor": "Richards Disposal",
    "rowid": "871214",
    "final_x": "3664025.29837",
    "final_y": "536849.792456",
    "longitude": "-90.12307162865558",
    "latitude": "29.970669869711603",
    "geocoded_column": {
      "latitude": "29.970669869711603",
      "longitude": "-90.12307162865558"
    }
  },
  {
    "service_request": "2022-871212",
    "request_type": "Trash/Recycling",
    "request_reason": "Replace Recycling Cart",
    "date_created": "2022-03-31T16:10:51.000",
    "date_modified": "2022-03-31T16:10:51.000",
    "request_status": "Pending",
    "responsible_agency": "Department of Sanitation",
    "final_address": "2477 N Miro St",
    "address_councildis": "D",
    "status": "Pending",
    "rowid": "871212",
    "final_x": "3686752.23951",
    "final_y": "540611.582027",
    "longitude": "-90.05116444422364",
    "latitude": "29.980333850922264",
    "geocoded_column": {
      "latitude": "29.980333850922264",
      "longitude": "-90.05116444422364"
    }
  },
  {
    "service_request": "2022-871211",
    "request_type": "Trash/Recycling",
    "request_reason": "Request a Large Item Pick Up",
    "date_created": "2022-03-31T16:02:38.000",
    "date_modified": "2022-03-31T16:02:39.000",
    "request_status": "Pending",
    "responsible_agency": "Department of Sanitation",
    "final_address": "320 Alix St",
    "address_councildis": "C",
    "status": "Assigned to Contractor",
    "contractor": "Richards Disposal",
    "rowid": "871211",
    "final_x": "3686532.61436",
    "final_y": "530078.590081",
    "longitude": "-90.05223006039935",
    "latitude": "29.95137853746635",
    "geocoded_column": {
      "latitude": "29.95137853746635",
      "longitude": "-90.05223006039935"
    }
  },
  {
    "service_request": "2022-871210",
    "request_type": "Trash/Recycling",
    "request_reason": "Request a Large Item Pick Up",
    "date_created": "2022-03-31T15:58:23.000",
    "date_modified": "2022-03-31T15:58:24.000",
    "request_status": "Pending",
    "responsible_agency": "Department of Sanitation",
    "final_address": "3522 Clematis St",
    "address_councildis": "D",
    "status": "Assigned to Contractor",
    "contractor": "Metro Disposal",
    "rowid": "871210",
    "final_x": "3686384.04841",
    "final_y": "545868.256208",
    "longitude": "-90.05214170607066",
    "latitude": "29.994799157267625",
    "geocoded_column": {
      "latitude": "29.994799157267625",
      "longitude": "-90.05214170607066"
    }
  },
  {
    "service_request": "2022-871209",
    "request_type": "Traffic Signals/Signs/Striping/Streetlights",
    "request_reason": "Street Light Knocked Down/Leaning",
    "date_created": "2022-03-31T15:55:00.000",
    "date_modified": "2022-03-31T15:55:00.000",
    "request_status": "Pending",
    "responsible_agency": "Department of Public Works",
    "final_address": "4921 Francisco Verrett Dr",
    "address_councildis": "E",
    "status": "Pending",
    "contractor": "Royal Engineering",
    "rowid": "871209",
    "final_x": "3704198.87985",
    "final_y": "556087.41065",
    "longitude": "-89.99549025706744",
    "latitude": "30.02233821284199",
    "geocoded_column": {
      "latitude": "30.02233821284199",
      "longitude": "-89.99549025706744"
    }
  },
  {
    "service_request": "2022-871208",
    "request_type": "Trash/Recycling",
    "request_reason": "Request a Large Item Pick Up",
    "date_created": "2022-03-31T15:54:22.000",
    "date_modified": "2022-03-31T15:54:23.000",
    "request_status": "Pending",
    "responsible_agency": "Department of Sanitation",
    "final_address": "2615 Valence St",
    "address_councildis": "B",
    "status": "Assigned to Contractor",
    "contractor": "Richards Disposal",
    "rowid": "871208",
    "final_x": "3669422.05268",
    "final_y": "524428.90566",
    "longitude": "-90.10644799160872",
    "latitude": "29.936358670871954",
    "geocoded_column": {
      "latitude": "29.936358670871954",
      "longitude": "-90.10644799160872"
    }
  },
  {
    "service_request": "2022-871206",
    "request_type": "Property Maintenance",
    "request_reason": "Property Maintenance",
    "date_created": "2022-03-31T15:45:09.000",
    "date_modified": "2022-03-31T15:46:09.000",
    "request_status": "Pending",
    "responsible_agency": "Department of Code Enforcement",
    "final_address": "2920 Kent Dr",
    "address_councildis": "C",
    "status": "Pending",
    "rowid": "871206",
    "final_x": "3708962.15774",
    "final_y": "518981.620791",
    "longitude": "-89.98182249373518",
    "latitude": "29.920157216137973",
    "geocoded_column": {
      "latitude": "29.920157216137973",
      "longitude": "-89.98182249373518"
    }
  },
  {
    "service_request": "2022-871205",
    "request_type": "Trash/Recycling",
    "request_reason": "Request a Large Item Pick Up",
    "date_created": "2022-03-31T15:45:01.000",
    "date_modified": "2022-03-31T15:45:02.000",
    "request_status": "Pending",
    "responsible_agency": "Department of Sanitation",
    "final_address": "8220 Zimple St",
    "address_councildis": "A",
    "status": "Assigned to Contractor",
    "contractor": "Richards Disposal",
    "rowid": "871205",
    "final_x": "3661341.33107",
    "final_y": "528407.716992",
    "longitude": "-90.13182752819992",
    "latitude": "29.947534574122983",
    "geocoded_column": {
      "latitude": "29.947534574122983",
      "longitude": "-90.13182752819992"
    }
  },
  {
    "service_request": "2022-871204",
    "request_type": "Roads/Drainage",
    "request_reason": "Leaking Hydrant",
    "date_created": "2022-03-31T15:44:45.000",
    "date_modified": "2022-03-31T15:44:45.000",
    "request_status": "Pending",
    "responsible_agency": "Department of Public Works",
    "final_address": "LEEDS ST & BONITA DR",
    "address_councildis": "E",
    "status": "Pending",
    "rowid": "871204",
    "final_x": "3704512.4",
    "final_y": "554946.68",
    "longitude": "-89.99454173142792",
    "latitude": "30.019191574677095",
    "geocoded_column": {
      "latitude": "30.019191574677095",
      "longitude": "-89.99454173142792"
    }
  },
  {
    "service_request": "2022-871203",
    "request_type": "Roads/Drainage",
    "request_reason": "Damaged Sidewalk",
    "date_created": "2022-03-31T15:44:06.000",
    "date_modified": "2022-03-31T15:44:06.000",
    "request_status": "Pending",
    "responsible_agency": "Department of Public Works",
    "final_address": "822 Perdido St Ste E",
    "address_councildis": "B",
    "status": "Pending",
    "rowid": "871203",
    "final_x": "3680214.99298",
    "final_y": "529798.318017",
    "longitude": "-90.07218774494102",
    "latitude": "29.950800591086956",
    "geocoded_column": {
      "latitude": "29.950800591086956",
      "longitude": "-90.07218774494102"
    }
  },
  {
    "service_request": "2022-871202",
    "request_type": "Traffic Signals/Signs/Striping/Streetlights",
    "request_reason": "Street Light Knocked Down/Leaning",
    "date_created": "2022-03-31T15:42:53.000",
    "date_modified": "2022-03-31T15:42:54.000",
    "request_status": "Pending",
    "responsible_agency": "Department of Public Works",
    "final_address": "2500 BLK Lombard St",
    "address_councildis": "D",
    "status": "Pending",
    "contractor": "Royal Engineering",
    "rowid": "871202",
    "final_x": "3686426.61071",
    "final_y": "549620.376269",
    "longitude": "-90.05187470370497",
    "latitude": "30.00511482389373",
    "geocoded_column": {
      "latitude": "30.00511482389373",
      "longitude": "-90.05187470370497"
    }
  },
  {
    "service_request": "2022-871201",
    "request_type": "Trash/Recycling",
    "request_reason": "Request a Large Item Pick Up",
    "date_created": "2022-03-31T15:40:32.000",
    "date_modified": "2022-03-31T15:40:33.000",
    "request_status": "Pending",
    "responsible_agency": "Department of Sanitation",
    "final_address": "5752 Bancroft Dr",
    "address_councildis": "D",
    "status": "Assigned to Contractor",
    "contractor": "Metro Disposal",
    "rowid": "871201",
    "final_x": "3676427.42049",
    "final_y": "553678.681879",
    "longitude": "-90.0833244127266",
    "latitude": "30.016577407077214",
    "geocoded_column": {
      "latitude": "30.016577407077214",
      "longitude": "-90.0833244127266"
    }
  },
  {
    "service_request": "2022-871200",
    "request_type": "Roads/Drainage",
    "request_reason": "Catch Basin - Clogged",
    "date_created": "2022-03-31T15:33:01.000",
    "date_modified": "2022-03-31T15:33:01.000",
    "request_status": "Pending",
    "responsible_agency": "Department of Public Works",
    "final_address": "810 Union St",
    "address_councildis": "B",
    "status": "Pending",
    "rowid": "871200",
    "final_x": "3680368.51701",
    "final_y": "530027.407425",
    "longitude": "-90.07169502982795",
    "latitude": "29.951425862794252",
    "geocoded_column": {
      "latitude": "29.951425862794252",
      "longitude": "-90.07169502982795"
    }
  },
  {
    "service_request": "2022-871199",
    "request_type": "Trash/Recycling",
    "request_reason": "Missed Trash Pick-Up",
    "date_created": "2022-03-31T15:31:52.000",
    "date_modified": "2022-03-31T15:31:53.000",
    "request_status": "Pending",
    "responsible_agency": "Department of Sanitation",
    "final_address": "837 Washington Ave",
    "address_councildis": "B",
    "status": "Assigned to Contractor",
    "contractor": "Richards Disposal",
    "rowid": "871199",
    "final_x": "3677531.77646",
    "final_y": "520175.600504",
    "longitude": "-90.08099205923831",
    "latitude": "29.92442221582028",
    "geocoded_column": {
      "latitude": "29.92442221582028",
      "longitude": "-90.08099205923831"
    }
  },
  {
    "service_request": "2022-871198",
    "request_type": "Trash/Recycling",
    "request_reason": "Replace Trash Cart",
    "date_created": "2022-03-31T15:30:28.000",
    "date_modified": "2022-03-31T15:30:29.000",
    "request_status": "Pending",
    "responsible_agency": "Department of Sanitation",
    "final_address": "1121 N Prieur St",
    "address_councildis": "D",
    "status": "Assigned to Contractor",
    "contractor": "Richards Disposal",
    "rowid": "871198",
    "final_x": "3679913.78491",
    "final_y": "536624.409479",
    "longitude": "-90.07290171870355",
    "latitude": "29.969579136817675",
    "geocoded_column": {
      "latitude": "29.969579136817675",
      "longitude": "-90.07290171870355"
    }
  },
  {
    "service_request": "2022-871197",
    "request_type": "Abandoned Vehicles",
    "request_reason": "Abandoned/Junk Vehicles",
    "date_created": "2022-03-31T15:29:52.000",
    "date_modified": "2022-03-31T15:29:53.000",
    "request_status": "Pending",
    "responsible_agency": "Department of Public Works",
    "final_address": "7840 Arcadia Ln",
    "address_councildis": "E",
    "status": "Pending",
    "rowid": "871197",
    "final_x": "3711920.18725",
    "final_y": "567706.2289",
    "longitude": "-89.970656460957",
    "latitude": "30.054035171798642",
    "geocoded_column": {
      "latitude": "30.054035171798642",
      "longitude": "-89.970656460957"
    }
  },
  {
    "service_request": "2022-871195",
    "request_type": "Abandoned Vehicles",
    "request_reason": "Abandoned/Junk Vehicles",
    "date_created": "2022-03-31T15:29:05.000",
    "date_modified": "2022-03-31T15:29:05.000",
    "request_status": "Pending",
    "responsible_agency": "Department of Public Works",
    "final_address": "3330 Fern St",
    "address_councildis": "B",
    "status": "Pending",
    "rowid": "871195",
    "final_x": "3667729.51674",
    "final_y": "533606.593605",
    "longitude": "-90.11148244061081",
    "latitude": "29.961644049436995",
    "geocoded_column": {
      "latitude": "29.961644049436995",
      "longitude": "-90.11148244061081"
    }
  },
  {
    "service_request": "2022-871194",
    "request_type": "Parks & Parkways",
    "request_reason": "Request Tree Service (Right of Way/Public Property)",
    "date_created": "2022-03-31T15:18:31.000",
    "date_modified": "2022-03-31T15:52:28.000",
    "request_status": "Pending",
    "responsible_agency": "Department of Parks & Parkway",
    "final_address": "3102 Canal St",
    "address_councildis": "B",
    "status": "Pending",
    "rowid": "871194",
    "final_x": "3673984.46075",
    "final_y": "536029.364743",
    "longitude": "-90.09164742526555",
    "latitude": "29.96812097355401",
    "geocoded_column": {
      "latitude": "29.96812097355401",
      "longitude": "-90.09164742526555"
    }
  },
  {
    "service_request": "2022-871193",
    "request_type": "Traffic Signals/Signs/Striping/Streetlights",
    "request_reason": "Street Light Knocked Down/Leaning",
    "date_created": "2022-03-31T15:16:26.000",
    "date_modified": "2022-03-31T15:16:27.000",
    "request_status": "Pending",
    "responsible_agency": "Department of Public Works",
    "final_address": "5921 Jamison St",
    "address_councildis": "D",
    "status": "Pending",
    "contractor": "Royal Engineering",
    "rowid": "871193",
    "final_x": "3696189.73008",
    "final_y": "553596.570391",
    "longitude": "-90.0208872339325",
    "latitude": "30.01574403449208",
    "geocoded_column": {
      "latitude": "30.01574403449208",
      "longitude": "-90.0208872339325"
    }
  },
  {
    "service_request": "2022-871192",
    "request_type": "Roads/Drainage",
    "request_reason": "Catch Basin - Broken/Damage",
    "date_created": "2022-03-31T15:13:23.000",
    "date_modified": "2022-03-31T15:13:23.000",
    "request_status": "Pending",
    "responsible_agency": "Department of Public Works",
    "final_address": "3909 Herschel St",
    "address_councildis": "C",
    "status": "Pending",
    "rowid": "871192",
    "final_x": "3698114.41853",
    "final_y": "521015.538489",
    "longitude": "-90.01598961247397",
    "latitude": "29.92609715435187",
    "geocoded_column": {
      "latitude": "29.92609715435187",
      "longitude": "-90.01598961247397"
    }
  },
  {
    "service_request": "2022-871191",
    "request_type": "Traffic Signals/Signs/Striping/Streetlights",
    "request_reason": "Street Light Outage/Malfunction",
    "date_created": "2022-03-31T15:12:52.000",
    "date_modified": "2022-03-31T15:12:53.000",
    "request_status": "Pending",
    "responsible_agency": "Department of Public Works",
    "final_address": "7521 Sheffield St",
    "address_councildis": "E",
    "status": "Pending",
    "contractor": "Royal Engineering",
    "rowid": "871191",
    "final_x": "3699415.62461",
    "final_y": "559906.141533",
    "longitude": "-90.01046477865819",
    "latitude": "30.032990947968884",
    "geocoded_column": {
      "latitude": "30.032990947968884",
      "longitude": "-90.01046477865819"
    }
  },
  {
    "service_request": "2022-871190",
    "request_type": "Abandoned Vehicles",
    "request_reason": "Vehicle Blocking Your Driveway",
    "date_created": "2022-03-31T15:12:29.000",
    "date_modified": "2022-03-31T15:14:17.000",
    "request_status": "Pending",
    "responsible_agency": "Department of Public Works",
    "final_address": "4600 BLK Evangeline Dr",
    "address_councildis": "E",
    "status": "Pending",
    "rowid": "871190",
    "final_x": "3709143.45241",
    "final_y": "555403.544164",
    "longitude": "-89.97989228312873",
    "latitude": "30.020298180858983",
    "geocoded_column": {
      "latitude": "30.020298180858983",
      "longitude": "-89.97989228312873"
    }
  },
  {
    "service_request": "2022-871189",
    "request_type": "Property Maintenance",
    "request_reason": "Property Maintenance",
    "date_created": "2022-03-31T15:12:24.000",
    "date_modified": "2022-03-31T15:12:24.000",
    "request_status": "Pending",
    "responsible_agency": "Department of Code Enforcement",
    "final_address": "6800 S Interstate 10 Service Rd",
    "address_councildis": "E",
    "status": "Pending",
    "rowid": "871189",
    "final_x": "3699572.72151",
    "final_y": "556889.258906",
    "longitude": "-90.01007843819505",
    "latitude": "30.02469069419991",
    "geocoded_column": {
      "latitude": "30.02469069419991",
      "longitude": "-90.01007843819505"
    }
  },
  {
    "service_request": "2022-871188",
    "request_type": "Trash/Recycling",
    "request_reason": "Repair Recycling Cart",
    "date_created": "2022-03-31T15:12:04.000",
    "date_modified": "2022-03-31T15:12:04.000",
    "request_status": "Pending",
    "responsible_agency": "Department of Sanitation",
    "final_address": "8530 Scottsdale Dr",
    "address_councildis": "E",
    "status": "Pending",
    "rowid": "871188",
    "final_x": "3704554.42174",
    "final_y": "561548.456607",
    "longitude": "-89.99416517121654",
    "latitude": "30.037342541613338",
    "geocoded_column": {
      "latitude": "30.037342541613338",
      "longitude": "-89.99416517121654"
    }
  },
  {
    "service_request": "2022-871187",
    "request_type": "Trash/Recycling",
    "request_reason": "Request a Large Item Pick Up",
    "date_created": "2022-03-31T15:09:53.000",
    "date_modified": "2022-03-31T15:09:53.000",
    "request_status": "Pending",
    "responsible_agency": "Department of Sanitation",
    "final_address": "1131 Cadiz St",
    "address_councildis": "B",
    "status": "Assigned to Contractor",
    "contractor": "Richards Disposal",
    "rowid": "871187",
    "final_x": "3670248.05134",
    "final_y": "519686.53612",
    "longitude": "-90.10400090595793",
    "latitude": "29.923294328821004",
    "geocoded_column": {
      "latitude": "29.923294328821004",
      "longitude": "-90.10400090595793"
    }
  },
  {
    "service_request": "2022-871186",
    "request_type": "Roads/Drainage",
    "request_reason": "Pothole",
    "date_created": "2022-03-31T15:08:35.000",
    "date_modified": "2022-03-31T15:08:35.000",
    "request_status": "Pending",
    "responsible_agency": "Department of Public Works",
    "final_address": "4740 Iberville St",
    "address_councildis": "A",
    "status": "Pending",
    "rowid": "871186",
    "final_x": "3669076.45262",
    "final_y": "540331.915211",
    "longitude": "-90.10700173400848",
    "latitude": "29.9800968701747",
    "geocoded_column": {
      "latitude": "29.9800968701747",
      "longitude": "-90.10700173400848"
    }
  },
  {
    "service_request": "2022-871185",
    "request_type": "Parks & Parkways",
    "request_reason": "Request Grass Cutting Service (City Owned Property)",
    "date_created": "2022-03-31T15:07:59.000",
    "date_modified": "2022-03-31T15:13:57.000",
    "case_close_date": "2022-03-31T10:13:57.000",
    "request_status": "Closed",
    "responsible_agency": "Department of Parks & Parkway",
    "final_address": "DWYER RD & CAMELIA ST",
    "address_councildis": "E",
    "status": "Referred to External Agency",
    "rowid": "871185",
    "final_x": "3701393.2",
    "final_y": "555776.68",
    "longitude": "-90.00436684786617",
    "latitude": "30.021573596991846",
    "geocoded_column": {
      "latitude": "30.021573596991846",
      "longitude": "-90.00436684786617"
    }
  },
  {
    "service_request": "2022-871184",
    "request_type": "Trash/Recycling",
    "request_reason": "Order Trash Cart",
    "date_created": "2022-03-31T15:07:11.000",
    "date_modified": "2022-03-31T15:34:55.000",
    "request_status": "Pending",
    "responsible_agency": "Department of Sanitation",
    "final_address": "New Orleans,LA",
    "address_councildis": "D",
    "status": "Assigned to Contractor",
    "contractor": "Metro Disposal",
    "rowid": "871184",
    "final_x": "3682060.16392",
    "final_y": "548986.092819",
    "longitude": "-90.06569138558152",
    "latitude": "30.003504321357564",
    "geocoded_column": {
      "latitude": "30.003504321357564",
      "longitude": "-90.06569138558152"
    }
  },
  {
    "service_request": "2022-871183",
    "request_type": "Trash/Recycling",
    "request_reason": "Missed Trash Pick-Up",
    "date_created": "2022-03-31T14:56:51.000",
    "date_modified": "2022-03-31T14:56:51.000",
    "request_status": "Pending",
    "responsible_agency": "Department of Sanitation",
    "final_address": "1131 Orange St, New Orleans, Louisiana, 70130",
    "address_councildis": "B",
    "status": "Assigned to Contractor",
    "contractor": "Richards Disposal",
    "rowid": "871183",
    "final_x": "3679856.47944",
    "final_y": "523577.759035",
    "longitude": "-90.07353569564594",
    "latitude": "29.933706968638734",
    "geocoded_column": {
      "latitude": "29.933706968638734",
      "longitude": "-90.07353569564594"
    }
  },
  {
    "service_request": "2022-871182",
    "request_type": "Trash/Recycling",
    "request_reason": "Repair Trash Cart",
    "date_created": "2022-03-31T14:52:38.000",
    "date_modified": "2022-03-31T15:35:45.000",
    "request_status": "Pending",
    "responsible_agency": "Department of Sanitation",
    "final_address": "New Orleans,LA",
    "status": "Assigned to Contractor",
    "rowid": "871182",
    "longitude": "0.0",
    "latitude": "0.0",
    "geocoded_column": {
      "latitude": "0.0",
      "longitude": "0.0"
    }
  },
  {
    "service_request": "2022-871181",
    "request_type": "Roads/Drainage",
    "request_reason": "Street Flooding / Drainage",
    "date_created": "2022-03-31T14:52:19.000",
    "date_modified": "2022-03-31T14:52:19.000",
    "request_status": "Pending",
    "responsible_agency": "Department of Public Works",
    "final_address": "826 Union St",
    "address_councildis": "B",
    "status": "Pending",
    "rowid": "871181",
    "final_x": "3680237.06101",
    "final_y": "530068.779137",
    "longitude": "-90.07210866562153",
    "latitude": "29.95154360031331",
    "geocoded_column": {
      "latitude": "29.95154360031331",
      "longitude": "-90.07210866562153"
    }
  },
  {
    "service_request": "2022-871180",
    "request_type": "Trash/Recycling",
    "request_reason": "Request a Large Item Pick Up",
    "date_created": "2022-03-31T14:50:17.000",
    "date_modified": "2022-03-31T14:50:17.000",
    "request_status": "Pending",
    "responsible_agency": "Department of Sanitation",
    "final_address": "1722 Elizardi Blvd",
    "address_councildis": "C",
    "status": "Assigned to Contractor",
    "contractor": "Richards Disposal",
    "rowid": "871180",
    "final_x": "3694700.33878",
    "final_y": "524311.52198",
    "longitude": "-90.0266481710092",
    "latitude": "29.93526747002182",
    "geocoded_column": {
      "latitude": "29.93526747002182",
      "longitude": "-90.0266481710092"
    }
  },
  {
    "service_request": "2022-871179",
    "request_type": "Trash/Recycling",
    "request_reason": "Request a Large Item Pick Up",
    "date_created": "2022-03-31T14:47:10.000",
    "date_modified": "2022-03-31T14:47:11.000",
    "request_status": "Pending",
    "responsible_agency": "Department of Sanitation",
    "final_address": "1427 Touro St",
    "address_councildis": "C",
    "status": "Assigned to Contractor",
    "contractor": "Metro Disposal",
    "rowid": "871179",
    "final_x": "3684155.84418",
    "final_y": "537575.097352",
    "longitude": "-90.05947157473933",
    "latitude": "29.97206420947199",
    "geocoded_column": {
      "latitude": "29.97206420947199",
      "longitude": "-90.05947157473933"
    }
  },
  {
    "service_request": "2022-871178",
    "request_type": "Trash/Recycling",
    "request_reason": "Request a Large Item Pick Up",
    "date_created": "2022-03-31T14:45:52.000",
    "date_modified": "2022-03-31T14:45:52.000",
    "request_status": "Pending",
    "responsible_agency": "Department of Sanitation",
    "final_address": "822 Philip St",
    "address_councildis": "B",
    "status": "Assigned to Contractor",
    "contractor": "Richards Disposal",
    "rowid": "871178",
    "final_x": "3679063.61397",
    "final_y": "521101.689977",
    "longitude": "-90.076124498656",
    "latitude": "29.926922535638944",
    "geocoded_column": {
      "latitude": "29.926922535638944",
      "longitude": "-90.076124498656"
    }
  },
  {
    "service_request": "2022-871177",
    "request_type": "Roads/Drainage",
    "request_reason": "Street Subsidence (Sinking)",
    "date_created": "2022-03-31T14:36:50.000",
    "date_modified": "2022-03-31T14:36:50.000",
    "request_status": "Pending",
    "responsible_agency": "Department of Public Works",
    "final_address": "8714 Marks St",
    "address_councildis": "A",
    "status": "Pending",
    "rowid": "871177",
    "final_x": "3667170.80679",
    "final_y": "537447.311368",
    "longitude": "-90.11311760440411",
    "latitude": "29.972221119047763",
    "geocoded_column": {
      "latitude": "29.972221119047763",
      "longitude": "-90.11311760440411"
    }
  },
  {
    "service_request": "2022-871175",
    "request_type": "Parks & Parkways",
    "request_reason": "Request Tree Service (Right of Way/Public Property)",
    "date_created": "2022-03-31T14:35:58.000",
    "date_modified": "2022-03-31T14:35:58.000",
    "request_status": "Pending",
    "responsible_agency": "Department of Parks & Parkway",
    "final_address": "1116 Jena St",
    "address_councildis": "B",
    "status": "Pending",
    "rowid": "871175",
    "final_x": "3670524.85147",
    "final_y": "519627.910648",
    "longitude": "-90.10312913732764",
    "latitude": "29.92312495882427",
    "geocoded_column": {
      "latitude": "29.92312495882427",
      "longitude": "-90.10312913732764"
    }
  },
  {
    "service_request": "2022-871174",
    "request_type": "Roads/Drainage",
    "request_reason": "Catch Basin - Clogged",
    "date_created": "2022-03-31T14:34:21.000",
    "date_modified": "2022-03-31T14:34:21.000",
    "request_status": "Pending",
    "responsible_agency": "Department of Public Works",
    "final_address": "8714 Marks St",
    "address_councildis": "A",
    "status": "Pending",
    "rowid": "871174",
    "final_x": "3667170.80679",
    "final_y": "537447.311368",
    "longitude": "-90.11311760440411",
    "latitude": "29.972221119047763",
    "geocoded_column": {
      "latitude": "29.972221119047763",
      "longitude": "-90.11311760440411"
    }
  },
  {
    "service_request": "2022-871173",
    "request_type": "Abandoned Vehicles",
    "request_reason": "Abandoned/Junk Vehicles",
    "date_created": "2022-03-31T14:29:10.000",
    "date_modified": "2022-03-31T14:29:10.000",
    "request_status": "Pending",
    "responsible_agency": "Department of Public Works",
    "final_address": "914 Piety St",
    "address_councildis": "C",
    "status": "Pending",
    "rowid": "871173",
    "final_x": "3689639.37078",
    "final_y": "535140.106374",
    "longitude": "-90.042240401619",
    "latitude": "29.965200075658636",
    "geocoded_column": {
      "latitude": "29.965200075658636",
      "longitude": "-90.042240401619"
    }
  },
  {
    "service_request": "2022-871172",
    "request_type": "Trash/Recycling",
    "request_reason": "Illegal Dumping",
    "date_created": "2022-03-31T14:28:55.000",
    "date_modified": "2022-03-31T14:28:55.000",
    "request_status": "Pending",
    "responsible_agency": "Department of Sanitation",
    "final_address": "13500 Dwyer Blvd",
    "address_councildis": "E",
    "status": "Pending",
    "rowid": "871172",
    "final_x": "3725964.52819",
    "final_y": "561878.932895",
    "longitude": "-89.92649246121982",
    "latitude": "30.03754581246318",
    "geocoded_column": {
      "latitude": "30.03754581246318",
      "longitude": "-89.92649246121982"
    }
  },
  {
    "service_request": "2022-871171",
    "request_type": "Roads/Drainage",
    "request_reason": "Catch Basin - Clogged",
    "date_created": "2022-03-31T14:24:40.000",
    "date_modified": "2022-03-31T14:24:40.000",
    "request_status": "Pending",
    "responsible_agency": "Department of Public Works",
    "final_address": "1604 Audubon St, New Orleans, Louisiana, 70118",
    "address_councildis": "A",
    "status": "Pending",
    "rowid": "871171",
    "final_x": "3665201.64813",
    "final_y": "527574.810431",
    "longitude": "-90.11966681336528",
    "latitude": "29.945132482317792",
    "geocoded_column": {
      "latitude": "29.945132482317792",
      "longitude": "-90.11966681336528"
    }
  },
  {
    "service_request": "2022-871170",
    "request_type": "Traffic Signals/Signs/Striping/Streetlights",
    "request_reason": "Street Light Outage/Malfunction",
    "date_created": "2022-03-31T14:24:31.000",
    "date_modified": "2022-03-31T14:24:32.000",
    "request_status": "Pending",
    "responsible_agency": "Department of Public Works",
    "final_address": "7030 Bamberry St",
    "address_councildis": "E",
    "status": "Pending",
    "contractor": "Royal Engineering",
    "rowid": "871170",
    "final_x": "3699474.27152",
    "final_y": "559243.175324",
    "longitude": "-90.01030364008815",
    "latitude": "30.031166185161645",
    "geocoded_column": {
      "latitude": "30.031166185161645",
      "longitude": "-90.01030364008815"
    }
  },
  {
    "service_request": "2022-871169",
    "request_type": "Trash/Recycling",
    "request_reason": "Request a Large Item Pick Up",
    "date_created": "2022-03-31T14:23:09.000",
    "date_modified": "2022-03-31T14:23:09.000",
    "request_status": "Pending",
    "responsible_agency": "Department of Sanitation",
    "final_address": "1426 Touro St",
    "address_councildis": "C",
    "status": "Assigned to Contractor",
    "contractor": "Metro Disposal",
    "rowid": "871169",
    "final_x": "3684080.73289",
    "final_y": "537566.623368",
    "longitude": "-90.05970908564427",
    "latitude": "29.972043204799927",
    "geocoded_column": {
      "latitude": "29.972043204799927",
      "longitude": "-90.05970908564427"
    }
  },
  {
    "service_request": "2022-871168",
    "request_type": "Trash/Recycling",
    "request_reason": "Order Recycling Cart",
    "date_created": "2022-03-31T14:18:33.000",
    "date_modified": "2022-03-31T14:18:33.000",
    "request_status": "Pending",
    "responsible_agency": "Department of Sanitation",
    "final_address": "3720 Laurel St, New Orleans, Louisiana, 70115",
    "address_councildis": "B",
    "status": "Pending",
    "rowid": "871168",
    "final_x": "3673673.49268",
    "final_y": "518325.263926",
    "longitude": "-90.09323457169842",
    "latitude": "29.91944976984351",
    "geocoded_column": {
      "latitude": "29.91944976984351",
      "longitude": "-90.09323457169842"
    }
  },
  {
    "service_request": "2022-871167",
    "request_type": "Property Maintenance",
    "request_reason": "Property Maintenance",
    "date_created": "2022-03-31T14:14:35.000",
    "date_modified": "2022-03-31T14:14:35.000",
    "request_status": "Pending",
    "responsible_agency": "Department of Code Enforcement",
    "final_address": "6042 Kuebel Dr",
    "address_councildis": "E",
    "status": "Pending",
    "rowid": "871167",
    "final_x": "3695179.58461",
    "final_y": "559721.054045",
    "longitude": "-90.02385768077957",
    "latitude": "30.03261581812353",
    "geocoded_column": {
      "latitude": "30.03261581812353",
      "longitude": "-90.02385768077957"
    }
  },
  {
    "service_request": "2022-871166",
    "request_type": "Trash/Recycling",
    "request_reason": "Request a Large Item Pick Up",
    "date_created": "2022-03-31T14:12:09.000",
    "date_modified": "2022-03-31T14:12:10.000",
    "request_status": "Pending",
    "responsible_agency": "Department of Sanitation",
    "final_address": "10231 Deer Park Blvd",
    "address_councildis": "E",
    "status": "Assigned to Contractor",
    "contractor": "Metro Disposal",
    "rowid": "871166",
    "final_x": "3712357.17682",
    "final_y": "560919.71811",
    "longitude": "-89.96953056365471",
    "latitude": "30.035360708851915",
    "geocoded_column": {
      "latitude": "30.035360708851915",
      "longitude": "-89.96953056365471"
    }
  },
  {
    "service_request": "2022-871165",
    "request_type": "Roads/Drainage",
    "request_reason": "Accessibility Ramps, Curbs and Sidewalk Repair",
    "date_created": "2022-03-31T14:10:46.000",
    "date_modified": "2022-03-31T14:10:46.000",
    "request_status": "Pending",
    "responsible_agency": "Department of Public Works",
    "final_address": "323 Verret St",
    "address_councildis": "C",
    "status": "Pending",
    "rowid": "871165",
    "final_x": "3686854.46044",
    "final_y": "530548.304898",
    "longitude": "-90.05119723524413",
    "latitude": "29.952660194166253",
    "geocoded_column": {
      "latitude": "29.952660194166253",
      "longitude": "-90.05119723524413"
    }
  },
  {
    "service_request": "2022-871164",
    "request_type": "Abandoned Vehicles",
    "request_reason": "Abandoned/Junk Vehicles",
    "date_created": "2022-03-31T14:05:53.000",
    "date_modified": "2022-03-31T14:05:53.000",
    "request_status": "Pending",
    "responsible_agency": "Department of Public Works",
    "final_address": "1961 N Johnson St",
    "address_councildis": "D",
    "status": "Pending",
    "rowid": "871164",
    "final_x": "3683410.95887",
    "final_y": "539557.002442",
    "longitude": "-90.06175458158542",
    "latitude": "29.97753650739887",
    "geocoded_column": {
      "latitude": "29.97753650739887",
      "longitude": "-90.06175458158542"
    }
  },
  {
    "service_request": "2022-871163",
    "request_type": "Trash/Recycling",
    "request_reason": "Repair Trash Cart",
    "date_created": "2022-03-31T14:05:07.000",
    "date_modified": "2022-03-31T14:05:08.000",
    "request_status": "Pending",
    "responsible_agency": "Department of Sanitation",
    "final_address": "1725 Sixth St",
    "address_councildis": "B",
    "status": "Assigned to Contractor",
    "contractor": "Richards Disposal",
    "rowid": "871163",
    "final_x": "3675187.11131",
    "final_y": "522769.339578",
    "longitude": "-90.08830440886994",
    "latitude": "29.931624413537506",
    "geocoded_column": {
      "latitude": "29.931624413537506",
      "longitude": "-90.08830440886994"
    }
  },
  {
    "service_request": "2022-871162",
    "request_type": "Trash/Recycling",
    "request_reason": "Illegal Dumping",
    "date_created": "2022-03-31T14:02:35.000",
    "date_modified": "2022-03-31T14:02:35.000",
    "request_status": "Pending",
    "responsible_agency": "Department of Sanitation",
    "final_address": "1961 N Johnson St",
    "address_councildis": "D",
    "status": "Pending",
    "rowid": "871162",
    "final_x": "3683410.95887",
    "final_y": "539557.002442",
    "longitude": "-90.06175458158542",
    "latitude": "29.97753650739887",
    "geocoded_column": {
      "latitude": "29.97753650739887",
      "longitude": "-90.06175458158542"
    }
  },
  {
    "service_request": "2022-871161",
    "request_type": "Trash/Recycling",
    "request_reason": "Replace Trash Cart",
    "date_created": "2022-03-31T13:59:47.000",
    "date_modified": "2022-03-31T13:59:48.000",
    "request_status": "Pending",
    "responsible_agency": "Department of Sanitation",
    "final_address": "1934 Dauphine St",
    "address_councildis": "C",
    "status": "Assigned to Contractor",
    "contractor": "Metro Disposal",
    "rowid": "871161",
    "final_x": "3684254.82665",
    "final_y": "535127.157766",
    "longitude": "-90.05924493512906",
    "latitude": "29.96533019775946",
    "geocoded_column": {
      "latitude": "29.96533019775946",
      "longitude": "-90.05924493512906"
    }
  },
  {
    "service_request": "2022-871160",
    "request_type": "Trash/Recycling",
    "request_reason": "Order Trash Cart",
    "date_created": "2022-03-31T13:59:19.000",
    "date_modified": "2022-03-31T13:59:19.000",
    "request_status": "Pending",
    "responsible_agency": "Department of Sanitation",
    "final_address": "2223 Franklin Ave",
    "address_councildis": "D",
    "status": "Assigned to Contractor",
    "contractor": "Metro Disposal",
    "rowid": "871160",
    "final_x": "3687669.14044",
    "final_y": "540782.706187",
    "longitude": "-90.0482624264193",
    "latitude": "29.980776138733003",
    "geocoded_column": {
      "latitude": "29.980776138733003",
      "longitude": "-90.0482624264193"
    }
  },
  {
    "service_request": "2022-871159",
    "request_type": "Property Maintenance",
    "request_reason": "Property Maintenance",
    "date_created": "2022-03-31T13:52:29.000",
    "date_modified": "2022-03-31T13:52:29.000",
    "request_status": "Pending",
    "responsible_agency": "Department of Code Enforcement",
    "final_address": "9711 Chef Menteur Hwy",
    "address_councildis": "E",
    "status": "Pending",
    "rowid": "871159",
    "final_x": "3711636.54379",
    "final_y": "554880.293272",
    "longitude": "-89.97203460545568",
    "latitude": "30.018778239566355",
    "geocoded_column": {
      "latitude": "30.018778239566355",
      "longitude": "-89.97203460545568"
    }
  },
  {
    "service_request": "2022-871158",
    "request_type": "Traffic Signals/Signs/Striping/Streetlights",
    "request_reason": "Striping/Road Surface Markings",
    "date_created": "2022-03-31T13:49:54.000",
    "date_modified": "2022-03-31T13:49:54.000",
    "request_status": "Pending",
    "responsible_agency": "Department of Public Works",
    "final_address": "N RAMPART ST & TOULOUSE ST",
    "address_councildis": "C",
    "status": "Pending",
    "rowid": "871158",
    "final_x": "3681165.9",
    "final_y": "533028.78",
    "longitude": "-90.06907272289246",
    "latitude": "29.959654455258974",
    "geocoded_column": {
      "latitude": "29.959654455258974",
      "longitude": "-90.06907272289246"
    }
  },
  {
    "service_request": "2022-871157",
    "request_type": "Trash/Recycling",
    "request_reason": "Replace Trash Cart",
    "date_created": "2022-03-31T13:48:21.000",
    "date_modified": "2022-03-31T13:48:22.000",
    "request_status": "Pending",
    "responsible_agency": "Department of Sanitation",
    "final_address": "18 Petit Bayou Ln",
    "address_councildis": "E",
    "status": "Assigned to Contractor",
    "contractor": "Metro Disposal",
    "rowid": "871157",
    "final_x": "3724756.5422",
    "final_y": "564052.361505",
    "longitude": "-89.9302258223865",
    "latitude": "30.043562568990712",
    "geocoded_column": {
      "latitude": "30.043562568990712",
      "longitude": "-89.9302258223865"
    }
  },
  {
    "service_request": "2022-871156",
    "request_type": "Trash/Recycling",
    "request_reason": "MIssed Recycling Pick-Up",
    "date_created": "2022-03-31T13:47:51.000",
    "date_modified": "2022-03-31T13:47:52.000",
    "request_status": "Pending",
    "responsible_agency": "Department of Sanitation",
    "final_address": "3909 Herschel St",
    "address_councildis": "C",
    "status": "Assigned to Contractor",
    "contractor": "Richards Disposal",
    "rowid": "871156",
    "final_x": "3698114.41853",
    "final_y": "521015.538489",
    "longitude": "-90.01598961247397",
    "latitude": "29.92609715435187",
    "geocoded_column": {
      "latitude": "29.92609715435187",
      "longitude": "-90.01598961247397"
    }
  },
  {
    "service_request": "2022-871155",
    "request_type": "Property Maintenance",
    "request_reason": "Property Maintenance",
    "date_created": "2022-03-31T13:47:49.000",
    "date_modified": "2022-03-31T14:02:09.000",
    "request_status": "Pending",
    "responsible_agency": "Department of Code Enforcement",
    "final_address": "New Orleans,LA",
    "status": "Pending",
    "rowid": "871155",
    "longitude": "0.0",
    "latitude": "0.0",
    "geocoded_column": {
      "latitude": "0.0",
      "longitude": "0.0"
    }
  },
  {
    "service_request": "2022-871154",
    "request_type": "Trash/Recycling",
    "request_reason": "Order Trash Cart",
    "date_created": "2022-03-31T13:45:54.000",
    "date_modified": "2022-03-31T13:45:55.000",
    "request_status": "Pending",
    "responsible_agency": "Department of Sanitation",
    "final_address": "2335 Piety St",
    "address_councildis": "D",
    "status": "Assigned to Contractor",
    "contractor": "Metro Disposal",
    "rowid": "871154",
    "final_x": "3691081.90934",
    "final_y": "540580.985163",
    "longitude": "-90.03749064518703",
    "latitude": "29.98011579500369",
    "geocoded_column": {
      "latitude": "29.98011579500369",
      "longitude": "-90.03749064518703"
    }
  },
  {
    "service_request": "2022-871152",
    "request_type": "Trash/Recycling",
    "request_reason": "Request a Large Item Pick Up",
    "date_created": "2022-03-31T13:43:38.000",
    "date_modified": "2022-03-31T13:43:38.000",
    "request_status": "Pending",
    "responsible_agency": "Department of Sanitation",
    "final_address": "3051 Hyman Pl",
    "address_councildis": "C",
    "status": "Assigned to Contractor",
    "contractor": "Richards Disposal",
    "rowid": "871152",
    "final_x": "3700932.96247",
    "final_y": "519718.824824",
    "longitude": "-90.00713972294184",
    "latitude": "29.92244223668073",
    "geocoded_column": {
      "latitude": "29.92244223668073",
      "longitude": "-90.00713972294184"
    }
  },
  {
    "service_request": "2022-871151",
    "request_type": "Roads/Drainage",
    "request_reason": "Street Subsidence (Sinking)",
    "date_created": "2022-03-31T13:38:35.000",
    "date_modified": "2022-03-31T14:52:02.000",
    "case_close_date": "2022-03-31T09:52:02.000",
    "request_status": "Closed",
    "responsible_agency": "Department of Public Works",
    "final_address": "6035 Wales St",
    "address_councildis": "E",
    "status": "Resolved",
    "rowid": "871151",
    "final_x": "3695181.32246",
    "final_y": "559517.436957",
    "longitude": "-90.02385954239634",
    "latitude": "30.032055894442404",
    "geocoded_column": {
      "latitude": "30.032055894442404",
      "longitude": "-90.02385954239634"
    }
  },
  {
    "service_request": "2022-871150",
    "request_type": "Abandoned Vehicles",
    "request_reason": "Abandoned/Junk Vehicles",
    "date_created": "2022-03-31T13:33:55.000",
    "date_modified": "2022-03-31T13:33:55.000",
    "request_status": "Pending",
    "responsible_agency": "Department of Public Works",
    "final_address": "11220 N Idlewood Ct",
    "address_councildis": "E",
    "status": "Pending",
    "rowid": "871150",
    "final_x": "3716197.60261",
    "final_y": "560208.729949",
    "longitude": "-89.95742129133026",
    "latitude": "30.033279534331996",
    "geocoded_column": {
      "latitude": "30.033279534331996",
      "longitude": "-89.95742129133026"
    }
  },